~VERSION INFORMATION
 VERS.                 2.0:   CWLS LOG ASCII STANDARD -VERSION 2.0
 WRAP.                  NO:   ONE LINE PER DEPTH STEP
~WELL INFORMATION BLOCK
#MNEM.UNIT           DATA                    DESCRIPTION OF MNEMONIC
#---------    -------------------            -------------------------------
# Generated from Intellog Unique Number	CC_80_83/WELL/1173
NULL.         -999.25                        : NULL_VALUE
WELL.         NOVALTA NEWBY                  : Well_name    - WELL
LOC .         07-06-083-04W4                 : Location     - LOCATION          
UWI .         00/07-06-083-04W4/0            : Uwi          - UNIQUE WELL ID    
ENTR.         DW                             : Entered      - ENTERED BY        
SRVC.         COMPUTALOG                     : Scn          - SERVICE COMPANY   
DATE.         26 JAN 84                      : Date         - LOG DATE
STRT.M        65                             : top_depth    - START DEPTH       
STOP.M        323.899                        : bot_depth    - STOP DEPTH        
STEP.M        0.3                            : increment    - STEP LENGTH       
~CURVE INFORMATION BLOCK
#MNEM UNIT       ERCB CURVE CODE    CURVE DESCRIPTION
#-----------   ------------------   ----------------------------------
DEPT.M        00 001 00 00         : DEPTH        - DEPTH                       
DPHI.V/V      00 890 00 00         : PHID         - DENSITY POROSITY (LIMESTONE)
NPHI.V/V      00 330 00 00         : PHIN         - NEUTRON POROSITY (LIMESTONE)
GR  .API      00 310 00 00         : GR           - GAMMA RAY                   
ILD .OHMM     00 120 00 00         : RESD         - DEEP RESISTIVITY (DIL)      
~PARAMETER INFORMATION       
#MNEM.UNIT           DATA             DESCRIPTION OF MNEMONIC
#---------         -----------     ------------------------------
GL  .M        462.5                : gl           - GROUND LEVEL ELEVATION      
EREF.M        465.5                : kb           - ELEVATION OF DEPTH REFERENCE
DATM.M        465.5                : datum        - DATUM ELEVATION             
TDD .M        325                  : tdd          - TOTAL DEPTH DRILLER         
RUN .         ONE                  : Run          - RUN NUMBER                  
ENG .         BILL                 : Engineer     - RECORDING ENGINEER          
WIT .         JIM                  : Witness      - WITNESSED BY                
MUD .         GEL                  : Mud_type     - MUD TYPE                    
MATR.         LIMESTONE            : Logunit      - NEUTRON MATRIX              
TMAX.C        26                   : BHT          - MAXIMUM RECORDED TEMPERATURE
BHTD.M        325                  : BHTDEP       - MAXIMUM RECORDED TEMPERATURE
MATR.         1                    : LOGUNIT      - NEUTRON MATRIX              
RMT .C        25                   : MDTP         - TEMPERATURE OF MUD          
NEUT.         1                    : NEUTRON      - NEUTRON TYPE                
RESI.         0                    : RESIST       - RESISTIVITY TYPE            
RMC .OHMM     0.25                 : RMC          - RESISTIVITY OF MUD CAKE     
RMF .OHMM     0.25                 : RMF          - RESISTIVITY OF MUD FILTRATE 
SUFT.C        15                   : SUFT         - SURFACE TEMPERATURE         
~A  DEPTH     PHID     PHIN       GR     RESD
   65.000    0.349    0.377   63.956   11.655
   65.300    0.326    0.370   68.204   11.653
   65.600    0.349    0.348   71.234   11.873
   65.900    0.360    0.326   64.519   11.870
   66.200    0.353    0.338   59.018   11.868
   66.500    0.370    0.371   61.441   11.865
   66.800    0.389    0.380   64.470   11.864
   67.100    0.417    0.363   62.631   11.861
   67.400    0.474    0.386   57.132   12.085
   67.700    0.461    0.379   56.509   12.083
   68.000    0.359    0.354   59.537   12.080
   68.300    0.345    0.345   53.429   12.309
   68.600    0.346    0.353   50.370   12.306
   68.900    0.366    0.364   53.398   12.304
   69.200    0.395    0.358   57.036   12.301
   69.500    0.414    0.356   58.239   12.069
   69.800    0.411    0.366   57.008   11.841
   70.100    0.405    0.369   54.553   11.838
   70.400    0.384    0.374   52.714   11.836
   70.700    0.371    0.342   52.084   12.059
   71.000    0.374    0.345   56.946   12.057
   71.300    0.392    0.384   67.286   12.055
   71.600    0.403    0.410   75.797   12.052
   71.900    0.338    0.402   83.092   12.050
   72.200    0.339    0.392   68.457   12.276
   72.500    0.363    0.378   56.260   12.275
   72.800    0.392    0.364   44.671   12.506
   73.100    0.403    0.355   49.528   12.505
   73.400    0.393    0.362   58.647   12.268
   73.700    0.349    0.425   67.771   11.590
   74.000    0.340    0.434   87.247   10.949
   74.300    0.337    0.405   84.794   10.742
   74.600    0.344    0.369   70.771   10.945
   74.900    0.364    0.358   51.869   11.801
   75.200    0.374    0.360   52.465   12.254
   75.500    0.380    0.372   53.058   12.723
   75.800    0.393    0.409   53.651   12.720
   76.100    0.412    0.429   61.556   12.246
   76.400    0.407    0.432   77.985   12.015
   76.700    0.421    0.425   87.106   11.787
   77.000    0.343    0.386   90.746   11.566
   77.300    0.332    0.385   87.076   11.562
   77.600    0.311    0.385   92.541   11.781
   77.900    0.299    0.392   86.435   12.232
   78.200    0.314    0.367   77.283   12.942
   78.500    0.338    0.347   71.786   13.188
   78.800    0.345    0.340   76.644   12.938
   79.100    0.327    0.343   93.075   12.693
   79.400    0.345    0.372  100.975   12.220
   79.700    0.353    0.379   92.434   12.218
   80.000    0.340    0.378   86.327   11.986
   80.300    0.356    0.380   89.962   11.985
   80.600    0.339    0.393   91.776   12.212
   80.900    0.298    0.398   92.370   12.441
   81.200    0.293    0.387   88.090   11.977
   81.500    0.307    0.352   85.030   11.532
   81.800    0.345    0.324   84.407   11.528
   82.100    0.372    0.352   75.863   11.527
   82.400    0.394    0.356   63.056   12.197
   82.700    0.360    0.368   67.915   12.905
   83.000    0.329    0.386   77.646   12.662
   83.300    0.318    0.389   92.248   12.422
   83.600    0.317    0.399   94.664   11.960
   83.900    0.332    0.431   97.697   11.514
   84.200    0.338    0.418  103.774   10.474
   84.500    0.328    0.432  112.284    9.710
   84.800    0.286    0.401  114.098    9.526
   85.100    0.287    0.374  107.381    9.707
   85.400    0.289    0.362  103.098   10.666
   85.700    0.231    0.355  103.698   10.867
   86.000    0.222    0.375  112.819   10.462
   86.300    0.233    0.430  129.248    9.518
   86.600    0.246    0.449  133.497    8.028
   86.900    0.251    0.450  132.262    7.584
   87.200    0.254    0.406  127.375    7.727
   87.500    0.256    0.376  123.094    8.818
   87.800    0.258    0.379  120.036    9.690
   88.100    0.273    0.392  110.883   10.850
   88.400    0.293    0.391   98.075   11.265
   88.700    0.289    0.381   97.449   11.263
   89.000    0.260    0.397  113.273   11.050
   89.300    0.231    0.411  128.486   10.639
   89.600    0.231    0.427  129.079   10.050
   89.900    0.242    0.431  133.323    9.861
   90.200    0.256    0.411  134.528    9.674
   90.500    0.267    0.421  131.466   10.045
   90.800    0.294    0.444  126.581   10.430
   91.100    0.304    0.459  113.164   10.829
   91.400    0.298    0.411  114.367   11.458
   91.700    0.302    0.400  111.304   12.831
   92.000    0.308    0.383   96.671   13.323
   92.300    0.302    0.366   94.827   14.097
   92.600    0.297    0.384  102.119   14.093
   92.900    0.298    0.395  102.105   14.091
   93.200    0.298    0.372   83.818   14.630
   93.500    0.285    0.393   89.283   15.480
   93.800    0.260    0.426  101.452   15.774
   94.100    0.255    0.414  100.826   15.770
   94.400    0.314    0.387   87.410   15.472
   94.700    0.345    0.408   74.602   14.616
   95.000    0.345    0.429   67.888   13.809
   95.300    0.338    0.407   75.789   13.045
   95.600    0.326    0.409   80.036   12.559
   95.900    0.323    0.426   77.583   12.322
   96.200    0.334    0.435   68.433   12.088
   96.500    0.340    0.436   67.199   12.087
   96.800    0.332    0.430   65.357   12.084
   97.100    0.337    0.401   64.730   13.030
   97.400    0.347    0.384   69.586   14.319
   97.700    0.352    0.374   66.528   15.734
   98.000    0.323    0.360   56.769   17.288
   98.300    0.256    0.358   52.489   17.285
   98.600    0.275    0.396   55.518   16.642
   98.900    0.295    0.406   65.859   14.854
   99.200    0.307    0.400   76.198   13.513
   99.500    0.304    0.396   80.445   12.293
   99.800    0.303    0.415   83.475   12.061
  100.100    0.319    0.417   80.413   12.522
  100.400    0.320    0.404   77.353   12.759
  100.700    0.290    0.399   85.256   13.001
  101.000    0.271    0.397   89.506   12.052
  101.300    0.281    0.397   87.054   11.385
  101.600    0.318    0.415   67.543   11.601
  101.900    0.329    0.390   69.963   12.747
  102.200    0.339    0.380   70.558   13.235
  102.500    0.361    0.407   69.325   12.504
  102.800    0.364    0.399   78.448   10.747
  103.100    0.307    0.394  102.187    9.594
  103.400    0.277    0.428  104.000    8.728
  103.700    0.287    0.446   96.675    8.403
  104.000    0.309    0.446   72.294    8.724
  104.300    0.344    0.416   63.143   10.536
  104.600    0.355    0.374   58.863   12.253
  104.900    0.351    0.371   62.501   13.464
  105.200    0.348    0.393   66.140   13.980
  105.500    0.345    0.425   66.119   13.978
  105.800    0.339    0.414   63.060   13.713
  106.100    0.344    0.410   61.827   12.712
  106.400    0.357    0.412   63.031   12.471
  106.700    0.365    0.409   64.844   12.236
  107.000    0.364    0.401   64.221   12.466
  107.300    0.351    0.397   64.203   12.702
  107.600    0.342    0.398   70.279   12.700
  107.900    0.352    0.418   70.265   12.227
  108.200    0.361    0.411   61.721   11.551
  108.500    0.364    0.403   64.140   10.708
  108.800    0.370    0.400   66.561   10.308
  109.100    0.368    0.401   67.766   10.503
  109.400    0.338    0.424   62.876   10.702
  109.700    0.330    0.424   59.815   11.324
  110.000    0.333    0.405   61.627   11.757
  110.300    0.342    0.394   64.657   12.208
  110.600    0.344    0.373   67.080   12.439
  110.900    0.344    0.373   68.892   12.673
  111.200    0.342    0.386   63.393   12.434
  111.500    0.325    0.395   60.943   12.198
  111.800    0.330    0.397   66.407   12.196
  112.100    0.347    0.394   65.172   12.194
  112.400    0.354    0.374   61.504   11.739
  112.700    0.366    0.378   62.704   10.883
  113.000    0.361    0.388   66.347   10.678
  113.300    0.362    0.380   69.376   10.675
  113.600    0.367    0.389   66.925   11.511
  113.900    0.366    0.398   62.643   11.951
  114.201    0.352    0.398   64.456   12.177
  114.501    0.344    0.399   67.486   11.947
  114.801    0.361    0.399   67.473   11.287
  115.101    0.365    0.414   68.064   10.662
  115.401    0.357    0.434   69.269   10.461
  115.701    0.362    0.404   68.644   10.658
  116.001    0.363    0.399   65.583   10.860
  116.301    0.361    0.443   60.692   11.064
  116.601    0.367    0.430   55.804   11.063
  116.901    0.419    0.408   50.914   10.651
