~VERSION INFORMATION
 VERS.                 2.0:   CWLS LOG ASCII STANDARD -VERSION 2.0
 WRAP.                  NO:   ONE LINE PER DEPTH STEP
~WELL INFORMATION BLOCK
#MNEM.UNIT           DATA                    DESCRIPTION OF MNEMONIC
#---------    -------------------            -------------------------------
# Generated from Intellog Unique Number	CS_77_79/WELL/862
WELL.         ICGR CHARD                     : Well_name    - WELL
LOC .         00/05-21-078-05W4/0            : Location     - LOCATION
UWI .         00/05-21-078-05W4/0            : Uwi          - UNIQUE WELL ID
ENTR.         JHS                            : Entered      - ENTERED BY
SRVC.         SCHLUMBERGER                   : Scn          - SERVICE COMPANY
STRT.M        155                            : top_depth    - START DEPTH
STOP.M        415                            : bot_depth    - STOP DEPTH
STEP.M        0.25                           : increment    - STEP LENGTH
 NULL. -999.2500:NULL Value
~CURVE INFORMATION BLOCK
#MNEM UNIT       ERCB CURVE CODE    CURVE DESCRIPTION
#-----------   ------------------   ----------------------------------
DEPT.M        00 001 00 00         : DEPTH        - DEPTH
DPHI.V/V      00 890 00 00         : PHID         - DENSITY POROSITY (LIMESTONE)
NPHI.V/V      00 330 00 00         : PHIN         - NEUTRON POROSITY (LIMESTONE)
GR  .API      00 310 00 00         : GR           - GAMMA RAY
ILD .OHMM     00 120 00 00         : RESD         - DEEP RESISTIVITY (DIL)
RHOB.KG/M3    00 350 00 00         : DENS         - BULK DENSITY
~PARAMETER INFORMATION
#MNEM.UNIT           DATA             DESCRIPTION OF MNEMONIC
#---------         -----------     ------------------------------
GL  .M        575.9                : gl           - GROUND LEVEL ELEVATION
EREF.M        579.5                : kb           - ELEVATION OF DEPTH REFERENCE
DATM.M        579.5                : datum        - DATUM ELEVATION
TDD .M        425                  : tdd          - TOTAL DEPTH DRILLER
RUN .         ONE                  : Run          - RUN NUMBER
ENG .         BILL                 : Engineer     - RECORDING ENGINEER
WIT .         JIM                  : Witness      - WITNESSED BY
MUD .         GEL                  : Mud_type     - MUD TYPE
MATR.         LIMESTONE            : Logunit      - NEUTRON MATRIX
TMAX.C        21                   : BHT          - MAXIMUM RECORDED TEMPERATURE
BHTD.M        425                  : BHTDEP       - MAXIMUM RECORDED TEMPERATURE
MATR.         1                    : LOGUNIT      - NEUTRON MATRIX
RMT .C        25                   : MDTP         - TEMPERATURE OF MUD
NEUT.         1                    : NEUTRON      - NEUTRON TYPE
RESI.         0                    : RESIST       - RESISTIVITY TYPE
RMC .OHMM     0.25                 : RMC          - RESISTIVITY OF MUD CAKE
RMF .OHMM     0.25                 : RMF          - RESISTIVITY OF MUD FILTRATE
SUFT.C        15                   : SUFT         - SURFACE TEMPERATURE
~A  DEPTH     PHID     PHIN       GR     RESD     DENS
# ...
  228.000    0.304    0.432   68.842   12.273    0.000
  228.250    0.283    0.409   75.556   10.546    0.000
  228.500    0.272    0.400   85.328    9.776    0.000
  228.750    0.266    0.456   82.856    8.892    0.000
  229.000    0.258    0.498   88.345    8.088    0.000
  229.250    0.245    0.472   94.440    7.357    0.000
  229.500    0.234    0.455   99.317    7.355    0.000
  229.750    0.234    0.454  101.743    7.495    0.000
  230.000    0.246    0.481   95.599    8.718    0.000
  230.250    0.270    0.491   89.458    9.952    0.000
  230.500    0.288    0.464   88.823   11.797    0.000
  230.750    0.296    0.444   91.863   13.214    0.000
  231.000    0.286    0.443   92.452   13.984    0.000
  231.250    0.286    0.457   84.472   14.520    0.000
  231.500    0.295    0.449   74.655   14.246    0.000
  231.750    0.280    0.432   77.081   14.243    0.000
  232.000    0.260    0.423   81.347   14.241    0.000
  232.250    0.260    0.439   74.588   14.239    0.000
  232.500    0.279    0.472   62.938   14.237    0.000
  232.750    0.277    0.444   57.408   14.506    0.000
  233.000    0.273    0.418   64.727   14.232    0.000
  233.250    0.278    0.405   69.605   13.701    0.000
  233.500    0.271    0.422   70.800   13.190    0.000
  233.750    0.254    0.447   72.621   12.698    0.000
  234.000    0.244    0.458   75.043   12.458    0.000
  234.250    0.248    0.472   73.183   12.457    0.000
  234.500    0.260    0.443   70.103   12.691    0.000
  234.750    0.274    0.422   67.634   12.933    0.000
  235.000    0.285    0.411   64.553   13.430    0.000
  235.250    0.295    0.405   66.366   13.427    0.000
  235.500    0.282    0.405   65.733   13.173    0.000
  235.750    0.274    0.418   67.545   13.171    0.000
  236.000    0.267    0.419   72.421   12.680    0.000
  236.250    0.253    0.418   73.625   11.754    0.000
  236.500    0.262    0.429   71.155   10.895    0.000
  236.750    0.288    0.451   76.642    9.724    0.000
  237.000    0.298    0.486   80.900    8.356    0.000
  237.250    0.300    0.500   85.168    6.914    0.000
  237.500    0.298    0.495   91.267    5.942    0.000
  237.750    0.280    0.517   97.978    5.405    0.000
  238.000    0.277    0.534  100.400    5.303    0.000
  238.250    0.267    0.578  100.377    5.202    0.000
  238.500    0.255    0.549   99.130    5.300    0.000
  238.750    0.253    0.559   94.209    5.504    0.000
  239.000    0.260    0.565   94.188    5.825    0.000
  239.250    0.265    0.533   93.561    5.935    0.000
  239.500    0.263    0.516   90.477    6.048    0.000
  239.750    0.264    0.512   91.672    6.046    0.000
  240.000    0.270    0.509   93.493    5.932    0.000
  240.250    0.280    0.500   96.532    5.820    0.000
  240.500    0.291    0.510   94.060    5.710    0.000
  240.750    0.281    0.521   90.364    5.394    0.000
  241.000    0.267    0.529   94.625    5.292    0.000
  241.250    0.263    0.541   99.505    4.999    0.000
  241.500    0.272    0.544   98.252    4.905    0.000
  241.750    0.279    0.530   95.788    4.812    0.000
  242.000    0.280    0.530   93.317    4.903    0.000
  242.250    0.284    0.536   90.841    4.902    0.000
  242.500    0.292    0.541   87.153    4.995    0.000
  242.750    0.303    0.541   76.112    5.387    0.000
  243.000    0.323    0.551   65.073    5.810    0.000
  243.250    0.335    0.563   57.705    7.019    0.000
  243.500    0.347    0.513   50.335    8.165    0.000
  243.750    0.338    0.453   53.371    9.320    0.000
  244.000    0.303    0.424   63.147   10.639    0.000
  244.250    0.286    0.434   70.471   11.473    0.000
  244.500    0.302    0.453   73.505   11.691    0.000
  244.750    0.304    0.468   73.486   11.469    0.000
  245.000    0.294    0.459   77.129   11.253    0.000
  245.250    0.282    0.447   79.563   10.630    0.000
  245.500    0.277    0.459   79.540   10.041    0.000
  245.750    0.291    0.459   81.355    9.852    0.000
  246.000    0.291    0.458   86.229    9.484    0.000
  246.250    0.284    0.462   86.817    9.130    0.000
  246.500    0.286    0.453   81.903    9.129    0.000
  246.750    0.284    0.448   78.820    8.957    0.000
  247.000    0.274    0.453   87.364    8.787    0.000
  247.250    0.268    0.456   90.401    8.621    0.000
  247.500    0.269    0.452   88.547    8.458    0.000
  247.750    0.266    0.457   87.907    8.298    0.000
  248.000    0.255    0.464   89.727    8.141    0.000
  248.250    0.246    0.457   93.374    7.987    0.000
  248.500    0.247    0.441   92.742    7.986    0.000
  248.750    0.256    0.426   90.266    7.835    0.000
  249.000    0.241    0.426   90.853    7.834    0.000
  249.250    0.227    0.431   90.224    7.685    0.000
  249.500    0.246    0.442   91.431    7.684    0.000
  249.750    0.237    0.447   96.307    7.539    0.000
  250.000    0.231    0.454   99.342    7.538    0.000
  250.250    0.234    0.464  101.770    7.395    0.000
  250.500    0.237    0.462  101.747    7.120    0.000
  250.750    0.237    0.450   99.890    6.600    0.000
  251.000    0.239    0.446   97.408    5.565    0.000
  251.250    0.242    0.465   98.009    4.874    0.000
  251.500    0.240    0.503  101.043    4.518    0.000
  251.750    0.235    0.542  101.025    4.432    0.000
  252.000    0.236    0.541   99.781    4.516    0.000
  252.250    0.231    0.527  100.365    4.870    0.000
  252.500    0.231    0.546   97.285    5.154    0.000
  252.750    0.239    0.520   93.592    5.352    0.000
  253.000    0.249    0.494   91.120    5.558    0.000
  253.250    0.259    0.498   89.263    5.453    0.000
  253.500    0.267    0.525   85.567    4.959    0.000
  253.750    0.259    0.532   90.441    4.597    0.000
  254.000    0.222    0.488   98.992    4.343    0.000
  254.250    0.211    0.490   98.351    4.025    0.000
  254.500    0.221    0.521   96.497    4.102    0.000
  254.750    0.232    0.539   97.698    4.341    0.000
  255.000    0.244    0.553   95.840    4.423    0.000
  255.250    0.238    0.541   93.372    4.258    0.000
  255.500    0.228    0.520   95.796    3.873    0.000
  255.750    0.232    0.514   98.221    3.800    0.000
  256.000    0.247    0.517   98.815    3.728    0.000
  256.250    0.254    0.520   98.179    3.798    0.000
  256.500    0.254    0.520   99.990    3.870    0.000
  256.750    0.257    0.525  101.197    3.870    0.000
  257.000    0.262    0.539  103.623    4.018    0.000
  257.250    0.262    0.567  102.985    4.252    0.000
  257.500    0.268    0.553   98.069    4.763    0.000
  257.750    0.281    0.570   90.701    5.646    0.000
  258.000    0.293    0.570   84.559    7.499    0.000
  258.250    0.302    0.536   74.741    9.772    0.000
  258.500    0.306    0.497   68.601   11.154    0.000
  258.750    0.307    0.461   71.625   11.583    0.000
  259.000    0.307    0.459   72.229   11.151    0.000
  259.250    0.304    0.465   70.369    9.765    0.000
  259.500    0.290    0.473   74.018    8.882    0.000
  259.750    0.275    0.480   79.503    7.779    0.000
  260.000    0.259    0.459   82.544    7.076    0.000
  260.250    0.248    0.459   85.583    6.559    0.000
  260.500    0.246    0.490   86.169    6.314    0.000
  260.750    0.263    0.491   83.089    6.195    0.000
  261.000    0.268    0.490   86.742    6.194    0.000
  261.250    0.266    0.495   88.556    6.311    0.000
  261.500    0.270    0.495   88.527    6.553    0.000
  261.750    0.270    0.484   87.288    6.678    0.000
  262.000    0.260    0.477   85.430    6.551    0.000
  262.250    0.259    0.474   86.628    6.550    0.000
  262.500    0.252    0.471   84.160    6.549    0.000
  262.750    0.249    0.478   81.080    6.425    0.000
  263.000    0.253    0.482   82.279    6.424    0.000
  263.250    0.246    0.491   84.095    6.423    0.000
  263.500    0.238    0.501   82.237    6.302    0.000
  263.750    0.238    0.502   83.435    5.841    0.000
  264.000    0.243    0.508   85.860    5.020    0.000
  264.250    0.258    0.466   88.903    5.115    0.000
