~VERSION INFORMATION
 VERS.                 2.0:   CWLS LOG ASCII STANDARD -VERSION 2.0
 WRAP.                  NO:   ONE LINE PER DEPTH STEP
~WELL INFORMATION BLOCK
#MNEM.UNIT           DATA                    DESCRIPTION OF MNEMONIC
#---------    -------------------            -------------------------------
# Generated from Intellog Unique Number	CW_73_75/WELL/528
LOC .         00/06-04-075-24W4/0            : Location     - LOCATION
UWI .         00/06-04-075-24W4/0            : Uwi          - UNIQUE WELL ID
ENTR.         JAYE                           : Entered      - ENTERED BY
SRVC.         SCHLUMBERGER                   : Scn          - SERVICE COMPANY
DATE.         26 FEB 75                      : Date         - LOG DATE
STRT.M        438.912                        : top_depth    - START DEPTH
STOP.M        640.162                        : bot_depth    - STOP DEPTH
STEP.M        0.25                           : increment    - STEP LENGTH
 NULL. -999.2500:NULL Value
~CURVE INFORMATION BLOCK
#MNEM UNIT       ERCB CURVE CODE    CURVE DESCRIPTION
#-----------   ------------------   ----------------------------------
DEPT.M        00 001 00 00         : DEPTH        - DEPTH
ILD .OHMM     00 120 00 00         : RESD         - DEEP RESISTIVITY (DIL)
NPHI.V/V      00 330 00 00         : PHIN         - NEUTRON POROSITY (SANDSTONE)
DPHI.V/V      00 890 00 00         : PHID         - DENSITY POROSITY (SANDSTONE)
GR  .API      00 310 00 00         : GR           - GAMMA RAY
CALI.MM       00 280 01 00         : CAL          - CALIPER
~PARAMETER INFORMATION
#MNEM.UNIT           DATA             DESCRIPTION OF MNEMONIC
#---------         -----------     ------------------------------
GL  .M        718.322              : gl           - GROUND LEVEL ELEVATION
EREF.M        723.199              : kb           - ELEVATION OF DEPTH REFERENCE
DATM.M        718.322              : datum        - DATUM ELEVATION
TDD .M        640.385              : tdd          - TOTAL DEPTH DRILLER
RUN .         ONE                  : Run          - RUN NUMBER
ENG .         FETTERLEY            : Engineer     - RECORDING ENGINEER
WIT .         HARDMAN              : Witness      - WITNESSED BY
BASE.         EDM                  : Branch       - HOME BASE OF LOGGING UNIT
MUD .         GEL CHEM             : Mud_type     - MUD TYPE
MATR.         SANDSTONE            : Logunit      - NEUTRON MATRIX
TMAX.C        26.6667              : BHT          - MAXIMUM RECORDED TEMPERATURE
BHTD.M        641.604              : BHTDEP       - MAXIMUM RECORDED TEMPERATURE
RMT .C        15.5556              : MDTP         - TEMPERATURE OF MUD
MUDD.KG/M     1020                 : MWT          - MUD DENSITY
NEUT.         1                    : NEUTRON      - NEUTRON TYPE
RESI.         0                    : RESIST       - RESISTIVITY TYPE
RM  .OHMM     7.78                 : RM           - RESISTIVITY OF MUD
RMC .OHMM     0                    : RMC          - RESISTIVITY OF MUD CAKE
RMF .OHMM     5.63                 : RMF          - RESISTIVITY OF MUD FILTRATE
SUFT.C        -17.7778             : SUFT         - SURFACE TEMPERATURE
~A  DEPTH     RESD     PHIN     PHID       GR      CAL
# ...
  621.412   53.652    0.395    0.313   49.645  224.538
  621.662   51.651    0.412    0.318   51.481  224.377
  621.912   49.005    0.423    0.307   52.530  223.916
  622.162   45.147    0.427    0.295   52.317  223.964
  622.412   41.291    0.438    0.282   51.563  223.810
  622.662   38.673    0.436    0.276   51.107  223.337
  622.912   36.692    0.431    0.310   52.458  221.852
  623.162   35.134    0.429    0.302   54.477  220.974
  623.412   33.642    0.434    0.294   55.885  222.047
  623.662   32.389    0.434    0.290   57.421  223.314
  623.912   30.898    0.429    0.301   58.291  224.990
  624.162   29.423    0.434    0.300   58.677  226.464
  624.412   28.119    0.448    0.293   58.764  226.617
  624.662   26.242    0.457    0.317   58.974  225.027
  624.912   23.913    0.451    0.338   59.783  220.070
  625.162   22.687    0.426    0.352   61.677  193.685
  625.412   21.605    0.396    0.269   65.741  172.715
  625.662   20.992    0.352    0.236   66.372  171.230
  625.912   20.360    0.317    0.149   62.122  176.379
  626.162   20.185    0.268    0.119   60.884  187.034
  626.412   20.347    0.255    0.136   60.427  194.423
  626.662   20.360    0.299    0.192   61.176  199.368
  626.912   19.602    0.375    0.221   62.955  203.599
  627.162   18.394    0.418    0.268   64.422  214.151
  627.412   17.230    0.460    0.304   67.163  218.385
  627.662   16.346    0.451    0.300   69.659  220.980
  627.912   15.394    0.442    0.278   72.880  222.348
  628.162   14.368    0.428    0.255   76.463  223.927
  628.412   13.755    0.422    0.261   81.552  225.502
  628.662   13.027    0.442    0.258   88.628  227.286
  628.912   12.382    0.449    0.245  102.756  228.657
  629.162   11.856    0.428    0.179  115.135  229.414
  629.412   11.249    0.376    0.182  110.343  229.971
  629.662   10.555    0.368    0.149  102.776  230.526
  629.912    9.706    0.363    0.145   93.222  230.678
  630.162    8.667    0.356    0.117   88.186  230.111
  630.412    7.971    0.348    0.129   83.633  229.436
  630.662    7.521    0.342    0.141   80.104  229.483
  630.912    7.335    0.344    0.151   78.084  229.831
  631.162    7.260    0.347    0.166   75.880  229.574
  631.412    7.198    0.345    0.161   73.134  229.110
  631.662    7.201    0.338    0.186   70.992  228.954
  631.912    7.168    0.334    0.179   69.391  228.994
  632.162    7.171    0.329    0.169   67.972  229.039
  632.412    7.176    0.324    0.158   68.422  229.088
  632.662    7.220    0.316    0.153   69.833  228.423
  632.912    7.224    0.302    0.169   67.993  228.258
  633.162    7.189    0.259    0.194   62.896  227.182
  633.412    7.141    0.228    0.189   51.895  226.612
  633.662    7.212    0.202    0.233   43.426  226.052
  633.912    7.432    0.185    0.269   33.210  225.488
  634.162    7.685    0.177    0.308   27.632  225.017
  634.412    8.414    0.206    0.311   24.888  224.653
  634.662    9.787    0.242    0.297   23.528  224.296
  634.912   11.136    0.235    0.256   22.472  224.034
  635.162   12.214    0.175    0.286   21.717  223.876
  635.412   13.299    0.144    0.328   21.138  224.118
  635.662   14.453    0.123    0.330   20.925  224.171
  635.912   15.449    0.111    0.331   20.952  224.217
  636.162   16.007    0.105    0.356   20.860  224.263
  636.412   16.017    0.105    0.361   21.006  224.407
  636.662   15.282    0.107    0.360   20.972  224.663
  636.912   14.104    0.108    0.396   20.997  224.810
  637.162   12.781    0.109    0.382   20.905  224.744
  637.412   11.226    0.109    0.352   20.872  224.587
  637.662    8.996    0.109    0.333   20.660  224.527
  637.912    4.840    0.107    0.317   20.201  224.579
  638.162    4.061    0.102    0.304   19.202  224.529
  638.412    3.476    0.101    0.301   18.268  224.567
  638.662    3.179    0.110    0.289   17.453  224.410
  638.912    3.129    0.112    0.290   16.756  224.461
  639.162    3.120    0.109    0.301   16.003  224.398
  639.412    3.139    0.103    0.292   15.424  224.336
  639.662    3.135    0.096    0.291   15.027  224.279
  639.912    3.131    0.086    0.295   14.755  224.325
  640.162    3.116    0.077    0.293   14.429  223.765
