~VERSION INFORMATION
 VERS.                 2.0:   CWLS LOG ASCII STANDARD -VERSION 2.0
 WRAP.                  NO:   ONE LINE PER DEPTH STEP
~WELL INFORMATION BLOCK
#MNEM.UNIT           DATA                    DESCRIPTION OF MNEMONIC
#---------    -------------------            -------------------------------
# Generated from Intellog Unique Number	CW_73_75/WELL/877
WELL.         CDN SUP ER AL FRANCIS 07-35    : Well_name    - WELL
LOC .         00/07-35-074-21W4/0            : Location     - LOCATION
UWI .         00/07-35-074-21W4/0            : Uwi          - UNIQUE WELL ID
ENTR.         JAYE                           : Entered      - ENTERED BY
SRVC.         SCHLUMBERGER                   : Scn          - SERVICE COMPANY
DATE.         11 MAR 75                      : Date         - LOG DATE
STRT.M        387.096                        : top_depth    - START DEPTH
STOP.M        606.596                        : bot_depth    - STOP DEPTH
STEP.M        0.25                           : increment    - STEP LENGTH
 NULL. -999.2500:NULL Value
~CURVE INFORMATION BLOCK
#MNEM UNIT       ERCB CURVE CODE    CURVE DESCRIPTION
#-----------   ------------------   ----------------------------------
DEPT.M        00 001 00 00         : DEPTH        - DEPTH
ILD .OHMM     00 120 00 00         : RESD         - DEEP RESISTIVITY (DIL)
DPHI.V/V      00 890 00 00         : PHID         - DENSITY POROSITY (SANDSTONE)
NPHI.V/V      00 330 00 00         : PHIN         - NEUTRON POROSITY (SANDSTONE)
GR  .API      00 310 00 00         : GR           - GAMMA RAY
CALI.IN       00 280 01 00         : CAL          - CALIPER
~PARAMETER INFORMATION
#MNEM.UNIT           DATA             DESCRIPTION OF MNEMONIC
#---------         -----------     ------------------------------
GL  .M        691.896              : gl           - GROUND LEVEL ELEVATION
EREF.M        695.615              : kb           - ELEVATION OF DEPTH REFERENCE
DATM.M        691.896              : datum        - DATUM ELEVATION
TDD .M        669.036              : tdd          - TOTAL DEPTH DRILLER
RUN .         ONE                  : Run          - RUN NUMBER
BASE.         EDM                  : Branch       - HOME BASE OF LOGGING UNIT
MATR.         SANDSTONE            : Logunit      - NEUTRON MATRIX
TMAX.C        28.8889              : BHT          - MAXIMUM RECORDED TEMPERATURE
BHTD.M        669.036              : BHTDEP       - MAXIMUM RECORDED TEMPERATURE
RMT .C        15.5556              : MDTP         - TEMPERATURE OF MUD
MUDD.KG/M     0                    : MWT          - MUD DENSITY
NEUT.         1                    : NEUTRON      - NEUTRON TYPE
RESI.         0                    : RESIST       - RESISTIVITY TYPE
RM  .OHMM     2.8                  : RM           - RESISTIVITY OF MUD
RMC .OHMM     0                    : RMC          - RESISTIVITY OF MUD CAKE
RMF .OHMM     3.83                 : RMF          - RESISTIVITY OF MUD FILTRATE
SUFT.C        -17.7778             : SUFT         - SURFACE TEMPERATURE
~A  DEPTH     RESD     PHID     PHIN       GR      CAL
# ...
  569.596    4.575    0.175    0.440   95.684    9.286
  569.846    4.433    0.189    0.445   96.228    9.305
  570.096    4.447    0.205    0.452   97.052    9.325
  570.346    4.601    0.193    0.464   97.871    9.344
  570.596    4.892    0.200    0.437   97.831    9.364
  570.846    5.544    0.178    0.448   95.451    9.384
  571.096    6.295    0.168    0.455   93.940    9.403
  571.346    6.597    0.162    0.425   93.311    9.403
  571.596    6.499    0.139    0.413   96.774    9.481
  571.846    6.331    0.148    0.444  101.398    9.638
  572.096    6.134    0.219    0.493  103.682    9.677
  572.346    5.688    0.238    0.483  104.512    9.677
  572.596    5.133    0.221    0.485  105.634    9.677
  572.846    5.010    0.216    0.468  107.047    9.697
  573.096    5.146    0.216    0.451  109.915    9.697
  573.346    5.572    0.208    0.438  115.712    9.697
  573.596    6.514    0.181    0.434  131.135    9.697
  573.846    7.629    0.164    0.423  145.104    9.599
  574.096    7.909    0.103    0.397  160.241    9.423
  574.346    7.806    0.080    0.421  134.501    9.364
  574.596    7.644    0.105    0.465  114.597    9.384
  574.846    7.326    0.150    0.480  105.207    9.442
  575.096    6.970    0.138    0.478   97.562    9.481
  575.346    6.619    0.149    0.477   93.728    9.481
  575.596    6.355    0.154    0.478   87.542    9.442
  575.846    6.259    0.140    0.475   84.286    9.540
  576.096    6.245    0.125    0.466   83.943    9.540
  576.346    6.264    0.109    0.453   86.232    9.638
  576.596    6.305    0.118    0.476   88.236   10.010
  576.846    6.407    0.126    0.481   97.237    9.795
  577.096    6.473    0.129    0.463  104.488    9.697
  577.346    6.541    0.158    0.444  112.615    9.560
  577.596    6.657    0.165    0.432  116.072    9.501
  577.846    6.787    0.165    0.464  118.653    9.481
  578.096    6.983    0.285    0.443  122.688    9.462
  578.346    7.225    0.282    0.420  122.934    9.266
  578.596    7.329    0.217    0.405  120.554    9.070
  578.846    7.337    0.219    0.391  113.795    8.953
  579.096    7.293    0.240    0.385  105.280    8.973
  579.346    7.131    0.239    0.371  108.445    9.051
  579.596    6.934    0.217    0.367  113.945    9.129
  579.846    6.730    0.208    0.357  115.645    9.247
  580.096    6.605    0.170    0.346  118.226    9.364
  580.346    6.529    0.141    0.339  117.597    9.521
  580.596    6.489    0.146    0.362  115.795    9.677
  580.846    6.546    0.147    0.384  112.241    9.775
  581.096    6.698    0.138    0.382  108.693    9.814
  581.346    6.956    0.138    0.368  105.432    9.814
  581.596    7.424    0.154    0.366  102.468    9.775
  581.846    8.186    0.167    0.381   91.034    9.677
  582.096    9.044    0.175    0.386   78.725    9.325
  582.346   10.158    0.162    0.391   66.708    9.227
  582.596   11.470    0.119    0.399   68.413    9.110
  582.846   13.755    0.058    0.415   72.151    9.012
  583.096   16.617   -0.002    0.428   69.186    8.953
  583.346   18.664   -0.020    0.420   66.222    8.855
  583.596   19.595   -0.001    0.422   61.793    8.816
  583.846   19.333    0.039    0.428   59.127    8.777
  584.096   18.260    0.093    0.443   54.978    8.777
  584.346   16.906    0.185    0.447   54.938    8.796
  584.596   15.706    0.187    0.437   57.222    8.796
  584.846   14.435    0.179    0.420   58.630    8.816
  585.096   13.315    0.202    0.409   59.466    8.816
  585.346   12.530    0.204    0.417   59.129    8.816
  585.596   12.075    0.216    0.421   59.959    8.855
  585.846   11.892    0.261    0.414   51.741    8.855
  586.096   11.907    0.273    0.399   48.176    8.855
  586.346   11.791    0.278    0.392   47.267    8.875
  586.596   11.404    0.283    0.392   48.669    8.914
  586.846   10.850    0.287    0.393   49.791    8.953
  587.096   10.551    0.280    0.392   51.794    8.973
  587.346   10.430    0.253    0.388   52.035    8.992
  587.596   10.236    0.252    0.403   51.989    9.012
  587.846   10.062    0.290    0.415   51.360    9.031
  588.096    9.822    0.329    0.431   50.731    9.070
  588.346    9.499    0.336    0.432   54.474    9.129
  588.596    9.005    0.310    0.409   60.271    9.149
  588.846    8.335    0.237    0.395   66.057    9.227
  589.096    6.905    0.204    0.414   66.011    9.286
  589.346    6.800    0.229    0.413   63.047    9.305
  589.596    6.897    0.236    0.390   57.451    9.325
  589.846    7.034    0.276    0.377   48.936    9.305
  590.096    7.093    0.270    0.338   54.722    9.149
  590.346    7.050    0.252    0.335   58.768    8.953
  590.596    6.731    0.243    0.345   64.852    9.129
  590.846    6.369    0.174    0.357   70.059    9.384
  591.096    6.049    0.163    0.361   78.192    9.736
  591.346    5.786    0.179    0.351   85.151    9.775
  591.596    5.668    0.185    0.343   85.099    9.834
  591.846    5.676    0.170    0.368   87.972    9.912
  592.096    5.703    0.175    0.412   90.256   10.010
  592.346    5.710    0.201    0.434   87.590    9.912
  592.596    5.707    0.222    0.457   74.107    9.932
  592.846    5.693    0.238    0.442   82.240   10.010
  593.096    5.648    0.168    0.420   95.614   10.069
  593.346    5.665    0.152    0.415   96.152   10.029
  593.596    5.622    0.166    0.411   96.398    9.951
  593.846    5.486    0.174    0.414   96.633    9.853
  594.096    5.287    0.170    0.423   96.307    9.736
  594.346    5.020    0.163    0.435   95.380    9.599
  594.596    4.707    0.180    0.452   93.584    9.188
  594.846    4.553    0.216    0.431   91.495    8.679
  595.096    4.543    0.207    0.412   88.234    8.425
  595.346    4.581    0.186    0.383   87.307    8.386
  595.596    4.662    0.169    0.404   86.970    8.464
  595.846    4.780    0.181    0.415   87.508    8.562
  596.096    4.838    0.192    0.421   89.208    8.679
  596.346    4.818    0.183    0.425   89.162    8.777
  596.596    4.694    0.192    0.421   89.105    8.738
  596.846    4.523    0.218    0.414   89.649    8.562
  597.096    4.383    0.229    0.411   90.479    8.562
  597.346    4.277    0.227    0.420   90.142    8.620
  597.596    4.213    0.203    0.439   87.762    8.738
  597.846    4.149    0.190    0.452   83.624    8.855
  598.096    4.042    0.200    0.429   82.406    8.992
  598.346    3.945    0.204    0.397   84.695    8.738
  598.596    3.844    0.221    0.379   90.201    8.523
  598.846    3.724    0.234    0.397   93.068    8.444
  599.096    3.583    0.220    0.402   92.135    8.405
  599.346    3.464    0.204    0.391   90.934    8.386
  599.596    3.357    0.175    0.379   87.369    8.366
  599.846    3.294    0.152    0.374   87.913    8.346
  600.096    3.245    0.145    0.382   90.500    8.327
  600.346    3.225    0.157    0.389   89.281    8.307
  600.596    3.200    0.210    0.384   85.442    8.307
  600.846    3.152    0.235    0.379   84.807    8.288
  601.096    3.082    0.232    0.376   87.096    8.268
  601.346    3.029    0.245    0.379   87.045    8.268
  601.596    2.968    0.249    0.401   85.546    8.268
  601.846    2.918    0.251    0.411   86.364    8.268
  602.096    2.863    0.261    0.407   90.697    8.268
  602.346    2.805    0.272    0.399   95.910    8.268
  602.596    2.777    0.281    0.402  102.869    8.268
  602.846    2.761    0.290    0.406  103.991    8.268
  603.096    2.749    0.291    0.389  100.735    8.268
  603.346    2.737    0.232    0.382   96.890    8.268
  603.596    2.776    0.266    0.397   93.050    8.268
  603.846    2.946    0.286    0.400   85.703    8.268
  604.096    3.457    0.231    0.393   72.226    8.268
  604.346    4.199    0.128    0.373   63.127    8.268
  604.596    5.110    0.071    0.309   48.186    8.249
  604.846    6.937    0.058    0.312   39.082    8.249
  605.096    8.036    0.044    0.310   37.874    8.249
  605.346    8.360    0.043    0.304   37.234    8.229
  605.596    8.085    0.052    0.306   38.361    8.229
  605.846    7.777    0.078    0.312   42.694    8.229
