~VERSION INFORMATION
 VERS.                 2.0:   CWLS LOG ASCII STANDARD -VERSION 2.0
 WRAP.                  NO:   ONE LINE PER DEPTH STEP
~WELL INFORMATION BLOCK
#MNEM.UNIT           DATA                    DESCRIPTION OF MNEMONIC
#---------    -------------------            -------------------------------
# Generated from Intellog Unique Number	CW_76_78/WELL/502
LOC .         00/06-07-076-25W4/0            : Location     - LOCATION
UWI .         00/06-07-076-25W4/0            : Uwi          - UNIQUE WELL ID
ENTR.         JAYE                           : Entered      - ENTERED BY
SRVC.         SCHLUMBERGER                   : Scn          - SERVICE COMPANY
DATE.         17 JAN 75                      : Date         - LOG DATE
STRT.M        472.44                         : top_depth    - START DEPTH
STOP.M        658.44                         : bot_depth    - STOP DEPTH
STEP.M        0.25                           : increment    - STEP LENGTH
 NULL. -999.2500:NULL Value
~CURVE INFORMATION BLOCK
#MNEM UNIT       ERCB CURVE CODE    CURVE DESCRIPTION
#-----------   ------------------   ----------------------------------
DEPT.M        00 001 00 00         : DEPTH        - DEPTH
ILD .OHMM     00 120 00 00         : RESD         - DEEP RESISTIVITY (DIL)
NPHI.V/V      00 330 00 00         : PHIN         - NEUTRON POROSITY (SANDSTONE)
DPHI.V/V      00 890 00 00         : PHID         - DENSITY POROSITY (SANDSTONE)
GR  .API      00 310 00 00         : GR           - GAMMA RAY
CALI.MM       00 280 01 00         : CAL          - CALIPER
~PARAMETER INFORMATION
#MNEM.UNIT           DATA             DESCRIPTION OF MNEMONIC
#---------         -----------     ------------------------------
GL  .M        767.182              : gl           - GROUND LEVEL ELEVATION
EREF.M        771.235              : kb           - ELEVATION OF DEPTH REFERENCE
DATM.M        767.182              : datum        - DATUM ELEVATION
TDD .M        663.55               : tdd          - TOTAL DEPTH DRILLER
RUN .         ONE                  : Run          - RUN NUMBER
ENG .         LLOYD                : Engineer     - RECORDING ENGINEER
WIT .         MUCULAK              : Witness      - WITNESSED BY
BASE.         EDM                  : Branch       - HOME BASE OF LOGGING UNIT
MUD .         GEL                  : Mud_type     - MUD TYPE
MATR.         SANDSTONE            : Logunit      - NEUTRON MATRIX
TMAX.C        30                   : BHT          - MAXIMUM RECORDED TEMPERATURE
BHTD.M        663.55               : BHTDEP       - MAXIMUM RECORDED TEMPERATURE
RMT .C        12.2222              : MDTP         - TEMPERATURE OF MUD
MUDD.KG/M     1140                 : MWT          - MUD DENSITY
NEUT.         1                    : NEUTRON      - NEUTRON TYPE
RESI.         0                    : RESIST       - RESISTIVITY TYPE
RM  .OHMM     2.73                 : RM           - RESISTIVITY OF MUD
RMC .OHMM     0                    : RMC          - RESISTIVITY OF MUD CAKE
RMF .OHMM     0                    : RMF          - RESISTIVITY OF MUD FILTRATE
SUFT.C        -17.7778             : SUFT         - SURFACE TEMPERATURE
~A  DEPTH     RESD     PHIN     PHID       GR      CAL
# ...
  618.440   10.026    0.344    0.120   79.704  225.488
  618.690    9.490    0.335    0.077   84.926  227.220
  618.940    9.166    0.357    0.094   87.471  229.469
  619.190    8.934    0.389    0.125   87.278  232.438
  619.440    8.837    0.396    0.153   86.355  233.349
  619.690    8.919    0.382    0.132   89.630  231.270
  619.940    8.919    0.365    0.125   86.758  224.963
  620.190    8.806    0.346    0.117   85.531  222.268
  620.440    8.381    0.357    0.101   87.649  224.104
  620.690    7.876    0.385    0.137   89.706  226.764
  620.940    7.565    0.404    0.132   91.947  229.732
  621.190    7.455    0.410    0.138   93.884  231.155
  621.440    7.388    0.419    0.168   96.368  231.758
  621.690    7.375    0.418    0.180   97.270  231.220
  621.940    7.907    0.417    0.165   94.703  229.866
  622.190    8.634    0.406    0.112   92.379  220.677
  622.440    9.411    0.393    0.106   90.664  217.257
  622.690   10.165    0.375    0.063   88.889  217.033
  622.940   10.430    0.362    0.144   86.687  221.755
  623.190   10.222    0.350    0.141   84.425  222.664
  623.440    9.693    0.327    0.103   80.397  221.408
  623.690    9.109    0.332    0.129   76.248  224.069
  623.940    8.654    0.323    0.077   73.804  227.245
  624.190    8.312    0.336    0.050   83.468  227.329
  624.440    7.926    0.360    0.185   87.656  223.807
  624.690    7.502    0.381    0.168   87.279  223.788
  624.940    7.340    0.392    0.165   86.418  227.170
  625.190    7.435    0.408    0.156   87.745  229.213
  625.440    7.628    0.408    0.167   85.240  225.896
  625.690    7.943    0.402    0.170   86.080  223.302
  625.940    8.392    0.416    0.159   88.747  223.902
  626.190    8.899    0.412    0.146   90.621  226.460
  626.440    9.420    0.408    0.155   86.900  228.396
  626.690   10.118    0.427    0.148   85.001  228.999
  626.940   10.769    0.419    0.100   86.267  229.596
  627.190   11.589    0.391    0.124   87.657  229.681
  627.440   12.471    0.383    0.099   89.533  229.251
  627.690   13.895    0.396    0.190   92.930  228.822
  627.940   15.798    0.409    0.216   86.894  228.699
  628.190   18.192    0.389    0.185   79.702  224.972
  628.440   21.143    0.374    0.141   75.737  221.551
  628.690   23.862    0.400    0.223   79.255  218.958
  628.940   25.962    0.394    0.262   80.340  217.598
  629.190   28.041    0.374    0.258   77.408  218.404
  629.440   30.175    0.351    0.208   72.041  219.830
  629.690   33.011    0.331    0.162   67.588  222.179
  629.940   36.247    0.310    0.126   63.377  223.605
  630.190   38.157    0.292    0.105   60.812  225.440
  630.440   38.159    0.288    0.087   59.949  226.967
  630.690   36.653    0.338    0.107   59.573  227.877
  630.940   33.324    0.344    0.140   59.501  228.269
  631.190   29.911    0.335    0.136   59.489  228.355
  631.440   25.977    0.333    0.134   59.905  228.130
  631.690   23.061    0.339    0.186   60.868  226.361
  631.940   20.700    0.333    0.186   63.413  224.280
  632.190   19.027    0.340    0.173   66.931  224.675
  632.440   17.619    0.352    0.162   71.667  226.202
  632.690   16.226    0.363    0.150   69.708  228.141
  632.940   15.107    0.371    0.178   68.116  228.843
  633.190   13.437    0.384    0.165   68.348  228.516
  633.440   11.994    0.399    0.143   68.885  226.641
  633.690   10.965    0.421    0.169   70.273  224.047
  633.940    9.699    0.433    0.194   72.452  223.513
  634.190    8.658    0.447    0.216   75.788  223.184
  634.440    8.061    0.436    0.212   79.002  223.167
  634.690    7.757    0.421    0.183   80.026  222.941
  634.940    7.645    0.392    0.156   81.172  222.718
  635.190    7.631    0.398    0.133   83.047  223.110
  635.440    7.688    0.410    0.198   84.923  223.401
  635.690    7.507    0.416    0.173   85.641  223.382
  635.940    7.358    0.420    0.159   86.664  223.057
  636.190    7.225    0.417    0.195   87.993  220.358
  636.440    7.081    0.404    0.192   90.416  218.898
  636.690    6.889    0.393    0.159   86.328  222.072
  636.940    6.802    0.378    0.118   86.561  227.102
  637.190    6.852    0.370    0.081   89.166  231.205
  637.440    6.967    0.401    0.173   94.876  233.248
  637.690    7.877    0.416    0.198   98.820  234.570
  637.940    9.222    0.413    0.219  100.209  231.354
  638.190   10.797    0.397    0.219   99.650  228.865
  638.440   12.297    0.396    0.205   95.440  227.198
  638.690   14.717    0.389    0.208   89.222  225.942
  638.940   18.337    0.342    0.196   82.456  224.995
  639.190   22.229    0.291    0.161   76.908  224.255
  639.440   25.645    0.261    0.106   71.542  223.311
  639.690   26.169    0.252    0.075   67.089  223.499
  639.940   24.725    0.297    0.092   66.166  222.863
  640.190   20.625    0.311    0.116   66.824  220.782
  640.440   16.254    0.326    0.115   68.091  219.837
  640.690   14.483    0.345    0.120   70.149  220.537
  640.940   13.119    0.360    0.173   74.762  221.962
  641.190   11.647    0.370    0.180   79.376  224.108
  641.440   10.531    0.374    0.166   80.765  227.386
  641.690    9.950    0.359    0.171   82.336  229.740
  641.940    9.315    0.362    0.177   85.186  231.058
  642.190    8.658    0.385    0.180   90.164  231.039
  642.440    8.195    0.365    0.180   88.996  231.126
  642.690    7.886    0.352    0.179   89.899  230.592
  642.940    7.786    0.347    0.177   91.834  225.112
  643.190    8.003    0.371    0.170   93.589  222.209
  643.440    8.348    0.363    0.176   96.558  227.549
  643.690    9.000    0.359    0.181   99.774  229.589
  643.940    9.792    0.396    0.176  102.684  230.912
  644.190   10.634    0.416    0.166  100.178  231.408
  644.440   11.655    0.392    0.160   90.734  230.566
  644.690   11.807    0.380    0.150   85.795  228.384
  644.940   11.572    0.368    0.128   85.663  223.110
  645.190   10.953    0.392    0.115   90.032  226.904
  645.440   10.032    0.396    0.181   90.873  226.576
  645.690    9.037    0.391    0.172   86.786  226.660
  645.940    8.430    0.406    0.154   87.565  229.217
  646.190    7.980    0.420    0.162   90.840  229.199
  646.440    7.878    0.425    0.145   91.743  222.277
  646.690    7.821    0.418    0.121   91.002  221.950
  646.940    7.865    0.415    0.090   91.721  226.464
  647.190    7.981    0.402    0.131   94.509  229.433
  647.440    8.249    0.388    0.132   98.332  229.519
  647.690    8.684    0.379    0.115  102.701  227.748
  647.940    8.862    0.363    0.125  105.247  223.711
  648.190    8.846    0.370    0.100  106.636  223.794
  648.440    8.622    0.374    0.134  105.712  224.393
  648.690    8.043    0.362    0.123  103.328  225.407
  648.940    7.448    0.378    0.103  106.054  228.583
  649.190    6.985    0.391    0.143  109.816  228.771
  649.440    6.685    0.396    0.171  110.536  228.340
  649.690    6.433    0.389    0.159  102.310  228.114
  649.940    6.248    0.383    0.155   96.701  228.301
  650.190    6.214    0.389    0.142   94.743  228.693
  650.440    6.191    0.385    0.135   99.112  229.193
  650.690    5.980    0.375    0.172  102.630  229.376
  650.940    5.776    0.371    0.177  102.924  229.564
  651.190    5.467    0.381    0.166  103.035  229.340
  651.440    5.053    0.404    0.154  106.248  229.530
  651.690    4.653    0.408    0.152  109.525  229.718
  651.940    4.124    0.406    0.159  111.217  230.009
  652.190    3.846    0.404    0.155  109.259  230.400
  652.440    3.791    0.428    0.147  107.727  230.589
  652.690    3.983    0.459    0.166  106.134  230.262
  652.940    4.646    0.481    0.160  102.228  229.523
  653.190    5.273    0.381    0.191   91.751  224.970
  653.440    8.840    0.322    0.220   79.995  221.344
  653.690   12.454    0.317    0.280   65.624  219.161
  653.940   14.315    0.324    0.252   61.840  217.494
  654.190   14.960    0.334    0.214   65.663  215.930
  654.440   15.893    0.322    0.211   68.268  214.779
  654.690   17.611    0.301    0.209   69.839  216.717
