~VERSION INFORMATION
 VERS.                 2.0:   CWLS LOG ASCII STANDARD -VERSION 2.0
 WRAP.                  NO:   ONE LINE PER DEPTH STEP
~WELL INFORMATION BLOCK
#MNEM.UNIT           DATA                    DESCRIPTION OF MNEMONIC
#---------    -------------------            -------------------------------
# Generated from Intellog Unique Number	CS_71_72/WELL/843
WELL.         AEC IPIATIK NOVEMBER           : Well_name    - WELL
LOC .         00/09-14-071-06W4/0            : Location     - LOCATION
UWI .         00/09-14-071-06W4/0            : Uwi          - UNIQUE WELL ID
ENTR.         SP                             : Entered      - ENTERED BY
SRVC.         SCHLUMBERGER                   : Scn          - SERVICE COMPANY
STRT.M        305                            : top_depth    - START DEPTH
STOP.M        525                            : bot_depth    - STOP DEPTH
STEP.M        0.25                           : increment    - STEP LENGTH
 NULL. -999.2500:NULL Value
~CURVE INFORMATION BLOCK
#MNEM UNIT       ERCB CURVE CODE    CURVE DESCRIPTION
#-----------   ------------------   ----------------------------------
DEPT.M        00 001 00 00         : DEPTH        - DEPTH
ILD .OHMM     00 120 00 00         : RESD         - DEEP RESISTIVITY (DIL)
DPHI.V/V      00 890 00 00         : PHID         - DENSITY POROSITY (LIMESTONE)
NPHI.V/V      00 330 00 00         : PHIN         - NEUTRON POROSITY (LIMESTONE)
GR  .API      00 310 00 00         : GR           - GAMMA RAY
~PARAMETER INFORMATION
#MNEM.UNIT           DATA             DESCRIPTION OF MNEMONIC
#---------         -----------     ------------------------------
GL  .M        672.05               : gl           - GROUND LEVEL ELEVATION
EREF.M        676.32               : kb           - ELEVATION OF DEPTH REFERENCE
DATM.M        672.05               : datum        - DATUM ELEVATION
TDD .M        566.79               : tdd          - TOTAL DEPTH DRILLER
RUN .         ONE                  : Run          - RUN NUMBER
ENG .         BILL                 : Engineer     - RECORDING ENGINEER
WIT .         JIM                  : Witness      - WITNESSED BY
MUD .         GEL                  : Mud_type     - MUD TYPE
MATR.         LIMESTONE            : Logunit      - NEUTRON MATRIX
TMAX.C        27                   : BHT          - MAXIMUM RECORDED TEMPERATURE
BHTD.M        566.79               : BHTDEP       - MAXIMUM RECORDED TEMPERATURE
MATR.         1                    : LOGUNIT      - NEUTRON MATRIX
RMT .C        25                   : MDTP         - TEMPERATURE OF MUD
NEUT.         1                    : NEUTRON      - NEUTRON TYPE
RESI.         0                    : RESIST       - RESISTIVITY TYPE
RMC .OHMM     0.25                 : RMC          - RESISTIVITY OF MUD CAKE
RMF .OHMM     0.25                 : RMF          - RESISTIVITY OF MUD FILTRATE
SUFT.C        15                   : SUFT         - SURFACE TEMPERATURE
~A  DEPTH     RESD     PHID     PHIN       GR
# ...
  479.000    8.037    0.108    0.375   80.888
  479.250    8.072    0.118    0.369   80.674
  479.500    8.046    0.160    0.373   80.956
  479.750    8.201    0.158    0.380   80.781
  480.000    9.058    0.150    0.386   78.881
  480.250   10.347    0.177    0.402   78.043
  480.500   11.343    0.238    0.420   73.952
  480.750   12.694    0.264    0.437   68.351
  481.000   15.767    0.278    0.453   65.284
  481.250   23.824    0.273    0.470   62.525
  481.500   33.410    0.296    0.491   64.126
  481.750   44.967    0.327    0.459   66.696
  482.000   55.339    0.325    0.435   67.505
  482.250   65.246    0.320    0.393   66.504
  482.500   71.396    0.317    0.388   66.043
  482.750   69.985    0.317    0.400   66.370
  483.000   62.961    0.319    0.402   68.099
  483.250   54.878    0.313    0.395   69.329
  483.500   48.730    0.307    0.397   72.020
  483.750   43.433    0.310    0.408   75.071
  484.000   37.996    0.312    0.417   79.029
  484.250   33.117    0.308    0.418   85.839
  484.500   29.624    0.297    0.387   92.408
  484.750   25.915    0.295    0.391   95.333
  485.000   21.883    0.288    0.404   98.691
  485.250   19.109    0.278    0.413  100.227
  485.500   17.546    0.272    0.405  100.857
  485.750   15.785    0.267    0.403  101.249
  486.000   14.906    0.261    0.411  100.970
  486.250   14.208    0.250    0.410  100.029
  486.500   13.492    0.246    0.394   97.873
  486.750   12.885    0.246    0.386   92.507
  487.000   12.397    0.254    0.377   87.144
  487.250   12.017    0.261    0.369   79.602
  487.500   11.802    0.262    0.373   70.849
  487.750   11.655    0.256    0.379   60.339
  488.000   11.425    0.253    0.373   52.190
  488.250   11.219    0.257    0.367   54.762
  488.500   10.616    0.252    0.365   59.387
  488.750   10.212    0.241    0.369   63.105
  489.000    8.888    0.228    0.372   64.587
  489.250    8.660    0.220    0.373   64.854
  489.500    7.707    0.211    0.373   64.881
  489.750    7.482    0.202    0.371   65.098
  490.000    7.198    0.217    0.370   65.290
  490.250    6.889    0.151    0.368   65.384
  490.500    6.778    0.147    0.367   65.173
  490.750    6.756    0.147    0.367   65.126
  491.000    6.770    0.147    0.368   65.037
  491.250    6.838    0.149    0.368   64.816
  491.500    7.049    0.161    0.369   64.655
  491.750    7.542    0.169    0.369   64.802
  492.000    8.363    0.187    0.368   64.768
  492.250    9.066    0.223    0.367   64.853
  492.500    9.575    0.249    0.366   64.463
  492.750    9.833    0.264    0.365   64.425
  493.000    9.584    0.253    0.362   64.753
  493.250    9.017    0.209    0.358   65.442
  493.500    8.265    0.202    0.357   66.132
  493.750    7.519    0.194    0.360   67.245
  494.000    7.140    0.190    0.373   78.047
  494.250    7.756    0.203    0.393   83.098
  494.500    8.727    0.222    0.485   71.076
  494.750    9.821    0.244    0.442   59.778
  495.000   10.687    0.254    0.401   56.354
  495.250   11.267    0.258    0.382   57.529
  495.500   11.335    0.263    0.377   63.554
  495.750   10.947    0.250    0.374   69.267
  496.000   10.298    0.238    0.372   75.526
  496.250    9.078    0.223    0.368   85.544
  496.500    8.572    0.202    0.365   94.345
  496.750    7.743    0.188    0.361  100.123
  497.000    7.574    0.172    0.368  100.996
  497.250    7.605    0.148    0.387   96.483
  497.500    8.720    0.126    0.406   74.952
  497.750   10.149    0.105    0.369   63.475
  498.000   10.960    0.089    0.329   57.081
  498.250   11.597    0.077    0.298   52.869
  498.500   11.843    0.217    0.342   52.593
  498.750   11.609    0.239    0.381   56.067
  499.000   10.701    0.252    0.393   63.056
  499.250    9.753    0.247    0.379   68.894
  499.500    8.890    0.204    0.368   73.403
  499.750    8.302    0.182    0.372   76.938
  500.000    7.928    0.166    0.385   79.747
  500.250    7.684    0.173    0.391   82.317
  500.500    7.518    0.172    0.391   84.948
  500.750    7.413    0.165    0.390   87.213
  501.000    7.415    0.150    0.389   89.113
  501.250    7.350    0.133    0.390   88.596
  501.500    7.328    0.140    0.388   85.472
  501.750    7.317    0.157    0.391   83.194
  502.000    7.054    0.160    0.389   81.040
  502.250    7.435    0.152    0.396   79.433
  502.500    7.481    0.152    0.398   79.275
  502.750    7.500    0.159    0.401   80.573
  503.000    7.505    0.164    0.409   81.872
  503.250    7.507    0.166    0.420   82.683
  503.500    7.553    0.175    0.420   83.382
  503.750    7.817    0.205    0.403   83.157
  504.000    8.148    0.146    0.406   80.764
  504.250    9.067    0.159    0.427   76.304
  504.500    9.829    0.184    0.415   70.458
  504.750   10.459    0.212    0.394   69.694
  505.000   10.701    0.240    0.386   76.501
  505.250   10.808    0.235    0.380   83.128
  505.500   10.714    0.159    0.390   82.366
  505.750   10.560    0.180    0.405   80.754
  506.000   10.390    0.205    0.413   93.617
  506.250   10.036    0.210    0.423  102.117
  506.500    9.818    0.188    0.445  109.710
  506.750    9.659    0.177    0.437  104.471
  507.000    9.363    0.193    0.428   99.228
  507.250    9.075    0.232    0.426   98.041
  507.500    8.587    0.285    0.415  100.852
  507.750    8.155    0.268    0.412  104.333
  508.000    7.992    0.232    0.413  106.053
  508.250    7.894    0.196    0.429  106.983
  508.500    8.046    0.196    0.456  107.492
  508.750    8.295    0.211    0.473  103.158
  509.000    8.392    0.228    0.463   99.981
  509.250    8.412    0.239    0.439   98.850
  509.500    8.185    0.213    0.428   97.543
  509.750    7.673    0.201    0.422   95.209
  510.000    7.179    0.213    0.420   93.599
  510.250    6.906    0.237    0.417   96.651
  510.500    6.608    0.257    0.415  101.280
  510.750    6.501    0.237    0.420  105.486
  511.000    6.505    0.224    0.405  108.534
  511.250    6.584    0.212    0.395  114.556
  511.500    6.597    0.198    0.395  120.091
  511.750    6.492    0.220    0.396  123.261
  512.000    6.362    0.231    0.395  125.587
  512.250    5.997    0.231    0.391  125.552
  512.500    5.415    0.233    0.388  121.884
  512.750    4.899    0.257    0.393   93.393
  513.000    4.343    0.281    0.398   78.342
  513.250    4.047    0.295    0.396   65.412
  513.500    3.815    0.306    0.391   48.968
  513.750    3.596    0.316    0.389   40.215
  514.000    3.506    0.304    0.390   37.092
  514.250    3.501    0.292    0.395   37.360
  514.500    3.509    0.289    0.380   42.409
  514.750    3.598    0.286    0.362   59.569
  515.000    3.619    0.285    0.342   73.944
  515.250    3.648    0.264    0.355   78.571
  515.500    3.657    0.263    0.374   52.017
  515.750    3.538    0.279    0.391   34.545
  516.000    3.360    0.292    0.389   27.549
  516.250    3.103    0.318    0.385   28.482
  516.500    3.008    0.326    0.395   30.266
  516.750    2.976    0.311    0.398   27.563
  517.000    3.022    0.306    0.383   24.379
  517.250    3.069    0.304    0.372   22.591
  517.500    3.094    0.303    0.364   21.163
  517.750    3.090    0.303    0.376   19.978
  518.000    3.057    0.303    0.369   18.794
  518.250    3.014    0.302    0.370   17.967
  518.500    2.943    0.301    0.374   16.908
  518.750    2.895    0.298    0.378   16.937
  519.000    2.865    0.295    0.381   17.257
  519.250    3.031    0.304    0.385   18.561
  519.500    3.880    0.295    0.386   19.915
  519.750    5.290    0.080    0.383   22.309
  520.000    8.129    0.016    0.366   23.785
  520.250   11.085   -0.005    0.283   24.481
  520.500   14.108   -0.002    0.246   24.388
  520.750   17.591    0.005    0.223   23.633
  521.000   20.778    0.008    0.202   22.425
  521.250   23.602   -0.001    0.189   21.360
  521.500   26.808   -0.006    0.176   20.055
  521.750   30.451    0.012    0.157   17.840
  522.000   33.633    0.018    0.144   14.537
  522.250   36.665    0.021    0.136   14.803
