~VERSION INFORMATION
 VERS.                 2.0:   CWLS LOG ASCII STANDARD -VERSION 2.0
 WRAP.                  NO:   ONE LINE PER DEPTH STEP
~WELL INFORMATION BLOCK
#MNEM.UNIT           DATA                    DESCRIPTION OF MNEMONIC
#---------    -------------------            -------------------------------
# Generated from Intellog Unique Number	CS_73_76/WELL/2913
WELL.         BOW VALLEY EXPLORATION         : Well_name    - WELL
LOC .         00/07-33-076-17W4/0            : Location     - LOCATION
UWI .         00/07-33-076-17W4/0            : Uwi          - UNIQUE WELL ID
ENTR.         SP                             : Entered      - ENTERED BY
SRVC.         SCHLUMBERGER                   : Scn          - SERVICE COMPANY
STRT.M        340                            : top_depth    - START DEPTH
STOP.M        563                            : bot_depth    - STOP DEPTH
STEP.M        0.25                           : increment    - STEP LENGTH
 NULL. -999.2500:NULL Value
~CURVE INFORMATION BLOCK
#MNEM UNIT       ERCB CURVE CODE    CURVE DESCRIPTION
#-----------   ------------------   ----------------------------------
DEPT.M        00 001 00 00         : DEPTH        - DEPTH
GR  .API      00 310 00 00         : GR           - GAMMA RAY
NPHI.V/V      00 330 00 00         : PHIN         - NEUTRON POROSITY (LIMESTONE)
DPHI.V/V      00 890 00 00         : PHID         - DENSITY POROSITY (LIMESTONE)
ILD .OHMM     00 120 00 00         : RESD         - DEEP RESISTIVITY (DIL)
~PARAMETER INFORMATION
#MNEM.UNIT           DATA             DESCRIPTION OF MNEMONIC
#---------         -----------     ------------------------------
GL  .M        704.76               : gl           - GROUND LEVEL ELEVATION
EREF.M        709.26               : kb           - ELEVATION OF DEPTH REFERENCE
DATM.M        704.76               : datum        - DATUM ELEVATION
TDD .M        564                  : tdd          - TOTAL DEPTH DRILLER
RUN .         ONE                  : Run          - RUN NUMBER
ENG .         BILL                 : Engineer     - RECORDING ENGINEER
WIT .         JIM                  : Witness      - WITNESSED BY
MUD .         GEL                  : Mud_type     - MUD TYPE
MATR.         LIMESTONE            : Logunit      - NEUTRON MATRIX
TMAX.C        20                   : BHT          - MAXIMUM RECORDED TEMPERATURE
BHTD.M        564                  : BHTDEP       - MAXIMUM RECORDED TEMPERATURE
MATR.         1                    : LOGUNIT      - NEUTRON MATRIX
RMT .C        25                   : MDTP         - TEMPERATURE OF MUD
NEUT.         1                    : NEUTRON      - NEUTRON TYPE
RESI.         0                    : RESIST       - RESISTIVITY TYPE
RMC .OHMM     0.25                 : RMC          - RESISTIVITY OF MUD CAKE
RMF .OHMM     0.25                 : RMF          - RESISTIVITY OF MUD FILTRATE
SUFT.C        15                   : SUFT         - SURFACE TEMPERATURE
~A  DEPTH       GR     PHIN     PHID     RESD
# ...
  383.500   63.586    0.375    0.321   13.694
  383.750   62.968    0.380    0.314   13.698
  384.000   62.350    0.424    0.316   13.188
  384.250   62.353    0.425    0.308   12.697
  384.500   62.975    0.403    0.300   11.326
  384.750   64.216    0.414    0.297   10.104
  385.000   64.838    0.424    0.311    9.363
  385.250   66.700    0.419    0.309    8.677
  385.500   71.041    0.406    0.283    8.515
  385.750   75.382    0.401    0.250    8.517
  386.000   80.343    0.391    0.262    8.683
  386.250   88.402    0.381    0.259    8.685
  386.500   88.404    0.373    0.305    8.687
  386.750   79.729    0.383    0.293    8.364
  387.000   78.491    0.382    0.282    8.208
  387.250   80.972    0.375    0.253    7.902
  387.500   84.073    0.362    0.261    7.464
  387.750   82.216    0.346    0.225    6.659
  388.000   80.359    0.347    0.226    6.171
  388.250   79.742    0.356    0.243    5.719
  388.500   79.124    0.401    0.237    5.506
  388.750   79.126    0.434    0.273    5.301
  389.000   80.987    0.443    0.271    5.302
  389.250   83.469    0.437    0.242    5.616
  389.500   86.570    0.439    0.216    6.669
  389.750   87.192    0.438    0.215    8.073
  390.000   84.714    0.432    0.194   10.153
  390.250   82.857    0.419    0.203   12.291
  390.500   78.520    0.412    0.208   15.755
  390.750   61.786    0.386    0.309   19.071
  391.000   52.491    0.394    0.304   20.985
  391.250   45.055    0.384    0.327   18.721
  391.500   41.958    0.360    0.326   16.383
  391.750   38.241    0.342    0.326   15.183
  392.000   36.384    0.348    0.319   14.342
  392.250   38.865    0.358    0.321   13.808
  392.500   40.727    0.363    0.330   13.812
  392.750   41.349    0.366    0.338   13.815
  393.000   39.491    0.381    0.312   13.818
  393.250   37.014    0.373    0.324   14.087
  393.500   37.637    0.358    0.335   14.091
  393.750   38.878    0.345    0.335   14.365
  394.000   40.120    0.348    0.322   14.098
  394.250   39.502    0.350    0.343   14.100
  394.500   38.884    0.351    0.331   14.376
  394.750   39.506    0.356    0.320   14.107
  395.000   40.748    0.362    0.323   14.110
  395.250   40.749    0.367    0.328   13.848
  395.500   42.611    0.364    0.307   13.851
  395.750   43.853    0.362    0.314   13.854
  396.000   43.855    0.362    0.326   13.858
  396.250   43.237    0.363    0.339   13.860
  396.500   46.339    0.371    0.344   13.863
  396.750   48.200    0.382    0.337   13.604
  397.000   49.442    0.382    0.328   13.609
  397.250   48.205    0.386    0.330   13.611
  397.500   46.347    0.394    0.326   13.614
  397.750   45.730    0.387    0.325   13.618
  398.000   45.731    0.371    0.331   13.621
  398.250   44.493    0.389    0.317   13.624
  398.500   42.636    0.394    0.312   13.369
  398.750   42.018    0.392    0.317   13.120
  399.000   42.020    0.358    0.325   12.632
  399.250   42.023    0.315    0.295   12.162
  399.500   42.645    0.332    0.253   11.709
  399.750   44.506    0.346    0.262   11.711
  400.000   46.988    0.340    0.351   11.940
  400.250   46.990    0.361    0.355   11.943
  400.500   45.133    0.398    0.337   12.176
  400.750   44.515    0.395    0.326   12.178
  401.000   43.278    0.379    0.315   12.181
  401.250   42.659    0.387    0.311   12.184
  401.500   43.281    0.394    0.322   12.188
  401.750   45.762    0.397    0.339   12.425
  402.000   43.285    0.402    0.333   12.429
  402.250   42.048    0.380    0.305   12.672
  402.500   41.430    0.393    0.289   12.674
  402.750   39.572    0.404    0.308   12.921
  403.000   37.715    0.394    0.322   12.923
  403.250   38.337    0.383    0.318   12.926
  403.500   45.157    0.398    0.299   12.685
  403.750   46.399    0.401    0.302   12.448
  404.000   47.641    0.399    0.341   12.451
  404.250   47.023    0.406    0.301   12.454
  404.500   46.405    0.393    0.294   12.697
  404.750   44.548    0.387    0.320   12.701
  405.000   43.310    0.393    0.313   12.702
  405.250   42.692    0.393    0.302   12.951
  405.500   41.455    0.387    0.297   12.954
  405.750   42.077    0.390    0.347   12.712
  406.000   43.938    0.393    0.320   12.715
  406.250   43.941    0.392    0.312   12.719
  406.500   43.943    0.394    0.306   12.722
  406.750   44.565    0.401    0.328   12.724
  407.000   43.947    0.404    0.333   12.726
  407.250   45.189    0.404    0.327   12.730
  407.500   47.670    0.408    0.301   12.492
  407.750   49.532    0.416    0.287   12.259
  408.000   50.774    0.396    0.295   12.498
  408.250   50.156    0.387    0.290   12.742
  408.500   48.298    0.391    0.315   12.990
  408.750   47.061    0.398    0.310   13.499
  409.000   45.823    0.385    0.308   14.573
  409.250   45.825    0.375    0.316   16.345
  409.500   47.687    0.365    0.311   19.044
  409.750   52.647    0.369    0.297   23.053
  410.000   54.509    0.359    0.296   24.889
  410.250   57.610    0.343    0.280   19.058
  410.500   68.150    0.321    0.247   17.328
  410.750   66.912    0.276    0.214   15.164
  411.000   54.517    0.339    0.102   13.527
  411.250   53.280    0.315    0.311   13.275
  411.500   53.902    0.374    0.312   13.794
  411.750   53.904    0.395    0.282   14.335
  412.000   54.526    0.404    0.284   15.774
  412.250   58.247    0.381    0.297   16.390
  412.500   50.191    0.384    0.313   18.384
  412.750   48.334    0.401    0.313   21.420
  413.000   48.336    0.391    0.334   24.487
  413.250   48.338    0.369    0.302   26.945
  413.500   48.340    0.337    0.206   30.220
  413.750   47.102    0.305    0.071   34.547
  414.000   45.245    0.282    0.133   38.013
  414.250   42.767    0.266    0.161   45.146
  414.500   44.629    0.257    0.153   52.604
  414.750   44.631    0.249    0.097   57.886
  415.000   44.013    0.231    0.082   53.644
  415.250   42.776    0.193    0.060   41.076
  415.500   40.299    0.155    0.019   33.949
  415.750   38.441    0.161    0.000   30.283
  416.000   40.303    0.192    0.000   25.029
  416.250   44.643    0.272    0.085   20.686
  416.500   48.364    0.303    0.235   17.097
  416.750   50.226    0.369    0.369   15.544
  417.000   50.849    0.380    0.353   13.347
  417.250   53.329    0.373    0.359   12.136
  417.500   55.811    0.374    0.359   11.463
  417.750   54.573    0.381    0.372   10.623
  418.000   51.477    0.400    0.380   10.034
  418.250   50.239    0.421    0.367    9.661
  418.500   52.101    0.451    0.364    9.301
  418.750   53.962    0.453    0.354    9.304
  419.000   55.823    0.435    0.339    9.306
  419.250   56.445    0.414    0.361    9.308
  419.500   56.447    0.397    0.343    9.490
  419.750   55.830    0.385    0.320    9.491
  420.000   53.972    0.394    0.297    9.863
  420.250   48.396    0.411    0.248   10.249
  420.500   46.538    0.400    0.364   10.449
  420.750   44.681    0.407    0.332   10.452
  421.000   44.063    0.413    0.338   10.454
  421.250   49.644    0.416    0.325   10.457
  421.500   50.266    0.418    0.320   10.459
  421.750   47.169    0.413    0.335   10.663
  422.000   44.691    0.402    0.353   10.666
  422.250   44.074    0.382    0.359   10.668
  422.500   42.837    0.387    0.332   10.670
  422.750   40.979    0.402    0.323   10.673
  423.000   39.741    0.410    0.329   10.678
  423.250   40.363    0.417    0.338   10.679
  423.500   42.844    0.410    0.338   10.887
  423.750   44.706    0.406    0.322   10.889
  424.000   46.567    0.417    0.310   10.892
  424.250   48.429    0.426    0.304   10.688
  424.500   48.431    0.416    0.303   10.691
  424.750   46.574    0.397    0.340   10.693
  425.000   43.477    0.387    0.339   11.112
  425.250   39.140    0.399    0.327   11.116
  425.500   37.902    0.427    0.323   11.118
  425.750   39.764    0.415    0.324   11.120
  426.000   39.766    0.397    0.317   11.122
  426.250   39.768    0.396    0.318   11.126
  426.500   39.770    0.402    0.313   11.128
  426.750   41.012    0.395    0.322   11.130
