~VERSION INFORMATION
 VERS.                 2.0:   CWLS LOG ASCII STANDARD -VERSION 2.0
 WRAP.                  NO:   ONE LINE PER DEPTH STEP
~WELL INFORMATION BLOCK
#MNEM.UNIT           DATA                    DESCRIPTION OF MNEMONIC
#---------    -------------------            -------------------------------
# Generated from Intellog Unique Number	CS_77_79/WELL/838
WELL.         CANADIAN WORLDWIDE ENERGY      : Well_name    - WELL
LOC .         00/02-14-077-04W4/0            : Location     - LOCATION
UWI .         00/02-14-077-04W4/0            : Uwi          - UNIQUE WELL ID
ENTR.         SP                             : Entered      - ENTERED BY
SRVC.         SCHLUMBERGER                   : Scn          - SERVICE COMPANY
STRT.M        195                            : top_depth    - START DEPTH
STOP.M        470                            : bot_depth    - STOP DEPTH
STEP.M        0.25                           : increment    - STEP LENGTH
 NULL. -999.2500:NULL Value
~CURVE INFORMATION BLOCK
#MNEM UNIT       ERCB CURVE CODE    CURVE DESCRIPTION
#-----------   ------------------   ----------------------------------
DEPT.M        00 001 00 00         : DEPTH        - DEPTH
ILD .OHMM     00 120 00 00         : RESD         - DEEP RESISTIVITY (DIL)
DPHI.V/V      00 890 00 00         : PHID         - DENSITY POROSITY (LIMESTONE)
NPHI.V/V      00 330 00 00         : PHIN         - NEUTRON POROSITY (LIMESTONE)
GR  .API      00 310 00 00         : GR           - GAMMA RAY
~PARAMETER INFORMATION
#MNEM.UNIT           DATA             DESCRIPTION OF MNEMONIC
#---------         -----------     ------------------------------
GL  .M        572.1                : gl           - GROUND LEVEL ELEVATION
EREF.M        575.75               : kb           - ELEVATION OF DEPTH REFERENCE
DATM.M        572.1                : datum        - DATUM ELEVATION
TDD .M        471.9                : tdd          - TOTAL DEPTH DRILLER
RUN .         ONE                  : Run          - RUN NUMBER
ENG .         BILL                 : Engineer     - RECORDING ENGINEER
WIT .         JIM                  : Witness      - WITNESSED BY
MUD .         GEL                  : Mud_type     - MUD TYPE
MATR.         LIMESTONE            : Logunit      - NEUTRON MATRIX
TMAX.C        25                   : BHT          - MAXIMUM RECORDED TEMPERATURE
BHTD.M        471.9                : BHTDEP       - MAXIMUM RECORDED TEMPERATURE
MATR.         1                    : LOGUNIT      - NEUTRON MATRIX
RMT .C        25                   : MDTP         - TEMPERATURE OF MUD
NEUT.         1                    : NEUTRON      - NEUTRON TYPE
RESI.         0                    : RESIST       - RESISTIVITY TYPE
RMC .OHMM     0.25                 : RMC          - RESISTIVITY OF MUD CAKE
RMF .OHMM     0.25                 : RMF          - RESISTIVITY OF MUD FILTRATE
SUFT.C        15                   : SUFT         - SURFACE TEMPERATURE
~A  DEPTH     RESD     PHID     PHIN       GR
# ...
  325.500   11.589    0.285    0.312   78.424
  325.750   10.163    0.299    0.363   79.685
  326.000    9.791    0.308    0.390   80.332
  326.250    9.618    0.318    0.444   79.119
  326.500    9.272    0.313    0.428   79.764
  326.750    9.105    0.311    0.436   79.792
  327.000    8.775    0.303    0.456   75.455
  327.250    8.457    0.304    0.445   77.349
  327.500    8.306    0.296    0.441   79.861
  327.750    8.158    0.275    0.442   84.866
  328.000    8.165    0.266    0.453   89.869
  328.250    8.171    0.243    0.469   95.500
  328.500    8.337    0.233    0.451   99.256
  328.750    8.345    0.230    0.431   94.307
  329.000    8.511    0.239    0.427   91.218
  329.250    8.681    0.234    0.423   89.371
  329.500    8.854    0.229    0.396   89.398
  329.750    9.205    0.228    0.393   89.423
  330.000    9.570    0.230    0.427   90.066
  330.250    9.579    0.230    0.432   91.336
  330.500    9.770    0.236    0.390   87.630
  330.750    9.594    0.246    0.378   87.654
  331.000    9.247    0.274    0.389   88.300
  331.250    8.583    0.279    0.413   87.085
  331.500    8.117    0.270    0.433   88.352
  331.750    7.970    0.254    0.440   85.892
  332.000    7.540    0.265    0.446   83.421
  332.250    7.403    0.268    0.457   84.073
  332.500    6.872    0.255    0.476   87.206
  332.750    6.257    0.244    0.489   91.590
  333.000    5.591    0.221    0.481   94.111
  333.250    5.186    0.235    0.461   94.753
  333.500    4.724    0.245    0.441   92.291
  333.750    4.302    0.245    0.506   92.939
  334.000    4.067    0.244    0.538   97.328
  334.250    3.774    0.251    0.536   98.588
  334.500    3.569    0.271    0.538  101.101
  334.750    3.375    0.278    0.547  103.619
  335.000    3.378    0.278    0.548  104.896
  335.250    3.382    0.278    0.528  105.530
  335.500    3.384    0.278    0.566   96.223
  335.750    3.518    0.274    0.555   93.133
  336.000    3.798    0.271    0.507   90.050
  336.250    4.179    0.263    0.442   90.072
  336.500    4.598    0.259    0.471   88.854
  336.750    5.061    0.262    0.492   85.146
  337.000    5.359    0.275    0.501   82.687
  337.250    6.011    0.281    0.472   80.838
  337.500    6.740    0.284    0.456   77.762
  337.750    7.700    0.301    0.454   76.531
  338.000    8.471    0.303    0.448   71.578
  338.250    9.323    0.291    0.398   65.998
  338.500    9.506    0.255    0.362   59.184
  338.750    9.337    0.179    0.327   57.962
  339.000    9.173    0.132    0.324   64.208
  339.250    8.674    0.245    0.346   71.705
  339.500    7.899    0.307    0.414   76.082
  339.750    7.330    0.304    0.462   80.471
  340.000    6.931    0.277    0.467   84.232
  340.250    6.807    0.259    0.447   87.365
  340.500    6.814    0.220    0.442   88.630
  340.750    7.087    0.219    0.448   89.286
  341.000    7.092    0.220    0.453   89.302
  341.250    7.098    0.221    0.454   90.584
  341.500    7.106    0.224    0.458   90.600
  341.750    7.113    0.226    0.473   86.888
  342.000    7.120    0.225    0.466   85.668
  342.250    6.992    0.236    0.471   85.693
  342.500    6.998    0.241    0.461   83.227
  342.750    7.002    0.242    0.458   86.372
  343.000    7.144    0.246    0.470   87.635
  343.250    7.149    0.248    0.466   86.414
  343.500    7.154    0.252    0.466   87.069
  343.750    7.301    0.260    0.456   87.713
  344.000    7.168    0.259    0.433   88.982
  344.250    7.040    0.252    0.401   91.496
  344.500    6.785    0.239    0.411   93.388
  344.750    6.417    0.233    0.428   89.676
  345.000    5.734    0.237    0.425   89.082
  345.250    5.320    0.235    0.407   91.599
  345.500    4.492    0.229    0.410   91.623
  345.750    3.938    0.224    0.435   91.644
  346.000    3.082    0.261    0.446   89.183
  346.250    2.702    0.289    0.461   89.205
  346.500    2.461    0.298    0.495   89.229
  346.750    2.371    0.292    0.549   86.144
  347.000    2.329    0.287    0.554   81.816
  347.250    2.332    0.287    0.537   82.462
  347.500    2.334    0.293    0.508   84.976
  347.750    2.337    0.293    0.489   88.112
  348.000    2.383    0.290    0.474   85.645
  348.250    2.431    0.288    0.502   88.159
  348.500    2.480    0.279    0.533   89.429
  348.750    2.529    0.270    0.530   87.588
  349.000    2.729    0.268    0.497   85.755
  349.250    3.119    0.267    0.471   84.536
  349.500    3.564    0.254    0.450   82.694
  349.750    3.997    0.239    0.430   81.466
  350.000    4.315    0.233    0.420   80.245
  350.250    4.749    0.232    0.416   82.145
  350.500    4.935    0.229    0.409   84.028
  350.750    5.129    0.227    0.406   86.554
  351.000    5.234    0.223    0.401   85.955
  351.250    5.237    0.218    0.397   85.982
  351.500    5.144    0.217    0.393   86.007
  351.750    4.864    0.217    0.392   86.031
  352.000    4.348    0.229    0.395   87.295
  352.250    4.034    0.259    0.431   89.805
  352.500    3.815    0.280    0.491   96.054
  352.750    3.746    0.281    0.505  103.549
  353.000    3.750    0.246    0.484  101.088
  353.250    3.753    0.233    0.464   93.649
  353.500    3.759    0.239    0.454   91.178
  353.750    3.761    0.245    0.451   90.585
  354.000    3.693    0.250    0.454   93.092
  354.250    3.627    0.243    0.459   95.608
  354.500    3.495    0.236    0.461   96.255
  354.750    3.369    0.233    0.469   98.769
  355.000    3.247    0.236    0.486  101.905
  355.250    3.250    0.235    0.503   95.093
  355.500    3.378    0.232    0.496   93.868
  355.750    3.381    0.227    0.488   92.646
  356.000    3.793    0.225    0.461   91.427
  356.250    3.941    0.223    0.433   90.827
  356.500    4.504    0.237    0.425   92.098
  356.750    5.052    0.250    0.445   90.881
  357.000    5.250    0.248    0.457   91.528
  357.250    5.562    0.240    0.434   90.310
  357.500    6.238    0.229    0.421   86.598
  357.750    6.483    0.223    0.396   79.154
  358.000    6.868    0.208    0.352   68.600
  358.250    7.138    0.180    0.319   56.177
  358.500    7.147    0.055    0.300   59.312
  358.750    6.888    0.218    0.291   63.073
  359.000    6.511    0.254    0.329   62.480
  359.250    5.820    0.262    0.368   64.992
  359.500    5.502    0.256    0.373   70.002
  359.750    4.919    0.234    0.372   73.130
  360.000    4.740    0.262    0.373   75.022
  360.250    4.654    0.294    0.383   70.693
  360.500    4.403    0.304    0.385   71.340
  360.750    4.324    0.305    0.378   75.101
  361.000    4.166    0.298    0.374   73.883
  361.250    3.867    0.281    0.371   70.175
  361.500    3.657    0.276    0.390   65.216
  361.750    3.524    0.273    0.407   66.484
  362.000    3.397    0.269    0.413   80.207
  362.250    3.337    0.264    0.424   88.316
  362.500    3.277    0.261    0.427   82.125
  362.750    3.342    0.281    0.406   74.052
  363.000    3.409    0.292    0.369   44.827
  363.250    3.543    0.291    0.328   38.007
  363.500    3.683    0.296    0.324   39.903
  363.750    3.904    0.301    0.328   34.327
  364.000    4.058    0.301    0.331   28.125
  364.250    4.218    0.297    0.329   30.642
  364.500    4.385    0.286    0.315   44.981
  364.750    4.558    0.267    0.312   57.450
  365.000    4.650    0.259    0.320   65.573
  365.250    4.743    0.252    0.334   68.085
  365.500    4.837    0.260    0.337   68.728
  365.750    4.841    0.266    0.343   70.622
  366.000    4.938    0.266    0.358   72.516
  366.250    5.036    0.266    0.361   71.919
  366.500    5.040    0.269    0.353   74.432
  366.750    5.144    0.269    0.352   75.077
  367.000    5.147    0.268    0.355   68.256
  367.250    5.249    0.268    0.359   71.402
  367.500    5.357    0.268    0.354   73.284
  367.750    5.361    0.260    0.353   75.800
  368.000    5.468    0.246    0.358   77.690
  368.250    5.475    0.239    0.360   80.832
  368.500    5.479    0.248    0.353   74.628
  368.750    5.482    0.266    0.365   64.077
