~VERSION INFORMATION
 VERS.                 2.0:   CWLS LOG ASCII STANDARD -VERSION 2.0
 WRAP.                  NO:   ONE LINE PER DEPTH STEP
~WELL INFORMATION BLOCK
#MNEM.UNIT           DATA                    DESCRIPTION OF MNEMONIC
#---------    -------------------            -------------------------------
# Generated from Intellog Unique Number	CS_77_79/WELL/900
WELL.         DOME PETROLEUM LIMITED         : Well_name    - WELL
LOC .         00/07-19-077-16W4/0            : Location     - LOCATION
UWI .         00/07-19-077-16W4/0            : Uwi          - UNIQUE WELL ID
ENTR.         SP                             : Entered      - ENTERED BY
SRVC.         SCHLUMBERGER                   : Scn          - SERVICE COMPANY
STRT.M        240                            : top_depth    - START DEPTH
STOP.M        460                            : bot_depth    - STOP DEPTH
STEP.M        0.25                           : increment    - STEP LENGTH
 NULL. -999.2500:NULL Value
~CURVE INFORMATION BLOCK
#MNEM UNIT       ERCB CURVE CODE    CURVE DESCRIPTION
#-----------   ------------------   ----------------------------------
DEPT.M        00 001 00 00         : DEPTH        - DEPTH
ILD .OHMM     00 120 00 00         : RESD         - DEEP RESISTIVITY (DIL)
DPHI.V/V      00 890 00 00         : PHID         - DENSITY POROSITY (LIMESTONE)
NPHI.V/V      00 330 00 00         : PHIN         - NEUTRON POROSITY (LIMESTONE)
GR  .API      00 310 00 00         : GR           - GAMMA RAY
~PARAMETER INFORMATION
#MNEM.UNIT           DATA             DESCRIPTION OF MNEMONIC
#---------         -----------     ------------------------------
GL  .M        624.8                : gl           - GROUND LEVEL ELEVATION
EREF.M        628.94               : kb           - ELEVATION OF DEPTH REFERENCE
DATM.M        624.8                : datum        - DATUM ELEVATION
TDD .M        467                  : tdd          - TOTAL DEPTH DRILLER
RUN .         ONE                  : Run          - RUN NUMBER
ENG .         BILL                 : Engineer     - RECORDING ENGINEER
WIT .         JIM                  : Witness      - WITNESSED BY
MUD .         GEL                  : Mud_type     - MUD TYPE
MATR.         LIMESTONE            : Logunit      - NEUTRON MATRIX
TMAX.C        21                   : BHT          - MAXIMUM RECORDED TEMPERATURE
BHTD.M        467                  : BHTDEP       - MAXIMUM RECORDED TEMPERATURE
MATR.         1                    : LOGUNIT      - NEUTRON MATRIX
RMT .C        25                   : MDTP         - TEMPERATURE OF MUD
NEUT.         1                    : NEUTRON      - NEUTRON TYPE
RESI.         0                    : RESIST       - RESISTIVITY TYPE
RMC .OHMM     0.25                 : RMC          - RESISTIVITY OF MUD CAKE
RMF .OHMM     0.25                 : RMF          - RESISTIVITY OF MUD FILTRATE
SUFT.C        15                   : SUFT         - SURFACE TEMPERATURE
~A  DEPTH     RESD     PHID     PHIN       GR
# ...
  414.000    7.951    0.200    0.406   94.267
  414.250    8.106    0.207    0.417   93.061
  414.500    8.110    0.200    0.420   91.852
  414.750    8.267    0.189    0.428   90.649
  415.000    8.273    0.179    0.414   91.276
  415.250    8.275    0.171    0.404   91.897
  415.500    8.128    0.163    0.396   93.749
  415.750    8.131    0.160    0.393   94.980
  416.000    7.692    0.156    0.401   96.826
  416.250    7.695    0.169    0.404   98.059
  416.500    7.012    0.157    0.429   99.288
  416.750    6.633    0.161    0.448  100.520
  417.000    6.513    0.168    0.453  101.755
  417.250    6.161    0.181    0.442  102.383
  417.500    6.049    0.194    0.424  101.784
  417.750    5.829    0.212    0.414   99.973
  418.000    5.619    0.228    0.413   98.764
  418.250    5.416    0.240    0.413   97.565
  418.500    5.317    0.248    0.413   96.964
  418.750    5.222    0.228    0.408   97.588
  419.000    5.033    0.213    0.406  100.046
  419.250    4.851    0.208    0.414  100.670
  419.500    4.762    0.216    0.422   98.243
  419.750    4.339    0.238    0.434   97.037
  420.000    3.954    0.258    0.456   95.839
  420.250    3.470    0.278    0.476   96.457
  420.500    3.103    0.303    0.502   96.469
  420.750    2.723    0.321    0.544   94.052
  421.000    2.481    0.315    0.577   92.841
  421.250    2.178    0.292    0.597   91.028
  421.500    2.099    0.280    0.590   90.435
  421.750    2.061    0.277    0.585   91.664
  422.000    2.141    0.271    0.597   95.341
  422.250    2.223    0.269    0.602   95.361
  422.500    2.536    0.262    0.553   95.371
  422.750    3.118    0.256    0.491   94.161
  423.000    3.833    0.249    0.452   89.297
  423.250    4.371    0.240    0.451   94.804
  423.500    4.986    0.225    0.459   97.868
  423.750    5.377    0.217    0.455   99.713
  424.000    5.584    0.228    0.441   97.282
  424.250    5.801    0.224    0.425   93.641
  424.500    5.806    0.220    0.411   91.825
  424.750    5.918    0.205    0.402   91.843
  425.000    5.811    0.204    0.398   93.686
  425.250    5.706    0.210    0.401   92.483
  425.500    5.708    0.202    0.411   91.882
  425.750    5.400    0.208    0.424   92.510
  426.000    5.108    0.208    0.448   94.961
  426.250    4.832    0.214    0.470   95.590
  426.500    4.657    0.216    0.476   94.381
  426.750    4.488    0.217    0.485   93.787
  427.000    4.325    0.222    0.491   96.243
  427.250    4.168    0.238    0.492   97.474
  427.500    4.093    0.234    0.480   98.708
  427.750    3.945    0.214    0.476  101.160
  428.000    3.947    0.203    0.464   98.735
  428.250    3.949    0.195    0.450   93.874
  428.500    4.026    0.187    0.432   85.349
  428.750    4.028    0.186    0.419   79.880
  429.000    4.107    0.184    0.428   79.894
  429.250    4.108    0.173    0.467   84.784
  429.500    4.189    0.159    0.489   93.338
  429.750    4.191    0.147    0.495  100.670
  430.000    4.353    0.147    0.490  102.517
  430.250    4.437    0.160    0.474  103.135
  430.500    4.785    0.169    0.465  105.587
  430.750    5.063    0.180    0.456  109.260
  431.000    5.669    0.194    0.444  111.111
  431.250    6.228    0.205    0.432  111.118
  431.500    6.972    0.213    0.385   82.475
  431.750    7.518    0.218    0.357   64.196
  432.000    7.664    0.222    0.337   56.286
  432.250    7.668    0.234    0.405   63.008
  432.500    7.254    0.242    0.433   70.950
  432.750    6.609    0.226    0.469   77.668
  433.000    5.382    0.212    0.496   92.928
  433.250    4.382    0.198    0.509   92.333
  433.500    3.919    0.186    0.467   89.301
  433.750    4.148    0.178    0.431   87.483
  434.000    4.644    0.177    0.389   87.504
  434.250    5.602    0.186    0.374   91.781
  434.500    7.150    0.190    0.384  105.820
  434.750    7.709    0.201    0.386  112.542
  435.000    8.159    0.229    0.378  108.290
  435.250    8.635    0.262    0.364   94.893
  435.500    9.488    0.277    0.349   84.537
  435.750   10.821    0.288    0.329   69.916
  436.000   12.575    0.296    0.317   55.906
  436.250   17.627    0.301    0.303   47.992
  436.500   22.495    0.308    0.306   40.081
  436.750   28.173    0.314    0.314   39.488
  437.000   33.992    0.311    0.301   40.115
  437.250   41.013    0.301    0.302   43.177
  437.500   42.601    0.290    0.331   46.237
  437.750   41.830    0.276    0.345   49.911
  438.000   36.718    0.264    0.359   54.192
  438.250   32.828    0.251    0.366   63.355
  438.500   26.242    0.237    0.358   65.807
  438.750   23.467    0.251    0.342   65.823
  439.000   21.784    0.256    0.319   67.058
  439.250   20.994    0.257    0.325   62.802
  439.500   21.402    0.259    0.335   65.257
  439.750   21.818    0.262    0.337   67.712
  440.000   23.527    0.277    0.332   67.724
  440.250   25.851    0.281    0.327   62.861
  440.500   27.875    0.280    0.326   59.827
  440.750   29.501    0.286    0.331   58.010
  441.000   31.224    0.291    0.339   59.855
  441.250   33.046    0.288    0.331   65.357
  441.500   33.061    0.281    0.322   62.326
  441.750   33.080    0.263    0.316   56.849
  442.000   31.882    0.243    0.312   50.157
  442.250   30.727    0.221    0.316   49.562
  442.500   29.611    0.210    0.340   66.043
  442.750   27.488    0.186    0.346   73.372
  443.000   20.005    0.176    0.351   80.704
  443.250   16.602    0.174    0.350   85.596
  443.500   15.408    0.174    0.349   88.662
  443.750   13.273    0.172    0.356   90.505
  444.000   12.092    0.171    0.361   92.350
  444.250   11.019    0.166    0.369   94.192
  444.500   10.822    0.164    0.367   94.817
  444.750   11.031    0.158    0.354   96.049
  445.000   11.036    0.170    0.335   96.064
  445.250   11.044    0.170    0.318   94.858
  445.500   11.048    0.164    0.313   91.829
  445.750   10.849    0.157    0.325   89.403
  446.000    9.520    0.155    0.331   89.416
  446.250    8.201    0.159    0.339   93.090
  446.500    7.334    0.162    0.401  102.249
  446.750    7.068    0.173    0.447  112.023
  447.000    7.343    0.183    0.429  111.425
  447.250    7.918    0.191    0.374  105.342
  447.500    8.378    0.199    0.325   96.820
  447.750    9.740    0.202    0.309   91.345
  448.000   10.700    0.210    0.314   85.871
  448.250   12.435    0.218    0.324   83.447
  448.500   13.661    0.212    0.349   82.246
  448.750   14.458    0.209    0.365   81.647
  449.000   14.197    0.206    0.375   81.666
  449.250   13.430    0.190    0.377   82.899
  449.500   11.567    0.172    0.374   85.353
  449.750   10.539    0.169    0.372   87.803
  450.000    9.425    0.165    0.376  115.868
  450.250    8.752    0.167    0.380  115.274
  450.500    8.593    0.168    0.378  110.412
  450.750    8.436    0.168    0.363  106.155
  451.000    8.441    0.168    0.354  100.684
  451.250    8.935    0.169    0.355   98.867
  451.500    9.279    0.179    0.366  100.716
  451.750   10.195    0.191    0.373  101.944
  452.000   11.849    0.216    0.379  101.961
  452.250   13.264    0.233    0.379   93.440
  452.500   14.848    0.235    0.379   88.573
  452.750   16.625    0.222    0.368   82.490
  453.000   17.926    0.205    0.346   75.799
  453.250   18.971    0.208    0.327   70.934
  453.500   18.631    0.205    0.310   71.559
  453.750   18.637    0.186    0.310   78.892
  454.000   17.302    0.189    0.331   87.441
  454.250   14.091    0.199    0.348   95.991
  454.500   12.602    0.208    0.367   95.401
  454.750   12.142    0.198    0.373   96.024
  455.000   10.861    0.197    0.365   96.040
  455.250   10.466    0.207    0.351   97.270
  455.500    9.718    0.201    0.349  102.166
  455.750    9.541    0.210    0.347  102.786
  456.000    9.368    0.213    0.346   99.754
  456.250    9.373    0.206    0.351   97.942
  456.500    9.555    0.211    0.367   97.347
  456.750    9.742    0.199    0.385   99.186
  457.000    9.931    0.178    0.412  102.250
  457.250   10.314    0.159    0.401   95.558
