~VERSION INFORMATION
 VERS.                 2.0:   CWLS LOG ASCII STANDARD -VERSION 2.0
 WRAP.                  NO:   ONE LINE PER DEPTH STEP
~WELL INFORMATION BLOCK
#MNEM.UNIT           DATA                    DESCRIPTION OF MNEMONIC
#---------    -------------------            -------------------------------
# Generated from Intellog Unique Number	CS_67_68/WELL/786
WELL.         DOME PETROLEUM LIMITED         : Well_name    - WELL
LOC .         00/09-05-068-03W4/0            : Location     - LOCATION
UWI .         00/09-05-068-03W4/0            : Uwi          - UNIQUE WELL ID
ENTR.         SP                             : Entered      - ENTERED BY
SRVC.         SCHLUMBERGER                   : Scn          - SERVICE COMPANY
STRT.M        345                            : top_depth    - START DEPTH
STOP.M        577                            : bot_depth    - STOP DEPTH
STEP.M        0.25                           : increment    - STEP LENGTH
 NULL. -999.2500:NULL Value
~CURVE INFORMATION BLOCK
#MNEM UNIT       ERCB CURVE CODE    CURVE DESCRIPTION
#-----------   ------------------   ----------------------------------
DEPT.M        00 001 00 00         : DEPTH        - DEPTH
ILD .OHMM     00 120 00 00         : RESD         - DEEP RESISTIVITY (DIL)
DPHI.V/V      00 890 00 00         : PHID         - DENSITY POROSITY (LIMESTONE)
NPHI.V/V      00 330 00 00         : PHIN         - NEUTRON POROSITY (LIMESTONE)
GR  .API      00 310 00 00         : GR           - GAMMA RAY
~PARAMETER INFORMATION
#MNEM.UNIT           DATA             DESCRIPTION OF MNEMONIC
#---------         -----------     ------------------------------
GL  .M        705.08               : gl           - GROUND LEVEL ELEVATION
EREF.M        709                  : kb           - ELEVATION OF DEPTH REFERENCE
DATM.M        705.08               : datum        - DATUM ELEVATION
TDD .M        583                  : tdd          - TOTAL DEPTH DRILLER
RUN .         ONE                  : Run          - RUN NUMBER
ENG .         BILL                 : Engineer     - RECORDING ENGINEER
WIT .         JIM                  : Witness      - WITNESSED BY
MUD .         GEL                  : Mud_type     - MUD TYPE
MATR.         LIMESTONE            : Logunit      - NEUTRON MATRIX
TMAX.C        23.3                 : BHT          - MAXIMUM RECORDED TEMPERATURE
BHTD.M        583                  : BHTDEP       - MAXIMUM RECORDED TEMPERATURE
MATR.         1                    : LOGUNIT      - NEUTRON MATRIX
RMT .C        25                   : MDTP         - TEMPERATURE OF MUD
NEUT.         1                    : NEUTRON      - NEUTRON TYPE
RESI.         0                    : RESIST       - RESISTIVITY TYPE
RMC .OHMM     0.25                 : RMC          - RESISTIVITY OF MUD CAKE
RMF .OHMM     0.25                 : RMF          - RESISTIVITY OF MUD FILTRATE
SUFT.C        15                   : SUFT         - SURFACE TEMPERATURE
~A  DEPTH     RESD     PHID     PHIN       GR
# ...
  432.000    6.697    0.349    0.470   51.861
  432.250    6.660    0.344    0.458   56.236
  432.500    6.649    0.340    0.445   60.185
  432.750    6.662    0.339    0.434   62.858
  433.000    6.700    0.333    0.428   63.890
  433.250    6.689    0.315    0.424   62.734
  433.500    6.665    0.297    0.426   60.606
  433.750    6.629    0.326    0.454   59.632
  434.000    6.605    0.351    0.473   56.531
  434.250    6.569    0.360    0.480   54.768
  434.500    6.522    0.361    0.467   54.888
  434.750    6.486    0.357    0.455   54.583
  435.000    6.451    0.355    0.442   54.156
  435.250    6.393    0.356    0.433   53.425
  435.500    6.370    0.360    0.431   52.816
  435.750    6.371    0.364    0.432   52.390
  436.000    6.383    0.365    0.433   52.024
  436.250    6.396    0.363    0.447   51.658
  436.500    6.385    0.362    0.461   51.779
  436.750    6.421    0.363    0.460   52.507
  437.000    6.470    0.368    0.453   52.992
  437.250    6.495    0.362    0.443   53.295
  437.500    6.520    0.360    0.437   52.990
  437.750    6.569    0.364    0.437   52.016
  438.000    6.606    0.363    0.439   52.501
  438.250    6.669    0.357    0.447   54.020
  438.500    6.744    0.350    0.437   55.173
  438.750    6.808    0.346    0.423   55.294
  439.000    6.872    0.352    0.423   54.684
  439.250    6.924    0.353    0.446   54.866
  439.500    7.002    0.348    0.461   56.809
  439.750    7.055    0.338    0.469   55.714
  440.000    7.095    0.327    0.441   53.282
  440.250    7.109    0.331    0.420   53.342
  440.500    7.097    0.336    0.416   53.887
  440.750    7.072    0.335    0.419   54.798
  441.000    7.020    0.337    0.406   55.283
  441.250    6.918    0.338    0.391   56.011
  441.500    6.655    0.330    0.393   56.375
  441.750    5.945    0.327    0.406   54.854
  442.000    5.783    0.325    0.411   53.880
  442.250    6.046    0.319    0.424   54.365
  442.500    6.476    0.313    0.443   55.944
  442.750    6.709    0.331    0.450   56.916
  443.000    6.785    0.337    0.443   57.462
  443.250    6.773    0.339    0.429   57.703
  443.500    6.761    0.343    0.413   54.299
  443.750    6.750    0.351    0.403   49.800
  444.000    6.713    0.358    0.404   49.252
  444.250    6.628    0.351    0.408   52.654
  444.500    6.531    0.342    0.410   56.360
  444.750    6.329    0.333    0.420   58.243
  445.000    5.728    0.327    0.423   61.403
  445.250    4.682    0.335    0.416   65.231
  445.500    3.770    0.340    0.410   70.031
  445.750    3.444    0.295    0.416   76.351
  446.000    3.338    0.269    0.463   84.251
  446.250    3.271    0.248    0.505   88.626
  446.500    3.271    0.256    0.511   91.481
  446.750    3.284    0.257    0.499   92.999
  447.000    3.278    0.256    0.490   93.971
  447.250    3.291    0.261    0.483   95.185
  447.500    3.334    0.274    0.481   92.996
  447.750    3.422    0.270    0.485   90.442
  448.000    3.672    0.261    0.486   90.015
  448.250    3.999    0.273    0.491   90.561
  448.500    4.363    0.295    0.505   87.095
  448.750    4.885    0.322    0.499   80.226
  449.000    5.340    0.340    0.509   74.147
  449.250    5.804    0.347    0.508   64.604
  449.500    6.380    0.351    0.499   60.044
  449.750    6.634    0.354    0.494   57.308
  450.000    6.923    0.354    0.484   55.484
  450.250    7.146    0.349    0.475   57.063
  450.500    7.240    0.345    0.460   59.371
  450.750    7.362    0.346    0.449   61.194
  451.000    7.473    0.348    0.443   62.529
  451.250    7.544    0.349    0.460   61.191
  451.500    7.643    0.347    0.453   60.278
  451.750    7.730    0.342    0.453   59.183
  452.000    7.788    0.339    0.457   58.513
  452.250    7.848    0.336    0.451   58.086
  452.500    7.207    0.337    0.446   58.085
  452.750    7.289    0.336    0.440   58.327
  453.000    7.481    0.332    0.446   58.751
  453.250    7.664    0.332    0.464   59.176
  453.500    8.028    0.334    0.471   59.539
  453.750    8.379    0.327    0.459   59.842
  454.000    8.568    0.324    0.448   60.023
  454.250    8.762    0.331    0.441   60.144
  454.500    8.910    0.338    0.457   60.082
  454.750    9.027    0.340    0.457   59.716
  455.000    9.028    0.328    0.456   59.289
  455.250    8.930    0.319    0.458   56.249
  455.500    8.898    0.328    0.450   57.525
  455.750    8.850    0.327    0.444   59.954
  456.000    8.818    0.323    0.451   57.218
  456.250    8.771    0.326    0.451   54.664
  456.500    8.821    0.333    0.461   54.177
  456.750    8.822    0.332    0.470   55.756
  457.000    8.855    0.324    0.462   58.855
  457.250    8.906    0.321    0.449   57.638
  457.500    8.907    0.324    0.440   56.300
  457.750    8.875    0.326    0.432   57.453
  458.000    8.909    0.326    0.447   59.458
  458.250    8.944    0.319    0.463   60.490
  458.500    8.978    0.311    0.483   61.522
  458.750    8.831    0.305    0.474   62.919
  459.000    8.590    0.304    0.466   64.862
  459.250    8.356    0.309    0.460   64.436
  459.500    7.876    0.311    0.455   62.490
  459.750    7.493    0.318    0.459   60.665
  460.000    7.076    0.336    0.476   59.509
  460.250    6.670    0.348    0.485   61.514
  460.500    6.369    0.339    0.473   63.397
  460.750    6.059    0.334    0.460   60.660
  461.000    5.960    0.337    0.452   62.908
  461.250    5.884    0.330    0.451   66.918
  461.500    5.863    0.314    0.448   72.022
  461.750    5.885    0.297    0.444   75.607
  462.000    5.908    0.285    0.442   77.186
  462.250    5.986    0.284    0.455   78.279
  462.500    6.031    0.288    0.468   77.852
  462.750    6.054    0.292    0.465   75.846
  463.000    6.033    0.293    0.484   77.060
  463.250    5.967    0.289    0.501   76.208
  463.500    5.934    0.297    0.504   74.383
  463.750    5.935    0.315    0.486   73.410
  464.000    5.958    0.330    0.480   76.387
  464.250    5.992    0.342    0.482   80.154
  464.500    5.970    0.339    0.483   83.191
  464.750    5.818    0.328    0.481   80.455
  465.000    5.236    0.317    0.476   78.752
  465.250    4.499    0.305    0.493   83.188
  465.500    4.019    0.297    0.515   85.071
  465.750    3.692    0.291    0.516   84.279
  466.000    3.435    0.289    0.497   82.273
  466.250    3.539    0.288    0.497   79.293
  466.500    3.762    0.289    0.502   76.436
  466.750    4.105    0.301    0.491   79.230
  467.000    4.268    0.313    0.485   82.450
  467.250    3.456    0.327    0.485   84.516
  467.500    2.794    0.319    0.486   82.691
  467.750    2.528    0.308    0.492   80.502
  468.000    2.374    0.304    0.525   85.120
  468.250    2.297    0.305    0.559   87.732
  468.500    2.402    0.298    0.556   88.035
  468.750    2.534    0.272    0.552   90.343
  469.000    2.679    0.257    0.555   93.746
  469.250    2.918    0.255    0.552   97.756
  469.500    3.261    0.264    0.541   93.865
  469.750    3.679    0.273    0.527   86.327
  470.000    4.452    0.302    0.532   77.817
  470.250    5.299    0.334    0.517   71.617
  470.500    6.319    0.346    0.382   65.841
  470.750    6.595    0.345    0.399   60.613
  471.000    6.298    0.338    0.441   55.446
  471.250    6.229    0.337    0.463   54.533
  471.500    6.276    0.342    0.477   54.714
  471.750    6.501    0.342    0.469   55.807
  472.000    6.874    0.342    0.465   56.475
  472.250    7.267    0.341    0.461   56.717
  472.500    7.712    0.341    0.461   56.959
  472.750    8.244    0.341    0.474   56.714
  473.000    8.781    0.348    0.474   56.652
  473.250    9.440    0.352    0.463   56.469
  473.500    9.925    0.354    0.455   56.224
  473.750   10.669    0.349    0.445   56.406
  474.000   11.197    0.341    0.450   56.891
  474.250   11.281    0.340    0.458   57.011
  474.500   10.933    0.344    0.449   56.463
  474.750   10.479    0.344    0.436   54.699
  475.000   10.062    0.344    0.457   52.328
  475.250    9.788    0.346    0.475   51.536
