~VERSION INFORMATION
 VERS.                 2.0:   CWLS LOG ASCII STANDARD -VERSION 2.0
 WRAP.                  NO:   ONE LINE PER DEPTH STEP
~WELL INFORMATION BLOCK
#MNEM.UNIT           DATA                    DESCRIPTION OF MNEMONIC
#---------    -------------------            -------------------------------
# Generated from Intellog Unique Number	CS_73_76/WELL/2171
WELL.         UNIVERSAL EXPLORATIONS LT      : Well_name    - WELL
LOC .         00/06-33-074-13W4/0            : Location     - LOCATION
UWI .         00/06-33-074-13W4/0            : Uwi          - UNIQUE WELL ID
ENTR.         SP                             : Entered      - ENTERED BY
SRVC.         SCHLUMBERGER                   : Scn          - SERVICE COMPANY
STRT.M        371.856                        : top_depth    - START DEPTH
STOP.M        600.106                        : bot_depth    - STOP DEPTH
STEP.M        0.25                           : increment    - STEP LENGTH
 NULL. -999.2500:NULL Value
~CURVE INFORMATION BLOCK
#MNEM UNIT       ERCB CURVE CODE    CURVE DESCRIPTION
#-----------   ------------------   ----------------------------------
DEPT.M        00 001 00 00         : DEPTH        - DEPTH
GR  .API      00 310 00 00         : GR           - GAMMA RAY
DPHI.V/V      00 890 00 00         : PHID         - DENSITY POROSITY (SANDSTONE)
NPHI.V/V      00 330 00 00         : PHIN         - NEUTRON POROSITY (SANDSTONE)
ILD .OHMM     00 120 00 00         : RESD         - DEEP RESISTIVITY (DIL)
~PARAMETER INFORMATION
#MNEM.UNIT           DATA             DESCRIPTION OF MNEMONIC
#---------         -----------     ------------------------------
GL  .M        731.672              : gl           - GROUND LEVEL ELEVATION
EREF.M        734.873              : kb           - ELEVATION OF DEPTH REFERENCE
DATM.M        731.672              : datum        - DATUM ELEVATION
TDD .M        614.172              : tdd          - TOTAL DEPTH DRILLER
RUN .         ONE                  : Run          - RUN NUMBER
ENG .         BILL                 : Engineer     - RECORDING ENGINEER
WIT .         JIM                  : Witness      - WITNESSED BY
MUD .         GEL                  : Mud_type     - MUD TYPE
MATR.         SANDSTONE            : Logunit      - NEUTRON MATRIX
TMAX.C        25.5556              : BHT          - MAXIMUM RECORDED TEMPERATURE
BHTD.M        611.124              : BHTDEP       - MAXIMUM RECORDED TEMPERATURE
MATR.         1                    : LOGUNIT      - NEUTRON MATRIX
RMT .C        25                   : MDTP         - TEMPERATURE OF MUD
NEUT.         1                    : NEUTRON      - NEUTRON TYPE
RESI.         0                    : RESIST       - RESISTIVITY TYPE
RMC .OHMM     0.25                 : RMC          - RESISTIVITY OF MUD CAKE
RMF .OHMM     0.25                 : RMF          - RESISTIVITY OF MUD FILTRATE
SUFT.C        15                   : SUFT         - SURFACE TEMPERATURE
~A  DEPTH       GR     PHID     PHIN     RESD
# ...
  502.356   74.919    0.310    0.438    4.381
  502.606   75.438    0.305    0.446    4.313
  502.856   76.446    0.298    0.452    4.409
  503.106   77.487    0.291    0.452    4.414
  503.356   76.961    0.303    0.442    4.488
  503.606   75.132    0.309    0.439    4.486
  503.856   74.936    0.307    0.426    4.485
  504.106   75.463    0.301    0.420    4.554
  504.356   76.317    0.295    0.428    4.573
  504.606   77.960    0.286    0.421    4.576
  504.856   80.388    0.283    0.419    4.597
  505.106   80.340    0.290    0.427    4.673
  505.356   84.629    0.285    0.430    4.663
  505.606   79.281    0.274    0.423    4.717
  505.856   76.454    0.265    0.420    4.750
  506.106   75.056    0.275    0.421    4.754
  506.356   72.328    0.267    0.427    4.763
  506.606   70.358    0.253    0.435    4.660
  506.856   70.037    0.246    0.440    4.677
  507.106   76.475    0.240    0.446    4.573
  507.356   79.198    0.252    0.459    4.583
  507.606   79.493    0.281    0.461    4.584
  507.856   78.263    0.293    0.457    4.585
  508.106   77.253    0.288    0.456    4.586
  508.356   76.036    0.288    0.443    4.530
  508.606   75.530    0.282    0.434    4.505
  508.856   75.979    0.284    0.434    4.503
  509.106   78.951    0.290    0.436    4.505
  509.356   81.041    0.296    0.437    4.505
  509.606   81.614    0.289    0.436    4.506
  509.856   78.983    0.288    0.435    4.507
  510.106   77.063    0.286    0.433    4.508
  510.356   78.028    0.280    0.428    4.509
  510.606   77.962    0.277    0.439    4.511
  510.856   76.603    0.283    0.449    4.513
  511.106   76.599    0.278    0.457    4.603
  511.356   77.799    0.270    0.460    4.609
  511.606   80.164    0.255    0.460    4.434
  511.856   85.050    0.238    0.455    4.275
  512.106   89.528    0.246    0.442    3.840
  512.356   94.918    0.253    0.441    3.618
  512.606   96.012    0.238    0.451    3.796
  512.856   84.727    0.250    0.461    4.493
  513.106   76.091    0.245    0.462    5.314
  513.356   72.974    0.232    0.435    6.190
  513.606   71.675    0.175    0.392    7.708
  513.856   70.561    0.080    0.313    8.817
  514.106   71.274    0.083    0.330    7.959
  514.356   73.554    0.108    0.356    7.207
  514.606   75.011    0.152    0.366    6.456
  514.856   78.554    0.191    0.384    5.764
  515.106   81.401    0.232    0.407    5.366
  515.356   82.577    0.253    0.442    5.053
  515.606   86.524    0.266    0.434    4.779
  515.856   86.914    0.258    0.434    4.711
  516.106   86.026    0.250    0.440    4.712
  516.356   83.500    0.246    0.432    4.609
  516.606   80.418    0.254    0.426    4.617
  516.856   78.580    0.254    0.432    4.624
  517.106   79.014    0.270    0.437    4.529
  517.356   81.403    0.283    0.442    4.534
  517.606   84.352    0.293    0.447    4.533
  517.856   85.021    0.292    0.455    4.535
  518.106   83.695    0.276    0.442    4.663
  518.356   85.432    0.261    0.432    4.759
  518.606   87.290    0.243    0.428    5.074
  518.856   89.847    0.220    0.420    5.500
  519.106   87.298    0.186    0.414    5.962
  519.356   82.258    0.163    0.412    6.126
  519.606   79.341    0.144    0.400    6.234
  519.856   78.788    0.138    0.391    6.023
  520.106   80.696    0.184    0.407    5.737
  520.356   86.243    0.193    0.429    5.599
  520.606   85.457    0.202    0.427    5.610
  520.856   88.997    0.208    0.424    5.599
  521.106   90.555    0.217    0.431    5.723
  521.356   92.038    0.215    0.436    5.823
  521.606   91.366    0.204    0.437    5.814
  521.856   90.119    0.189    0.428    5.949
  522.106   91.266    0.196    0.419    5.949
  522.356   91.165    0.204    0.425    5.830
  522.606   89.471    0.211    0.433    5.706
  522.856   89.449    0.214    0.429    5.625
  523.106   91.313    0.203    0.429    5.464
  523.356   92.581    0.199    0.430    5.416
  523.606   94.104    0.201    0.439    5.499
  523.856   95.649    0.213    0.426    5.585
  524.106   98.513    0.218    0.413    5.735
  524.356  100.569    0.207    0.407    5.803
  524.606  102.883    0.208    0.408    5.816
  524.856  104.451    0.215    0.399    5.742
  525.106  105.214    0.213    0.393    5.629
  525.356  104.338    0.204    0.391    5.497
  525.606  101.802    0.205    0.390    5.159
  525.856   99.120    0.196    0.397    4.996
  526.106   96.573    0.193    0.407    4.844
  526.356   97.678    0.203    0.426    4.699
  526.606   92.383    0.205    0.432    4.569
  526.856   89.197    0.195    0.441    4.255
  527.106   90.403    0.173    0.439    3.740
  527.356   93.850    0.198    0.447    3.269
  527.606   95.310    0.211    0.439    2.636
  527.856   92.596    0.215    0.434    2.303
  528.106   90.322    0.233    0.454    1.997
  528.356   89.788    0.249    0.480    1.911
  528.606   89.768    0.249    0.530    1.852
  528.856   88.964    0.235    0.539    1.839
  529.106   88.425    0.241    0.541    1.839
  529.356   88.361    0.235    0.523    1.840
  529.606   89.761    0.240    0.508    1.841
  529.856   92.333    0.251    0.497    1.874
  530.106   94.270    0.231    0.509    1.921
  530.356   96.251    0.239    0.521    2.021
  530.606   96.848    0.229    0.518    2.158
  530.856   96.631    0.236    0.517    2.398
  531.106   93.898    0.231    0.511    2.619
  531.356   91.402    0.219    0.503    3.047
  531.606   86.770    0.191    0.474    4.071
  531.856   85.901    0.161    0.424    4.642
  532.106   85.782    0.173    0.414    4.983
  532.356   86.502    0.189    0.414    5.073
  532.606   88.918    0.185    0.416    5.129
  532.856   92.988    0.175    0.411    5.460
  533.106   93.563    0.178    0.408    5.569
  533.356   90.267    0.141    0.374    5.451
  533.606   85.817    0.100    0.353    4.980
  533.856   83.823    0.129    0.336    4.625
  534.106   88.066    0.168    0.369    4.392
  534.356   91.689    0.177    0.391    4.095
  534.606   95.784    0.173    0.408    3.911
  534.856   96.473    0.186    0.417    3.916
  535.106   97.864    0.197    0.413    3.829
  535.356   97.356    0.192    0.407    3.899
  535.606   96.192    0.181    0.424    3.916
  535.856   95.853    0.181    0.437    3.836
  536.106   95.896    0.183    0.435    3.845
  536.356   95.172    0.154    0.426    3.720
  536.606   95.190    0.129    0.415    3.565
  536.856   98.111    0.150    0.434    3.415
  537.106  102.815    0.189    0.463    3.298
  537.356  102.566    0.178    0.471    3.135
  537.606  101.556    0.162    0.464    3.133
  537.856   99.762    0.148    0.457    3.132
  538.106   99.330    0.137    0.458    3.084
  538.356   99.560    0.127    0.456    2.989
  538.606  100.586    0.155    0.451    2.899
  538.856  101.179    0.184    0.478    2.851
  539.106  100.399    0.188    0.497    2.852
  539.356  100.433    0.180    0.516    2.914
  539.606   99.506    0.176    0.510    3.157
  539.856   96.780    0.163    0.487    3.449
  540.106   93.749    0.157    0.470    4.065
  540.356   94.043    0.141    0.435    4.516
  540.606   94.879    0.139    0.411    5.842
  540.856   91.849    0.141    0.412    7.404
  541.106   81.574    0.116    0.388    9.876
  541.356   76.602    0.084    0.272   13.018
  541.606   71.564    0.124    0.254   17.515
  541.856   67.676    0.177    0.272   19.620
  542.106   66.864    0.223    0.332   18.879
  542.356   64.807    0.252    0.349   17.986
  542.606   64.583    0.257    0.355   18.042
  542.856   65.584    0.242    0.360   18.625
  543.106   63.434    0.233    0.366   19.382
  543.356   63.163    0.221    0.376   19.343
  543.606   63.061    0.213    0.379   19.338
  543.856   64.644    0.210    0.385   19.166
  544.106   66.281    0.212    0.382   18.568
  544.356   67.259    0.219    0.386   17.988
  544.606   67.859    0.210    0.385   16.985
  544.856   69.326    0.215    0.379   15.973
  545.106   72.526    0.209    0.388   14.800
  545.356   73.431    0.209    0.388   13.042
  545.606   80.998    0.215    0.375   12.082
