~VERSION INFORMATION
 VERS.                 2.0:   CWLS LOG ASCII STANDARD -VERSION 2.0
 WRAP.                  NO:   ONE LINE PER DEPTH STEP
~WELL INFORMATION BLOCK
#MNEM.UNIT           DATA                    DESCRIPTION OF MNEMONIC
#---------    -------------------            -------------------------------
# Generated from Intellog Unique Number	CW_76_78/WELL/554
WELL.         AMOCO ROCK 07-06               : Well_name    - WELL
LOC .         00/07-06-077-23W4/0            : Location     - LOCATION
UWI .         00/07-06-077-23W4/0            : Uwi          - UNIQUE WELL ID
ENTR.         jj                             : Entered      - ENTERED BY
SRVC.         WESTERN ATLAS                  : Scn          - SERVICE COMPANY
DATE.         12 MAR 78                      : Date         - LOG DATE
STRT.M        524.256                        : top_depth    - START DEPTH
STOP.M        765.006                        : bot_depth    - STOP DEPTH
STEP.M        0.25                           : increment    - STEP LENGTH
 NULL. -999.2500:NULL Value
~CURVE INFORMATION BLOCK
#MNEM UNIT       ERCB CURVE CODE    CURVE DESCRIPTION
#-----------   ------------------   ----------------------------------
DEPT.M        00 001 00 00         : DEPTH        - DEPTH
ILD .OHMM     00 120 00 00         : RESD         - DEEP RESISTIVITY (DIL)
DPHI.V/V      00 890 00 00         : PHID         - DENSITY POROSITY (SANDSTONE)
NPHI.V/V      00 330 00 00         : PHIN         - NEUTRON POROSITY (SANDSTONE)
GR  .API      00 310 00 00         : GR           - GAMMA RAY
CALI.MM       00 280 01 00         : CAL          - CALIPER
~PARAMETER INFORMATION
#MNEM.UNIT           DATA             DESCRIPTION OF MNEMONIC
#---------         -----------     ------------------------------
GL  .M        828.294              : gl           - GROUND LEVEL ELEVATION
EREF.M        832.104              : kb           - ELEVATION OF DEPTH REFERENCE
DATM.M        828.294              : datum        - DATUM ELEVATION
TDD .M        789.432              : tdd          - TOTAL DEPTH DRILLER
RUN .         ONE                  : Run          - RUN NUMBER
ENG .         BURLET               : Engineer     - RECORDING ENGINEER
WIT .         MCDONALD             : Witness      - WITNESSED BY
BASE.         EDMONTON             : Branch       - HOME BASE OF LOGGING UNIT
MUD .         GEL BENDEX           : Mud_type     - MUD TYPE
MATR.         SANDSTONE            : Logunit      - NEUTRON MATRIX
TMAX.C        32.7778              : BHT          - MAXIMUM RECORDED TEMPERATURE
BHTD.M        788.213              : BHTDEP       - MAXIMUM RECORDED TEMPERATURE
RMT .C        20.5556              : MDTP         - TEMPERATURE OF MUD
MUDD.KG/M     1080                 : MWT          - MUD DENSITY
NEUT.         1                    : NEUTRON      - NEUTRON TYPE
RESI.         0                    : RESIST       - RESISTIVITY TYPE
RM  .OHMM     2.43                 : RM           - RESISTIVITY OF MUD
RMC .OHMM     3.7                  : RMC          - RESISTIVITY OF MUD CAKE
RMF .OHMM     2.9                  : RMF          - RESISTIVITY OF MUD FILTRATE
SUFT.C        4.5                  : SUFT         - SURFACE TEMPERATURE
~A  DEPTH     RESD     PHID     PHIN       GR      CAL
# ...
  633.756    3.552    0.162    0.405   82.674  242.507
  634.006    3.564    0.155    0.406   82.789  242.917
  634.256    3.583    0.161    0.411   81.588  243.324
  634.506    3.609    0.172    0.418   81.577  243.732
  634.756    3.628    0.170    0.431   82.507  243.927
  635.006    3.607    0.170    0.448   83.063  244.548
  635.256    3.565    0.174    0.452   83.429  245.168
  635.506    3.477    0.178    0.441   84.422  245.577
  635.756    3.379    0.180    0.425   85.477  245.986
  636.006    3.278    0.186    0.414   85.594  246.500
  636.256    3.203    0.190    0.409   83.892  246.484
  636.506    3.130    0.186    0.405   79.181  246.466
  636.756    3.053    0.185    0.401   77.730  246.451
  637.006    3.029    0.199    0.401   78.598  246.221
  637.256    3.029    0.202    0.400   79.402  246.417
  637.506    3.050    0.200    0.401   79.644  246.507
  637.756    3.096    0.199    0.401   79.071  246.490
  638.006    3.136    0.187    0.400   79.310  246.366
  638.256    3.176    0.193    0.397   80.116  246.139
  638.506    3.235    0.191    0.392   79.855  245.698
  638.756    3.241    0.183    0.384   76.712  244.938
  639.006    3.173    0.189    0.374   76.577  244.286
  639.256    3.124    0.248    0.358   77.255  243.420
  639.506    3.159    0.244    0.344   75.179  242.552
  639.756    3.212    0.212    0.336   69.526  241.687
  640.006    3.378    0.183    0.325   66.697  241.032
  640.256    3.601    0.090    0.316   63.303  240.912
  640.506    3.881    0.072    0.313   61.601  241.000
  640.756    4.336    0.103    0.316   63.096  240.773
  641.006    4.947    0.100    0.303   66.721  240.543
  641.256    5.485    0.096    0.288   66.648  240.206
  641.506    6.105    0.074    0.246   62.000  240.300
  641.756    6.808    0.005    0.222   61.677  240.495
  642.006    7.325    0.119    0.313   64.487  240.159
  642.256    7.533    0.157    0.357   69.995  240.460
  642.506    7.487    0.171    0.367   77.444  240.869
  642.756    7.262    0.155    0.371   76.180  241.066
  643.006    6.874    0.166    0.377   73.035  241.368
  643.256    6.229    0.221    0.384   74.029  241.349
  643.506    5.315    0.232    0.392   75.458  241.648
  643.756    4.727    0.228    0.397   76.391  241.423
  644.006    4.325    0.218    0.400   77.072  241.940
  644.256    4.132    0.206    0.400   77.062  242.027
  644.506    3.970    0.197    0.401   78.306  242.118
  644.756    3.851    0.192    0.402   80.177  241.890
  645.006    3.785    0.187    0.405   81.796  241.340
  645.256    3.812    0.192    0.412   82.413  241.324
  645.506    3.847    0.198    0.421   82.591  241.310
  645.756    3.875    0.197    0.423   81.516  240.869
  646.006    3.874    0.199    0.424   81.254  240.533
  646.256    3.814    0.202    0.421   81.811  240.515
  646.506    3.784    0.198    0.419   84.246  241.031
  646.756    3.762    0.196    0.416   85.677  241.649
  647.006    3.718    0.198    0.415   85.166  242.058
  647.256    3.682    0.203    0.416   82.148  242.468
  647.506    3.639    0.199    0.417   81.385  243.300
  647.756    3.597    0.183    0.418   80.060  244.557
  648.006    3.509    0.165    0.419   77.355  245.812
  648.256    3.442    0.163    0.417   78.536  246.539
  648.506    3.408    0.166    0.411   80.593  247.689
  648.756    3.401    0.178    0.408   81.588  248.418
  649.006    3.393    0.189    0.404   84.586  249.247
  649.256    3.386    0.186    0.405   85.141  249.554
  649.506    3.410    0.182    0.409   85.131  249.643
  649.756    3.527    0.187    0.407   80.860  249.942
  650.006    3.552    0.196    0.401   78.906  250.140
  650.256    3.551    0.201    0.396   81.216  250.228
  650.506    3.530    0.204    0.399   84.590  250.213
  650.756    3.469    0.200    0.396   86.587  249.771
  651.006    3.494    0.193    0.389   86.639  249.545
  651.256    3.546    0.190    0.382   78.733  249.102
  651.506    3.626    0.190    0.382   74.837  248.659
  651.756    3.879    0.188    0.377   74.325  248.431
  652.006    4.269    0.174    0.366   75.192  248.097
  652.256    4.824    0.162    0.359   75.620  247.550
  652.506    5.259    0.153    0.358   75.237  247.110
  652.756    5.563    0.156    0.361   73.784  246.668
  653.006    5.635    0.165    0.365   73.085  246.120
  653.256    5.718    0.170    0.368   73.013  245.465
  653.506    5.891    0.150    0.370   73.192  244.921
  653.756    6.162    0.112    0.368   70.173  244.904
  654.006    6.409    0.120    0.368   68.973  245.100
  654.256    6.529    0.150    0.375   69.024  245.297
  654.506    6.576    0.141    0.378   68.891  245.384
  654.756    6.402    0.145    0.376   70.135  245.474
  655.006    5.846    0.160    0.379   75.829  245.671
  655.256    5.461    0.157    0.407   83.653  245.546
  655.506    4.987    0.154    0.406   86.526  245.318
  655.756    4.485    0.162    0.402   87.020  244.985
  656.006    3.784    0.172    0.398   87.259  244.648
  656.256    3.609    0.177    0.395   84.681  244.209
  656.506    3.580    0.187    0.392   81.913  243.766
  656.756    3.586    0.195    0.389   81.275  243.431
  657.006    3.646    0.210    0.384   80.828  242.884
  657.256    3.756    0.222    0.382   80.503  242.444
  657.506    3.892    0.225    0.383   80.118  241.792
  657.756    4.063    0.231    0.383   77.915  242.200
  658.006    4.241    0.218    0.379   75.398  241.652
  658.256    4.633    0.111    0.372   72.254  242.165
  658.506    5.235    0.089    0.366   67.293  242.363
  658.756    5.517    0.143    0.369   60.765  241.709
  659.006    5.504    0.180    0.397   63.387  241.693
  659.256    5.319    0.229    0.392   67.703  241.988
  659.506    5.307    0.229    0.376   71.014  242.085
  659.756    5.447    0.142    0.364   73.011  242.067
  660.006    5.538    0.113    0.359   73.941  241.413
  660.256    5.547    0.138    0.362   75.875  241.181
  660.506    5.493    0.165    0.378   81.507  241.167
  660.756    5.348    0.181    0.385   83.126  241.362
  661.006    5.071    0.196    0.390   82.865  241.456
  661.256    4.648    0.209    0.392   78.845  242.495
  661.506    4.416    0.208    0.393   75.638  243.012
  661.756    4.275    0.157    0.394   72.556  243.314
  662.006    4.202    0.111    0.395   69.602  243.402
  662.256    4.185    0.086    0.404   67.147  243.384
  662.506    4.191    0.138    0.412   70.083  243.478
  662.756    4.229    0.172    0.421   74.086  243.670
  663.006    4.252    0.175    0.426   78.337  243.653
  663.256    4.266    0.187    0.428   80.835  243.319
  663.506    4.321    0.191    0.423   81.701  243.093
  663.756    4.394    0.186    0.416   82.069  241.696
  664.006    4.510    0.179    0.410   84.003  241.678
  664.256    4.586    0.175    0.413   85.998  241.767
  664.506    4.627    0.172    0.419   83.983  241.968
  664.756    4.670    0.166    0.425   82.970  241.951
  665.006    4.624    0.162    0.428   82.082  241.615
  665.256    4.622    0.181    0.429   81.634  241.705
  665.506    4.674    0.190    0.425   80.685  241.686
  665.756    4.725    0.190    0.422   78.043  241.669
  666.006    4.859    0.181    0.418   77.970  242.182
  666.256    5.063    0.171    0.418   79.778  242.382
  666.506    5.157    0.154    0.420   81.899  242.579
  666.756    5.195    0.147    0.419   83.018  242.348
  667.006    5.203    0.162    0.415   82.569  242.121
  667.256    5.171    0.163    0.409   82.309  241.889
  667.506    5.170    0.159    0.402   83.302  241.769
  667.756    5.168    0.154    0.394   83.731  241.747
  668.006    5.225    0.148    0.391   83.720  241.839
  668.256    5.393    0.148    0.395   83.585  241.506
  668.506    5.473    0.158    0.401   83.890  241.172
  668.756    5.513    0.172    0.409   87.077  241.899
  669.006    5.605    0.171    0.406   89.511  244.215
  669.256    5.582    0.164    0.404   89.188  245.793
  669.506    5.476    0.130    0.401   86.985  247.048
  669.756    5.261    0.138    0.402   86.537  247.777
  670.006    5.008    0.170    0.409   87.029  248.716
