~VERSION INFORMATION
 VERS.                 2.0:   CWLS LOG ASCII STANDARD -VERSION 2.0
 WRAP.                  NO:   ONE LINE PER DEPTH STEP
~WELL INFORMATION BLOCK
#MNEM.UNIT           DATA                    DESCRIPTION OF MNEMONIC
#---------    -------------------            -------------------------------
# Generated from Intellog Unique Number	CW_73_75/WELL/3522
WELL.         ALLIED ROXANA MINERALS LTD.    : Well_name    - WELL
LOC .         00/08-14-073-26W4/0            : Location     - LOCATION
UWI .         00/08-14-073-26W4/0            : Uwi          - UNIQUE WELL ID
ENTR.         JOETTE                         : Entered      - ENTERED BY
SRVC.         SCHLUMBERGER                   : Scn          - SERVICE COMPANY
DATE.         08-27-92                       : Date         - LOG DATE
STRT.M        381                            : top_depth    - START DEPTH
STOP.M        640                            : bot_depth    - STOP DEPTH
STEP.M        0.25                           : increment    - STEP LENGTH
 NULL. -999.2500:NULL Value
~CURVE INFORMATION BLOCK
#MNEM UNIT       ERCB CURVE CODE    CURVE DESCRIPTION
#-----------   ------------------   ----------------------------------
DEPT.M        00 001 00 00         : DEPTH        - DEPTH
GR  .API      00 310 00 00         : GR           - GAMMA RAY
DELT.US/F     00 520 00 00         : DELT         - SONIC TRAVEL TIME
ILD .OHMM     00 120 00 00         : RESD         - DEEP RESISTIVITY (DIL)
~PARAMETER INFORMATION
#MNEM.UNIT           DATA             DESCRIPTION OF MNEMONIC
#---------         -----------     ------------------------------
GL  .M        624.84               : gl           - GROUND LEVEL ELEVATION
EREF.M        628.498              : kb           - ELEVATION OF DEPTH REFERENCE
DATM.M        628.498              : datum        - DATUM ELEVATION
TDD .M        655.625              : tdd          - TOTAL DEPTH DRILLER
RUN .         ONE                  : Run          - RUN NUMBER
ENG .         BILL                 : Engineer     - RECORDING ENGINEER
WIT .         JIM                  : Witness      - WITNESSED BY
MUD .         GEL                  : Mud_type     - MUD TYPE
MATR.         SANDSTONE            : Logunit      - NEUTRON MATRIX
TMAX.C        26.6667              : BHT          - MAXIMUM RECORDED TEMPERATURE
BHTD.M        655.625              : BHTDEP       - MAXIMUM RECORDED TEMPERATURE
RMT .C        15.5556              : MDTP         - TEMPERATURE OF MUD
MUDD.KG/M     10300                : MWT          - MUD DENSITY
NEUT.         1                    : NEUTRON      - NEUTRON TYPE
RESI.         0                    : RESIST       - RESISTIVITY TYPE
RM  .OHMM     2.96                 : RM           - RESISTIVITY OF MUD
RMC .OHMM     2.96                 : RMC          - RESISTIVITY OF MUD CAKE
RMF .OHMM     2.96                 : RMF          - RESISTIVITY OF MUD FILTRATE
SUFT.C        15                   : SUFT         - SURFACE TEMPERATURE
~A  DEPTH       GR     DELT     RESD
# ...
  435.250   48.556  375.668    4.495
  435.500   49.739  374.328    4.498
  435.750   52.681  374.322    4.705
  436.000   60.910  374.976    4.913
  436.250   66.203  372.307    5.122
  436.500   72.669  368.315    5.329
  436.750   77.961  362.325    5.332
  437.000   74.457  357.662    4.929
  437.250   71.532  386.897    4.729
  437.500   68.028  424.772    4.325
  437.750   66.280  398.178    4.328
  438.000   69.812  382.219    4.130
  438.250   75.692  375.565    4.133
  438.500   78.051  369.575    4.545
  438.750   75.716  378.204    4.752
  439.000   71.625  391.488    4.756
  439.250   73.400  394.136    4.759
  439.500   75.760  399.447    4.762
  439.750   74.599  397.444    4.563
  440.000   71.088  384.808    4.568
  440.250   64.647  380.812    4.571
  440.500   54.099  372.824    4.372
  440.750   50.004  382.787    4.375
  441.000   49.433  396.736    4.378
  441.250   51.795  402.042    4.383
  441.500   52.978  398.048    4.386
  441.750   58.270  395.381    4.391
  442.000   65.323  400.023    4.191
  442.250   74.725  392.039    3.990
  442.500   77.084  353.483    3.789
  442.750   69.470  355.468    3.386
  443.000   57.748  413.282    3.390
  443.250   51.894  444.510    3.395
  443.500   46.626  458.459    3.397
  443.750   48.398  411.260    3.401
  444.000   49.001  394.637    3.405
  444.250   45.496  389.974    3.612
  444.500   43.165  389.301    3.820
  444.750   42.584  385.307    4.028
  445.000   45.530  383.304    4.031
  445.250   51.996  389.940    4.037
  445.500   55.531  394.582    4.038
  445.750   56.723  390.588    4.038
  446.000   57.906  388.586    3.029
  446.250   60.262  388.575    3.440
  446.500   63.208  388.567    3.443
  446.750   63.223  385.235    3.446
  447.000   64.996  380.574    3.451
  447.250   62.078  383.887    3.454
  447.500   59.740  385.875    3.662
  447.750   63.859  387.195    3.667
  448.000   69.152  384.529    3.670
  448.250   72.100  379.866    3.674
  448.500   69.180  386.503    3.678
  448.750   66.851  401.117    3.681
  449.000   68.031  400.444    3.685
  449.250   71.569  395.783    3.688
  449.500   73.925  395.110    3.898
  449.750   75.695  391.112    3.900
  450.000   73.947  385.784    3.904
  450.250   67.509  388.436    4.111
  450.500   66.938  403.714    4.319
  450.750   70.470  406.364    4.527
  451.000   71.069  391.732    4.530
  451.250   68.735  385.744    4.738
  451.500   66.984  383.075    4.743
  451.750   64.653  381.073    4.747
  452.000   66.428  378.406    4.750
  452.250   68.201  377.064    4.755
  452.500   71.143  378.389    4.757
  452.750   74.095  382.368    4.761
  453.000   75.275  389.669    4.766
  453.250   77.637  397.636    4.770
  453.500   80.583  393.640    4.772
  453.750   84.705  392.302    4.777
  454.000   85.888  400.269    4.781
  454.250   84.727  392.285    4.785
  454.500   82.979  378.982    4.787
  454.750   84.757  376.978    4.994
  455.000   86.530  378.299    4.998
  455.250   84.782  382.945    5.411
  455.500   75.404  390.247    5.414
  455.750   71.897  397.549    5.622
  456.000   74.843  405.516    5.829
  456.250   76.618  425.447    6.241
  456.500   58.443  447.371    6.652
  456.750   41.438  450.681    7.268
  457.000   34.417  450.675    7.680
  457.250   50.267  461.300    8.091
  457.500   64.362  466.607    8.502
  457.750   69.071  442.010    8.506
  458.000   70.251  432.694    8.509
  458.250   70.269  426.702    8.105
  458.500   70.865  422.708    6.888
  458.750   73.228  416.718    6.483
  459.000   72.653  408.734    6.283
  459.250   70.316  393.440    5.880
  459.500   67.984  378.143    5.679
  459.750   63.890  372.818    5.479
  460.000   60.969  368.157    5.279
  460.250   60.981  370.142    5.284
  460.500   65.103  372.128    5.286
  460.750   62.182  366.800    5.290
  461.000   59.261  364.798    5.498
  461.250   57.517  366.783    5.501
  461.500   58.119  368.767    5.710
  461.750   58.125  365.433    5.714
  462.000   58.724  365.429    5.717
  462.250   58.736  368.075    5.721
  462.500   59.336  367.402    5.724
  462.750   60.521  364.737    5.729
  463.000   62.300  366.058    5.937
  463.250   59.962  371.366    5.940
  463.500   56.455  376.010    5.943
  463.750   55.297  374.004    6.152
  464.000   56.485  371.333    6.152
  464.250   55.908  370.664    4.326
  464.500   55.334  369.993    4.735
  464.750   54.176  369.985    4.740
  465.000   54.778  369.976    4.744
  465.250   54.787  371.293    4.951
  465.500   54.213  372.614    4.955
  465.750   54.222  373.934    5.162
  466.000   54.241  375.255    5.167
  466.250   53.666  375.914    5.170
  466.500   50.742  375.905    5.378
  466.750   46.648  375.897    5.383
  467.000   51.946  375.222    5.386
  467.250   51.953  373.884    5.391
  467.500   51.378  375.203    5.393
  467.750   54.327  374.532    5.398
  468.000   49.652  371.863    5.400
  468.250   49.072  369.198    5.404
  468.500   49.671  363.204    5.409
  468.750   50.270  361.201    5.616
  469.000   50.869  357.872    5.619
  469.250   48.537  313.334    6.032
  469.500   46.790  296.710    6.239
  469.750   48.562  279.416    6.651
  470.000   50.334  269.440    6.857
  470.250   49.177  270.763    6.862
  470.500   49.192  286.041    6.661
  470.750   49.198  353.159    6.462
  471.000   50.977  360.459    6.261
  471.250   52.746  362.447    6.061
  471.500   55.105  364.430    5.657
  471.750   57.464  366.413    5.458
  472.000   58.063  369.728    5.462
  472.250   55.142  373.043    5.261
  472.500   46.941  375.695    5.265
  472.750   48.130  379.009    5.270
  473.000   52.836  375.678    5.273
  473.250   55.195  379.657    5.276
  473.500   51.687  384.964    5.280
  473.750   49.356  384.955    5.284
  474.000   50.541  384.278    5.288
  474.250   47.620  384.270    5.292
  474.500   48.809  384.265    5.296
  474.750   53.512  384.257    5.299
  475.000   52.938  382.917    5.507
  475.250   47.086  380.915    5.511
  475.500   45.338  380.242    5.516
  475.750   44.181  380.231    5.518
  476.000   46.536  377.564    5.522
  476.250   48.312  376.889    5.527
  476.500   46.564  379.539    5.530
  476.750   46.577  380.198    5.534
  477.000   49.522  381.514    5.537
  477.250   51.292  381.510    5.543
  477.500   55.417  380.170    5.545
  477.750   54.256  378.168    5.550
  478.000   51.332  377.495    5.553
  478.250   49.584  377.487    5.556
  478.500   51.360  377.478    5.561
  478.750   49.022  376.141    5.565
  479.000   49.035  374.801    5.773
  479.250   48.463  374.794    5.775
  479.500   47.302  376.115    5.780
  479.750   46.728  381.422    5.784
  480.000   48.500  387.395    5.788
  480.250   50.862  389.378    5.791
  480.500   52.632  388.707    5.795
  480.750   54.994  386.701    5.799
  481.000   59.113  386.032    5.803
  481.250   65.579  384.026    5.806
  481.500   63.831  382.690    5.606
  481.750   59.150  379.358    5.610
  482.000   53.296  376.692    5.410
  482.250   48.621  376.683    5.413
  482.500   49.217  375.346    5.417
  482.750   50.989  368.689    5.217
  483.000   55.108  364.691    5.222
  483.250   60.401  364.684    5.224
  483.500   63.936  371.322    5.025
  483.750   63.952  379.289    5.030
  484.000   63.967  387.921    4.829
  484.250   65.734  392.560    4.833
  484.500   70.442  397.209    4.633
  484.750   72.802  410.490    4.636
  485.000   71.051  407.159    4.640
  485.250   62.852  402.496    4.439
  485.500   55.238  405.148    4.444
  485.750   46.450  405.140    4.245
  486.000   45.879  393.168    4.248
  486.250   47.651  389.835    4.456
  486.500   48.253  397.137    4.664
  486.750   47.673  401.779    4.871
  487.000   46.512  399.779    5.079
  487.250   45.354  393.789    4.877
  487.500   44.779  391.122    4.678
  487.750   44.205  396.428    4.479
  488.000   47.741  401.737    4.686
  488.250   52.444  406.381    5.099
  488.500   58.332  406.372    5.304
  488.750   58.925  407.693    5.308
  489.000   60.697  407.685    5.313
  489.250   66.579  406.347    5.316
