~VERSION INFORMATION
 VERS.                 2.0:   CWLS LOG ASCII STANDARD -VERSION 2.0
 WRAP.                  NO:   ONE LINE PER DEPTH STEP
~WELL INFORMATION BLOCK
#MNEM.UNIT           DATA                    DESCRIPTION OF MNEMONIC
#---------    -------------------            -------------------------------
# Generated from Intellog Unique Number	CC_84_87/WELL/2551
WELL.         GULF AOSTRA RESDELN            : Well_name    - WELL
LOC .         00/06-05-084-06W4/0            : Location     - LOCATION
UWI .         00/06-05-084-06W400            : Uwi          - UNIQUE WELL ID
ENTR.         JHS                            : Entered      - ENTERED BY
SRVC.         SCHLUMBERGER                   : Scn          - SERVICE COMPANY
STRT.M        150                            : top_depth    - START DEPTH
STOP.M        409.75                         : bot_depth    - STOP DEPTH
STEP.M        0.25                           : increment    - STEP LENGTH
 NULL. -999.2500:NULL Value
~CURVE INFORMATION BLOCK
#MNEM UNIT       ERCB CURVE CODE    CURVE DESCRIPTION
#-----------   ------------------   ----------------------------------
DEPT.M        00 001 00 00         : DEPTH        - DEPTH
GR  .API      00 310 00 00         : GR           - GAMMA RAY
DPHI.V/V      00 890 00 00         : PHID         - DENSITY POROSITY (SANDSTONE)
NPHI.V/V      00 330 00 00         : PHIN         - NEUTRON POROSITY (SANDSTONE)
ILD .OHMM     00 120 00 00         : RESD         - DEEP RESISTIVITY (DIL)
~PARAMETER INFORMATION
#MNEM.UNIT           DATA             DESCRIPTION OF MNEMONIC
#---------         -----------     ------------------------------
GL  .M        571                  : gl           - GROUND LEVEL ELEVATION
EREF.M        574.68               : kb           - ELEVATION OF DEPTH REFERENCE
DATM.M        574.68               : datum        - DATUM ELEVATION
TDD .M        420                  : tdd          - TOTAL DEPTH DRILLER
RUN .         ONE                  : Run          - RUN NUMBER
ENG .         BILL                 : Engineer     - RECORDING ENGINEER
WIT .         JIM                  : Witness      - WITNESSED BY
MUD .         GEL                  : Mud_type     - MUD TYPE
MATR.         SANDSTONE            : Logunit      - NEUTRON MATRIX
TMAX.C        21                   : BHT          - MAXIMUM RECORDED TEMPERATURE
BHTD.M        420                  : BHTDEP       - MAXIMUM RECORDED TEMPERATURE
MATR.         1                    : LOGUNIT      - NEUTRON MATRIX
RMT .C        25                   : MDTP         - TEMPERATURE OF MUD
NEUT.         1                    : NEUTRON      - NEUTRON TYPE
RESI.         0                    : RESIST       - RESISTIVITY TYPE
RMC .OHMM     0.25                 : RMC          - RESISTIVITY OF MUD CAKE
RMF .OHMM     0.25                 : RMF          - RESISTIVITY OF MUD FILTRATE
SUFT.C        15                   : SUFT         - SURFACE TEMPERATURE
~A  DEPTH       GR     PHID     PHIN     RESD
# ...
  324.000   71.644    0.238    0.455    6.876
  324.250   73.581    0.243    0.437    6.982
  324.500   75.627    0.229    0.429    7.085
  324.750   72.998    0.247    0.439    7.254
  325.000   68.038    0.280    0.428    7.529
  325.250   65.192    0.270    0.392    7.935
  325.500   64.411    0.241    0.384    8.444
  325.750   66.119    0.250    0.402    8.738
  326.000   71.123    0.243    0.427    8.719
  326.250   74.524    0.221    0.459    8.285
  326.500   74.651    0.222    0.473    7.848
  326.750   73.223    0.230    0.450    7.636
  327.000   71.191    0.216    0.422    7.403
  327.250   69.770    0.229    0.415    7.394
  327.500   67.419    0.236    0.409    7.416
  327.750   67.901    0.213    0.399    7.354
  328.000   73.335    0.186    0.390    7.181
  328.250   77.580    0.190    0.398    6.956
  328.500   76.169    0.217    0.423    6.740
  328.750   77.721    0.214    0.420    6.431
  329.000   77.888    0.215    0.411    6.195
  329.250   76.850    0.227    0.420    6.088
  329.500   77.322    0.231    0.433    5.956
  329.750   80.982    0.227    0.441    5.777
  330.000   84.791    0.230    0.460    5.697
  330.250   81.191    0.235    0.475    5.611
  330.500   80.283    0.236    0.481    5.515
  330.750   80.098    0.230    0.462    5.475
  331.000   77.568    0.220    0.438    5.509
  331.250   76.525    0.220    0.436    5.625
  331.500   78.170    0.232    0.444    5.805
  331.750   75.761    0.238    0.447    5.970
  332.000   73.478    0.245    0.439    6.351
  332.250   74.036    0.246    0.411    6.595
  332.500   77.481    0.244    0.402    6.613
  332.750   80.231    0.236    0.429    6.615
  333.000   78.231    0.224    0.444    6.739
  333.250   73.922    0.236    0.444    7.248
  333.500   66.855    0.259    0.447    8.163
  333.750   59.219    0.278    0.466    9.241
  334.000   58.975    0.297    0.476   10.058
  334.250   66.493    0.304    0.453   10.375
  334.500   72.903    0.284    0.421   10.151
  334.750   77.451    0.269    0.398    9.282
  335.000   76.005    0.275    0.392    8.270
  335.250   68.101    0.266    0.403    7.713
  335.500   61.096    0.264    0.406    8.112
  335.750   61.367    0.276    0.391    8.556
  336.000   65.651    0.258    0.388    7.811
  336.250   66.121    0.254    0.400    7.212
  336.500   62.022    0.269    0.427    6.786
  336.750   55.273    0.296    0.447    6.920
  337.000   48.384    0.337    0.434    8.242
  337.250   43.607    0.363    0.412   10.732
  337.500   40.060    0.347    0.419   14.512
  337.750   34.241    0.329    0.408   20.345
  338.000   32.384    0.311    0.392   24.981
  338.250   34.000    0.320    0.397   28.029
  338.500   37.632    0.330    0.404   30.227
  338.750   40.244    0.317    0.399   32.094
  339.000   37.096    0.318    0.405   34.165
  339.250   31.349    0.330    0.402   37.188
  339.500   28.327    0.325    0.377   43.518
  339.750   28.109    0.321    0.376   44.727
  340.000   29.259    0.326    0.401   39.480
  340.250   32.795    0.325    0.417   32.645
  340.500   38.481    0.314    0.426   26.753
  340.750   40.399    0.312    0.442   25.683
  341.000   39.188    0.327    0.448   26.428
  341.250   40.433    0.337    0.439   27.200
  341.500   44.410    0.337    0.429   25.675
  341.750   46.524    0.337    0.424   21.887
  342.000   45.226    0.331    0.432   18.754
  342.250   44.115    0.309    0.485   15.573
  342.500   43.490    0.310    0.477   13.081
  342.750   38.194    0.320    0.477   12.156
  343.000   31.405    0.331    0.486   16.177
  343.250   28.460    0.349    0.467   22.845
  343.500   27.640    0.365    0.461   27.849
  343.750   28.012    0.364    0.472   38.019
  344.000   29.917    0.364    0.469   42.262
  344.250   31.568    0.355    0.460   40.224
  344.500   32.065    0.345    0.462   34.866
  344.750   31.921    0.345    0.475   27.980
  345.000   33.262    0.345    0.490   22.138
  345.250   38.602    0.353    0.495   17.433
  345.500   39.633    0.349    0.488   14.946
  345.750   36.919    0.339    0.485   13.936
  346.000   33.954    0.338    0.484   14.298
  346.250   31.606    0.335    0.470   16.451
  346.500   29.622    0.321    0.453   21.068
  346.750   28.026    0.329    0.441   29.094
  347.000   27.771    0.324    0.431   34.740
  347.250   30.838    0.317    0.438   37.675
  347.500   37.936    0.327    0.437   39.271
  347.750   46.762    0.333    0.427   30.356
  348.000   56.087    0.306    0.438    9.405
  348.250   68.920    0.257    0.429    4.408
  348.500   78.810    0.221    0.431    3.152
  348.750   82.590    0.217    0.434    2.122
  349.000   82.774    0.217    0.430    2.128
  349.250   83.008    0.206    0.425    1.974
  349.500   83.473    0.205    0.419    1.959
  349.750   82.998    0.204    0.417    1.950
  350.000   88.605    0.200    0.435    2.045
  350.250   92.917    0.202    0.451    2.067
  350.500   92.580    0.212    0.455    2.034
  350.750   90.697    0.216    0.465    2.036
  351.000   86.958    0.213    0.476    2.004
  351.250   80.486    0.224    0.446    2.004
  351.500   74.801    0.253    0.410    2.004
  351.750   76.805    0.238    0.417    2.024
  352.000   82.552    0.219    0.430    2.058
  352.250   83.121    0.238    0.425    2.098
  352.500   79.404    0.239    0.430    2.168
  352.750   78.601    0.219    0.408    2.212
  353.000   75.004    0.203    0.398    2.164
  353.250   71.965    0.202    0.414    2.079
  353.500   63.726    0.216    0.432    1.955
  353.750   47.880    0.253    0.440    1.756
  354.000   36.523    0.307    0.434    1.522
  354.250   32.254    0.319    0.387    1.319
  354.500   30.058    0.312    0.374    1.192
  354.750   29.012    0.316    0.387    1.088
  355.000   28.856    0.316    0.398    1.001
  355.250   28.083    0.309    0.405    0.947
  355.500   26.581    0.317    0.402    0.906
  355.750   26.087    0.319    0.381    0.892
  356.000   26.383    0.324    0.379    0.875
  356.250   30.107    0.301    0.391    0.889
  356.500   32.252    0.274    0.400    0.915
  356.750   29.070    0.276    0.392    0.931
  357.000   27.532    0.278    0.365    0.962
  357.250   32.501    0.277    0.348    0.979
  357.500   37.233    0.272    0.351    0.983
  357.750   37.527    0.262    0.362    0.976
  358.000   33.533    0.282    0.360    0.949
  358.250   27.778    0.308    0.357    0.901
  358.500   22.898    0.289    0.374    0.846
  358.750   19.293    0.305    0.370    0.794
  359.000   16.966    0.309    0.352    0.766
  359.250   15.924    0.292    0.342    0.743
  359.500   15.973    0.285    0.343    0.726
  359.750   16.706    0.300    0.351    0.713
  360.000   17.813    0.312    0.364    0.692
  360.250   19.340    0.303    0.361    0.691
  360.500   21.315    0.303    0.360    0.697
  360.750   23.627    0.303    0.361    0.676
  361.000   26.655    0.298    0.356    0.678
  361.250   31.387    0.283    0.346    0.733
  361.500   38.224    0.246    0.345    0.856
  361.750   48.046    0.190    0.371    1.170
  362.000   66.457    0.124    0.404    1.595
  362.250   75.476    0.029    0.425    2.381
  362.500   75.613    0.025    0.431    3.431
  362.750   71.543    0.097    0.410    4.386
  363.000   58.338    0.056    0.360    5.076
  363.250   52.830    0.006    0.339    5.491
  363.500   50.664    0.073    0.328    6.008
  363.750   44.159    0.111    0.310    6.604
  364.000   36.588    0.079    0.281    7.297
  364.250   32.492    0.053    0.242    8.414
  364.500   29.598    0.030    0.205   10.003
  364.750   27.517    0.007    0.185   11.252
  365.000   26.716    0.008    0.186   11.628
  365.250   26.846    0.024    0.199   11.547
  365.500   26.443    0.028    0.206   11.250
  365.750   25.478    0.018    0.198   10.634
  366.000   25.071    0.013    0.184    9.828
  366.250   24.487    0.006    0.175    9.216
  366.500   25.479    0.008    0.174    8.884
  366.750   25.419    0.016    0.180    8.705
  367.000   22.601    0.018    0.182    8.635
  367.250   18.320    0.017    0.171    8.664
