~VERSION INFORMATION
 VERS.                 2.0:   CWLS LOG ASCII STANDARD -VERSION 2.0
 WRAP.                  NO:   ONE LINE PER DEPTH STEP
~WELL INFORMATION BLOCK
#MNEM.UNIT           DATA                    DESCRIPTION OF MNEMONIC
#---------    -------------------            -------------------------------
# Generated from Intellog Unique Number	CW_73_75/WELL/468
WELL.         COSEKA ET AL MITSIK            : Well_name    - WELL
LOC .         00/04-21-074-05W5/0            : Location     - LOCATION
UWI .         00/04-21-074-05W5/0            : Uwi          - UNIQUE WELL ID
ENTR.         JAYE                           : Entered      - ENTERED BY
SRVC.         WESTERN ATLAS                  : Scn          - SERVICE COMPANY
DATE.         21 NOV 82                      : Date         - LOG DATE
STRT.M        465                            : top_depth    - START DEPTH
STOP.M        685                            : bot_depth    - STOP DEPTH
STEP.M        0.25                           : increment    - STEP LENGTH
 NULL. -999.2500:NULL Value
~CURVE INFORMATION BLOCK
#MNEM UNIT       ERCB CURVE CODE    CURVE DESCRIPTION
#-----------   ------------------   ----------------------------------
DEPT.M        00 001 00 00         : DEPTH        - DEPTH
ILD .OHMM     00 120 00 00         : RESD         - DEEP RESISTIVITY (DIL)
CALI.MM       00 280 01 00         : CAL          - CALIPER
GR  .API      00 310 00 00         : GR           - GAMMA RAY
NPHI.V/V      00 330 00 00         : PHIN         - NEUTRON POROSITY (SANDSTONE)
DPHI.V/V      00 890 00 00         : PHID         - DENSITY POROSITY (SANDSTONE)
~PARAMETER INFORMATION
#MNEM.UNIT           DATA             DESCRIPTION OF MNEMONIC
#---------         -----------     ------------------------------
GL  .M        700.46               : gl           - GROUND LEVEL ELEVATION
EREF.M        705.26               : kb           - ELEVATION OF DEPTH REFERENCE
DATM.M        700.46               : datum        - DATUM ELEVATION
TDD .M        1779                 : tdd          - TOTAL DEPTH DRILLER
RUN .         ONE                  : Run          - RUN NUMBER
ENG .         LAMBORN              : Engineer     - RECORDING ENGINEER
WIT .         JONES                : Witness      - WITNESSED BY
BASE.         EDM                  : Branch       - HOME BASE OF LOGGING UNIT
MUD .         GEL CHEM             : Mud_type     - MUD TYPE
MATR.         SANDSTONE            : Logunit      - NEUTRON MATRIX
TMAX.C        44                   : BHT          - MAXIMUM RECORDED TEMPERATURE
BHTD.M        1779.9               : BHTDEP       - MAXIMUM RECORDED TEMPERATURE
RMT .C        13                   : MDTP         - TEMPERATURE OF MUD
MUDD.KG/M     1100                 : MWT          - MUD DENSITY
NEUT.         1                    : NEUTRON      - NEUTRON TYPE
RESI.         0                    : RESIST       - RESISTIVITY TYPE
RM  .OHMM     0.65                 : RM           - RESISTIVITY OF MUD
RMC .OHMM     1.31                 : RMC          - RESISTIVITY OF MUD CAKE
RMF .OHMM     1.9                  : RMF          - RESISTIVITY OF MUD FILTRATE
SUFT.C        0                    : SUFT         - SURFACE TEMPERATURE
~A  DEPTH     RESD      CAL       GR     PHIN     PHID
# ...
  611.000    3.933  250.594   82.078    0.378    0.214
  611.250    4.186  247.737   77.868    0.386    0.222
  611.500    4.608  245.503   74.593    0.381    0.230
  611.750    4.904  243.590   72.442    0.374    0.235
  612.000    5.408  242.187   72.974    0.368    0.233
  612.250    5.898  240.691   74.068    0.373    0.231
  612.500    6.359  239.688   73.358    0.373    0.229
  612.750    6.793  238.185   73.451    0.371    0.227
  613.000    7.042  236.376   75.355    0.363    0.226
  613.250    6.887  234.776   77.198    0.350    0.225
  613.500    6.573  233.782   75.609    0.369    0.232
  613.750    6.637  232.176   77.142    0.387    0.236
  614.000    6.958  230.568   78.299    0.397    0.234
  614.250    7.405  228.850   78.770    0.366    0.229
  614.500    8.197  227.448   77.307    0.344    0.237
  614.750    8.723  225.636   79.710    0.350    0.241
  615.000    9.163  224.226   80.746    0.361    0.244
  615.250    9.534  222.514   78.219    0.366    0.245
  615.500    9.773  221.544   75.816    0.357    0.242
  615.750   10.073  221.482   73.106    0.351    0.252
  616.000   10.306  221.854   72.387    0.368    0.255
  616.250   10.683  222.333   73.918    0.384    0.256
  616.500   10.970  223.007   74.513    0.400    0.256
  616.750   11.437  224.203   72.862    0.383    0.255
  617.000   12.035  226.135   71.334    0.343    0.254
  617.250   12.593  228.477   71.746    0.348    0.253
  617.500   12.957  231.548   74.280    0.364    0.250
  617.750   13.082  234.206   74.808    0.369    0.247
  618.000   13.260  237.178   77.401    0.357    0.241
  618.250   13.796  240.462   81.742    0.318    0.233
  618.500   15.302  243.843   74.785    0.274    0.149
  618.750   16.284  247.538   66.825    0.242    0.110
  619.000   14.499  251.030   58.681    0.258    0.107
  619.250   12.021  255.662   61.089    0.329    0.135
  619.500    9.159  260.609   66.742    0.369    0.269
  619.750    6.634  263.894   70.645    0.413    0.280
  620.000    5.248  265.095   75.545    0.388    0.265
  620.250    4.797  265.145   80.452    0.353    0.247
  620.500    4.631  264.783   84.916    0.337    0.239
  620.750    4.478  264.527   85.261    0.379    0.239
  621.000    4.413  264.900   78.615    0.413    0.246
  621.250    4.489  266.110   81.086    0.426    0.269
  621.500    4.541  267.089   86.421    0.387    0.287
  621.750    4.586  268.499   87.332    0.376    0.264
  622.000    4.613  270.440   86.807    0.382    0.246
  622.250    4.658  271.833   87.395    0.385    0.244
  622.500    4.721  274.398   86.993    0.406    0.247
  622.750    4.749  276.523   85.778    0.430    0.267
  623.000    4.777  278.768   86.373    0.462    0.282
  623.250    4.796  281.430   87.093    0.431    0.271
  623.500    4.852  282.838   87.690    0.410    0.257
  623.750    4.945  283.722   87.160    0.427    0.253
  624.000    4.984  284.196   89.567    0.417    0.252
  624.250    4.986  284.662   94.657    0.391    0.249
  624.500    5.025  285.238   91.069    0.376    0.250
  624.750    5.074  285.710   90.231    0.377    0.265
  625.000    5.132  286.500   91.951    0.396    0.271
  625.250    5.271  287.287   93.423    0.414    0.262
  625.500    5.413  288.276   94.763    0.454    0.256
  625.750    5.590  288.646   96.483    0.401    0.253
  626.000    5.730  288.595   97.888    0.379    0.256
  626.250    5.699  288.027   91.993    0.389    0.254
  626.500    5.532  287.352   89.403    0.427    0.245
  626.750    5.280  287.617   92.245    0.437    0.241
  627.000    4.927  288.611   90.408    0.458    0.312
  627.250    4.572  290.432   87.942    0.477    0.368
  627.500    4.339  291.739   87.664    0.480    0.421
  627.750    4.196  292.210   91.009    0.492    0.452
  628.000    4.120  292.577   92.287    0.500    0.496
  628.250    4.335  291.383   87.452    0.450    0.481
  628.500    4.622  285.924   86.299    0.400    0.389
  628.750    5.003  282.029   87.206    0.376    0.301
  629.000    5.354  276.050   81.185    0.368    0.204
  629.250    5.416  267.260   78.412    0.367    0.184
  629.500    5.307  263.675   81.940    0.368    0.213
  629.750    5.094  264.670   92.522    0.375    0.292
  630.000    4.935  268.780   92.494    0.427    0.351
  630.250    4.818  271.857   81.789    0.430    0.404
  630.500    4.856  269.207   76.516    0.414    0.297
  630.750    5.119  263.225   79.485    0.406    0.253
  631.000    5.387  260.689   87.698    0.400    0.260
  631.250    5.308  262.093   87.667    0.398    0.268
  631.500    4.935  265.687   85.829    0.407    0.288
  631.750    4.477  271.463   87.922    0.450    0.369
  632.000    4.085  285.146   91.826    0.480    0.441
  632.250    3.805  307.157   95.791    0.508    0.491
  632.500    3.611  316.263   85.899    0.508    0.425
  632.750    3.525  298.425   77.756    0.447    0.370
  633.000    3.647  284.018   81.849    0.440    0.356
  633.250    3.831  277.000   89.185    0.448    0.351
  633.500    4.016  278.200   90.154    0.430    0.344
  633.750    4.171  276.485   86.005    0.390    0.325
  634.000    4.220  273.837   80.982    0.357    0.260
  634.250    4.158  271.507   83.824    0.371    0.235
  634.500    4.028  271.358   85.109    0.404    0.231
  634.750    3.852  267.346   85.080    0.429    0.231
  635.000    3.677  265.010   84.424    0.453    0.234
  635.250    3.476  266.521   82.274    0.477    0.231
  635.500    3.305  265.330   82.869    0.399    0.221
  635.750    3.245  264.239   86.897    0.367    0.229
  636.000    3.295  263.571   93.052    0.376    0.238
  636.250    3.507  264.351   94.580    0.392    0.245
  636.500    3.817  265.031   93.745    0.387    0.247
  636.750    4.249  264.777   91.588    0.360    0.234
  637.000    4.748  258.179   85.256    0.321    0.192
  637.250    5.276  254.171   77.423    0.242    0.058
  637.500    5.819  250.066   67.655    0.219    0.033
  637.750    6.216  246.694   61.258    0.204    0.050
  638.000    5.988  249.453   59.857    0.218    0.122
  638.250    5.362  254.294   64.076    0.262    0.209
  638.500    4.633  260.282   79.401    0.288    0.209
  638.750    4.141  266.370   81.622    0.313    0.211
  639.000    3.680  271.317   83.468    0.332    0.214
  639.250    3.415  274.495   85.996    0.348    0.220
  639.500    3.284  277.671   88.649    0.366    0.228
  639.750    3.224  280.741   89.309    0.394    0.227
  640.000    3.329  283.815   88.467    0.415    0.222
  640.250    3.484  285.952   88.064    0.428    0.213
  640.500    3.694  286.013   88.786    0.439    0.206
  640.750    3.836  286.068   90.128    0.442    0.199
  641.000    4.021  286.337   90.161    0.461    0.194
  641.250    4.161  287.016   86.827    0.459    0.193
  641.500    4.225  287.387   86.546    0.440    0.198
  641.750    4.290  287.752   87.393    0.413    0.207
  642.000    4.365  288.019   88.236    0.382    0.213
  642.250    4.432  288.377   86.896    0.365    0.214
  642.500    4.535  289.064   85.368    0.358    0.219
  642.750    4.604  289.843   83.591    0.350    0.228
  643.000    4.675  290.831   81.129    0.392    0.247
  643.250    4.721  292.246   79.039    0.423    0.255
  643.500    4.722  293.130   78.763    0.445    0.248
  643.750    4.741  293.193   80.292    0.467    0.242
  644.000    4.769  293.139   81.450    0.490    0.238
  644.250    4.780  292.882   81.857    0.530    0.241
  644.500    4.808  292.727   83.204    0.392    0.259
  644.750    4.819  292.894   86.922    0.379    0.299
  645.000    4.848  293.359   90.636    0.371    0.276
  645.250    4.849  293.942   89.486    0.384    0.239
  645.500    4.914  294.621   87.209    0.408    0.220
  645.750    4.962  295.198   85.056    0.423    0.198
  646.000    5.011  295.779   84.906    0.398    0.182
  646.250    5.021  296.240   85.190    0.404    0.165
  646.500    4.994  296.408   84.221    0.411    0.184
  646.750    4.885  296.259   81.943    0.397    0.206
  647.000    4.750  296.829   82.290    0.382    0.224
  647.250    4.603  297.504   83.071    0.392    0.244
