~VERSION INFORMATION
 VERS.                 2.0:   CWLS LOG ASCII STANDARD -VERSION 2.0
 WRAP.                  NO:   ONE LINE PER DEPTH STEP
~WELL INFORMATION BLOCK
#MNEM.UNIT           DATA                    DESCRIPTION OF MNEMONIC
#---------    -------------------            -------------------------------
# Generated from Intellog Unique Number	CW_73_75/WELL/416
WELL.         ULSTER MARTEN HILLS 03-09      : Well_name    - WELL
LOC .         00/03-09-075-23W4/0            : Location     - LOCATION
UWI .         00/03-09-075-23W4/0            : Uwi          - UNIQUE WELL ID
ENTR.         JAYE                           : Entered      - ENTERED BY
SRVC.         WESTERN ATLAS                  : Scn          - SERVICE COMPANY
DATE.         22 MAR 88                      : Date         - LOG DATE
STRT.M        400                            : top_depth    - START DEPTH
STOP.M        600                            : bot_depth    - STOP DEPTH
STEP.M        0.25                           : increment    - STEP LENGTH
 NULL. -999.2500:NULL Value
~CURVE INFORMATION BLOCK
#MNEM UNIT       ERCB CURVE CODE    CURVE DESCRIPTION
#-----------   ------------------   ----------------------------------
DEPT.M        00 001 00 00         : DEPTH        - DEPTH
ILD .OHMM     00 120 00 00         : RESD         - DEEP RESISTIVITY (DIL)
NPHI.V/V      00 330 00 00         : PHIN         - NEUTRON POROSITY (SANDSTONE)
DPHI.V/V      00 890 00 00         : PHID         - DENSITY POROSITY (SANDSTONE)
GR  .API      00 310 00 00         : GR           - GAMMA RAY
CALI.MM       00 280 01 00         : CAL          - CALIPER
~PARAMETER INFORMATION
#MNEM.UNIT           DATA             DESCRIPTION OF MNEMONIC
#---------         -----------     ------------------------------
GL  .M        686.6                : gl           - GROUND LEVEL ELEVATION
EREF.M        689.9                : kb           - ELEVATION OF DEPTH REFERENCE
DATM.M        686.6                : datum        - DATUM ELEVATION
TDD .M        609                  : tdd          - TOTAL DEPTH DRILLER
RUN .         ONE                  : Run          - RUN NUMBER
ENG .         SELINGER             : Engineer     - RECORDING ENGINEER
WIT .         OLIVER               : Witness      - WITNESSED BY
BASE.         RDD                  : Branch       - HOME BASE OF LOGGING UNIT
MUD .         GEL CHEM             : Mud_type     - MUD TYPE
MATR.         SANDSTONE            : Logunit      - NEUTRON MATRIX
TMAX.C        27                   : BHT          - MAXIMUM RECORDED TEMPERATURE
BHTD.M        602.6                : BHTDEP       - MAXIMUM RECORDED TEMPERATURE
RMT .C        18                   : MDTP         - TEMPERATURE OF MUD
MUDD.KG/M     1110                 : MWT          - MUD DENSITY
NEUT.         1                    : NEUTRON      - NEUTRON TYPE
RESI.         0                    : RESIST       - RESISTIVITY TYPE
RM  .OHMM     3.18                 : RM           - RESISTIVITY OF MUD
RMC .OHMM     3.98                 : RMC          - RESISTIVITY OF MUD CAKE
RMF .OHMM     3.65                 : RMF          - RESISTIVITY OF MUD FILTRATE
SUFT.C        0                    : SUFT         - SURFACE TEMPERATURE
~A  DEPTH     RESD     PHIN     PHID       GR      CAL
# ...
  473.000    4.953    0.491    0.208   88.877  209.701
  473.250    5.015    0.470    0.222   96.769  209.022
  473.500    5.162    0.462    0.207   97.899  207.829
  473.750    5.631    0.441    0.175   87.037  206.938
  474.000    5.984    0.385    0.149   76.854  206.366
  474.250    6.024    0.325    0.133   71.157  205.991
  474.500    5.911    0.359    0.182   78.435  205.408
  474.750    5.767    0.455    0.235   86.325  204.732
  475.000    5.470    0.480    0.238   86.656  203.948
  475.250    5.172    0.440    0.235   80.039  203.883
  475.500    5.083    0.417    0.234   78.152  203.920
  475.750    5.080    0.415    0.239   78.605  203.960
  476.000    5.088    0.420    0.242   83.298  203.988
  476.250    5.093    0.434    0.240   89.100  204.133
  476.500    5.148    0.474    0.234   90.477  204.066
  476.750    5.184    0.505    0.231   86.503  204.410
  477.000    5.298    0.492    0.225   85.846  204.439
  477.250    5.505    0.430    0.228   84.146  204.483
  477.500    5.743    0.402    0.269   76.174  204.516
  477.750    5.957    0.420    0.292   65.436  204.549
  478.000    6.133    0.464    0.307   54.516  204.280
  478.250    6.361    0.489    0.292   59.149  204.315
  478.500    6.549    0.484    0.293   64.026  204.356
  478.750    6.870    0.414    0.283   66.753  203.880
  479.000    7.192    0.340    0.251   60.136  203.404
  479.250    7.501    0.295    0.153   55.607  203.539
  479.500    7.132    0.307    0.184   57.780  203.471
  479.750    6.593    0.401    0.270   64.504  203.404
  480.000    5.949    0.448    0.291   73.319  203.753
  480.250    5.379    0.499    0.305   70.142  203.374
  480.500    4.862    0.503    0.318   67.830  203.212
  480.750    4.666    0.511    0.324   67.788  203.448
  481.000    4.884    0.530    0.324   64.552  203.899
  481.250    5.308    0.452    0.182   60.577  204.652
  481.500    5.788    0.362    0.140   55.620  204.997
  481.750    6.442    0.306    0.087   52.075  205.341
  482.000    7.471    0.330    0.121   49.454  205.787
  482.250    8.208    0.308    0.067   46.831  205.920
  482.500    8.280    0.187   -0.008   44.392  206.164
  482.750    7.641    0.169    0.042   40.725  206.098
  483.000    6.631    0.285    0.145   40.503  206.130
  483.250    5.874    0.345    0.191   51.651  205.658
  483.500    5.291    0.438    0.247   55.424  205.282
  483.750    4.828    0.422    0.275   52.004  204.809
  484.000    4.606    0.445    0.285   47.968  204.330
  484.250    4.469    0.481    0.286   47.375  204.366
  484.500    4.304    0.505    0.284   49.180  204.203
  484.750    4.200    0.461    0.283   53.690  204.032
  485.000    4.143    0.437    0.285   57.155  204.068
  485.250    4.117    0.420    0.288   58.896  203.590
  485.500    4.085    0.450    0.296   57.628  203.529
  485.750    4.045    0.451    0.294   53.285  203.458
  486.000    4.012    0.439    0.294   49.925  203.195
  486.250    4.010    0.423    0.304   50.376  202.921
  486.500    4.009    0.467    0.311   53.843  202.748
  486.750    4.006    0.500    0.311   56.631  202.583
  487.000    3.996    0.514    0.309   58.805  202.411
  487.250    4.039    0.423    0.306   63.374  202.243
  487.500    4.166    0.355    0.301   65.242  202.279
  487.750    4.297    0.356    0.291   63.788  202.727
  488.000    4.400    0.386    0.280   64.547  203.171
  488.250    4.455    0.416    0.271   65.983  203.929
  488.500    4.529    0.440    0.267   64.839  203.963
  488.750    4.551    0.489    0.272   63.321  204.303
  489.000    4.489    0.428    0.274   59.163  204.445
  489.250    4.470    0.411    0.266   54.758  204.585
  489.500    4.476    0.425    0.262   59.083  204.622
  489.750    4.601    0.452    0.284   68.205  204.760
  490.000    4.727    0.440    0.292   70.931  204.594
  490.250    5.361    0.409    0.278   64.989  204.528
  490.500    6.147    0.378    0.203   64.028  204.256
  490.750    6.484    0.297    0.116   61.406  204.295
  491.000    6.481    0.268    0.092   57.923  204.845
  491.250    6.298    0.296    0.149   67.784  205.090
  491.500    5.716    0.382    0.219   75.428  205.433
  491.750    5.101    0.451    0.247   78.154  205.455
  492.000    4.690    0.486    0.270   79.962  205.493
  492.250    4.499    0.494    0.281   81.399  205.329
  492.500    4.277    0.492    0.289   82.954  205.161
  492.750    4.126    0.473    0.296   79.656  205.201
  493.000    4.147    0.441    0.304   75.191  205.333
  493.250    4.214    0.427    0.283   81.236  205.985
  493.500    4.331    0.431    0.173   84.456  207.248
  493.750    4.443    0.436    0.158   86.752  209.026
  494.000    4.566    0.433    0.200   93.907  209.473
  494.250    4.684    0.427    0.197   86.734  208.793
  494.500    4.778    0.447    0.179   75.689  207.188
  494.750    4.828    0.469    0.162   66.119  206.096
  495.000    4.844    0.479    0.191   76.226  206.548
  495.250    4.832    0.454    0.201   82.950  206.995
  495.500    4.776    0.438    0.206   88.197  207.642
  495.750    4.712    0.457    0.210   93.444  208.298
  496.000    4.657    0.451    0.223   99.245  208.541
  496.250    4.603    0.423    0.224   95.458  208.368
  496.500    4.483    0.428    0.216   91.296  208.612
  496.750    4.430    0.426    0.208   83.632  209.053
  497.000    4.355    0.416    0.207   74.678  209.500
  497.250    4.249    0.471    0.203   80.849  210.356
  497.500    4.107    0.503    0.186   90.276  211.421
  497.750    3.955    0.531    0.196  100.689  211.864
  498.000    3.858    0.497    0.221   98.559  210.053
  498.250    3.792    0.464    0.246   84.931  205.378
  498.500    3.720    0.437    0.283   73.148  203.670
  498.750    3.684    0.410    0.316   64.009  202.994
  499.000    3.661    0.417    0.320   65.445  203.127
  499.250    3.639    0.479    0.298   69.525  203.885
  499.500    3.644    0.489    0.298   71.576  204.637
  499.750    3.745    0.451    0.294   76.210  204.677
  500.000    3.957    0.419    0.279   78.629  203.170
  500.250    4.252    0.367    0.225   80.003  201.571
  500.500    4.544    0.367    0.202   80.210  202.732
  500.750    4.810    0.385    0.203   80.046  203.895
  501.000    5.189    0.396    0.227   77.855  204.649
  501.250    5.585    0.390    0.252   73.511  204.377
  501.500    6.251    0.373    0.194   69.107  205.130
  501.750    7.249    0.350    0.154   67.407  204.759
  502.000    8.405    0.276    0.114   63.309  204.081
  502.250    9.984    0.236    0.071   57.120  203.397
  502.500   10.992    0.224    0.063   56.590  203.024
  502.750   11.656    0.224    0.061   59.562  203.262
  503.000   11.825    0.221    0.061   59.339  203.719
  503.250   10.993    0.212    0.047   62.681  204.362
  503.500    9.347    0.265    0.105   68.912  204.705
  503.750    7.978    0.311    0.181   75.636  203.820
  504.000    6.722    0.384    0.260   81.252  201.806
  504.250    5.943    0.423    0.241   85.641  199.594
  504.500    5.343    0.469    0.222   83.387  199.319
  504.750    4.949    0.493    0.232   80.394  199.769
  505.000    4.820    0.484    0.255   76.669  200.723
  505.250    4.825    0.486    0.269   73.615  201.577
  505.500    4.868    0.497    0.278   69.455  202.748
  505.750    4.938    0.486    0.287   67.017  203.395
  506.000    4.945    0.476    0.276   75.770  203.737
  506.250    4.905    0.467    0.257   82.740  204.082
  506.500    4.831    0.449    0.236   81.288  204.732
  506.750    4.801    0.431    0.225   78.852  205.079
  507.000    4.781    0.416    0.234   77.640  205.113
  507.250    4.787    0.434    0.265   76.556  204.840
  507.500    4.784    0.465    0.278   78.667  204.472
  507.750    4.799    0.465    0.260   76.906  203.587
  508.000    4.878    0.454    0.252   77.914  202.388
  508.250    5.041    0.441    0.246   83.529  200.888
  508.500    5.209    0.515    0.246   78.754  199.490
  508.750    5.525    0.492    0.250   72.690  199.018
  509.000    5.893    0.443    0.216   66.686  199.566
  509.250    6.113    0.349    0.173   62.774  200.314
