~VERSION INFORMATION
 VERS.                 2.0:   CWLS LOG ASCII STANDARD -VERSION 2.0
 WRAP.                  NO:   ONE LINE PER DEPTH STEP
~WELL INFORMATION BLOCK
#MNEM.UNIT           DATA                    DESCRIPTION OF MNEMONIC
#---------    -------------------            -------------------------------
# Generated from Intellog Unique Number	CS_77_79/WELL/874
WELL.         ICGR LOCHIEL CHARD             : Well_name    - WELL
LOC .         00/06-12-079-06W4/0            : Location     - LOCATION
UWI .         00/06-12-079-06W4/0            : Uwi          - UNIQUE WELL ID
ENTR.         JHS                            : Entered      - ENTERED BY
SRVC.         SCHLUMBERGER                   : Scn          - SERVICE COMPANY
STRT.M        125                            : top_depth    - START DEPTH
STOP.M        305                            : bot_depth    - STOP DEPTH
STEP.M        0.25                           : increment    - STEP LENGTH
 NULL. -999.2500:NULL Value
~CURVE INFORMATION BLOCK
#MNEM UNIT       ERCB CURVE CODE    CURVE DESCRIPTION
#-----------   ------------------   ----------------------------------
DEPT.M        00 001 00 00         : DEPTH        - DEPTH
DPHI.V/V      00 890 00 00         : PHID         - DENSITY POROSITY (LIMESTONE)
NPHI.V/V      00 330 00 00         : PHIN         - NEUTRON POROSITY (LIMESTONE)
GR  .API      00 310 00 00         : GR           - GAMMA RAY
ILD .OHMM     00 120 00 00         : RESD         - DEEP RESISTIVITY (DIL)
RHOB.KG/M3    00 350 00 00         : DENS         - BULK DENSITY
~PARAMETER INFORMATION
#MNEM.UNIT           DATA             DESCRIPTION OF MNEMONIC
#---------         -----------     ------------------------------
GL  .M        475.8                : gl           - GROUND LEVEL ELEVATION
EREF.M        479.3                : kb           - ELEVATION OF DEPTH REFERENCE
DATM.M        479.3                : datum        - DATUM ELEVATION
TDD .M        313                  : tdd          - TOTAL DEPTH DRILLER
RUN .         ONE                  : Run          - RUN NUMBER
ENG .         BILL                 : Engineer     - RECORDING ENGINEER
WIT .         JIM                  : Witness      - WITNESSED BY
MUD .         GEL                  : Mud_type     - MUD TYPE
MATR.         LIMESTONE            : Logunit      - NEUTRON MATRIX
TMAX.C        20                   : BHT          - MAXIMUM RECORDED TEMPERATURE
BHTD.M        313                  : BHTDEP       - MAXIMUM RECORDED TEMPERATURE
MATR.         1                    : LOGUNIT      - NEUTRON MATRIX
RMT .C        25                   : MDTP         - TEMPERATURE OF MUD
NEUT.         1                    : NEUTRON      - NEUTRON TYPE
RESI.         0                    : RESIST       - RESISTIVITY TYPE
RMC .OHMM     0.25                 : RMC          - RESISTIVITY OF MUD CAKE
RMF .OHMM     0.25                 : RMF          - RESISTIVITY OF MUD FILTRATE
SUFT.C        15                   : SUFT         - SURFACE TEMPERATURE
~A  DEPTH     PHID     PHIN       GR     RESD     DENS
# ...
  234.500    0.311    0.359   38.425    6.017 2177.610
  234.750    0.320    0.363   47.026    6.487 2163.120
  235.000    0.306    0.372   62.375    6.735 2186.260
  235.250    0.266    0.353   73.424    6.993 2255.460
  235.500    0.247    0.345   80.808    7.126 2286.990
  235.750    0.293    0.391   75.955    6.993 2209.660
  236.000    0.319    0.401   78.430    6.863 2163.730
  236.250    0.327    0.437   86.431    6.488 2151.300
  236.500    0.307    0.429   88.910    6.249 2184.930
  236.750    0.291    0.410   82.216    6.019 2212.280
  237.000    0.295    0.409   60.219    5.689 2206.140
  237.250    0.319    0.417   54.744    5.480 2164.380
  237.500    0.330    0.403   59.082    5.278 2145.680
  237.750    0.320    0.380   56.661    5.084 2162.560
  238.000    0.313    0.359   49.359    4.989 2175.240
  238.250    0.319    0.343   52.452    4.989 2164.900
  238.500    0.326    0.343   61.672    4.990 2152.450
  238.750    0.330    0.382   62.321    4.897 2146.310
  239.000    0.326    0.372   51.333    4.717 2152.740
  239.250    0.322    0.356   37.902    4.629 2159.150
  239.500    0.323    0.348   31.822    4.543 2157.170
  239.750    0.328    0.351   29.415    4.543 2148.910
  240.000    0.346    0.379   39.243    4.543 2117.640
  240.250    0.357    0.389   53.360    4.630 2098.910
  240.500    0.310    0.398   63.190    4.807 2180.700
  240.750    0.273    0.410   73.635    4.991 2243.640
  241.000    0.270    0.418   70.004    5.182 2247.950
  241.250    0.330    0.390   65.752    5.280 2145.490
  241.500    0.295    0.379   76.809    5.482 2206.330
  241.750    0.279    0.445   84.189    5.586 2233.670
  242.000    0.296    0.432   75.664    5.587 2204.500
  242.250    0.313    0.434   73.248    5.587 2175.320
  242.500    0.304    0.447   78.184    5.587 2190.090
  242.750    0.289    0.425   84.960    5.693 2215.350
  243.000    0.274    0.410   89.885    5.801 2240.610
  243.250    0.266    0.429   92.980    5.911 2255.370
  243.500    0.276    0.419   94.245    5.911 2238.770
  243.750    0.274    0.425  101.626    5.911 2240.980
  244.000    0.253    0.439  109.624    5.911 2276.700
  244.250    0.237    0.439  113.334    6.024 2304.060
  244.500    0.237    0.427  112.763    6.254 2304.180
  244.750    0.248    0.429  106.072    6.494 2285.500
  245.000    0.257    0.433   99.373    6.617 2270.950
  245.250    0.263    0.418   96.342    7.000 2260.590
  245.500    0.250    0.395  105.561    7.406 2281.670
  245.750    0.233    0.367  112.948    7.689 2311.080
  246.000    0.219    0.346  107.477    7.835 2336.330
  246.250    0.220    0.343   85.476    7.690 2334.400
  246.500    0.232    0.364   79.390    7.407 2313.580
  246.750    0.228    0.390   84.330    7.269 2320.000
  247.000    0.217    0.403   87.428    7.134 2339.000
  247.250    0.214    0.383   87.459    7.134 2343.290
  247.500    0.214    0.369   84.446    7.408 2343.380
  247.750    0.218    0.372   82.641    7.548 2337.230
  248.000    0.226    0.378   82.061    7.548 2322.700
  248.250    0.225    0.360   89.444    7.408 2324.930
  248.500    0.230    0.349   91.320    7.135 2316.690
  248.750    0.246    0.385   82.176    6.496 2289.600
  249.000    0.286    0.400   71.809    6.257 2220.640
  249.250    0.274    0.369   74.291    5.915 2241.710
  249.500    0.259    0.366   83.509    5.697 2266.960
  249.750    0.265    0.385   90.903    5.487 2256.620
  250.000    0.293    0.392   89.707    5.385 2208.590
  250.250    0.314    0.386   79.951    5.187 2173.130
  250.500    0.300    0.371   83.052    4.996 2196.290
  250.750    0.289    0.368   88.594    4.903 2215.240
  251.000    0.299    0.384   80.067    4.903 2198.660
  251.250    0.311    0.401   61.737    4.812 2177.830
  251.500    0.323    0.401   56.270    4.812 2157.010
  251.750    0.317    0.400   59.363    4.723 2167.600
  252.000    0.300    0.416   64.908    4.635 2197.070
  252.250    0.299    0.408   60.664    4.549 2199.280
  252.500    0.318    0.397   53.976    4.549 2165.920
  252.750    0.330    0.398   57.691    4.465 2145.110
  253.000    0.338    0.398   63.840    4.382 2132.700
  253.250    0.322    0.385   69.379    4.465 2160.020
  253.500    0.301    0.389   74.931    4.636 2195.750
  253.750    0.290    0.402   74.360    4.905 2214.700
  254.000    0.290    0.399   87.856    4.998 2214.810
  254.250    0.293    0.375  145.434    4.814 2208.690
  254.500    0.289    0.375  154.657    4.636 2215.070
  254.750    0.311    0.397  140.612    4.550 2177.520
  255.000    0.324    0.375   73.925    4.383 2156.730
  255.250    0.322    0.370   48.865    4.301 2159.000
  255.500    0.321    0.369   51.353    4.222 2161.180
  255.750    0.325    0.356   58.747    4.222 2155.020
  256.000    0.329    0.375   62.448    4.143 2146.760
  256.250    0.332    0.378   66.160    4.143 2142.710
  256.500    0.329    0.365   67.419    4.222 2147.010
  256.750    0.323    0.373   67.453    4.384 2157.640
  257.000    0.327    0.404   60.759    4.467 2151.460
  257.250    0.338    0.401   52.225    4.815 2132.740
  257.500    0.333    0.347   67.567    5.491 2141.240
  257.750    0.247    0.334   93.316    6.146 2287.930
  258.000    0.214    0.343  104.983    7.278 2344.590
  258.250    0.207    0.362  103.809    7.845 2355.180
  258.500    0.203    0.371   99.555    8.457 2363.700
  258.750    0.202    0.369   96.535    8.458 2363.820
  259.000    0.207    0.363   95.957    8.458 2355.580
  259.250    0.206    0.365   98.439    8.458 2357.790
  259.500    0.210    0.370   99.093    8.301 2351.630
  259.750    0.210    0.382   96.067    8.147 2351.740
  260.000    0.203    0.381   91.211    7.558 2362.350
  260.250    0.223    0.349   86.347    7.144 2328.970
  260.500    0.263    0.332   81.481    7.011 2260.020
  260.750    0.239    0.326   90.707    7.012 2302.020
  261.000    0.203    0.358  101.149    7.012 2362.870
  261.250    0.185    0.417  106.696    7.145 2394.400
  261.500    0.177    0.446  101.843    7.702 2407.070
  261.750    0.182    0.451   95.138    7.848 2398.830
  262.000    0.186    0.434   92.726    7.997 2392.710
  262.250    0.184    0.424  100.721    7.997 2394.920
  262.500    0.189    0.438  106.270    7.703 2386.670
  262.750    0.187    0.423  108.144    7.419 2390.980
  263.000    0.182    0.415  108.180    7.419 2399.490
  263.250    0.188    0.440  102.718    7.560 2389.150
  263.500    0.188    0.423  100.907    7.850 2389.280
  263.750    0.186    0.426  102.180    7.999 2391.480
  264.000    0.195    0.447  106.501    7.704 2376.970
  264.250    0.200    0.458  108.981    7.704 2368.720
  264.500    0.193    0.446  110.243    7.850 2379.310
  264.750    0.180    0.419  107.828    8.151 2402.460
  265.000    0.171    0.394   98.692    8.306 2417.280
  265.250    0.171    0.390   96.277    8.306 2417.390
  265.500    0.177    0.405   95.088    8.152 2407.050
  265.750    0.186    0.401   95.738    8.152 2392.520
  266.000    0.197    0.399   99.453    8.152 2373.800
  266.250    0.201    0.401  102.546    8.152 2365.580
  266.500    0.196    0.425  103.209    8.153 2374.080
  266.750    0.191    0.433  103.849    8.001 2382.570
  267.000    0.185    0.435  105.715    7.853 2393.170
  267.250    0.182    0.448  102.697    7.707 2399.550
  267.500    0.219    0.408   90.486    7.285 2334.770
  267.750    0.270    0.386   67.267    7.017 2249.070
  268.000    0.282    0.381   62.404    6.509 2228.290
  268.250    0.280    0.380   61.840    6.153 2230.510
  268.500    0.264    0.383   64.932    6.153 2257.830
  268.750    0.221    0.387   71.704    6.510 2331.240
  269.000    0.194    0.396   80.309    6.759 2377.420
  269.250    0.176    0.384   87.082    7.018 2408.950
  269.500    0.197    0.382   83.442    6.887 2373.490
  269.750    0.224    0.402   75.525    6.634 2327.550
  270.000    0.266    0.400   66.377    6.040 2254.420
  270.250    0.287    0.391   71.311    6.040 2218.960
  270.500    0.250    0.408   84.821    6.511 2281.910
  270.750    0.225    0.405   89.147    6.888 2325.980
