~VERSION INFORMATION
 VERS.                 2.0:   CWLS LOG ASCII STANDARD -VERSION 2.0
 WRAP.                  NO:   ONE LINE PER DEPTH STEP
~WELL INFORMATION BLOCK
#MNEM.UNIT           DATA                    DESCRIPTION OF MNEMONIC
#---------    -------------------            -------------------------------
# Generated from Intellog Unique Number	CW_79_81/WELL/2446
WELL.         AMOCO PELICAN                  : Well_name    - WELL
LOC .         00/05-01-081-23W4/0            : Location     - LOCATION
UWI .         00/05-01-081-23W4/0            : Uwi          - UNIQUE WELL ID
ENTR.         MAX                            : Entered      - ENTERED BY
SRVC.         COMPUTALOG                     : Scn          - SERVICE COMPANY
STRT.M        200                            : top_depth    - START DEPTH
STOP.M        459.75                         : bot_depth    - STOP DEPTH
STEP.M        0.25                           : increment    - STEP LENGTH
 NULL. -999.2500:NULL Value
~CURVE INFORMATION BLOCK
#MNEM UNIT       ERCB CURVE CODE    CURVE DESCRIPTION
#-----------   ------------------   ----------------------------------
DEPT.M        00 001 00 00         : DEPTH        - DEPTH
ILD .OHMM     00 120 00 00         : RESD         - DEEP RESISTIVITY (DIL)
NPHI.V/V      00 330 00 00         : PHIN         - NEUTRON POROSITY (SANDSTONE)
DPHI.V/V      00 890 00 00         : PHID         - DENSITY POROSITY (SANDSTONE)
GR  .API      00 310 00 00         : GR           - GAMMA RAY
CALI.MM       00 280 01 00         : CAL          - CALIPER
~PARAMETER INFORMATION
#MNEM.UNIT           DATA             DESCRIPTION OF MNEMONIC
#---------         -----------     ------------------------------
GL  .M        593.34               : gl           - GROUND LEVEL ELEVATION
EREF.M        597.04               : kb           - ELEVATION OF DEPTH REFERENCE
DATM.M        593.34               : datum        - DATUM ELEVATION
TDD .M        456                  : tdd          - TOTAL DEPTH DRILLER
RUN .         ONE                  : Run          - RUN NUMBER
ENG .         BILL                 : Engineer     - RECORDING ENGINEER
WIT .         JIM                  : Witness      - WITNESSED BY
MUD .         GEL                  : Mud_type     - MUD TYPE
MATR.         SANDSTONE            : Logunit      - NEUTRON MATRIX
TMAX.C        31                   : BHT          - MAXIMUM RECORDED TEMPERATURE
BHTD.M        456                  : BHTDEP       - MAXIMUM RECORDED TEMPERATURE
MATR.         1                    : LOGUNIT      - NEUTRON MATRIX
RMT .C        21                   : MDTP         - TEMPERATURE OF MUD
NEUT.         1                    : NEUTRON      - NEUTRON TYPE
RESI.         0                    : RESIST       - RESISTIVITY TYPE
RMC .OHMM     4.9                  : RMC          - RESISTIVITY OF MUD CAKE
RMF .OHMM     5.6                  : RMF          - RESISTIVITY OF MUD FILTRATE
SUFT.C        -10                  : SUFT         - SURFACE TEMPERATURE
~A  DEPTH     RESD     PHIN     PHID       GR      CAL
# ...
  273.000    4.828    0.459    0.276   92.897  221.330
  273.250    4.749    0.473    0.285   92.706  217.745
  273.500    4.712    0.487    0.274   91.700  213.958
  273.750    4.854    0.496    0.264   88.300  210.729
  274.000    5.110    0.491    0.273   81.252  209.019
  274.250    5.689    0.479    0.296   72.135  208.220
  274.500    6.774    0.464    0.325   62.351  207.930
  274.750    8.741    0.441    0.355   52.404  207.862
  275.000   11.086    0.426    0.355   48.865  207.454
  275.250   16.527    0.430    0.359   49.361  207.469
  275.500   19.472    0.433    0.364   48.944  208.092
  275.750   19.769    0.426    0.367   48.100  208.511
  276.000   19.327    0.412    0.368   47.499  208.220
  276.250   18.281    0.406    0.363   48.199  206.600
  276.500   17.319    0.405    0.358   49.222  204.503
  276.750   16.309    0.396    0.355   49.230  203.703
  277.000   15.098    0.394    0.348   50.333  203.211
  277.250   13.634    0.395    0.342   52.410  203.023
  277.500   12.360    0.395    0.339   54.609  203.036
  277.750   11.912    0.391    0.342   55.399  203.138
  278.000   12.384    0.394    0.347   55.661  203.575
  278.250   13.233    0.399    0.352   57.617  203.590
  278.500   13.314    0.402    0.355   60.301  203.908
  278.750   11.809    0.415    0.353   65.176  204.734
  279.000    9.478    0.441    0.336   71.390  205.559
  279.250    7.444    0.461    0.303   75.123  205.083
  279.500    7.560    0.450    0.324   71.835  204.678
  279.750    7.787    0.433    0.337   66.247  205.096
  280.000    8.961    0.417    0.346   58.103  206.428
  280.250   10.795    0.405    0.354   52.393  207.862
  280.500   13.188    0.397    0.359   49.908  208.688
  280.750   17.378    0.394    0.351   46.938  208.047
  281.000   19.701    0.386    0.330   45.425  206.792
  281.250   19.847    0.381    0.294   44.219  203.563
  281.500   19.883    0.403    0.273   43.739  201.245
  281.750   19.807    0.426    0.296   43.868  200.448
  282.000   19.659    0.441    0.349   45.093  201.173
  282.250   19.512    0.453    0.378   49.018  203.234
  282.500   19.510    0.442    0.381   51.562  205.364
  282.750   19.509    0.437    0.378   50.353  205.780
  283.000   19.507    0.433    0.374   50.057  205.591
  283.250   19.433    0.426    0.372   50.431  205.402
  283.500   19.288    0.420    0.371   51.291  205.315
  283.750   19.114    0.426    0.370   52.620  204.926
  284.000   18.965    0.442    0.370   53.135  204.942
  284.250   18.822    0.445    0.372   52.169  204.550
  284.500   18.786    0.442    0.374   52.482  204.157
  284.750   18.785    0.432    0.376   54.194  203.968
  285.000   18.784    0.421    0.377   56.697  203.983
  285.250   18.753    0.427    0.377   58.349  203.916
  285.500   18.607    0.440    0.379   56.838  203.506
  285.750   18.467    0.445    0.381   55.143  203.520
  286.000   18.226    0.434    0.378   53.995  203.838
  286.250   18.090    0.422    0.376   53.395  204.663
  286.500   18.123    0.414    0.374   53.282  206.098
  286.750   18.285    0.409    0.372   53.693  208.398
  287.000   18.426    0.416    0.366   54.457  209.679
  287.250   18.562    0.413    0.362   54.709  209.692
  287.500   18.699    0.412    0.360   54.231  209.705
  287.750   18.768    0.419    0.360   53.387  210.125
  288.000   18.767    0.428    0.360   54.672  210.748
  288.250   18.765    0.424    0.361   63.422  210.680
  288.500   18.763    0.439    0.357   66.980  210.274
  288.750   18.073    0.437    0.348   66.259  209.069
  289.000   17.016    0.427    0.333   68.092  207.867
  289.250   15.600    0.423    0.301   72.601  207.679
  289.500   13.161    0.429    0.264   78.328  208.402
  289.750    8.758    0.443    0.256   82.130  208.910
  290.000    5.917    0.443    0.272   81.633  209.349
  290.250    5.447    0.446    0.279   79.694  208.956
  290.500    5.340    0.455    0.281   78.121  208.564
  290.750    5.439    0.460    0.282   77.156  207.968
  291.000    5.695    0.459    0.287   76.434  207.373
  291.250    6.275    0.460    0.301   74.426  207.391
  291.500    7.057    0.446    0.308   71.647  207.406
  291.750    7.708    0.430    0.320   69.709  207.420
  292.000    8.289    0.433    0.325   70.327  207.433
  292.250    8.706    0.447    0.323   71.553  207.245
  292.500    8.952    0.461    0.318   72.169  206.855
  292.750    9.168    0.461    0.309   71.388  206.381
  293.000    9.239    0.459    0.301   69.875  205.975
  293.250    9.446    0.446    0.300   69.884  205.582
  293.500    9.712    0.435    0.317   70.805  205.494
  293.750   10.005    0.431    0.333   72.151  205.305
  294.000   10.251    0.434    0.341   72.585  204.813
  294.250   10.358    0.428    0.342   69.412  204.021
  294.500   10.520    0.420    0.337   66.886  204.037
  294.750   10.597    0.418    0.320   67.624  204.456
  295.000   10.735    0.449    0.320   67.267  205.178
  295.250   10.855    0.463    0.328   65.209  205.800
  295.500   10.915    0.449    0.334   63.028  206.118
  295.750   10.914    0.430    0.327   65.104  206.218
  296.000   10.914    0.417    0.322   68.156  206.658
  296.250   10.913    0.412    0.332   68.164  207.075
  296.500   10.912    0.419    0.332   66.896  207.190
  296.750   10.748    0.425    0.326   66.173  207.407
  297.000   10.352    0.428    0.317   67.093  207.826
  297.250    9.569    0.431    0.312   69.923  208.418
  297.500    8.726    0.443    0.307   69.424  209.279
  297.750    8.155    0.439    0.296   71.866  209.698
  298.000    7.889    0.431    0.293   75.950  210.117
  298.250    7.889    0.434    0.296   78.149  210.334
  298.500    8.110    0.445    0.303   77.609  210.248
  298.750    8.610    0.438    0.317   75.501  209.607
  299.000    9.309    0.425    0.338   72.215  208.352
  299.250   10.391    0.423    0.344   68.329  207.554
  299.500   11.122    0.430    0.345   65.904  207.367
  299.750   11.632    0.433    0.343   64.940  207.381
  300.000   11.986    0.428    0.338   64.706  207.394
  300.250   12.093    0.419    0.334   63.489  207.327
  300.500   12.186    0.413    0.338   62.229  206.919
  300.750   12.459    0.409    0.343   62.239  206.932
  301.000   12.951    0.412    0.345   62.247  206.035
  301.250   13.444    0.421    0.343   62.377  203.819
  301.500   13.749    0.426    0.335   62.630  201.095
  301.750   13.661    0.411    0.320   63.034  200.149
  302.000   13.244    0.405    0.322   63.803  201.429
  302.250   12.758    0.421    0.331   66.976  205.096
  302.500   12.995    0.417    0.331   67.593  206.629
  302.750   13.633    0.402    0.322   66.384  207.453
  303.000   14.471    0.358    0.275   63.837  208.685
  303.250   15.459    0.239    0.137   60.298  211.472
  303.500   15.946    0.229    0.135   60.815  213.179
  303.750   15.245    0.254    0.160   63.744  211.163
  304.000   14.162    0.323    0.268   65.394  208.844
  304.250   12.789    0.393    0.336   66.132  206.427
  304.500   11.409    0.442    0.333   66.444  204.212
  304.750   10.356    0.460    0.316   67.144  202.352
  305.000   10.683    0.447    0.316   68.167  201.101
  305.250   10.923    0.434    0.335   67.447  201.114
  305.500   11.107    0.428    0.346   67.272  201.128
  305.750   11.148    0.429    0.350   68.010  201.143
  306.000   11.064    0.431    0.351   68.932  201.158
  306.250   10.947    0.428    0.356   68.009  201.172
  306.500   10.778    0.436    0.357   67.002  201.187
  306.750   10.618    0.438    0.354   67.255  201.200
  307.000   10.343    0.427    0.348   67.507  201.215
  307.250   10.039    0.417    0.341   67.028  201.432
  307.500    9.762    0.418    0.337   66.124  201.953
  307.750    9.532    0.437    0.336   66.338  202.866
  308.000    9.458    0.436    0.334   67.359  203.303
  308.250    9.178    0.431    0.335   67.369  203.317
  308.500    9.009    0.428    0.336   67.742  203.335
  308.750    8.875    0.434    0.335   68.845  203.146
  309.000    8.727    0.445    0.329   70.557  202.751
  309.250    8.521    0.452    0.321   72.118  202.362
