~VERSION INFORMATION
 VERS.                 2.0:   CWLS LOG ASCII STANDARD -VERSION 2.0
 WRAP.                  NO:   ONE LINE PER DEPTH STEP
~WELL INFORMATION BLOCK
#MNEM.UNIT           DATA                    DESCRIPTION OF MNEMONIC
#---------    -------------------            -------------------------------
# Generated from Intellog Unique Number	CW_79_81/WELL/195
WELL.         CAN DELHI WABASCA 06-36        : Well_name    - WELL
LOC .         00/06-36-080-25W4/0            : Location     - LOCATION
UWI .         00/06-36-080-25W4/0            : Uwi          - UNIQUE WELL ID
ENTR.         JJ                             : Entered      - ENTERED BY
SRVC.         SCHLUMBERGER                   : Scn          - SERVICE COMPANY
DATE.         17 FEB 69                      : Date         - LOG DATE
STRT.M        306.019                        : top_depth    - START DEPTH
STOP.M        437.019                        : bot_depth    - STOP DEPTH
STEP.M        0.25                           : increment    - STEP LENGTH
 NULL. -999.2500:NULL Value
~CURVE INFORMATION BLOCK
#MNEM UNIT       ERCB CURVE CODE    CURVE DESCRIPTION
#-----------   ------------------   ----------------------------------
DEPT.M        00 001 00 00         : DEPTH        - DEPTH
DPHI.V/V      00 890 00 00         : PHID         - DENSITY POROSITY (SANDSTONE)
DELT.US/F     00 520 00 00         : DELT         - SONIC TRAVEL TIME
GR  .API      00 310 00 00         : GR           - GAMMA RAY
ILD .OHMM     00 120 00 00         : RESD         - DEEP RESISTIVITY (DIL)
~PARAMETER INFORMATION
#MNEM.UNIT           DATA             DESCRIPTION OF MNEMONIC
#---------         -----------     ------------------------------
GL  .M        557.083              : gl           - GROUND LEVEL ELEVATION
EREF.M        559.979              : kb           - ELEVATION OF DEPTH REFERENCE
DATM.M        559.979              : datum        - DATUM ELEVATION
TDD .M        445.008              : tdd          - TOTAL DEPTH DRILLER
RUN .         ONE                  : Run          - RUN NUMBER
ENG .         STUEHMER             : Engineer     - RECORDING ENGINEER
WIT .         STAFINSKI & WOROBEC  : Witness      - WITNESSED BY
BASE.         EDM                  : Branch       - HOME BASE OF LOGGING UNIT
MUD .         GEL                  : Mud_type     - MUD TYPE
MATR.         SANDSTONE            : Logunit      - NEUTRON MATRIX
TMAX.C        21.1111              : BHT          - MAXIMUM RECORDED TEMPERATURE
BHTD.M        442.57               : BHTDEP       - MAXIMUM RECORDED TEMPERATURE
RMT .C        21.1111              : MDTP         - TEMPERATURE OF MUD
MUDD.KG/M     1152                 : MWT          - MUD DENSITY
NEUT.         1                    : NEUTRON      - NEUTRON TYPE
RESI.         0                    : RESIST       - RESISTIVITY TYPE
RM  .OHMM     6.33                 : RM           - RESISTIVITY OF MUD
RMC .OHMM     0                    : RMC          - RESISTIVITY OF MUD CAKE
RMF .OHMM     5.01                 : RMF          - RESISTIVITY OF MUD FILTRATE
SUFT.C        5                    : SUFT         - SURFACE TEMPERATURE
~A  DEPTH     PHID     DELT       GR     RESD
  306.019    0.238  421.912   69.222   10.346
  306.269    0.234  426.704   75.547    9.264
  306.519    0.246  428.931   75.559    8.586
  306.769    0.245  421.542   73.612    8.348
  307.019    0.230  417.184   72.167    8.150
  307.269    0.238  415.128   75.033    8.094
  307.519    0.244  420.319   79.954    8.139
  307.769    0.247  420.501   83.272    8.161
  308.019    0.239  418.382   80.424    8.166
  308.269    0.231  415.142   82.238    8.188
  308.519    0.220  411.111   83.149    8.152
  308.769    0.238  414.062   84.663    8.136
  309.019    0.235  420.964   85.172    8.079
  309.269    0.229  426.086   81.272    7.963
  309.519    0.224  421.858   76.769    7.966
  309.769    0.233  421.121   75.125    8.009
  310.019    0.242  421.041   78.996    8.556
  310.269    0.245  419.248   81.659    8.982
  310.519    0.238  418.117   84.776    9.086
  310.769    0.243  414.481   83.933    9.008
  311.019    0.256  410.651   75.873    8.851
  311.269    0.265  417.616   75.733    8.634
  311.519    0.251  424.783   80.353    8.436
  311.769    0.238  431.816   84.423    7.979
  312.019    0.234  429.299   86.535    8.164
  312.269    0.247  425.524   85.442    8.447
  312.519    0.252  425.389   84.450    9.013
  312.769    0.245  418.525   88.418    9.760
  313.019    0.259  411.532   87.274   11.089
  313.269    0.285  402.827   71.444   13.184
  313.519    0.308  422.833   65.789   14.351
  313.769    0.299  416.498   64.997   17.470
  314.019    0.295  402.457   60.795   19.320
  314.269    0.279  396.912   59.052   20.469
  314.519    0.284  392.949   60.413   19.529
  314.769    0.288  402.549   61.725   17.543
  315.019    0.279  403.130   65.242   15.317
  315.269    0.268  398.505   68.611   13.974
  315.519    0.266  400.864   70.474   13.797
  315.769    0.284  404.605   67.176   14.786
  316.019    0.284  401.034   67.636   15.612
  316.269    0.265  400.364   68.747   16.541
  316.519    0.248  403.840   64.647   15.278
  316.769    0.288  404.090   67.512   13.956
  317.019    0.280  401.443   69.128   12.715
  317.269    0.247  398.072   71.842   11.653
  317.519    0.266  394.635   76.462   10.130
  317.769    0.253  395.803   83.089    8.888
  318.019    0.245  398.624   85.553    8.330
  318.269    0.260  400.916   83.308    8.513
  318.519    0.263  398.994   76.249    9.300
  318.769    0.279  400.165   73.752   10.630
  319.019    0.272  405.685   77.219   12.120
  319.269    0.264  408.503   81.439   14.113
  319.519    0.274  411.651   72.426   16.386
  319.769    0.272  415.588   65.317   19.443
  320.019    0.258  412.349   69.990   22.560
  320.269    0.239  397.189   71.752   25.477
  320.519    0.223  354.436   68.602   27.469
  320.769    0.253  341.451   66.958   26.127
  321.019    0.275  344.268   67.870   22.194
  321.269    0.282  383.966   71.489   20.268
  321.519    0.281  418.921   74.003   16.958
  321.769    0.290  420.551   74.062   14.751
  322.019    0.296  422.449   70.462   13.731
  322.269    0.282  426.915   71.125   14.920
  322.519    0.288  427.955   71.182   14.883
  322.769    0.302  424.583   74.600   13.721
  323.019    0.291  422.330   69.547   12.740
  323.269    0.277  418.103   67.852   11.960
  323.519    0.268  400.639   74.177   11.181
  323.769    0.267  387.653   75.639   10.823
  324.019    0.269  413.125   72.290   10.907
  324.269    0.275  401.983   70.646   11.191
  324.519    0.287  404.208   69.903   12.120
  324.769    0.298  416.969   67.155   12.404
  325.019    0.288  418.669   69.620   12.026
  325.269    0.275  412.861   72.135   11.166
  325.519    0.262  415.021   69.287   10.627
  325.769    0.248  421.000   68.946    9.928
  326.019    0.240  422.172   71.462    9.449
  326.269    0.238  417.877   74.829    8.991
  326.519    0.250  415.495   76.843    8.653
  326.769    0.249  420.092   74.045    8.316
  327.019    0.238  425.609   78.666    8.058
  327.269    0.240  425.597   82.184    7.860
  327.519    0.237  422.751   81.592    7.743
  327.769    0.240  420.699   78.493    7.545
  328.019    0.237  421.936   82.061    7.509
  328.269    0.233  425.743   87.032    7.432
  328.519    0.231  423.883   81.930    7.456
  328.769    0.221  422.818   81.737    7.520
  329.019    0.229  423.134   84.003    7.525
  329.269    0.253  425.227   79.902    7.528
  329.519    0.251  427.651   81.765    7.531
  329.769    0.237  428.165   85.985    7.515
  330.019    0.229  422.620   80.781    7.540
  330.269    0.225  417.272   75.527    7.521
  330.519    0.244  416.271   79.598    7.485
  330.769    0.229  420.866   83.966    7.469
  331.019    0.213  421.514   80.868    7.553
  331.269    0.205  419.393   80.928    8.081
  331.519    0.213  415.559   84.095    8.163
  331.769    0.235  409.620   92.124    8.829
  332.019    0.235  401.244   89.326    9.756
  332.269    0.218  393.922   85.828    9.756
  332.519    0.223  385.346   83.129   12.858
  332.769    0.241  391.129   76.171   13.021
  333.019    0.254  402.969   74.377   13.021
  333.269    0.260  411.451   76.340   13.021
  333.519    0.242  417.366   77.954   12.632
  333.769    0.240  400.230   81.872   13.076
  334.019    0.234  385.005   84.437   15.229
  334.269    0.213  351.867   76.980   17.503
  334.519    0.201  336.180   71.523   20.118
  334.769    0.196  327.343   63.012   21.768
  335.019    0.168  320.810   63.822   21.672
  335.269    0.185  316.055   63.030   19.667
  335.519    0.194  335.930   66.196   17.641
  335.769    0.207  363.508   71.469   15.254
  336.019    0.227  413.478   70.927   13.008
  336.269    0.245  424.135   73.242   10.702
  336.519    0.231  425.169   73.804    9.982
  336.769    0.230  424.173   74.713    9.645
  337.019    0.238  416.717   79.134    9.508
  337.269    0.224  414.006   75.534    9.512
  337.519    0.217  411.227   74.189    9.574
  337.769    0.222  407.920   78.409    9.759
  338.019    0.219  409.094   79.922    9.984
  338.269    0.230  413.952   75.522   10.169
  338.519    0.245  421.514   75.480   10.152
  338.769    0.253  421.894   76.743   10.015
  339.019    0.244  418.985   77.853    9.818
  339.269    0.238  422.856   80.971    9.560
  339.519    0.242  424.028   82.684    9.322
  339.769    0.242  420.524   80.990    9.145
  340.019    0.226  413.335   83.805    9.069
  340.269    0.221  419.576   83.764    9.053
  340.519    0.239  419.496   82.221    9.096
  340.769    0.234  419.287   87.542    9.099
  341.019    0.234  422.039   87.552    9.099
  341.269    0.236  426.042   84.704    9.099
  341.519    0.232  426.492   84.562    8.811
  341.769    0.226  420.814   84.121    8.772
  342.019    0.217  419.416   83.128    8.555
  342.269    0.203  422.103   80.931    8.277
  342.519    0.224  424.924   77.280    7.459
  342.769    0.245  423.330   80.648    7.280
  343.019    0.248  420.747   82.261    6.922
  343.269    0.241  421.461   81.921    6.765
  343.519    0.242  428.691   81.026    6.949
  343.769    0.240  432.168   78.980    7.455
  344.019    0.238  428.069   76.785    8.262
  344.269    0.252  424.305   79.650    9.916
  344.519    0.270  421.065   73.194   10.178
  344.769    0.266  413.610   71.399   11.105
  345.019    0.250  409.646   71.408   11.752
  345.269    0.258  427.282   70.916   11.617
  345.519    0.274  428.915   72.278   11.417
  345.769    0.255  418.233   75.446   10.276
  346.019    0.237  400.703   76.809   10.180
  346.269    0.223  384.622   79.675   10.988
  346.519    0.234  381.577   67.152   11.412
  346.769    0.214  381.894   60.846   12.440
  347.019    0.195  369.632   62.259   13.649
  347.269    0.192  352.827   63.472   16.023
  347.519    0.187  364.864   64.032   18.598
  347.769    0.155  361.032   64.843   21.775
  348.019    0.086  309.719   61.894   23.366
  348.269    0.056  291.860   54.535   25.379
  348.519    0.056  234.488   42.715   25.804
  348.769    0.106  218.669   52.598   25.908
  349.019    0.142  244.998   60.678   22.296
  349.269    0.225  273.237   67.305   17.237
