~VERSION INFORMATION
 VERS.                 2.0:   CWLS LOG ASCII STANDARD -VERSION 2.0
 WRAP.                  NO:   ONE LINE PER DEPTH STEP
~WELL INFORMATION BLOCK
#MNEM.UNIT           DATA                    DESCRIPTION OF MNEMONIC
#---------    -------------------            -------------------------------
# Generated from Intellog Unique Number	CW_79_81/WELL/416
WELL.         05-12-079-21W4                 : Well_name    - WELL
LOC .         00/05-12-079-21W4/0            : Location     - LOCATION
UWI .         00/05-12-079-21W4/0            : Uwi          - UNIQUE WELL ID
ENTR.         MAX                            : Entered      - ENTERED BY
SRVC.         SCHLUMBERGER                   : Scn          - SERVICE COMPANY
STRT.M        190                            : top_depth    - START DEPTH
STOP.M        415                            : bot_depth    - STOP DEPTH
STEP.M        0.25                           : increment    - STEP LENGTH
 NULL. -999.2500:NULL Value
~CURVE INFORMATION BLOCK
#MNEM UNIT       ERCB CURVE CODE    CURVE DESCRIPTION
#-----------   ------------------   ----------------------------------
DEPT.M        00 001 00 00         : DEPTH        - DEPTH
ILD .OHMM     00 120 00 00         : RESD         - DEEP RESISTIVITY (DIL)
NPHI.V/V      00 330 00 00         : PHIN         - NEUTRON POROSITY (SANDSTONE)
DPHI.V/V      00 890 00 00         : PHID         - DENSITY POROSITY (SANDSTONE)
CALI.MM       00 280 01 00         : CAL          - CALIPER
GR  .API      00 310 00 00         : GR           - GAMMA RAY
~PARAMETER INFORMATION
#MNEM.UNIT           DATA             DESCRIPTION OF MNEMONIC
#---------         -----------     ------------------------------
GL  .M        566.25               : gl           - GROUND LEVEL ELEVATION
EREF.M        569.55               : kb           - ELEVATION OF DEPTH REFERENCE
DATM.M        566.25               : datum        - DATUM ELEVATION
TDD .M        420                  : tdd          - TOTAL DEPTH DRILLER
RUN .         ONE                  : Run          - RUN NUMBER
ENG .         BILL                 : Engineer     - RECORDING ENGINEER
WIT .         JIM                  : Witness      - WITNESSED BY
MUD .         GEL                  : Mud_type     - MUD TYPE
MATR.         SANDSTONE            : Logunit      - NEUTRON MATRIX
TMAX.C        23.3                 : BHT          - MAXIMUM RECORDED TEMPERATURE
BHTD.M        420                  : BHTDEP       - MAXIMUM RECORDED TEMPERATURE
RMT .C        12.8                 : MDTP         - TEMPERATURE OF MUD
MUDD.KG/M     1160                 : MWT          - MUD DENSITY
NEUT.         1                    : NEUTRON      - NEUTRON TYPE
RESI.         0                    : RESIST       - RESISTIVITY TYPE
RM  .OHMM     10.7                 : RM           - RESISTIVITY OF MUD
RMC .OHMM     0.25                 : RMC          - RESISTIVITY OF MUD CAKE
RMF .OHMM     11.3                 : RMF          - RESISTIVITY OF MUD FILTRATE
SUFT.C        -5                   : SUFT         - SURFACE TEMPERATURE
~A  DEPTH     RESD     PHIN     PHID      CAL       GR
  190.000    5.585    0.519    0.269  169.760   99.177
  190.250    5.747    0.543    0.277  169.355   98.347
  190.500    5.653    0.576    0.284  168.471  100.778
  190.750    5.764    0.562    0.267  165.129   99.651
  191.000    5.772    0.535    0.271  161.788   97.032
  191.250    5.625    0.539    0.284  163.864   95.025
  191.500    5.240    0.552    0.302  167.414   93.899
  191.750    4.881    0.567    0.308  167.991   93.970
  192.000    4.844    0.584    0.298  167.598   94.605
  192.250    4.851    0.597    0.288  167.696   94.654
  192.500    5.082    0.569    0.293  170.251   92.937
  192.750    5.673    0.538    0.310  168.396   88.260
  193.000    6.278    0.518    0.297  167.524   84.767
  193.250    6.174    0.539    0.301  168.593   86.895
  193.500    5.496    0.573    0.309  169.661   90.510
  193.750    4.892    0.589    0.310  171.258   89.383
  194.000    4.436    0.591    0.317  171.848   90.039
  194.250    4.441    0.601    0.308  170.976   80.023
  194.500    4.782    0.585    0.315  167.610   67.056
  194.750    5.635    0.454    0.325  162.795   51.427
  195.000    8.329    0.446    0.332  161.419   45.272
  195.250   12.311    0.427    0.339  161.038   43.554
  195.500   16.621    0.418    0.333  161.615   43.026
  195.750   22.235    0.429    0.341  161.222   42.196
  196.000   23.517    0.430    0.348  161.321   41.957
  196.250   23.128    0.418    0.341  160.952   42.606
  196.500   22.948    0.420    0.322  160.534   42.064
  196.750   23.617    0.422    0.313  159.662   41.241
  197.000   24.970    0.427    0.322  159.257   39.523
  197.250   25.931    0.429    0.320  158.385   39.277
  197.500   25.931    0.411    0.311  158.004   40.820
  197.750   26.725    0.401    0.304  158.593   41.469
  198.000   27.494    0.394    0.295  158.679   39.159
  198.250   28.543    0.409    0.316  159.269   39.512
  198.500   30.183    0.426    0.325  159.379   41.352
  198.750   31.906    0.439    0.301  159.478   43.177
  199.000   35.623    0.365    0.234  159.084   43.825
  199.250   41.238    0.301    0.200  159.207   43.002
  199.500   49.480    0.266    0.143  159.784   44.250
  199.750   56.262    0.225    0.103  160.362   45.490
  200.000   63.940    0.196    0.132  160.472   45.843
  200.250   74.019    0.195    0.138  160.091   46.492
  200.500   76.855    0.196    0.141  158.212   47.133
  200.750   76.963    0.202    0.157  158.298   46.014
  201.000   72.999    0.214    0.154  160.877   45.480
  201.250   63.248    0.252    0.148  162.437   45.840
  201.500   56.810    0.269    0.153  167.952   47.369
  201.750   52.926    0.271    0.190  169.021   50.384
  202.000   49.748    0.240    0.148  160.767   55.182
  202.250   48.038    0.223    0.109  161.393   60.867
  202.500   47.252    0.213    0.132  161.467   51.154
  202.750   47.757    0.218    0.150  162.068   40.850
  203.000   47.824    0.232    0.146  162.633   36.773
  203.250   47.452    0.256    0.151  159.292   36.527
  203.500   45.830    0.288    0.189  158.912   37.478
  203.750   41.193    0.317    0.242  158.518   38.726
  204.000   40.858    0.348    0.264  158.125   39.065
  204.250   42.431    0.315    0.212  157.744   39.425
  204.500   54.754    0.269    0.126  157.843   43.623
  204.750   49.172    0.207    0.089  158.432   46.062
  205.000   34.599    0.211    0.117  160.004   47.886
  205.250   16.195    0.230    0.162  166.490   60.968
  205.500    9.006    0.246    0.212  171.502   91.214
  205.750    6.999    0.250    0.221  167.669  101.929
  206.000    6.174    0.245    0.214  167.767   99.028
  206.250    5.398    0.247    0.198  167.386   93.168
  206.500    4.851    0.278    0.176  165.519   90.281
  206.750    4.477    0.540    0.191  168.062   93.578
  207.000    4.096    0.534    0.238  173.086   95.706
  207.250    3.581    0.556    0.264  172.226   94.284
  207.500    3.396    0.591    0.250  170.838   93.453
  207.750    3.192    0.617    0.260  169.450   94.116
  208.000    3.055    0.616    0.279  169.069   92.983
  208.250    3.802    0.615    0.294  167.693   88.299
  208.500    5.322    0.615    0.303  164.340   76.819
  208.750    7.654    0.487    0.296  158.554   69.473
  209.000   11.416    0.421    0.300  156.196   66.572
  209.250   15.275    0.403    0.297  156.785   67.812
  209.500   15.860    0.401    0.280  158.358   77.350
  209.750   15.742    0.431    0.274  162.890   81.838
  210.000   14.663    0.461    0.279  164.450   77.753
  210.250   13.411    0.455    0.285  165.040   69.231
  210.500   13.189    0.455    0.275  165.150   63.956
  210.750   13.947    0.463    0.282  164.757   60.167
  211.000   13.841    0.470    0.292  163.369   57.273
  211.250   14.239    0.451    0.285  156.601   56.435
  211.500   16.186    0.447    0.273  155.716   56.795
  211.750   18.404    0.454    0.256  155.814   58.043
  212.000   19.810    0.474    0.265  155.446   58.692
  212.250   20.949    0.478    0.272  155.016   58.157
  212.500   20.974    0.464    0.282  154.144   57.911
  212.750   20.974    0.459    0.268  153.259   56.792
  213.000   20.671    0.452    0.276  152.375   57.145
  213.250   20.881    0.444    0.280  152.498   54.236
  213.500   22.895    0.445    0.271  153.087   51.638
  213.750   23.988    0.457    0.261  153.185   50.519
  214.000   24.018    0.463    0.279  153.750   50.872
  214.250   22.988    0.440    0.293  154.831   51.225
  214.500   20.462    0.427    0.279  155.912   51.563
  214.750   17.411    0.405    0.269  158.504   53.995
  215.000   15.088    0.418    0.257  160.052   54.643
  215.250   14.704    0.400    0.245  160.162   53.524
  215.500   14.859    0.375    0.243  158.295   51.799
  215.750   14.877    0.398    0.270  155.949   55.406
  216.000   14.499    0.451    0.280  155.556   69.079
  216.250   13.508    0.450    0.266  158.590   83.942
  216.500   10.790    0.464    0.244  163.601   93.769
  216.750    9.515    0.475    0.230  165.173   93.537
  217.000    7.599    0.483    0.235  165.272   90.333
  217.250    6.953    0.461    0.259  161.930   84.466
  217.500    7.351    0.433    0.247  158.110   75.648
  217.750    8.983    0.407    0.240  158.209   73.339
  218.000   13.274    0.407    0.199  159.768   74.290
  218.250   15.369    0.431    0.220  160.849   69.015
  218.500   16.999    0.440    0.259  160.469   62.557
  218.750   20.227    0.434    0.307  156.169   59.078
  219.000   20.806    0.430    0.303  155.260   60.304
  219.250   20.098    0.426    0.288  156.353   62.728
  219.500   18.382    0.422    0.265  157.434   67.526
  219.750   13.287    0.423    0.237  160.481   72.612
  220.000   10.328    0.430    0.221  164.018   76.522
  220.250    9.798    0.467    0.259  164.104   71.254
  220.500    9.989    0.480    0.300  160.284   62.429
  220.750   12.207    0.469    0.309  156.943   57.760
  221.000   14.389    0.467    0.302  156.562   58.704
  221.250   15.084    0.445    0.260  156.672   62.600
  221.500   14.432    0.432    0.232  155.776   68.877
  221.750   11.215    0.427    0.221  155.370   73.076
  222.000   10.165    0.453    0.209  155.481   67.216
  222.250   10.180    0.460    0.210  155.088   66.400
  222.500   10.289    0.470    0.276  155.174   69.711
  222.750   10.397    0.458    0.294  155.284   72.135
  223.000   10.413    0.452    0.300  154.879   75.439
  223.250   10.715    0.458    0.285  154.486   79.054
  223.500   11.025    0.469    0.284  154.596   76.744
  223.750   11.446    0.467    0.286  154.694   72.652
  224.000   11.671    0.441    0.280  154.793   68.272
  224.250   11.796    0.438    0.273  154.903   64.483
  224.500   12.142    0.451    0.260  154.989   64.251
  224.750   12.045    0.451    0.265  155.087   66.668
  225.000   11.425    0.445    0.265  155.185   72.945
  225.250   10.081    0.442    0.249  157.740   83.363
  225.500    9.219    0.453    0.225  165.724   92.303
  225.750    7.773    0.458    0.220  172.689   97.685
  226.000    6.497    0.452    0.233  173.291  100.419
  226.250    6.446    0.444    0.223  172.419   99.877
