~VERSION INFORMATION
 VERS.                 2.0:   CWLS LOG ASCII STANDARD -VERSION 2.0
 WRAP.                  NO:   ONE LINE PER DEPTH STEP
~WELL INFORMATION BLOCK
#MNEM.UNIT           DATA                    DESCRIPTION OF MNEMONIC
#---------    -------------------            -------------------------------
# Generated from Intellog Unique Number	CS_73_76/WELL/702
WELL.         AMOCO AEC IPIATIK              : Well_name    - WELL
LOC .         00/07-03-073-06W4/0            : Location     - LOCATION
UWI .         00/07-03-073-06W4/0            : Uwi          - UNIQUE WELL ID
ENTR.         SP                             : Entered      - ENTERED BY
SRVC.         SCHLUMBERGER                   : Scn          - SERVICE COMPANY
STRT.M        315                            : top_depth    - START DEPTH
STOP.M        560                            : bot_depth    - STOP DEPTH
STEP.M        0.25                           : increment    - STEP LENGTH
 NULL. -999.2500:NULL Value
~CURVE INFORMATION BLOCK
#MNEM UNIT       ERCB CURVE CODE    CURVE DESCRIPTION
#-----------   ------------------   ----------------------------------
DEPT.M        00 001 00 00         : DEPTH        - DEPTH
ILD .OHMM     00 120 00 00         : RESD         - DEEP RESISTIVITY (DIL)
DPHI.V/V      00 890 00 00         : PHID         - DENSITY POROSITY (LIMESTONE)
NPHI.V/V      00 330 00 00         : PHIN         - NEUTRON POROSITY (LIMESTONE)
GR  .API      00 310 00 00         : GR           - GAMMA RAY
~PARAMETER INFORMATION
#MNEM.UNIT           DATA             DESCRIPTION OF MNEMONIC
#---------         -----------     ------------------------------
GL  .M        703.68               : gl           - GROUND LEVEL ELEVATION
EREF.M        702.89               : kb           - ELEVATION OF DEPTH REFERENCE
DATM.M        703.68               : datum        - DATUM ELEVATION
TDD .M        578                  : tdd          - TOTAL DEPTH DRILLER
RUN .         ONE                  : Run          - RUN NUMBER
ENG .         BILL                 : Engineer     - RECORDING ENGINEER
WIT .         JIM                  : Witness      - WITNESSED BY
MUD .         GEL                  : Mud_type     - MUD TYPE
MATR.         LIMESTONE            : Logunit      - NEUTRON MATRIX
TMAX.C        17                   : BHT          - MAXIMUM RECORDED TEMPERATURE
BHTD.M        578                  : BHTDEP       - MAXIMUM RECORDED TEMPERATURE
MATR.         1                    : LOGUNIT      - NEUTRON MATRIX
RMT .C        25                   : MDTP         - TEMPERATURE OF MUD
NEUT.         1                    : NEUTRON      - NEUTRON TYPE
RESI.         0                    : RESIST       - RESISTIVITY TYPE
RMC .OHMM     0.25                 : RMC          - RESISTIVITY OF MUD CAKE
RMF .OHMM     0.25                 : RMF          - RESISTIVITY OF MUD FILTRATE
SUFT.C        15                   : SUFT         - SURFACE TEMPERATURE
~A  DEPTH     RESD     PHID     PHIN       GR
# ...
  358.500    9.929    0.284    0.487   65.785
  358.750   10.293    0.274    0.465   65.784
  359.000   10.481    0.279    0.454   68.203
  359.250   10.473    0.288    0.471   68.807
  359.500   10.466    0.288    0.480   70.016
  359.750   10.457    0.293    0.482   70.619
  360.000   10.643    0.280    0.471   70.619
  360.250   10.635    0.264    0.467   70.013
  360.500   10.431    0.265    0.458   69.408
  360.750   10.233    0.275    0.452   69.407
  361.000   10.040    0.291    0.442   70.011
  361.250    9.848    0.308    0.439   64.566
  361.500    9.656    0.308    0.438   66.380
  361.750    9.474    0.305    0.441   70.613
  362.000    9.469    0.296    0.446   75.451
  362.250    9.289    0.287    0.459   83.313
  362.500    8.617    0.296    0.456   86.941
  362.750    8.146    0.304    0.462   88.150
  363.000    7.559    0.299    0.468   90.569
  363.250    7.146    0.289    0.459   94.197
  363.500    6.755    0.275    0.467   95.406
  363.750    6.503    0.301    0.493   90.566
  364.000    6.378    0.298    0.512   89.356
  364.250    6.376    0.316    0.503   93.588
  364.500    6.369    0.298    0.506   94.798
  364.750    6.483    0.291    0.501   96.612
  365.000    6.479    0.276    0.508   97.820
  365.250    6.596    0.280    0.520   97.215
  365.500    6.590    0.274    0.519   97.819
  365.750    6.710    0.276    0.512   97.213
  366.000    6.830    0.291    0.500   91.769
  366.250    6.825    0.292    0.502   93.582
  366.500    6.943    0.287    0.498   93.582
  366.750    7.068    0.280    0.489   92.976
  367.000    7.064    0.267    0.481   95.394
  367.250    7.060    0.261    0.483   96.603
  367.500    7.186    0.264    0.483   98.417
  367.750    7.316    0.269    0.489   96.602
  368.000    7.310    0.270    0.491   92.367
  368.250    7.442    0.261    0.483   88.132
  368.500    7.573    0.247    0.473   85.712
  368.750    7.710    0.233    0.466   82.687
  369.000    7.850    0.222    0.456   81.477
  369.250    7.989    0.238    0.460   83.895
  369.500    8.130    0.258    0.438   83.894
  369.750    8.279    0.250    0.416   79.055
  370.000    8.424    0.238    0.405   77.844
  370.250    8.420    0.234    0.409   79.053
  370.500    8.729    0.235    0.414   79.052
  370.750    8.888    0.226    0.423   80.261
  371.000    9.386    0.244    0.432   76.631
  371.250    9.558    0.254    0.435   74.816
  371.500    9.908    0.257    0.428   72.396
  371.750   10.087    0.267    0.428   70.581
  372.000   10.081    0.268    0.428   69.975
  372.250   10.258    0.261    0.427   70.579
  372.500   10.254    0.254    0.426   72.392
  372.750   10.248    0.254    0.422   73.602
  373.000   10.237    0.246    0.416   72.996
  373.250   10.420    0.255    0.408   71.785
  373.500   10.415    0.268    0.405   70.575
  373.750   10.600    0.265    0.425   68.760
  374.000   10.592    0.273    0.434   67.549
  374.250   10.582    0.286    0.439   67.548
  374.500   10.382    0.280    0.438   69.362
  374.750   10.377    0.271    0.429   69.966
  375.000   10.367    0.267    0.417   68.755
  375.250   10.169    0.255    0.417   68.150
  375.500   10.163    0.257    0.429   67.544
  375.750   10.150    0.261    0.433   67.543
  376.000   10.142    0.269    0.438   66.938
  376.250   10.323    0.278    0.427   66.937
  376.500    9.763    0.284    0.419   68.146
  376.750    9.937    0.283    0.429   68.750
  377.000   10.118    0.266    0.432   69.354
  377.250   10.110    0.256    0.432   69.958
  377.500   10.100    0.248    0.437   69.352
  377.750   10.091    0.261    0.427   68.746
  378.000    9.901    0.274    0.416   69.955
  378.250    9.894    0.267    0.405   71.164
  378.500    9.703    0.259    0.396   71.163
  378.750    9.697    0.253    0.403   69.348
  379.000    9.689    0.262    0.404   68.138
  379.250    9.682    0.277    0.407   68.137
  379.500    9.676    0.250    0.407   68.136
  379.750    9.847    0.255    0.424   68.135
  380.000   10.027    0.270    0.430   68.739
  380.250   10.206    0.285    0.438   69.948
  380.500   10.199    0.268    0.450   70.552
  380.750   10.189    0.264    0.444   69.342
  381.000   10.184    0.271    0.438   66.921
  381.250   10.175    0.271    0.445   66.316
  381.500    9.982    0.283    0.448   68.129
  381.750    9.790    0.289    0.444   69.943
  382.000    9.783    0.296    0.428   71.152
  382.250    9.593    0.282    0.413   69.942
  382.500    9.766    0.287    0.407   68.731
  382.750    9.760    0.289    0.418   68.730
  383.000    9.753    0.285    0.426   68.124
  383.250    9.930    0.290    0.430   68.124
  383.500   10.106    0.287    0.433   67.518
  383.750   10.287    0.288    0.438   66.912
  384.000   10.475    0.283    0.439   66.912
  384.250   10.662    0.283    0.448   66.306
  384.500   10.854    0.277    0.449   66.305
  384.750   10.843    0.273    0.450   68.119
  385.000   10.639    0.282    0.435   67.513
  385.250   10.243    0.279    0.425   70.537
  385.500    9.680    0.281    0.433   72.350
  385.750    9.499    0.282    0.437   73.559
  386.000    9.316    0.276    0.437   72.953
  386.250    9.482    0.282    0.427   71.743
  386.500    9.653    0.290    0.425   67.508
  386.750   10.009    0.294    0.429   64.483
  387.000   10.188    0.292    0.436   62.668
  387.250   10.182    0.298    0.433   60.853
  387.500   10.176    0.307    0.443   60.247
  387.750    9.793    0.313    0.455   62.061
  388.000    9.788    0.310    0.450   64.479
  388.250    9.784    0.295    0.442   65.688
  388.500    9.596    0.287    0.435   65.082
  388.750    9.409    0.292    0.433   64.477
  389.000    9.404    0.283    0.438   63.871
  389.250    9.399    0.288    0.441   64.475
  389.500    9.217    0.290    0.449   65.079
  389.750    9.214    0.297    0.432   66.893
  390.000    8.872    0.297    0.432   70.521
  390.250    8.233    0.284    0.442   74.149
  390.500    7.637    0.292    0.449   78.987
  390.750    7.355    0.297    0.427   83.220
  391.000    7.215    0.230    0.418   86.848
  391.250    7.211    0.209    0.424   88.057
  391.500    7.336    0.213    0.414   85.637
  391.750    7.469    0.225    0.431   83.217
  392.000    7.605    0.229    0.441   80.796
  392.250    7.739    0.253    0.463   80.191
  392.500    7.736    0.277    0.480   78.981
  392.750    7.727    0.288    0.475   74.746
  393.000    7.580    0.281    0.431   72.326
  393.250    7.437    0.254    0.396   74.744
  393.500    7.162    0.248    0.411   81.397
  393.750    6.768    0.271    0.424   85.025
  394.000    6.639    0.284    0.440   83.209
  394.250    6.632    0.306    0.454   80.790
  394.500    6.628    0.310    0.469   74.135
  394.750    6.624    0.311    0.471   63.852
  395.000    6.743    0.344    0.472   57.199
  395.250    6.865    0.365    0.485   50.544
  395.500    6.986    0.373    0.497   51.148
  395.750    6.981    0.352    0.489   52.962
  396.000    7.108    0.328    0.481   55.986
  396.250    7.103    0.317    0.487   59.614
  396.500    6.967    0.317    0.472   60.822
  396.750    6.962    0.323    0.459   63.241
  397.000    6.830    0.322    0.453   66.264
  397.250    6.698    0.319    0.459   67.473
  397.500    6.571    0.314    0.469   66.867
  397.750    6.566    0.333    0.464   66.262
  398.000    6.438    0.331    0.452   65.656
  398.250    6.316    0.336    0.441   65.051
  398.500    6.312    0.338    0.441   64.445
  398.750    6.191    0.334    0.460   60.815
  399.000    6.187    0.332    0.468   60.209
  399.250    6.069    0.320    0.460   60.209
  399.500    5.953    0.321    0.458   60.208
  399.750    5.839    0.338    0.464   61.417
  400.000    5.836    0.336    0.470   63.230
  400.250    5.725    0.331    0.474   63.230
  400.500    5.512    0.333    0.473   62.623
  400.750    5.407    0.336    0.475   62.623
  401.000    5.304    0.337    0.476   61.412
  401.250    5.203    0.342    0.482   60.202
  401.500    5.102    0.347    0.481   60.201
  401.750    5.100    0.337    0.474   62.015
