~VERSION INFORMATION
 VERS.                 2.0:   CWLS LOG ASCII STANDARD -VERSION 2.0
 WRAP.                  NO:   ONE LINE PER DEPTH STEP
~WELL INFORMATION BLOCK
#MNEM.UNIT           DATA                    DESCRIPTION OF MNEMONIC
#---------    -------------------            -------------------------------
# Generated from Intellog Unique Number	CX_WELLS/WELL/3254
WELL.         PAPA ET AL GRANOR              : Well_name    - WELL
LOC .         00/06-31-083-17W4/0            : Location     - LOCATION
UWI .         00/06-31-083-17W400            : Uwi          - UNIQUE WELL ID
ENTR.         T                              : Entered      - ENTERED BY
SRVC.         SCHLUMBERGER                   : Scn          - SERVICE COMPANY
STRT.M        100                            : top_depth    - START DEPTH
STOP.M        285                            : bot_depth    - STOP DEPTH
STEP.M        0.25                           : increment    - STEP LENGTH
 NULL. -999.2500:NULL Value
~CURVE INFORMATION BLOCK
#MNEM UNIT       ERCB CURVE CODE    CURVE DESCRIPTION
#-----------   ------------------   ----------------------------------
DEPT.M        00 001 00 00         : DEPTH        - DEPTH
GR  .API      00 310 00 00         : GR           - GAMMA RAY
NPHI.V/V      00 330 00 00         : PHIN         - NEUTRON POROSITY (SANDSTONE)
DPHI.V/V      00 890 00 00         : PHID         - DENSITY POROSITY (SANDSTONE)
ILD .OHMM     00 120 00 00         : RESD         - DEEP RESISTIVITY (DIL)
~PARAMETER INFORMATION
#MNEM.UNIT           DATA             DESCRIPTION OF MNEMONIC
#---------         -----------     ------------------------------
GL  .M        537.8                : gl           - GROUND LEVEL ELEVATION
EREF.M        541.4                : kb           - ELEVATION OF DEPTH REFERENCE
DATM.M        541.4                : datum        - DATUM ELEVATION
TDD .M        285                  : tdd          - TOTAL DEPTH DRILLER
RUN .         ONE                  : Run          - RUN NUMBER
ENG .         BILL                 : Engineer     - RECORDING ENGINEER
WIT .         JIM                  : Witness      - WITNESSED BY
MUD .         GEL                  : Mud_type     - MUD TYPE
MATR.         SANDSTONE            : Logunit      - NEUTRON MATRIX
TMAX.C        22                   : BHT          - MAXIMUM RECORDED TEMPERATURE
BHTD.M        285                  : BHTDEP       - MAXIMUM RECORDED TEMPERATURE
MATR.         1                    : LOGUNIT      - NEUTRON MATRIX
RMT .C        20                   : MDTP         - TEMPERATURE OF MUD
NEUT.         1                    : NEUTRON      - NEUTRON TYPE
RESI.         5.5                  : RESIST       - RESISTIVITY TYPE
RMC .OHMM     4.4                  : RMC          - RESISTIVITY OF MUD CAKE
RMF .OHMM     7                    : RMF          - RESISTIVITY OF MUD FILTRATE
SUFT.C        4                    : SUFT         - SURFACE TEMPERATURE
~A  DEPTH       GR     PHIN     PHID     RESD
  100.000   93.440    0.413    0.249   11.815
  100.250   93.469    0.412    0.255   12.304
  100.500   92.927    0.404    0.254   12.789
  100.750   90.591    0.409    0.256   13.816
  101.000   85.861    0.415    0.265   17.038
  101.250   82.341    0.416    0.276   19.113
  101.500   78.822    0.415    0.296   20.648
  101.750   77.070    0.410    0.302   21.492
  102.000   75.916    0.403    0.312   21.534
  102.250   75.374    0.402    0.322   21.162
  102.500   74.235    0.403    0.329   20.419
  102.750   73.679    0.404    0.318   18.983
  103.000   71.941    0.403    0.298   17.966
  103.250   70.217    0.397    0.285   17.012
  103.500   73.850    0.391    0.272   16.100
  103.750   90.692    0.396    0.262   14.407
  104.000   94.340    0.410    0.257   10.097
  104.250   94.981    0.414    0.254    9.203
  104.500   96.235    0.400    0.252    8.078
  104.750   96.891    0.378    0.252    6.961
  105.000   97.546    0.383    0.250    5.780
  105.250   98.814    0.436    0.249    5.076
  105.500   98.857    0.457    0.244    4.804
  105.750   96.535    0.473    0.237    5.093
  106.000   94.198    0.489    0.233    5.719
  106.250   89.454    0.490    0.235    6.172
  106.500   77.528    0.416    0.239    7.326
  106.750   75.191    0.396    0.253    9.742
  107.000   72.855    0.398    0.276   11.353
  107.250   71.729    0.373    0.292   11.586
  107.500   70.575    0.359    0.312   12.054
  107.750   68.852    0.383    0.312   12.785
  108.000   65.931    0.402    0.305   13.819
  108.250   63.580    0.417    0.300   15.789
  108.500   61.243    0.445    0.292   16.731
  108.750   60.089    0.457    0.286   18.075
  109.000   59.562    0.468    0.292   20.296
  109.250   59.007    0.412    0.302   21.507
  109.500   59.092    0.375    0.307   23.699
  109.750   59.121    0.354    0.307   24.644
  110.000   59.178    0.391    0.305   25.627
  110.250   59.235    0.407    0.304   26.165
  110.500   59.321    0.428    0.308   27.248
  110.750   59.349    0.419    0.311   27.793
  111.000   60.005    0.398    0.311   28.416
  111.250   60.062    0.385    0.307   28.998
  111.500   60.119    0.382    0.302   29.578
  111.750   60.176    0.390    0.296   30.213
  112.000   59.649    0.395    0.293   30.271
  112.250   58.524    0.410    0.288   30.315
  112.500   57.968    0.426    0.285   29.821
  112.750   57.413    0.442    0.289   29.335
  113.000   57.456    0.444    0.289   28.277
  113.250   57.541    0.403    0.288   27.284
  113.500   57.598    0.391    0.287   25.848
  113.750   58.240    0.363    0.288   24.018
  114.000   58.881    0.370    0.290   21.891
  114.250   61.360    0.389    0.290   19.579
  114.500   63.797    0.395    0.288   16.881
  114.750   68.656    0.401    0.283   15.099
  115.000   72.887    0.407    0.272   12.769
  115.250   78.929    0.413    0.258   11.004
  115.500   92.764    0.412    0.248    9.483
  115.750  102.994    0.403    0.240    8.482
  116.000  107.839    0.380    0.230    7.448
  116.250  109.691    0.376    0.222    7.190
  116.500  110.361    0.404    0.226    7.208
  116.750  107.426    0.414    0.234    7.355
  117.000  103.294    0.424    0.241    7.798
  117.250  100.345    0.422    0.253    8.420
  117.500   97.424    0.391    0.267   10.384
  117.750  102.254    0.379    0.269   10.808
  118.000  107.712    0.368    0.260   10.834
  118.250  108.966    0.370    0.237   10.647
  118.500  109.037    0.395    0.221   10.464
  118.750  108.467    0.398    0.217   10.101
  119.000  107.940    0.390    0.216    9.742
  119.250  108.012    0.390    0.216    9.578
  119.500  108.040    0.392    0.216    9.246
  119.750  109.294    0.396    0.213    8.755
  120.000  109.964    0.398    0.209    8.440
  120.250  110.619    0.406    0.208    8.143
  120.500  108.896    0.414    0.205    8.159
  120.750  108.340    0.423    0.201    8.334
  121.000  108.397    0.437    0.200    8.346
  121.250  110.862    0.443    0.197    8.057
  121.500  112.700    0.452    0.192    7.770
  121.750  115.750    0.448    0.184    7.227
  122.000  119.426    0.392    0.183    6.970
  122.250  121.862    0.382    0.180    6.853
  122.500  125.524    0.386    0.163    6.735
  122.750  127.362    0.404    0.149    6.625
  123.000  130.412    0.404    0.144    6.511
  123.250  129.870    0.397    0.152    5.943
  123.500  126.323    0.390    0.165    5.624
  123.750  121.592    0.396    0.158    5.326
  124.000  123.459    0.428    0.148    5.236
  124.250  125.910    0.487    0.158    5.146
  124.500  127.164    0.494    0.193    4.695
  124.750  126.608    0.528    0.208    4.528
  125.000  125.469    0.561    0.237    4.287
  125.250  122.534    0.576    0.253    5.186
  125.500  117.205    0.549    0.254    5.928
  125.750  110.665    0.517    0.249    6.780
  126.000  102.957    0.459    0.241    7.602
  126.250  103.000    0.425    0.242    8.855
  126.500  106.662    0.408    0.251    9.576
  126.750  108.500    0.395    0.257    9.415
  127.000  112.760    0.390    0.261    8.906
  127.250  114.598    0.396    0.258    7.970
  127.500  115.254    0.401    0.255    7.274
  127.750  115.924    0.406    0.249    7.285
  128.000  114.784    0.416    0.245    7.295
  128.250  111.265    0.424    0.244    7.597
  128.500  108.301    0.429    0.244    7.897
  128.750   94.594    0.423    0.250    9.199
  129.000   87.456    0.406    0.263   15.929
  129.250   76.158    0.389    0.281   17.861
  129.500   75.004    0.369    0.298   21.211
  129.750   73.265    0.343    0.327   23.351
  130.000   73.921    0.279    0.346   25.227
  130.250   75.189    0.227    0.382   26.258
  130.500   75.845    0.229    0.388   26.309
  130.750   75.303    0.210    0.393   26.359
  131.000   75.361    0.187    0.404   25.917
  131.250   75.432    0.187    0.405   24.540
  131.500   76.059    0.217    0.400   21.971
  131.750   76.116    0.227    0.396   21.179
  132.000   75.575    0.262    0.392   19.689
  132.250   74.449    0.288    0.385   18.979
  132.500   73.324    0.332    0.371   17.988
  132.750   72.754    0.356    0.362   17.348
  133.000   73.424    0.381    0.356   17.382
  133.250   74.065    0.402    0.348   17.738
  133.500   74.721    0.409    0.339   19.908
  133.750   71.771    0.407    0.308   21.507
  134.000   68.238    0.399    0.296   23.246
  134.250   62.909    0.370    0.144   23.733
  134.500   61.784    0.292    0.043   23.335
  134.750   64.249    0.149   -0.010   23.369
  135.000   66.087    0.124    0.022   22.548
  135.250   67.925    0.169    0.124   20.962
  135.500   70.390    0.290    0.147   20.216
  135.750   72.243    0.382    0.194   18.785
  136.000   71.103    0.438    0.251   18.117
  136.250   69.949    0.466    0.314   17.154
  136.500   68.211    0.469    0.330   16.251
  136.750   70.077    0.434    0.336   15.971
  137.000   70.733    0.426    0.337   15.410
  137.250   71.987    0.436    0.336   14.883
  137.500   72.044    0.461    0.336   14.626
  137.750   72.087    0.476    0.334   14.388
  138.000   71.574    0.471    0.333   14.402
  138.250   71.617    0.441    0.330   14.167
  138.500   72.272    0.438    0.325   13.929
  138.750   74.139    0.430    0.321   14.228
  139.000   74.766    0.420    0.320   14.242
  139.250   74.838    0.444    0.321   14.541
  139.500   74.895    0.454    0.323   14.846
  139.750   74.952    0.451    0.326   14.604
  140.000   74.425    0.429    0.326   13.576
  140.250   73.855    0.421    0.323   13.349
  140.500   73.328    0.416    0.322   12.874
  140.750   73.371    0.411    0.320   12.422
  141.000   73.442    0.407    0.323   12.440
  141.250   74.710    0.404    0.326   12.003
  141.500   75.352    0.407    0.328   11.802
  141.750   76.620    0.433    0.326   11.824
  142.000   76.648    0.465    0.320   11.847
  142.250   76.121    0.474    0.316   12.095
  142.500   74.369    0.466    0.318   12.349
  142.750   72.645    0.445    0.323   12.854
  143.000   73.301    0.440    0.328   13.117
  143.250   73.358    0.438    0.329   13.149
