~VERSION INFORMATION
 VERS.                 2.0:   CWLS LOG ASCII STANDARD -VERSION 2.0
 WRAP.                  NO:   ONE LINE PER DEPTH STEP
~WELL INFORMATION BLOCK
#MNEM.UNIT           DATA                    DESCRIPTION OF MNEMONIC
#---------    -------------------            -------------------------------
# Generated from Intellog Unique Number	CW_70_72/WELL/903
NULL.         -999.25                        : NULL_VALUE
WELL.         CHIEFTAIN ET AL SMITH 07-19    : Well_name    - WELL              
LOC .         07-19-071-26W4                 : Location     - LOCATION          
UWI .         00/07-19-071-26W4/0            : Uwi          - UNIQUE WELL ID    
ENTR.         JAYE                           : Entered      - ENTERED BY        
SRVC.         SCHLUMBERGER                   : Scn          - SERVICE COMPANY   
DATE.         13 JUNE 76                     : Date         - LOG DATE          
STRT.M        445.008                        : top_depth    - START DEPTH       
STOP.M        702.258                        : bot_depth    - STOP DEPTH        
STEP.M        0.25                           : increment    - STEP LENGTH       
~CURVE INFORMATION BLOCK
#MNEM UNIT       ERCB CURVE CODE    CURVE DESCRIPTION
#-----------   ------------------   ----------------------------------
DEPT.M        00 001 00 00         : DEPTH        - DEPTH                       
DPHI.V/V      00 890 00 00         : PHID         - DENSITY POROSITY (SANDSTONE)
NPHI.V/V      00 330 00 00         : PHIN         - NEUTRON POROSITY (SANDSTONE)
GR  .API      00 310 00 00         : GR           - GAMMA RAY                   
CALI.MM       00 280 01 00         : CAL          - CALIPER                     
ILD .OHMM     00 120 00 00         : RESD         - DEEP RESISTIVITY (DIL)      
~PARAMETER INFORMATION       
#MNEM.UNIT           DATA             DESCRIPTION OF MNEMONIC
#---------         -----------     ------------------------------
GL  .M        633.374              : gl           - GROUND LEVEL ELEVATION      
EREF.M        636.422              : kb           - ELEVATION OF DEPTH REFERENCE
DATM.M        633.374              : datum        - DATUM ELEVATION             
TDD .M        627.888              : tdd          - TOTAL DEPTH DRILLER         
RUN .         ONE                  : Run          - RUN NUMBER                  
BASE.         EDM                  : Branch       - HOME BASE OF LOGGING UNIT   
MUD .         GEL CHEM             : Mud_type     - MUD TYPE                    
MATR.         SANDSTONE            : Logunit      - NEUTRON MATRIX              
TMAX.C        27.2222              : BHT          - MAXIMUM RECORDED TEMPERATURE
BHTD.M        627.888              : BHTDEP       - MAXIMUM RECORDED TEMPERATURE
RMT .C        16.6667              : MDTP         - TEMPERATURE OF MUD          
MUDD.KG/M     0                    : MWT          - MUD DENSITY                 
NEUT.         1                    : NEUTRON      - NEUTRON TYPE                
RESI.         0                    : RESIST       - RESISTIVITY TYPE            
RM  .OHMM     4.87                 : RM           - RESISTIVITY OF MUD          
RMC .OHMM     0                    : RMC          - RESISTIVITY OF MUD CAKE     
RMF .OHMM     3.87                 : RMF          - RESISTIVITY OF MUD FILTRATE 
SUFT.C        -17.7778             : SUFT         - SURFACE TEMPERATURE         
~A  DEPTH     PHID     PHIN       GR      CAL     RESD
# ...
  664.008    0.103    0.321   77.784  164.464    6.202
  664.258    0.141    0.340   74.786  164.798    5.783
  664.508    0.146    0.305   72.777  164.927    5.524
  664.758    0.143    0.300   72.809  165.370    5.326
  665.008    0.154    0.314   76.126  166.037    5.279
  665.258    0.179    0.330   80.801  166.375    5.243
  665.508    0.201    0.350   85.292  166.604    5.314
  665.758    0.198    0.373   91.518  166.939    5.568
  666.008    0.180    0.383   96.008  167.286    5.890
  666.258    0.161    0.351   91.279  167.515    6.205
  666.508    0.156    0.322   85.367  167.857    6.674
  666.758    0.150    0.299   81.563  168.089    7.217
  667.008    0.145    0.300   82.652  168.431    7.877
  667.258    0.142    0.311   83.737  168.575    8.409
  667.508    0.132    0.316   83.462  168.798    8.428
  667.758    0.118    0.300   76.867  168.823    8.324
  668.008    0.076    0.286   71.888  168.958    8.160
  668.258    0.047    0.360   79.349  169.087    7.954
  668.508    0.108    0.392   86.131  169.328    7.698
  668.758    0.122    0.336   78.615  169.349    7.504
  669.008    0.067    0.275   75.305  169.388    7.370
  669.258    0.028    0.247   83.757  169.507    7.333
  669.508    0.015    0.267   90.229  169.550    7.446
  669.758    0.078    0.312   97.321  169.562    7.617
  670.008    0.101    0.325   93.454  169.580    7.952
  670.258    0.091    0.323   83.519  169.605    8.473
  670.508    0.073    0.294   69.131  169.424    9.163
  670.758    0.053    0.210   54.553  169.344   10.056
  671.008    0.026    0.190   60.965  169.165   10.795
  671.258   -0.013    0.206   72.823  169.085   10.740
  671.508    0.027    0.273   86.536  169.018    8.668
  671.758    0.067    0.350  109.478  168.927    6.593
  672.008    0.127    0.410  119.725  168.759    5.594
  672.258    0.172    0.448  122.608  168.775    5.255
  672.508    0.153    0.464  113.604  168.711    5.229
  672.758    0.126    0.402  103.917  168.727    5.241
  673.008    0.089    0.377   92.992  168.637    5.109
  673.258    0.055    0.364   84.297  168.559    4.738
  673.508    0.208    0.355   72.444  168.484    4.369
  673.758    0.240    0.348   58.920  168.505    3.934
  674.008    0.253    0.337   62.299  168.539    3.567
  674.258    0.246    0.328   64.996  168.564    3.278
  674.508    0.233    0.343   65.833  168.596    3.148
  674.758    0.231    0.354   65.928  168.621    3.227
  675.008    0.223    0.336   68.006  168.637    3.394
  675.258    0.206    0.314   74.727  168.661    3.623
  675.508    0.199    0.299   81.816  168.693    3.846
  675.758    0.190    0.285   88.227  168.821    4.030
  676.008    0.178    0.294   95.255  168.848    3.980
  676.258    0.169    0.310  102.779  168.876    3.823
  676.508    0.160    0.328   95.572  168.901    3.775
  676.758    0.156    0.345   79.260  168.936    3.812
  677.008    0.188    0.340   63.941  168.851    3.878
  677.258    0.210    0.304   58.775  168.879    3.887
  677.508    0.185    0.283   55.901  168.908    3.882
  677.758    0.079    0.270   55.314  168.940    3.834
  678.008    0.125    0.278   54.915  168.950    3.642
  678.258    0.214    0.301   55.444  168.665    3.219
  678.508    0.241    0.324   56.591  168.690    3.029
  678.758    0.231    0.334   58.606  168.509    2.937
  679.008    0.225    0.337   61.303  168.434    2.927
  679.258    0.233    0.335   64.556  168.470    2.934
  679.508    0.229    0.330   68.369  168.486    2.990
  679.758    0.222    0.333   72.363  168.397    3.134
  680.008    0.233    0.334   75.923  168.424    3.339
  680.258    0.227    0.327   80.538  168.461    3.577
  680.508    0.204    0.320   85.958  168.379    4.044
  680.758    0.161    0.344   92.987  168.518    4.615
  681.008    0.111    0.366   89.989  168.434    5.093
  681.258    0.063    0.372   92.624  168.449    5.096
  681.508    0.042    0.380   98.663  168.480    4.904
  681.758    0.020    0.401  103.337  168.505    4.745
  682.008    0.009    0.353  108.144  168.433    4.634
  682.258    0.152    0.325  109.410  168.259    4.535
  682.508    0.163    0.323  109.011  168.170    4.438
  682.758    0.148    0.345  104.092  168.195    4.358
  683.008    0.152    0.350   92.549  168.225    4.352
  683.258    0.157    0.283   68.438  168.145    4.411
  683.508    0.153    0.247   72.310  167.952    4.546
  683.758    0.155    0.269   76.310  167.991    4.711
  684.008    0.151    0.293   79.807  167.903    4.873
  684.258    0.126    0.294   85.723  167.738    4.948
  684.508    0.074    0.297   91.827  167.754    4.996
  684.758    0.105    0.308   96.193  167.465    5.111
  685.008    0.122    0.317   99.195  167.376    5.209
  685.258    0.120    0.304   97.994  167.302    5.349
  685.508    0.120    0.297  100.069  167.220    5.361
  685.758    0.114    0.307  103.817  167.144    5.344
  686.008    0.105    0.312  110.599  167.073    5.210
  686.258    0.096    0.322  115.028  166.983    4.940
  686.508    0.105    0.367  108.934  166.805    4.727
  686.758    0.135    0.349   97.082  166.841    4.541
  687.008    0.142    0.328   91.543  166.644    4.435
  687.258    0.135    0.308   93.934  166.573    4.404
  687.508    0.130    0.304   97.000  166.600    4.472
  687.758    0.140    0.302   99.691  166.516    4.592
  688.008    0.124    0.301  103.319  166.437    4.715
  688.258    0.115    0.303  105.639  166.259    4.814
  688.508    0.127    0.335  109.576  166.082    4.870
  688.758    0.135    0.365  111.652  165.988    4.810
  689.008    0.129    0.401  112.674  165.915    4.750
  689.258    0.126    0.432  113.329  165.740    4.717
  689.508    0.134    0.404  114.042  165.752    4.548
  689.758    0.142    0.368  118.782  165.683    4.265
  690.008    0.129    0.349  123.956  165.708    3.882
  690.258    0.128    0.373  124.983  165.729    3.098
  690.508    0.127    0.396  120.678  165.648    2.392
  690.758    0.113    0.367  114.522  165.463    2.071
  691.008    0.095    0.368  109.912  165.490    1.697
  691.258    0.076    0.401  106.664  165.412    1.691
  691.508    0.058    0.415  110.537  165.437    1.930
  691.758   -0.006    0.426  117.008  165.362    2.345
  692.008    0.065    0.438  123.731  165.185    2.908
  692.258    0.108    0.435  127.787  165.003    3.437
  692.508    0.149    0.422  127.019  165.024    3.815
  692.758    0.115    0.395  121.664  164.946    3.961
  693.008    0.086    0.421  118.664  164.873    3.926
  693.258    0.035    0.427  116.530  164.788    3.786
  693.508    0.012    0.464  117.245  164.600    3.676
  693.758    0.014    0.487  124.708  164.313    3.422
  694.008    0.063    0.467  125.115  163.919    3.251
  694.258    0.122    0.438  119.331  163.331    3.246
  694.508    0.118    0.403  115.275  163.241    3.389
  694.758    0.026    0.420  118.839  162.861    3.604
  695.008    0.035    0.444  124.632  162.773    3.891
  695.258    0.091    0.471  128.997  162.773    4.161
  695.508    0.112    0.468  131.878  162.402    2.966
  695.758    0.136    0.474  125.596  162.218    1.967
  696.008    0.114    0.482  119.815  162.252    1.502
  696.258    0.045    0.466  115.763  162.271    1.711
  696.508    0.014    0.456  119.386  162.306    2.173
  696.758   -0.006    0.440  123.628  162.322    2.489
  697.008    0.086    0.441  128.182  162.351    2.809
  697.258    0.096    0.445  130.259  162.273    2.976
  697.508    0.084    0.435  125.339  162.411    3.045
  697.758    0.077    0.421  122.153  162.230    3.080
  698.008    0.066    0.422  123.302  162.250    3.139
  698.258    0.049    0.431  124.636  162.165    3.229
  698.508    0.094    0.440  124.855  162.195    3.316
  698.758    0.029    0.442  124.272  161.904    3.379
  699.008    0.044    0.430  120.961  161.824    3.431
  699.258    0.062    0.429  111.339  161.539    3.536
  699.508    0.082    0.431  101.465  161.152    3.658
  699.758    0.103    0.403   84.413  160.862    3.819
  700.008    0.136    0.341   65.997  160.787    4.092
  700.258    0.173    0.256   34.893  160.390    4.335
