~VERSION INFORMATION
 VERS.                 2.0:   CWLS LOG ASCII STANDARD -VERSION 2.0
 WRAP.                  NO:   ONE LINE PER DEPTH STEP
~WELL INFORMATION BLOCK
#MNEM.UNIT           DATA                    DESCRIPTION OF MNEMONIC
#---------    -------------------            -------------------------------
# Generated from Intellog Unique Number	CS_73_76/WELL/591
WELL.         BOW VALLLEY INDUSTRIES         : Well_name    - WELL
LOC .         00/02-29-073-15W4/0            : Location     - LOCATION
UWI .         00/02-29-073-15W4/0            : Uwi          - UNIQUE WELL ID
ENTR.         SP                             : Entered      - ENTERED BY
SRVC.         SCHLUMBERGER                   : Scn          - SERVICE COMPANY
STRT.M        270                            : top_depth    - START DEPTH
STOP.M        480                            : bot_depth    - STOP DEPTH
STEP.M        0.25                           : increment    - STEP LENGTH
 NULL. -999.2500:NULL Value
~CURVE INFORMATION BLOCK
#MNEM UNIT       ERCB CURVE CODE    CURVE DESCRIPTION
#-----------   ------------------   ----------------------------------
DEPT.M        00 001 00 00         : DEPTH        - DEPTH
ILD .OHMM     00 120 00 00         : RESD         - DEEP RESISTIVITY (DIL)
DPHI.V/V      00 890 00 00         : PHID         - DENSITY POROSITY (LIMESTONE)
NPHI.V/V      00 330 00 00         : PHIN         - NEUTRON POROSITY (LIMESTONE)
GR  .API      00 310 00 00         : GR           - GAMMA RAY
~PARAMETER INFORMATION
#MNEM.UNIT           DATA             DESCRIPTION OF MNEMONIC
#---------         -----------     ------------------------------
GL  .M        613                  : gl           - GROUND LEVEL ELEVATION
EREF.M        616.57               : kb           - ELEVATION OF DEPTH REFERENCE
DATM.M        613                  : datum        - DATUM ELEVATION
TDD .M        490.2                : tdd          - TOTAL DEPTH DRILLER
RUN .         ONE                  : Run          - RUN NUMBER
ENG .         BILL                 : Engineer     - RECORDING ENGINEER
WIT .         JIM                  : Witness      - WITNESSED BY
MUD .         GEL                  : Mud_type     - MUD TYPE
MATR.         LIMESTONE            : Logunit      - NEUTRON MATRIX
TMAX.C        24                   : BHT          - MAXIMUM RECORDED TEMPERATURE
BHTD.M        490.2                : BHTDEP       - MAXIMUM RECORDED TEMPERATURE
MATR.         1                    : LOGUNIT      - NEUTRON MATRIX
RMT .C        25                   : MDTP         - TEMPERATURE OF MUD
NEUT.         1                    : NEUTRON      - NEUTRON TYPE
RESI.         0                    : RESIST       - RESISTIVITY TYPE
RMC .OHMM     0.25                 : RMC          - RESISTIVITY OF MUD CAKE
RMF .OHMM     0.25                 : RMF          - RESISTIVITY OF MUD FILTRATE
SUFT.C        15                   : SUFT         - SURFACE TEMPERATURE
~A  DEPTH     RESD     PHID     PHIN       GR
  270.000    2.801    0.324    0.505   85.027
  270.250    2.699    0.350    0.502   85.035
  270.500    2.650    0.377    0.556   85.654
  270.750    2.554    0.414    0.593   85.663
  271.000    2.508    0.457    0.548   83.244
  271.250    2.463    0.453    0.515   79.002
  271.500    2.464    0.409    0.487   83.263
  271.750    2.512    0.308    0.514   80.237
  272.000    2.513    0.312    0.519   83.891
  272.250    2.610    0.362    0.521   80.865
  272.500    2.868    0.404    0.523   76.624
  272.750    3.092    0.333    0.490   74.205
  273.000    3.094    0.294    0.463   73.001
  273.250    3.096    0.307    0.472   77.262
  273.500    3.040    0.290    0.502   82.133
  273.750    2.930    0.275    0.512   84.570
  274.000    2.987    0.269    0.519   86.401
  274.250    3.161    0.294    0.523   83.982
  274.500    3.283    0.311    0.491   88.243
  274.750    3.475    0.307    0.520   85.823
  275.000    3.476    0.285    0.492   88.873
  275.250    3.611    0.265    0.482   93.136
  275.500    3.681    0.247    0.489   90.713
  275.750    3.753    0.244    0.499   84.651
  276.000    3.825    0.265    0.428   82.838
  276.250    3.827    0.270    0.439   82.848
  276.500    3.903    0.277    0.462   85.291
  276.750    3.832    0.285    0.489   88.335
  277.000    3.692    0.276    0.502   88.951
  277.250    3.558    0.276    0.513   88.359
  277.500    3.303    0.271    0.494   87.758
  277.750    3.243    0.277    0.476   86.553
  278.000    3.068    0.271    0.510   87.778
  278.250    3.128    0.258    0.495   89.610
  278.500    3.310    0.261    0.455   90.835
  278.750    3.438    0.316    0.503   87.810
  279.000    3.571    0.343    0.536   83.570
  279.250    3.709    0.325    0.487   80.540
  279.500    3.643    0.293    0.490   84.195
  279.750    3.577    0.305    0.477   87.243
  280.000    3.512    0.320    0.503   83.000
  280.250    3.385    0.314    0.534   86.047
  280.500    3.386    0.304    0.575   83.020
  280.750    3.517    0.294    0.553   88.496
  281.000    3.723    0.320    0.559   87.898
  281.250    3.866    0.364    0.546   81.837
  281.500    3.868    0.319    0.507   80.631
  281.750    3.798    0.283    0.466   82.465
  282.000    3.661    0.276    0.453   86.118
  282.250    3.528    0.275    0.477   87.950
  282.500    3.530    0.255    0.477   80.064
  282.750    3.736    0.222    0.448   67.931
  283.000    3.954    0.315    0.480   64.902
  283.250    4.107    0.402    0.462   76.452
  283.500    4.346    0.365    0.474   81.320
  283.750    4.431    0.290    0.467   80.115
  284.000    4.517    0.289    0.434   84.379
  284.250    4.604    0.293    0.448   85.602
  284.500    4.693    0.287    0.424   87.433
  284.750    4.785    0.276    0.404   86.229
  285.000    4.877    0.271    0.446   80.776
  285.250    5.066    0.271    0.497   79.568
  285.500    5.069    0.258    0.496   76.543
  285.750    5.071    0.277    0.473   80.806
  286.000    5.169    0.294    0.459   80.816
  286.250    5.371    0.291    0.486   79.608
  286.500    5.475    0.280    0.451   79.619
  286.750    5.477    0.305    0.452   77.808
  287.000    5.379    0.329    0.454   77.817
  287.250    5.381    0.317    0.436   76.006
  287.500    5.284    0.300    0.409   76.018
  287.750    5.189    0.290    0.422   77.850
  288.000    5.192    0.291    0.447   79.071
  288.250    5.193    0.312    0.465   82.120
  288.500    5.197    0.323    0.470   83.954
  288.750    5.103    0.312    0.480   83.962
  289.000    5.105    0.288    0.469   82.757
  289.250    5.108    0.294    0.488   79.123
  289.500    5.016    0.294    0.456   81.565
  289.750    4.835    0.279    0.416   86.430
  290.000    4.747    0.306    0.427   82.191
  290.250    4.407    0.334    0.461   77.952
  290.500    4.168    0.263    0.492   74.921
  290.750    3.870    0.264    0.518   62.787
  291.000    3.729    0.345    0.541   70.083
  291.250    3.527    0.409    0.478   76.774
  291.500    3.464    0.405    0.510   70.106
  291.750    3.530    0.434    0.459   65.868
  292.000    3.667    0.454    0.492   64.051
  292.250    3.810    0.434    0.525   68.919
  292.500    3.883    0.401    0.554   64.680
  292.750    3.885    0.359    0.528   62.260
  293.000    3.675    0.348    0.552   61.055
  293.250    3.541    0.337    0.547   67.137
  293.500    3.413    0.323    0.552   70.185
  293.750    3.415    0.325    0.544   69.588
  294.000    3.417    0.351    0.530   68.989
  294.250    3.483    0.379    0.549   71.431
  294.500    3.551    0.413    0.510   73.869
  294.750    3.619    0.422    0.489   70.844
  295.000    3.690    0.441    0.543   65.389
  295.250    3.761    0.421    0.571   63.574
  295.500    3.764    0.408    0.529   66.623
  295.750    3.837    0.389    0.537   70.275
  296.000    3.839    0.419    0.545   64.213
  296.250    3.913    0.466    0.560   59.365
  296.500    4.142    0.483    0.567   56.947
  296.750    4.301    0.513    0.554   55.740
  297.000    4.468    0.582    0.501   49.071
  297.250    4.554    0.554    0.490   49.689
  297.500    4.472    0.500    0.513   56.378
  297.750    4.733    0.462    0.520   61.246
  298.000    5.009    0.444    0.479   57.613
  298.250    5.608    0.408    0.478   64.303
  298.500    5.934    0.388    0.488   79.497
  298.750    6.521    0.455    0.464   91.046
  299.000    7.032    0.477    0.440   95.915
  299.250    7.302    0.310    0.473   96.532
  299.500    7.876    0.267    0.500   98.974
  299.750    8.027    0.263    0.428  100.804
  300.000    8.497    0.305    0.407  102.637
  300.250    8.660    0.390    0.407   98.393
  300.500    8.664    0.429    0.427   92.330
  300.750    8.197    0.398    0.447   95.985
  301.000    7.608    0.397    0.498   91.743
  301.250    6.678    0.416    0.502   95.398
  301.500    6.084    0.405    0.486   97.836
  301.750    5.544    0.424    0.471   92.988
  302.000    5.342    0.408    0.462   87.532
  302.250    5.149    0.148    0.454   82.685
  302.500    5.347    0.162    0.458   83.911
  302.750    5.659    0.269    0.460   93.638
  303.000    6.336    0.310    0.432   92.435
  303.250    7.227    0.339    0.414   93.656
  303.500    7.647    0.279    0.388   84.559
  303.750    8.724    0.297    0.392   77.279
  304.000    9.233    0.311    0.401   76.683
  304.250    9.411    0.300    0.404   75.480
  304.500    9.775    0.286    0.388   72.453
  304.750    9.780    0.280    0.460   74.891
  305.000    9.970    0.277    0.412   82.189
  305.250    9.791    0.289    0.428   84.628
  305.500    9.435    0.350    0.452   84.638
  305.750    8.759    0.387    0.454   81.007
  306.000    8.284    0.377    0.443   83.442
  306.250    7.691    0.351    0.470   81.632
  306.500    7.414    0.371    0.448   82.858
  306.750    7.416    0.399    0.459   89.547
  307.000    7.704    0.351    0.477  100.491
  307.250    7.853    0.308    0.448  107.182
  307.500    8.004    0.281    0.440  112.654
  307.750    8.315    0.307    0.456  107.202
  308.000    8.475    0.302    0.438  100.529
  308.250    8.970    0.266    0.429   88.394
  308.500    9.316    0.249    0.412   71.398
  308.750    9.679    0.277    0.384   62.298
  309.000   10.052    0.297    0.368   75.671
  309.250   10.056    0.293    0.348   81.146
  309.500   10.061    0.284    0.352   79.334
  309.750    9.698    0.270    0.367   81.165
  310.000    9.701    0.254    0.370   87.862
  310.250    9.529    0.250    0.381   89.081
  310.500    9.356    0.258    0.390   91.523
  310.750    9.187    0.238    0.406   92.745
  311.000    8.689    0.225    0.389   94.576
  311.250    8.065    0.316    0.417  100.053
  311.500    6.948    0.364    0.429   96.418
  311.750    5.985    0.395    0.447   90.963
  312.000    5.452    0.362    0.466  101.301
  312.250    5.061    0.336    0.460  103.737
  312.500    4.970    0.364    0.435  100.712
  312.750    5.162    0.406    0.408   97.076
  313.000    5.567    0.433    0.428   89.193
  313.250    5.782    0.331    0.447   85.558
