~VERSION INFORMATION
 VERS.                 2.0:   CWLS LOG ASCII STANDARD -VERSION 2.0
 WRAP.                  NO:   ONE LINE PER DEPTH STEP
~WELL INFORMATION BLOCK
#MNEM.UNIT           DATA                    DESCRIPTION OF MNEMONIC
#---------    -------------------            -------------------------------
# Generated from Intellog Unique Number	CS_77_79/WELL/2978
WELL.         CDNOXY VINEFRED                : Well_name    - WELL
LOC .         00/06-03-077-03W4/0            : Location     - LOCATION
UWI .         00/06-03-077-03W4/0            : Uwi          - UNIQUE WELL ID
ENTR.         TIM                            : Entered      - ENTERED BY
SRVC.         SCHLUMBERGER                   : Scn          - SERVICE COMPANY
STRT.M        210                            : top_depth    - START DEPTH
STOP.M        485                            : bot_depth    - STOP DEPTH
STEP.M        0.25                           : increment    - STEP LENGTH
 NULL. -999.2500:NULL Value
~CURVE INFORMATION BLOCK
#MNEM UNIT       ERCB CURVE CODE    CURVE DESCRIPTION
#-----------   ------------------   ----------------------------------
DEPT.M        00 001 00 00         : DEPTH        - DEPTH
GR  .API      00 310 00 00         : GR           - GAMMA RAY
NPHI.V/V      00 330 00 00         : PHIN         - NEUTRON POROSITY (DOLOMITE)
DPHI.V/V      00 890 00 00         : PHID         - DENSITY POROSITY (DOLOMITE)
ILD .OHMM     00 120 00 00         : RESD         - DEEP RESISTIVITY (DIL)
~PARAMETER INFORMATION
#MNEM.UNIT           DATA             DESCRIPTION OF MNEMONIC
#---------         -----------     ------------------------------
GL  .M        587.4                : gl           - GROUND LEVEL ELEVATION
EREF.M        590.4                : kb           - ELEVATION OF DEPTH REFERENCE
DATM.M        590.4                : datum        - DATUM ELEVATION
TDD .M        492.2                : tdd          - TOTAL DEPTH DRILLER
RUN .         ONE                  : Run          - RUN NUMBER
ENG .         BILL                 : Engineer     - RECORDING ENGINEER
WIT .         JIM                  : Witness      - WITNESSED BY
MUD .         GEL                  : Mud_type     - MUD TYPE
MATR.         DOLOMITE             : Logunit      - NEUTRON MATRIX
TMAX.C        20                   : BHT          - MAXIMUM RECORDED TEMPERATURE
BHTD.M        492                  : BHTDEP       - MAXIMUM RECORDED TEMPERATURE
MATR.         1                    : LOGUNIT      - NEUTRON MATRIX
RMT .C        20                   : MDTP         - TEMPERATURE OF MUD
NEUT.         1                    : NEUTRON      - NEUTRON TYPE
RESI.         4.33                 : RESIST       - RESISTIVITY TYPE
RMC .OHMM     3.65                 : RMC          - RESISTIVITY OF MUD CAKE
RMF .OHMM     3.62                 : RMF          - RESISTIVITY OF MUD FILTRATE
SUFT.C        15                   : SUFT         - SURFACE TEMPERATURE
~A  DEPTH       GR     PHIN     PHID     RESD
# ...
  297.000   77.785    0.407    0.300    9.382
  297.250   80.246    0.398    0.284    9.388
  297.500   81.476    0.409    0.269    9.568
  297.750   82.707    0.429    0.277    9.940
  298.000   84.552    0.440    0.295   10.130
  298.250   87.012    0.423    0.301   10.328
  298.500   88.243    0.402    0.297   10.140
  298.750   90.701    0.417    0.283    9.956
  299.000   92.546    0.428    0.277    9.071
  299.250   96.235    0.437    0.277    8.263
  299.500   98.080    0.436    0.283    7.252
  299.750   99.312    0.429    0.288    6.606
  300.000   96.244    0.425    0.295    6.367
  300.250   93.790    0.419    0.297    6.865
  300.500   92.565    0.423    0.292    7.265
  300.750   91.953    0.424    0.288    7.269
  301.000   90.115    0.430    0.292    7.004
  301.250   85.204    0.428    0.314    6.263
  301.500   78.452    0.417    0.325    5.813
  301.750   79.069    0.409    0.302    5.198
  302.000   91.968    0.415    0.295    4.736
  302.250  103.639    0.429    0.286    4.650
  302.500  113.468    0.443    0.291    5.108
  302.750  115.927    0.447    0.314    5.612
  303.000  103.648    0.452    0.333    6.523
  303.250   80.930    0.460    0.341    7.165
  303.500   68.651    0.464    0.347    8.021
  303.750   66.196    0.436    0.352    9.322
  304.000   61.287    0.419    0.353   11.040
  304.250   61.903    0.418    0.357   11.904
  304.500   63.749    0.417    0.361   11.904
  304.750   64.366    0.414    0.363   12.844
  305.000   63.141    0.417    0.364   12.846
  305.250   61.301    0.426    0.361   13.343
  305.500   61.304    0.435    0.356   13.600
  305.750   61.922    0.437    0.357   13.867
  306.000   61.923    0.438    0.358   13.871
  306.250   64.999    0.432    0.353   14.140
  306.500   65.615    0.424    0.343   14.146
  306.750   65.618    0.419    0.331   14.151
  307.000   64.394    0.417    0.325   14.159
  307.250   63.168    0.415    0.343   14.167
  307.500   61.328    0.414    0.351   14.173
  307.750   60.103    0.412    0.347   14.179
  308.000   61.335    0.408    0.341   14.184
  308.250   62.564    0.404    0.347   14.192
  308.500   62.567    0.402    0.353   14.197
  308.750   59.500    0.409    0.354   14.203
  309.000   57.661    0.421    0.354   14.210
  309.250   60.119    0.437    0.354   14.216
  309.500   65.036    0.432    0.357   14.493
  309.750   66.268    0.423    0.360   14.498
  310.000   66.271    0.407    0.360   14.504
  310.250   66.887    0.406    0.357   14.787
  310.500   67.504    0.414    0.354   14.793
  310.750   65.664    0.423    0.351   15.085
  311.000   63.211    0.430    0.353   15.090
  311.250   63.828    0.444    0.357   15.095
  311.500   67.516    0.449    0.358   15.385
  311.750   68.133    0.447    0.359   15.396
  312.000   66.907    0.442    0.359   15.401
  312.250   65.068    0.440    0.359   15.406
  312.500   65.071    0.435    0.364   15.708
  312.750   66.918    0.427    0.365   16.010
  313.000   67.533    0.416    0.358   16.320
  313.250   66.923    0.407    0.357   16.634
  313.500   64.469    0.412    0.359   16.337
  313.750   61.402    0.423    0.363   15.745
  314.000   63.246    0.431    0.363   15.458
  314.250   65.705    0.432    0.360   14.895
  314.500   63.866    0.435    0.358   14.625
  314.750   60.798    0.433    0.358   14.631
  315.000   60.187    0.425    0.357   14.916
  315.250   61.418    0.415    0.355   14.921
  315.500   62.036    0.407    0.352   15.499
  315.750   62.039    0.409    0.343   15.505
  316.000   62.656    0.414    0.335   15.808
  316.250   65.117    0.418    0.338   15.812
  316.500   65.732    0.421    0.353   15.821
  316.750   66.350    0.436    0.360   15.536
  317.000   66.353    0.457    0.352   15.255
  317.250   63.898    0.463    0.341   14.980
  317.500   63.287    0.469    0.333   14.983
  317.750   64.519    0.447    0.333   14.990
  318.000   65.137    0.414    0.343   14.998
  318.250   64.524    0.405    0.351   14.725
  318.500   64.528    0.409    0.349   14.733
  318.750   65.145    0.436    0.348   14.466
  319.000   67.603    0.442    0.344   14.473
  319.250   72.520    0.449    0.342   14.479
  319.500   73.138    0.449    0.338   14.484
  319.750   73.140    0.435    0.335   14.491
  320.000   73.142    0.422    0.333   14.497
  320.250   71.918    0.430    0.335   14.509
  320.500   69.463    0.439    0.341   14.512
  320.750   68.238    0.450    0.343   14.518
  321.000   68.855    0.455    0.344   14.255
  321.250   70.701    0.446    0.343   14.265
  321.500   70.703    0.438    0.342   14.270
  321.750   70.708    0.445    0.342   14.276
  322.000   70.709    0.454    0.347   13.758
  322.250   71.326    0.453    0.349   12.771
  322.500   72.557    0.432    0.350   11.636
  322.750   73.176    0.432    0.348   11.002
  323.000   71.949    0.439    0.337    9.477
  323.250   71.338    0.426    0.313    8.633
  323.500   89.150    0.413    0.300    6.645
  323.750  110.646    0.441    0.271    4.835
  324.000  116.176    0.465    0.270    3.792
  324.250  115.565    0.473    0.274    3.146
  324.500  111.269    0.469    0.279    2.867
  324.750  113.729    0.465    0.276    2.867
  325.000  121.715    0.462    0.270    2.816
  325.250  124.789    0.460    0.268    2.817
  325.500  122.335    0.475    0.261    2.926
  325.750  118.040    0.475    0.250    2.983
  326.000  118.657    0.469    0.241    3.098
  326.250  119.889    0.462    0.237    3.158
  326.500  121.119    0.462    0.236    3.280
  326.750  123.578    0.461    0.236    3.343
  327.000  122.967    0.460    0.237    3.408
  327.250  119.899    0.461    0.243    3.540
  327.500  114.989    0.462    0.246    3.608
  327.750  111.307    0.462    0.253    3.891
  328.000  107.013    0.470    0.263    4.355
  328.250  105.172    0.472    0.259    4.786
  328.500  102.105    0.465    0.257    5.160
  328.750  100.265    0.449    0.252    5.996
  329.000   96.583    0.455    0.258    6.228
  329.250   92.903    0.466    0.266    6.350
  329.500   91.678    0.460    0.267    6.471
  329.750   92.295    0.449    0.260    6.722
  330.000   97.824    0.442    0.254    6.982
  330.250  108.267    0.440    0.246    7.251
  330.500  110.112    0.439    0.243    7.675
  330.750  110.115    0.437    0.250    8.122
  331.000  108.276    0.434    0.258    8.436
  331.250  106.436    0.432    0.265    8.599
  331.500  102.140    0.428    0.272    8.765
  331.750   89.861    0.420    0.271    9.105
  332.000   86.180    0.386    0.269    9.455
  332.250   86.182    0.390    0.265    9.639
  332.500   95.397    0.397    0.261    9.824
  332.750   99.085    0.404    0.263   10.204
  333.000   97.246    0.405    0.266   10.598
  333.250   94.177    0.399    0.273   11.008
  333.500   86.811    0.404    0.278   11.434
  333.750   81.901    0.420    0.289   11.877
  334.000   81.905    0.411    0.292   12.105
  334.250   82.521    0.398    0.288   12.575
  334.500   84.367    0.406    0.291   12.578
  334.750   84.983    0.416    0.294   12.823
  335.000   85.602    0.400    0.299   12.828
  335.250   85.604    0.395    0.301   12.595
  335.500   83.151    0.405    0.303   12.602
  335.750   81.924    0.411    0.304   12.608
  336.000   77.630    0.416    0.306   12.381
  336.250   76.404    0.420    0.312   12.384
  336.500   76.407    0.418    0.316   12.159
  336.750   94.833    0.418    0.311   11.503
  337.000   94.223    0.420    0.304   11.293
  337.250   92.997    0.421    0.293   10.883
  337.500   91.158    0.424    0.284   10.489
  337.750   89.931    0.426    0.287   10.109
  338.000   89.320    0.428    0.292    9.741
  338.250   94.237    0.435    0.292    9.563
  338.500   97.309    0.440    0.278    9.218
  338.750  100.997    0.433    0.265    9.050
  339.000  104.071    0.426    0.265    8.886
  339.250  105.916    0.429    0.264    8.725
  339.500  106.533    0.422    0.261    8.729
  339.750  106.536    0.415    0.259    8.570
  340.000  107.154    0.413    0.250    8.415
  340.250  107.156    0.417    0.251    8.265
