~VERSION INFORMATION
 VERS.                 2.0:   CWLS LOG ASCII STANDARD -VERSION 2.0
 WRAP.                  NO:   ONE LINE PER DEPTH STEP
~WELL INFORMATION BLOCK
#MNEM.UNIT           DATA                    DESCRIPTION OF MNEMONIC
#---------    -------------------            -------------------------------
# Generated from Intellog Unique Number	CW_70_72/WELL/995
NULL.         -999.25                        : NULL_VALUE
WELL.         CHEVRON MCSU 1 MITSUE 09-27    : Well_name    - WELL              
LOC .         09-27-072-05W5                 : Location     - LOCATION          
UWI .         00/09-27-072-05W5/0            : Uwi          - UNIQUE WELL ID    
ENTR.         JAYE                           : Entered      - ENTERED BY        
SRVC.         WESTERN ATLAS                  : Scn          - SERVICE COMPANY   
DATE.         3 MAR 86                       : Date         - LOG DATE          
STRT.M        390                            : top_depth    - START DEPTH       
STOP.M        625                            : bot_depth    - STOP DEPTH        
STEP.M        0.25                           : increment    - STEP LENGTH       
~CURVE INFORMATION BLOCK
#MNEM UNIT       ERCB CURVE CODE    CURVE DESCRIPTION
#-----------   ------------------   ----------------------------------
DEPT.M        00 001 00 00         : DEPTH        - DEPTH                       
DPHI.V/V      00 890 00 00         : PHID         - DENSITY POROSITY (SANDSTONE)
NPHI.V/V      00 330 00 00         : PHIN         - NEUTRON POROSITY (SANDSTONE)
GR  .API      00 310 00 00         : GR           - GAMMA RAY                   
CALI.MM       00 280 01 00         : CAL          - CALIPER                     
ILD .OHMM     00 120 00 00         : RESD         - DEEP RESISTIVITY (DIL)      
~PARAMETER INFORMATION       
#MNEM.UNIT           DATA             DESCRIPTION OF MNEMONIC
#---------         -----------     ------------------------------
GL  .M        585.42               : gl           - GROUND LEVEL ELEVATION      
EREF.M        591                  : kb           - ELEVATION OF DEPTH REFERENCE
DATM.M        585.42               : datum        - DATUM ELEVATION             
TDD .M        1700                 : tdd          - TOTAL DEPTH DRILLER         
RUN .         ONE                  : Run          - RUN NUMBER                  
ENG .         SENTSEN              : Engineer     - RECORDING ENGINEER          
WIT .         SUO                  : Witness      - WITNESSED BY                
BASE.         LEDUC                : Branch       - HOME BASE OF LOGGING UNIT   
MUD .         GEL-CHEM             : Mud_type     - MUD TYPE                    
MATR.         SANDSTONE            : Logunit      - NEUTRON MATRIX              
TMAX.C        51                   : BHT          - MAXIMUM RECORDED TEMPERATURE
BHTD.M        1701.25              : BHTDEP       - MAXIMUM RECORDED TEMPERATURE
RMT .C        25                   : MDTP         - TEMPERATURE OF MUD          
MUDD.KG/M     1370                 : MWT          - MUD DENSITY                 
NEUT.         1                    : NEUTRON      - NEUTRON TYPE                
RESI.         0                    : RESIST       - RESISTIVITY TYPE            
RM  .OHMM     0.76                 : RM           - RESISTIVITY OF MUD          
RMC .OHMM     1.19                 : RMC          - RESISTIVITY OF MUD CAKE     
RMF .OHMM     0.7                  : RMF          - RESISTIVITY OF MUD FILTRATE 
SUFT.C        32                   : SUFT         - SURFACE TEMPERATURE         
~A  DEPTH     PHID     PHIN       GR      CAL     RESD
# ...
  499.500    0.201    0.423   60.517  251.735    3.373
  499.750    0.196    0.436   55.650  245.720    3.370
  500.000    0.192    0.469   48.596  243.976    3.336
  500.250    0.201    0.458   53.126  245.055    3.328
  500.500    0.201    0.432   60.468  247.692    3.363
  500.750    0.187    0.414   70.568  253.884    3.463
  501.000    0.173    0.400   62.010  259.345    3.613
  501.250    0.166    0.406   56.460  261.565    3.720
  501.500    0.185    0.437   58.357  264.314    3.781
  501.750    0.203    0.421   52.491  266.536    3.785
  502.000    0.215    0.415   59.652  268.033    3.733
  502.250    0.201    0.412   61.672  267.749    3.647
  502.500    0.191    0.416   56.810  266.009    3.549
  502.750    0.189    0.436   52.385  259.470    3.442
  503.000    0.191    0.468   57.726  262.425    3.275
  503.250    0.198    0.469   59.498  264.442    3.254
  503.500    0.213    0.452   54.697  259.047    3.326
  503.750    0.229    0.426   65.048  253.762    3.373
  504.000    0.256    0.424   58.369  253.793    3.403
  504.250    0.246    0.440   49.185  254.555    3.394
  504.500    0.231    0.450   52.963  256.155    3.366
  504.750    0.207    0.442   59.744  257.859    3.332
  505.000    0.194    0.436   63.457  257.476    3.329
  505.250    0.186    0.429   59.031  254.586    3.314
  505.500    0.177    0.456   60.616  254.098    3.318
  505.750    0.172    0.455   60.637  255.699    3.334
  506.000    0.169    0.419   47.009  257.502    3.363
  506.250    0.172    0.428   55.043  259.729    3.379
  506.500    0.177    0.440   61.198  259.971    3.409
  506.750    0.175    0.437   63.158  260.210    3.412
  507.000    0.170    0.416   53.977  261.918    3.455
  507.250    0.172    0.399   55.685  263.615    3.525
  507.500    0.166    0.385   62.279  265.947    3.650
  507.750    0.163    0.406   63.926  264.829    3.710
  508.000    0.186    0.409   63.509  258.396    3.707
  508.250    0.190    0.423   53.573  253.424    3.574
  508.500    0.178    0.447   54.971  250.324    3.395
  508.750    0.175    0.455   55.304  246.599    3.255
  509.000    0.187    0.434   60.271  240.892    3.132
  509.250    0.208    0.412   59.100  240.718    2.969
  509.500    0.246    0.416   51.796  244.823    2.825
  509.750    0.307    0.397   45.743  248.297    2.719
  510.000    0.336    0.373   46.641  252.402    2.617
  510.250    0.328    0.380   48.287  254.626    2.528
  510.500    0.328    0.393   49.246  255.595    2.460
  510.750    0.329    0.395   45.947  253.753    2.386
  511.000    0.328    0.396   42.401  251.592    2.326
  511.250    0.317    0.407   46.238  248.496    2.290
  511.500    0.316    0.425   55.085  243.939    2.279
  511.750    0.306    0.420   42.396  239.592    2.265
  512.000    0.305    0.409   48.926  237.952    2.298
  512.250    0.308    0.419   57.588  237.777    2.379
  512.500    0.299    0.427   51.596  239.271    2.515
  512.750    0.290    0.437   44.857  242.438    2.684
  513.000    0.286    0.453   44.627  242.578    2.947
  513.250    0.285    0.427   46.024  242.504    3.259
  513.500    0.286    0.418   47.734  242.744    3.530
  513.750    0.278    0.407   47.878  244.245    3.810
  514.000    0.265    0.388   50.088  246.252    4.058
  514.250    0.240    0.339   46.541  250.982    4.243
  514.500    0.219    0.342   42.490  256.235    4.426
  514.750    0.202    0.378   36.565  257.208    4.507
  515.000    0.242    0.411   41.280  256.403    4.563
  515.250    0.264    0.429   45.618  251.535    4.534
  515.500    0.288    0.414   46.452  244.371    4.429
  515.750    0.297    0.412   38.709  240.435    4.287
  516.000    0.285    0.411   41.170  238.485    4.110
  516.250    0.278    0.418   46.390  237.476    4.000
  516.500    0.271    0.428   49.788  239.698    3.872
  516.750    0.286    0.439   51.372  242.133    3.811
  517.000    0.287    0.449   44.944  242.794    3.758
  517.250    0.284    0.424   46.654  242.308    3.686
  517.500    0.280    0.403   45.925  241.500    3.560
  517.750    0.280    0.417   44.066  239.765    3.511
  518.000    0.287    0.435   45.587  239.272    3.515
  518.250    0.288    0.421   49.364  242.230    3.532
  518.500    0.307    0.378   46.002  247.581    3.542
  518.750    0.312    0.397   43.581  250.538    3.540
  519.000    0.292    0.407   47.921  251.618    3.498
  519.250    0.286    0.427   47.190  252.482    3.417
  519.500    0.286    0.414   49.214  253.562    3.376
  519.750    0.279    0.435   47.855  255.060    3.406
  520.000    0.270    0.348   47.187  255.505    3.448
  520.250    0.173    0.310   48.022  256.477    3.618
  520.500    0.140    0.275   48.918  257.245    3.868
  520.750    0.106    0.248   49.815  257.897    4.143
  521.000    0.087    0.223   48.958  260.333    4.540
  521.250    0.076    0.201   40.087  262.247    5.115
  521.500    0.083    0.187   36.226  261.545    5.616
  521.750    0.069    0.175   35.619  257.932    6.329
  522.000    0.030    0.174   37.768  253.578    7.213
  522.250    0.016    0.180   39.165  248.707    7.977
  522.500    0.011    0.199   38.246  246.236    8.107
  522.750    0.025    0.257   36.074  244.498    6.905
  523.000    0.073    0.317   37.851  243.698    5.548
  523.250    0.213    0.379   41.001  242.896    4.779
  523.500    0.262    0.452   45.525  242.299    3.833
  523.750    0.279    0.459   50.931  241.715    3.302
  524.000    0.296    0.439   51.762  241.334    2.838
  524.250    0.311    0.433   48.715  241.151    2.539
  524.500    0.304    0.468   44.477  240.666    2.389
  524.750    0.285    0.496   53.951  240.175    2.286
  525.000    0.285    0.465   51.028  239.166    2.350
  525.250    0.300    0.462   46.541  238.572    2.447
  525.500    0.303    0.458   45.872  237.979    2.548
  525.750    0.286    0.440   53.907  237.798    2.729
  526.000    0.238    0.400   59.999  242.839    3.030
  526.250    0.169    0.235   61.523  248.302    3.357
  526.500    0.102    0.222   67.363  251.568    3.672
  526.750    0.086    0.326   51.545  251.600    4.023
  527.000    0.181    0.381   48.935  250.799    4.277
  527.250    0.262    0.415   50.331  249.997    4.131
  527.500    0.264    0.428   49.600  249.091    3.786
  527.750    0.246    0.453   47.554  247.038    3.450
  528.000    0.242    0.446   56.529  244.671    3.259
  528.250    0.250    0.435   57.425  242.828    3.089
  528.500    0.259    0.427   54.188  241.926    3.007
  528.750    0.272    0.418   54.148  241.432    2.949
  529.000    0.281    0.410   53.977  240.526    2.930
  529.250    0.271    0.429   50.931  240.768    2.928
  529.500    0.291    0.442   54.393  241.427    2.942
  529.750    0.290    0.434   49.153  244.173    3.012
  530.000    0.258    0.434   47.736  246.819    3.056
  530.250    0.235    0.418   55.204  247.370    3.111
  530.500    0.222    0.419   48.964  244.484    3.168
  530.750    0.227    0.449   47.921  240.552    3.232
  531.000    0.238    0.445   51.511  239.963    3.278
  531.250    0.219    0.436   56.789  240.306    3.319
  531.500    0.237    0.464   59.060  241.069    3.335
  531.750    0.260    0.485   55.578  241.520    3.326
  532.000    0.274    0.444   50.961  241.030    3.324
  532.250    0.256    0.415   44.845  240.440    3.353
  532.500    0.245    0.408   50.751  240.367    3.401
  532.750    0.229    0.418   56.281  240.714    3.495
  533.000    0.196    0.379   59.433  241.684    3.633
  533.250    0.170    0.298   57.261  243.702    3.914
  533.500    0.090    0.272   46.135  245.407    4.369
  533.750    0.056    0.236   40.020  247.526    4.924
  534.000    0.111    0.337   45.989  249.956    5.405
  534.250    0.201    0.391   51.141  254.058    5.779
  534.500    0.200    0.388   59.051  258.683    5.593
  534.750    0.199    0.385   60.634  263.621    4.882
  535.000    0.209    0.393   59.278  267.725    4.317
  535.250    0.211    0.385   56.417  271.412    3.875
  535.500    0.207    0.380   58.441  274.886    3.695
  535.750    0.198    0.359   56.206  281.909    3.644
