~VERSION INFORMATION
 VERS.                 2.0:   CWLS LOG ASCII STANDARD -VERSION 2.0
 WRAP.                  NO:   ONE LINE PER DEPTH STEP
~WELL INFORMATION BLOCK
#MNEM.UNIT           DATA                    DESCRIPTION OF MNEMONIC
#---------    -------------------            -------------------------------
# Generated from Intellog Unique Number	CS_77_79/WELL/3294
WELL.         LOGAN RESOURCES LTD.           : Well_name    - WELL
LOC .         00/06-25-078-14W4/0            : Location     - LOCATION
UWI .         00/06-25-078-14W4/0            : Uwi          - UNIQUE WELL ID
ENTR.         JOETTE                         : Entered      - ENTERED BY
SRVC.         SCHLUMBERGER                   : Scn          - SERVICE COMPANY
DATE.         08-14-92                       : Date         - LOG DATE
STRT.M        275                            : top_depth    - START DEPTH
STOP.M        510                            : bot_depth    - STOP DEPTH
STEP.M        0.25                           : increment    - STEP LENGTH
 NULL. -999.2500:NULL Value
~CURVE INFORMATION BLOCK
#MNEM UNIT       ERCB CURVE CODE    CURVE DESCRIPTION
#-----------   ------------------   ----------------------------------
DEPT.M        00 001 00 00         : DEPTH        - DEPTH
GR  .API      00 310 00 00         : GR           - GAMMA RAY
NPHI.V/V      00 330 00 00         : PHIN         - NEUTRON POROSITY (SANDSTONE)
DPHI.V/V      00 890 00 00         : PHID         - DENSITY POROSITY (SANDSTONE)
ILD .OHMM     00 120 00 00         : RESD         - DEEP RESISTIVITY (DIL)
~PARAMETER INFORMATION
#MNEM.UNIT           DATA             DESCRIPTION OF MNEMONIC
#---------         -----------     ------------------------------
GL  .M        678.2                : gl           - GROUND LEVEL ELEVATION
EREF.M        681.7                : kb           - ELEVATION OF DEPTH REFERENCE
DATM.M        681.7                : datum        - DATUM ELEVATION
TDD .M        515                  : tdd          - TOTAL DEPTH DRILLER
RUN .         ONE                  : Run          - RUN NUMBER
ENG .         BILL                 : Engineer     - RECORDING ENGINEER
WIT .         JIM                  : Witness      - WITNESSED BY
MUD .         GEL                  : Mud_type     - MUD TYPE
MATR.         SANDSTONE            : Logunit      - NEUTRON MATRIX
TMAX.C        30                   : BHT          - MAXIMUM RECORDED TEMPERATURE
BHTD.M        515                  : BHTDEP       - MAXIMUM RECORDED TEMPERATURE
MATR.         0                    : LOGUNIT      - NEUTRON MATRIX
RMT .C        11                   : MDTP         - TEMPERATURE OF MUD
NEUT.         1                    : NEUTRON      - NEUTRON TYPE
RESI.         0                    : RESIST       - RESISTIVITY TYPE
RM  .OHMM     2.242                : RM           - RESISTIVITY OF MUD
RMC .OHMM     1.969                : RMC          - RESISTIVITY OF MUD CAKE
RMF .OHMM     2.472                : RMF          - RESISTIVITY OF MUD FILTRATE
SUFT.C        5                    : SUFT         - SURFACE TEMPERATURE
~A  DEPTH       GR     PHIN     PHID     RESD
# ...
  362.000   56.335    0.346    0.300   13.139
  362.250   53.984    0.353    0.304   13.166
  362.500   51.030    0.364    0.309   12.952
  362.750   52.303    0.363    0.302   12.747
  363.000   58.409    0.356    0.293   12.533
  363.250   67.551    0.355    0.286   11.664
  363.500   67.617    0.357    0.288   10.854
  363.750   66.474    0.367    0.288    9.916
  364.000   73.184    0.358    0.276    9.059
  364.250   88.970    0.354    0.270    8.427
  364.500   96.284    0.368    0.273    7.561
  364.750   97.574    0.397    0.270    6.778
  365.000   90.375    0.412    0.263    5.970
  365.250   79.584    0.412    0.251    5.253
  365.500   80.237    0.412    0.236    4.457
  365.750   94.228    0.435    0.228    3.782
  366.000   95.485    0.437    0.227    3.392
  366.250   90.719    0.452    0.231    3.155
  366.500  105.281    0.475    0.235    3.048
  366.750  109.591    0.461    0.245    2.998
  367.000  102.996    0.464    0.253    3.062
  367.250   99.437    0.466    0.253    3.124
  367.500   99.502    0.406    0.246    3.311
  367.750  105.004    0.399    0.241    3.571
  368.000  106.898    0.401    0.239    4.148
  368.250   99.095    0.400    0.243    5.189
  368.500   95.552    0.383    0.250    6.376
  368.750   90.165    0.376    0.250    7.272
  369.000   88.419    0.384    0.239    7.562
  369.250   92.712    0.383    0.225    7.719
  369.500   91.570    0.359    0.228    7.593
  369.750   89.823    0.371    0.225    7.333
  370.000   91.701    0.373    0.220    6.706
  370.250   89.971    0.369    0.236    6.469
  370.500   93.644    0.369    0.232    5.913
  370.750   91.930    0.375    0.210    5.707
  371.000   89.547    0.384    0.211    5.413
  371.250  103.537    0.392    0.221    5.328
  371.500   95.130    0.403    0.233    5.235
  371.750   87.327    0.414    0.235    5.249
  372.000   91.033    0.409    0.230    5.260
  372.250   92.910    0.411    0.227    5.369
  372.500   97.221    0.428    0.233    5.690
  372.750   94.266    0.419    0.237    5.910
  373.000   94.935    0.389    0.237    6.621
  373.250   92.585    0.396    0.239    7.277
  373.500   87.198    0.412    0.245    7.860
  373.750   83.051    0.414    0.267    8.015
  374.000   78.252    0.385    0.279    8.035
  374.250   71.069    0.381    0.285    7.905
  374.500   78.399    0.382    0.275    7.629
  374.750   85.109    0.399    0.272    7.104
  375.000   82.171    0.395    0.262    6.607
  375.250   81.012    0.400    0.272    5.711
  375.500  101.630    0.415    0.268    5.025
  375.750  110.152    0.426    0.252    4.264
  376.000  106.594    0.426    0.240    3.551
  376.250  105.451    0.448    0.235    3.014
  376.500  102.496    0.448    0.225    2.753
  376.750  100.146    0.428    0.218    2.380
  377.000  118.365    0.432    0.221    2.213
  377.250  105.125    0.450    0.243    1.948
  377.500  102.758    0.482    0.242    1.654
  377.750  102.824    0.453    0.240    1.456
  378.000  119.835    0.454    0.236    1.354
  378.250  108.407    0.481    0.229    1.215
  378.500   95.168    0.454    0.226    1.217
  378.750  100.670    0.459    0.230    1.220
  379.000  108.000    0.510    0.240    1.268
  379.250  105.061    0.529    0.253    1.394
  379.500  102.711    0.495    0.259    1.680
  379.750  105.780    0.469    0.236    2.307
  380.000  111.282    0.437    0.234    2.584
  380.250  117.387    0.414    0.239    2.686
  380.500  105.372    0.493    0.236    2.693
  380.750   99.414    0.443    0.228    2.698
  381.000  102.483    0.434    0.232    2.754
  381.250  103.153    0.418    0.231    2.917
  381.500  111.675    0.417    0.221    3.389
  381.750  111.136    0.430    0.220    3.725
  382.000  103.953    0.425    0.237    5.304
  382.250   70.210    0.395    0.271    5.726
  382.500   72.658    0.373    0.297    6.415
  382.750   77.572    0.362    0.295    6.918
  383.000   75.205    0.347    0.300    7.464
  383.250   63.190    0.343    0.303    7.623
  383.500   66.880    0.353    0.305    7.365
  383.750   57.885    0.356    0.313    7.238
  384.000   63.403    0.355    0.316    7.124
  384.250   68.284    0.355    0.311    7.142
  384.500   70.766    0.356    0.301    7.153
  384.750   69.036    0.358    0.274    7.580
  385.000   66.081    0.358    0.224    8.487
  385.250   66.147    0.318    0.117    8.821
  385.500   64.988    0.309    0.168    9.172
  385.750   66.261    0.337    0.238    9.191
  386.000   78.424    0.379    0.257    8.713
  386.250   77.885    0.385    0.271    8.414
  386.500   70.719    0.362    0.268    8.129
  386.750   77.412    0.367    0.234    7.846
  387.000   85.934    0.379    0.238    7.722
  387.250   99.908    0.382    0.239    7.597
  387.500   93.933    0.397    0.233    7.616
  387.750   84.955    0.362    0.224    7.624
  388.000   82.588    0.358    0.224    7.644
  388.250   85.674    0.359    0.230    7.663
  388.500   86.343    0.357    0.242    7.671
  388.750   83.388    0.357    0.242    7.691
  389.000   89.494    0.372    0.239    7.711
  389.250   85.332    0.374    0.246    7.577
  389.500   89.021    0.374    0.253    7.183
  389.750   92.711    0.377    0.253    7.198
  390.000   97.021    0.370    0.252    7.492
  390.250  100.106    0.363    0.254    7.640
  390.500  102.588    0.375    0.264    7.660
  390.750   92.973    0.407    0.266    7.676
  391.000   87.014    0.404    0.269    7.416
  391.250   82.231    0.393    0.276    7.158
  391.500   75.669    0.367    0.280    6.786
  391.750   79.962    0.358    0.272    6.800
  392.000   77.595    0.379    0.268    6.810
  392.250   81.285    0.405    0.268    6.456
  392.500   83.767    0.399    0.262    6.008
  392.750   88.681    0.405    0.247    5.193
  393.000   95.390    0.440    0.248    4.490
  393.250   90.624    0.429    0.253    4.257
  393.500   88.877    0.402    0.245    4.263
  393.750   85.922    0.397    0.227    4.352
  394.000   99.880    0.413    0.212    4.700
  394.250   98.134    0.415    0.217    5.069
  394.500   92.159    0.387    0.224    5.469
  394.750   86.788    0.376    0.229    5.793
  395.000   86.250    0.394    0.236    6.143
  395.250   94.772    0.405    0.249    6.152
  395.500   86.381    0.373    0.245    5.944
  395.750   76.782    0.377    0.247    5.737
  396.000   76.243    0.367    0.249    5.442
  396.250   84.765    0.365    0.243    5.249
  396.500   93.907    0.386    0.232    4.981
  396.750   98.201    0.396    0.219    4.895
  397.000   92.226    0.396    0.213    4.727
  397.250   98.332    0.366    0.215    4.655
  397.500   92.961    0.360    0.226    4.574
  397.750   88.799    0.360    0.236    4.669
  398.000   91.884    0.373    0.233    4.855
  398.250   95.574    0.379    0.233    5.436
  398.500   90.823    0.385    0.239    6.093
  398.750   93.909    0.390    0.246    6.450
  399.000   92.766    0.393    0.257    6.581
  399.250   98.252    0.377    0.263    6.971
  399.500   96.505    0.372    0.271    7.119
  399.750   91.134    0.371    0.263    7.274
  400.000   92.408    0.360    0.230    7.282
  400.250   98.530    0.338    0.221    7.039
  400.500   96.800    0.347    0.231    6.794
  400.750   99.869    0.349    0.245    6.564
  401.000  105.371    0.354    0.247    6.454
  401.250   95.168    0.368    0.214    6.591
  401.500  101.274    0.375    0.199    6.725
  401.750  100.735    0.355    0.203    6.861
  402.000   93.552    0.342    0.257    7.271
  402.250   88.165    0.345    0.287    7.557
  402.500   82.190    0.345    0.311    7.861
  402.750   78.028    0.334    0.334    8.029
  403.000   72.657    0.338    0.335    7.894
  403.250   66.078    0.358    0.329    7.761
  403.500   64.935    0.379    0.324    7.499
  403.750   68.625    0.375    0.324    7.380
  404.000   67.482    0.366    0.330    7.253
  404.250   63.320    0.364    0.327    7.007
  404.500   64.593    0.368    0.320    7.018
  404.750   62.243    0.376    0.309    7.033
  405.000   53.852    0.365    0.304    7.179
  405.250   43.632    0.367    0.308    7.332
