~VERSION INFORMATION
 VERS.                 2.0:   CWLS LOG ASCII STANDARD -VERSION 2.0
 WRAP.                  NO:   ONE LINE PER DEPTH STEP
~WELL INFORMATION BLOCK
#MNEM.UNIT           DATA                    DESCRIPTION OF MNEMONIC
#---------    -------------------            -------------------------------
# Generated from Intellog Unique Number	CC_80_83/WELL/1170
NULL.         -999.25                        : NULL_VALUE
WELL.         CHEVRON CDN-SUP ALGAR          : Well_name    - WELL
LOC .         06-36-082-16W4                 : Location     - LOCATION          
UWI .         00/06-36-082-16W400            : Uwi          - UNIQUE WELL ID    
ENTR.         DW                             : Entered      - ENTERED BY        
SRVC.         SCHLUMBERGER                   : Scn          - SERVICE COMPANY   
DATE.         17 MAR 74                      : Date         - LOG DATE
STRT.M        97.536                         : top_depth    - START DEPTH       
STOP.M        289.559                        : bot_depth    - STOP DEPTH        
STEP.M        0.3048                         : increment    - STEP LENGTH       
~CURVE INFORMATION BLOCK
#MNEM UNIT       ERCB CURVE CODE    CURVE DESCRIPTION
#-----------   ------------------   ----------------------------------
DEPT.M        00 001 00 00         : DEPTH        - DEPTH                       
DPHI.V/V      00 890 00 00         : PHID         - DENSITY POROSITY (LIMESTONE)
NPHI.V/V      00 330 00 00         : PHIN         - NEUTRON POROSITY (LIMESTONE)
GR  .API      00 310 00 00         : GR           - GAMMA RAY                   
ILD .OHMM     00 120 00 00         : RESD         - DEEP RESISTIVITY (DIL)      
~PARAMETER INFORMATION       
#MNEM.UNIT           DATA             DESCRIPTION OF MNEMONIC
#---------         -----------     ------------------------------
GL  .M        545.592              : gl           - GROUND LEVEL ELEVATION      
EREF.M        549.25               : kb           - ELEVATION OF DEPTH REFERENCE
DATM.M        549.25               : datum        - DATUM ELEVATION             
TDD .M        289.56               : tdd          - TOTAL DEPTH DRILLER         
RUN .         ONE                  : Run          - RUN NUMBER                  
ENG .         BILL                 : Engineer     - RECORDING ENGINEER          
WIT .         JIM                  : Witness      - WITNESSED BY                
MUD .         GEL                  : Mud_type     - MUD TYPE                    
MATR.         LIMESTONE            : Logunit      - NEUTRON MATRIX              
TMAX.C        23.3333              : BHT          - MAXIMUM RECORDED TEMPERATURE
BHTD.M        289.56               : BHTDEP       - MAXIMUM RECORDED TEMPERATURE
MATR.         1                    : LOGUNIT      - NEUTRON MATRIX              
RMT .C        25                   : MDTP         - TEMPERATURE OF MUD          
NEUT.         1                    : NEUTRON      - NEUTRON TYPE                
RESI.         0                    : RESIST       - RESISTIVITY TYPE            
RMC .OHMM     0.25                 : RMC          - RESISTIVITY OF MUD CAKE     
RMF .OHMM     0.25                 : RMF          - RESISTIVITY OF MUD FILTRATE 
SUFT.C        15                   : SUFT         - SURFACE TEMPERATURE         
~A  DEPTH     PHID     PHIN       GR     RESD
# ...
  256.639    0.254    0.497   83.929    7.365
  256.944    0.246    0.480   83.929    7.368
  257.249    0.236    0.468   83.929    7.513
  257.554    0.227    0.472   83.929    7.515
  257.859    0.221    0.495   83.929    7.522
  258.163    0.247    0.497   83.333    7.252
  258.468    0.235    0.484   80.952    6.991
  258.773    0.230    0.466   78.571    6.741
  259.078    0.227    0.489   79.167    6.264
  259.383    0.249    0.506   79.762    6.038
  259.688    0.278    0.500   81.548    5.507
  259.992    0.289    0.497   84.524    5.116
  260.297    0.244    0.500   88.691    4.496
  260.602    0.243    0.510   94.643    4.255
  260.907    0.233    0.535   99.405    4.028
  261.212    0.252    0.532  101.786    4.182
  261.516    0.248    0.515  104.762    4.507
  261.821    0.241    0.485  106.548    5.531
  262.126    0.220    0.481  105.952    6.540
  262.431    0.198    0.484   95.833    8.486
  262.736    0.177    0.443   95.238    9.669
  263.040    0.154    0.399   87.500   10.421
  263.345    0.116    0.373   84.524   10.428
  263.650    0.154    0.409   85.119    9.690
  263.955    0.209    0.437   89.286    9.340
  264.260    0.214    0.435   89.881    9.008
  264.564    0.196    0.433   89.881    9.013
  264.869    0.217    0.467   89.286    9.186
  265.174    0.196    0.496   89.286    9.539
  265.479    0.190    0.490   89.286   10.474
  265.784    0.169    0.460   89.286   11.082
  266.089    0.156    0.442   89.881   11.086
  266.393    0.145    0.457   90.476   10.689
  266.698    0.174    0.445   91.667   10.307
  267.003    0.184    0.435   97.619    9.755
  267.308    0.189    0.435  101.190    8.571
  267.613    0.204    0.439  115.476    6.614
  267.917    0.207    0.452  126.190    5.921
  268.222    0.209    0.503  147.024    6.501
  268.527    0.221    0.514  155.952    8.127
  268.832    0.270    0.483  167.262    9.973
  269.137    0.278    0.429  113.690   12.014
  269.441    0.265    0.425   78.571   13.438
  269.746    0.259    0.435   58.929   13.955
  270.051    0.255    0.457   54.762   12.492
  270.356    0.241    0.472   56.548   10.193
  270.661    0.253    0.469   60.119    9.124
  270.965    0.255    0.461   64.286    8.168
  271.270    0.230    0.463   69.643    7.730
  271.575    0.241    0.461   75.595    7.050
  271.880    0.238    0.457   79.762    6.196
  272.185    0.231    0.460   78.571    5.547
  272.490    0.235    0.484   79.167    5.153
  272.794    0.232    0.475   83.929    4.787
  273.099    0.213    0.473   86.309    4.616
  273.404    0.212    0.475   90.476    4.618
  273.709    0.217    0.473   93.452    4.536
  274.014    0.227    0.473   98.214    4.214
  274.318    0.232    0.513  102.381    3.915
  274.623    0.231    0.524  117.857    3.706
  274.928    0.230    0.514  123.214    3.639
  275.233    0.227    0.512  120.238    3.510
  275.538    0.220    0.503  116.667    3.645
  275.842    0.209    0.489  114.286    3.785
  276.147    0.192    0.483  112.500    3.786
  276.452    0.189    0.521  111.310    3.861
  276.757    0.250    0.525  131.548    3.935
  277.062    0.258    0.530  131.548    4.163
  277.366    0.241    0.519  127.976    4.486
  277.671    0.229    0.504  120.833    5.018
  277.976    0.219    0.475  114.881    5.309
  278.281    0.169    0.438  107.738    5.412
  278.586    0.163    0.450   99.405    5.619
  278.891    0.226    0.480   91.667    6.056
  279.195    0.263    0.471   83.333    6.774
  279.500    0.298    0.449   75.000    7.437
  279.805    0.322    0.434   66.667    8.632
  280.110    0.318    0.426   63.691   12.518
  280.415    0.298    0.423   68.452   14.805
  280.719    0.283    0.454   72.024   15.089
  281.024    0.311    0.452   71.429   12.777
  281.329    0.301    0.431   72.024    9.679
  281.634    0.288    0.431   76.786    8.044
  281.939    0.267    0.445   93.452    6.564
  282.243    0.207    0.508   97.024    6.098
  282.548    0.171    0.474   95.833    6.572
  282.853    0.167    0.458   39.881    7.627
  283.158    0.218    0.449   11.905   10.463
  283.463    0.225    0.437   11.309   13.326
  283.767    0.240    0.419   12.500   16.660
  284.072    0.247    0.391   13.095   25.546
  284.377    0.231    0.373   14.286   28.051
  284.682    0.203    0.376   83.929   27.046
  284.987    0.210    0.444   83.929   24.659
  285.292    0.213    0.521   83.929   20.880
  285.596    0.192    0.524   83.929   17.355
  285.901    0.215    0.523   83.929   15.250
  286.206    0.207    0.520   83.929   14.982
  286.511    0.191    0.519   84.524   15.852
  286.816    0.210    0.520   85.119   16.155
  287.120    0.220    0.519   85.714   16.466
  287.425    0.197    0.520   85.714   17.102
  287.730    0.183    0.520   86.309   17.110
  288.035    0.169    0.519   86.309   16.811
  288.340    0.167    0.517   85.714   16.512
  288.644    0.160    0.513   85.119   16.218
  288.949    0.166    0.507   83.929   16.225
  289.254    0.189    0.497   82.738   15.936
  289.559    0.246    0.485   82.143   16.245
