~VERSION INFORMATION
 VERS.                 2.0:   CWLS LOG ASCII STANDARD -VERSION 2.0
 WRAP.                  NO:   ONE LINE PER DEPTH STEP
~WELL INFORMATION BLOCK
#MNEM.UNIT           DATA                    DESCRIPTION OF MNEMONIC
#---------    -------------------            -------------------------------
# Generated from Intellog Unique Number	CS_73_76/WELL/641
WELL.         BOW VALLEY INDUSTRIES LTD      : Well_name    - WELL
LOC .         00/06-24-073-17W4/0            : Location     - LOCATION
UWI .         00/06-24-073-17W4/0            : Uwi          - UNIQUE WELL ID
ENTR.         SP                             : Entered      - ENTERED BY
SRVC.         SCHLUMBERGER                   : Scn          - SERVICE COMPANY
STRT.M        237.744                        : top_depth    - START DEPTH
STOP.M        426.494                        : bot_depth    - STOP DEPTH
STEP.M        0.25                           : increment    - STEP LENGTH
 NULL. -999.2500:NULL Value
~CURVE INFORMATION BLOCK
#MNEM UNIT       ERCB CURVE CODE    CURVE DESCRIPTION
#-----------   ------------------   ----------------------------------
DEPT.M        00 001 00 00         : DEPTH        - DEPTH
GR  .API      00 310 00 00         : GR           - GAMMA RAY
DPHI.V/V      00 890 00 00         : PHID         - DENSITY POROSITY (SANDSTONE)
NPHI.V/V      00 330 00 00         : PHIN         - NEUTRON POROSITY (SANDSTONE)
ILD .OHMM     00 120 00 00         : RESD         - DEEP RESISTIVITY (DIL)
~PARAMETER INFORMATION
#MNEM.UNIT           DATA             DESCRIPTION OF MNEMONIC
#---------         -----------     ------------------------------
GL  .M        571.988              : gl           - GROUND LEVEL ELEVATION
EREF.M        574.853              : kb           - ELEVATION OF DEPTH REFERENCE
DATM.M        571.988              : datum        - DATUM ELEVATION
TDD .M        427.939              : tdd          - TOTAL DEPTH DRILLER
RUN .         ONE                  : Run          - RUN NUMBER
ENG .         BILL                 : Engineer     - RECORDING ENGINEER
WIT .         JIM                  : Witness      - WITNESSED BY
MUD .         GEL                  : Mud_type     - MUD TYPE
MATR.         SANDSTONE            : Logunit      - NEUTRON MATRIX
TMAX.C        24.4444              : BHT          - MAXIMUM RECORDED TEMPERATURE
BHTD.M        427.939              : BHTDEP       - MAXIMUM RECORDED TEMPERATURE
MATR.         1                    : LOGUNIT      - NEUTRON MATRIX
RMT .C        25                   : MDTP         - TEMPERATURE OF MUD
NEUT.         1                    : NEUTRON      - NEUTRON TYPE
RESI.         0                    : RESIST       - RESISTIVITY TYPE
RMC .OHMM     0.25                 : RMC          - RESISTIVITY OF MUD CAKE
RMF .OHMM     0.25                 : RMF          - RESISTIVITY OF MUD FILTRATE
SUFT.C        15                   : SUFT         - SURFACE TEMPERATURE
~A  DEPTH       GR     PHID     PHIN     RESD
# ...
  281.244   91.626    0.217    0.461    6.709
  281.494   85.787    0.211    0.479    6.665
  281.744   77.487    0.234    0.502    7.008
  281.994   65.720    0.256    0.476    7.274
  282.244   58.749    0.271    0.446    7.997
  282.494   56.057    0.282    0.416    8.434
  282.744   55.510    0.269    0.418    8.763
  282.994   54.048    0.280    0.428    8.931
  283.244   52.678    0.292    0.441    8.768
  283.494   52.756    0.307    0.451    8.599
  283.744   53.817    0.311    0.457    8.468
  283.994   54.885    0.309    0.452    8.381
  284.244   55.908    0.303    0.460    8.294
  284.494   56.540    0.304    0.465    8.289
  284.744   55.898    0.326    0.477    8.289
  284.994   54.656    0.352    0.472    8.288
  285.244   52.880    0.332    0.462    8.287
  285.494   51.576    0.337    0.464    8.285
  285.744   50.566    0.342    0.466    8.284
  285.994   49.602    0.346    0.454    8.283
  286.244   48.634    0.335    0.445    8.281
  286.494   48.099    0.339    0.443    8.284
  286.744   51.334    0.341    0.443    8.378
  286.994   53.847    0.341    0.459    8.277
  287.244   58.503    0.349    0.467    8.574
  287.494   60.883    0.345    0.456    8.655
  287.744   63.914    0.343    0.449    8.750
  287.994   65.445    0.341    0.458    9.041
  288.244   66.191    0.338    0.459    9.056
  288.494   60.879    0.324    0.453    9.239
  288.744   59.586    0.315    0.465    9.236
  288.994   58.472    0.323    0.456    9.239
  289.244   58.511    0.331    0.460    9.228
  289.494   58.494    0.331    0.446    9.440
  289.744   58.376    0.316    0.440    9.210
  289.994   56.398    0.313    0.442    9.396
  290.244   53.891    0.321    0.445    9.208
  290.494   54.479    0.332    0.447    9.227
  290.744   55.442    0.342    0.449    9.245
  290.994   56.222    0.348    0.449    9.039
  291.244   56.848    0.349    0.449    9.056
  291.494   56.402    0.346    0.447    9.055
  291.744   54.853    0.337    0.447    9.050
  291.994   50.943    0.331    0.450    9.056
  292.244   50.876    0.326    0.456    8.872
  292.494   53.764    0.338    0.463    8.891
  292.744   56.242    0.334    0.454    8.736
  292.994   56.293    0.326    0.441    8.740
  293.244   56.267    0.331    0.428    8.546
  293.494   55.762    0.329    0.419    8.558
  293.744   56.238    0.332    0.413    8.552
  293.994   57.611    0.332    0.414    8.545
  294.244   59.172    0.336    0.420    8.389
  294.494   58.499    0.350    0.449    8.407
  294.744   58.221    0.364    0.468    8.240
  294.994   57.687    0.382    0.488    8.242
  295.244   56.043    0.396    0.524    8.236
  295.494   55.245    0.385    0.501    8.243
  295.744   56.169    0.369    0.485    8.071
  295.994   57.838    0.370    0.464    8.083
  296.244   59.384    0.368    0.452    8.083
  296.494   59.730    0.363    0.439    8.083
  296.744   59.946    0.355    0.431    8.084
  296.994   58.282    0.347    0.433    7.960
  297.244   58.601    0.338    0.439    7.934
  297.494   58.993    0.347    0.445    7.928
  297.744   59.627    0.349    0.440    8.033
  297.994   59.504    0.356    0.438    8.060
  298.244   57.858    0.342    0.438    8.221
  298.494   57.163    0.335    0.441    8.219
  298.744   57.982    0.341    0.439    8.219
  298.994   59.548    0.336    0.434    8.229
  299.244   60.623    0.342    0.431    8.054
  299.494   60.876    0.336    0.437    8.067
  299.744   60.891    0.337    0.447    8.067
  299.994   60.710    0.332    0.459    8.064
  300.244   59.721    0.329    0.473    8.061
  300.494   59.312    0.338    0.491    8.176
  300.744   59.394    0.344    0.479    8.195
  300.994   59.774    0.353    0.475    8.365
  301.244   59.365    0.359    0.470    8.428
  301.494   59.038    0.358    0.469    8.843
  301.744   59.169    0.343    0.486    9.156
  301.994   60.166    0.317    0.492    9.384
  302.244   61.159    0.298    0.484    9.335
  302.494   62.217    0.306    0.477    9.678
  302.744   61.029    0.320    0.483    9.791
  302.994   60.615    0.320    0.485    9.672
  303.244   62.224    0.311    0.475    9.559
  303.494   62.104    0.322    0.470    9.328
  303.744   61.104    0.327    0.472    9.145
  303.994   61.650    0.327    0.476    8.984
  304.244   61.099    0.323    0.482    9.011
  304.494   60.593    0.313    0.482    8.665
  304.744   58.979    0.311    0.483    8.667
  304.994   58.058    0.322    0.492    8.659
  305.244   57.051    0.328    0.502    8.657
  305.494   56.553    0.323    0.509    8.657
  305.744   54.747    0.343    0.507    8.660
  305.994   56.441    0.354    0.492    8.518
  306.244   56.474    0.356    0.490    8.510
  306.494   56.478    0.338    0.499    8.320
  306.744   55.000    0.338    0.509    8.071
  306.994   53.887    0.338    0.515    7.821
  307.244   53.556    0.344    0.521    7.740
  307.494   53.984    0.353    0.521    7.738
  307.744   54.196    0.337    0.510    7.738
  307.994   53.639    0.329    0.497    7.736
  308.244   52.596    0.324    0.486    7.719
  308.494   52.291    0.331    0.493    7.884
  308.744   52.810    0.333    0.478    8.007
  308.994   54.071    0.338    0.467    8.017
  309.244   52.950    0.335    0.471    8.016
  309.494   53.374    0.336    0.484    8.157
  309.744   55.615    0.344    0.492    7.998
  309.994   57.920    0.343    0.490    8.015
  310.244   58.341    0.339    0.490    7.567
  310.494   58.552    0.341    0.517    7.043
  310.744   57.944    0.341    0.529    6.546
  310.994   57.539    0.334    0.505    5.852
  311.244   58.262    0.331    0.492    6.612
  311.494   60.296    0.334    0.464    7.290
  311.744   61.634    0.338    0.479    7.531
  311.994   62.890    0.340    0.485    7.602
  312.244   63.910    0.341    0.490    7.600
  312.494   65.144    0.346    0.482    7.580
  312.744   67.212    0.332    0.474    7.573
  312.994   69.301    0.327    0.468    7.586
  313.244   71.378    0.313    0.461    7.418
  313.494   73.043    0.299    0.452    7.432
  313.744   72.395    0.261    0.435    7.427
  313.994   68.545    0.218    0.407    7.391
  314.244   64.728    0.248    0.401    7.292
  314.494   67.122    0.282    0.428    7.302
  314.744   68.635    0.309    0.445    7.122
  314.994   71.712    0.295    0.457    6.919
  315.244   74.703    0.293    0.458    6.518
  315.494   76.910    0.271    0.461    6.135
  315.744   79.243    0.266    0.462    5.777
  315.994   83.546    0.253    0.473    5.479
  316.244   87.768    0.237    0.484    5.212
  316.494   90.932    0.229    0.494    5.064
  316.744   91.047    0.230    0.493    4.936
  316.994   88.772    0.238    0.487    4.940
  317.244   89.221    0.241    0.482    5.021
  317.494   92.335    0.232    0.478    5.257
  317.744   94.146    0.222    0.476    5.412
  317.994   94.488    0.231    0.477    5.463
  318.244   94.075    0.222    0.479    5.641
  318.494   92.086    0.233    0.488    5.727
  318.744   89.636    0.220    0.500    5.773
  318.994   89.526    0.219    0.485    5.827
  319.244   90.598    0.221    0.462    5.756
  319.494   90.603    0.223    0.482    5.401
  319.744   88.278    0.225    0.498    4.926
  319.994   85.570    0.256    0.510    4.679
  320.244   81.253    0.268    0.517    4.299
  320.494   76.525    0.273    0.526    4.105
  320.744   72.343    0.300    0.526    4.067
  320.994   68.818    0.320    0.522    4.097
  321.244   64.930    0.326    0.485    4.457
  321.494   59.516    0.328    0.443    4.707
  321.744   57.294    0.338    0.453    5.457
  321.994   57.859    0.346    0.458    5.959
  322.244   58.932    0.355    0.462    6.466
  322.494   59.273    0.360    0.465    7.017
  322.744   60.474    0.360    0.473    7.270
  322.994   60.278    0.364    0.485    7.254
  323.244   59.243    0.361    0.497    7.254
  323.494   57.685    0.342    0.495    7.110
  323.744   59.990    0.338    0.470    7.118
  323.994   63.402    0.331    0.441    7.120
  324.244   61.229    0.268    0.415    7.179
  324.494   57.803    0.226    0.382    7.389
