~VERSION INFORMATION
 VERS.                 2.0:   CWLS LOG ASCII STANDARD -VERSION 2.0
 WRAP.                  NO:   ONE LINE PER DEPTH STEP
~WELL INFORMATION BLOCK
#MNEM.UNIT           DATA                    DESCRIPTION OF MNEMONIC
#---------    -------------------            -------------------------------
# Generated from Intellog Unique Number	CW_73_75/WELL/3519
WELL.         PINNACLE RESOURCES             : Well_name    - WELL
LOC .         00/04-05-074-02W5/0            : Location     - LOCATION
UWI .         00/04-05-074-02W5/0            : Uwi          - UNIQUE WELL ID
ENTR.         T                              : Entered      - ENTERED BY
SRVC.         SCHLUMBERGER                   : Scn          - SERVICE COMPANY
STRT.M        390                            : top_depth    - START DEPTH
STOP.M        655                            : bot_depth    - STOP DEPTH
STEP.M        0.25                           : increment    - STEP LENGTH
 NULL. -999.2500:NULL Value
~CURVE INFORMATION BLOCK
#MNEM UNIT       ERCB CURVE CODE    CURVE DESCRIPTION
#-----------   ------------------   ----------------------------------
DEPT.M        00 001 00 00         : DEPTH        - DEPTH
ILD .OHMM     00 120 00 00         : RESD         - DEEP RESISTIVITY (DIL)
DPHI.V/V      00 890 00 00         : PHID         - DENSITY POROSITY (SANDSTONE)
NPHI.V/V      00 330 00 00         : PHIN         - NEUTRON POROSITY (SANDSTONE)
GR  .API      00 310 00 00         : GR           - GAMMA RAY
~PARAMETER INFORMATION
#MNEM.UNIT           DATA             DESCRIPTION OF MNEMONIC
#---------         -----------     ------------------------------
GL  .M        665                  : gl           - GROUND LEVEL ELEVATION
EREF.M        669.22               : kb           - ELEVATION OF DEPTH REFERENCE
DATM.M        669.22               : datum        - DATUM ELEVATION
TDD .M        670                  : tdd          - TOTAL DEPTH DRILLER
RUN .         ONE                  : Run          - RUN NUMBER
ENG .         BILL                 : Engineer     - RECORDING ENGINEER
WIT .         JIM                  : Witness      - WITNESSED BY
MUD .         GEL                  : Mud_type     - MUD TYPE
MATR.         SANDSTONE            : Logunit      - NEUTRON MATRIX
TMAX.C        30                   : BHT          - MAXIMUM RECORDED TEMPERATURE
BHTD.M        670                  : BHTDEP       - MAXIMUM RECORDED TEMPERATURE
RMT .C        30                   : MDTP         - TEMPERATURE OF MUD
MUDD.KG/M     1120                 : MWT          - MUD DENSITY
NEUT.         1                    : NEUTRON      - NEUTRON TYPE
RESI.         0                    : RESIST       - RESISTIVITY TYPE
RM  .OHMM     3.1                  : RM           - RESISTIVITY OF MUD
RMC .OHMM     0.29                 : RMC          - RESISTIVITY OF MUD CAKE
RMF .OHMM     2.26                 : RMF          - RESISTIVITY OF MUD FILTRATE
SUFT.C        4                    : SUFT         - SURFACE TEMPERATURE
~A  DEPTH     RESD     PHID     PHIN       GR
# ...
  477.000    4.147    0.055    0.275   51.813
  477.250    3.705    0.082    0.348   59.330
  477.500    3.500    0.175    0.398   65.670
  477.750    3.367    0.311    0.420   65.039
  478.000    3.237    0.315    0.410   62.080
  478.250    3.171    0.312    0.413   61.449
  478.500    3.167    0.305    0.415   64.322
  478.750    3.159    0.295    0.420   67.171
  479.000    3.213    0.276    0.425   69.449
  479.250    3.264    0.262    0.430   69.995
  479.500    3.504    0.241    0.425   71.097
  479.750    3.632    0.239    0.416   72.794
  480.000    3.826    0.237    0.402   76.831
  480.250    3.891    0.235    0.397   80.855
  480.500    3.955    0.231    0.402   77.897
  480.750    3.950    0.223    0.407   75.507
  481.000    4.013    0.192    0.402   77.204
  481.250    4.081    0.216    0.402   74.815
  481.500    4.145    0.244    0.405   71.856
  481.750    4.215    0.266    0.412   71.807
  482.000    4.287    0.260    0.417   72.352
  482.250    4.356    0.237    0.422   72.885
  482.500    4.347    0.243    0.422   69.914
  482.750    4.341    0.242    0.422   67.537
  483.000    4.332    0.242    0.424   73.902
  483.250    4.319    0.247    0.422   73.841
  483.500    4.315    0.256    0.417   70.870
  483.750    4.303    0.265    0.413   69.669
  484.000    4.376    0.251    0.407   70.772
  484.250    4.365    0.252    0.399   71.899
  484.500    4.359    0.246    0.401   73.571
  484.750    4.346    0.240    0.402   72.964
  485.000    4.342    0.241    0.407   71.739
  485.250    4.329    0.250    0.412   73.436
  485.500    4.322    0.268    0.417   76.309
  485.750    4.316    0.269    0.411   76.260
  486.000    4.306    0.263    0.391   72.137
  486.250    4.295    0.252    0.386   68.572
  486.500    4.370    0.241    0.395   70.281
  486.750    4.362    0.248    0.407   70.802
  487.000    4.434    0.254    0.413   70.753
  487.250    4.671    0.227    0.407   71.867
  487.500    4.753    0.206    0.398   72.400
  487.750    5.197    0.193    0.405   68.859
  488.000    5.787    0.218    0.417   65.913
  488.250    6.109    0.233    0.422   64.094
  488.500    6.933    0.249    0.415   66.954
  488.750    7.724    0.253    0.416   69.233
  489.000    8.296    0.275    0.456   69.196
  489.250    8.433    0.309    0.561   64.492
  489.500    8.114    0.449    0.598   58.041
  489.750    7.377    0.568    0.617   62.066
  490.000    6.972    0.588    0.646   67.836
  490.250    6.585    0.629    0.631   66.041
  490.500    6.339    0.622    0.669   49.685
  490.750    5.878    0.588    0.704   42.071
  491.000    5.553    0.526    0.660   39.112
  491.250    4.869    0.508    0.645   38.469
  491.500    4.516    0.466    0.652   40.747
  491.750    4.344    0.423    0.671   46.530
  492.000    4.104    0.370    0.713   51.706
  492.250    3.876    0.345    0.750   56.313
  492.500    3.660    0.328    0.776   56.264
  492.750    3.590    0.332    0.578   52.141
  493.000    3.512    0.339    0.491   53.826
  493.250    3.445    0.357    0.448   53.777
  493.500    3.438    0.366    0.432   50.830
  493.750    3.367    0.359    0.441   49.023
  494.000    3.362    0.344    0.453   56.551
  494.250    3.292    0.334    0.457   59.994
  494.500    3.287    0.330    0.426   56.453
  494.750    3.282    0.327    0.407   56.986
  495.000    3.276    0.325    0.398   52.282
  495.250    3.330    0.319    0.389   49.892
  495.500    3.323    0.312    0.403   52.753
  495.750    3.315    0.306    0.420   54.450
  496.000    3.367    0.303    0.429   56.147
  496.250    3.362    0.304    0.420   56.667
  496.500    3.357    0.305    0.417   57.213
  496.750    3.350    0.306    0.415   58.303
  497.000    3.402    0.306    0.418   57.684
  497.250    3.397    0.308    0.423   57.066
  497.500    3.451    0.308    0.422   55.852
  497.750    3.510    0.309    0.397   57.549
  498.000    3.505    0.310    0.389   58.652
  498.250    3.560    0.312    0.399   58.033
  498.500    3.620    0.315    0.432   57.984
  498.750    3.748    0.317    0.420   57.329
  499.000    3.882    0.320    0.412   58.443
  499.250    4.324    0.320    0.402   60.710
  499.500    4.820    0.321    0.396   59.522
  499.750    5.886    0.319    0.411   58.309
  500.000    6.677    0.310    0.415   60.005
  500.250    6.310    0.285    0.392   59.374
  500.500    5.743    0.131    0.375   55.239
  500.750    5.427    0.072    0.342   52.875
  501.000    5.031    0.052    0.228   57.481
  501.250    4.752    0.153    0.177   67.907
  501.500    4.569    0.278    0.391   69.010
  501.750    4.478    0.288    0.400   65.481
  502.000    4.551    0.299    0.398   60.170
  502.250    4.629    0.310    0.392   57.212
  502.500    5.155    0.310    0.392   59.502
  502.750    5.540    0.310    0.398   60.023
  503.000    6.057    0.308    0.402   59.380
  503.250    6.626    0.305    0.409   59.355
  503.500    6.991    0.303    0.414   58.142
  503.750    7.238    0.295    0.417   56.929
  504.000    6.960    0.287    0.412   55.692
  504.250    6.455    0.272    0.399   53.303
  504.500    5.770    0.133    0.378   52.114
  504.750    5.065    0.076    0.265   45.664
  505.000    4.526    0.077    0.260   45.033
  505.250    4.046    0.088    0.303   47.881
  505.500    3.822    0.216    0.331   51.324
  505.750    3.612    0.224    0.358   54.767
  506.000    3.287    0.252    0.371   57.058
  506.250    3.162    0.285    0.391   56.427
  506.500    3.215    0.314    0.407   54.050
  506.750    3.328    0.308    0.405   52.230
  507.000    3.571    0.308    0.402   49.284
  507.250    3.699    0.310    0.401   48.071
  507.500    3.901    0.307    0.402   48.604
  507.750    4.039    0.306    0.400   51.452
  508.000    4.106    0.305    0.397   54.883
  508.250    4.098    0.329    0.391   56.604
  508.500    4.090    0.301    0.388   56.555
  508.750    4.084    0.283    0.378   52.432
  509.000    3.929    0.227    0.351   50.018
  509.250    3.509    0.251    0.376   48.248
  509.500    3.254    0.290    0.384   45.871
  509.750    3.075    0.303    0.399   46.404
  510.000    2.959    0.315    0.409   49.847
  510.250    2.899    0.326    0.413   52.695
  510.500    2.946    0.328    0.416   52.646
  510.750    2.994    0.330    0.420   53.179
  511.000    3.102    0.333    0.421   52.548
  511.250    3.269    0.333    0.425   50.183
  511.500    3.322    0.330    0.403   50.716
  511.750    3.318    0.327    0.407   54.147
  512.000    3.312    0.324    0.413   54.692
  512.250    3.363    0.324    0.410   55.200
  512.500    3.547    0.323    0.402   55.745
  512.750    3.878    0.323    0.395   54.532
  513.000    4.019    0.318    0.394   52.143
  513.250    4.163    0.307    0.394   51.500
  513.500    4.390    0.288    0.395   52.639
  513.750    4.460    0.256    0.396   59.574
  514.000    4.371    0.230    0.392   72.328
  514.250    4.201    0.193    0.366   78.111
  514.500    4.118    0.131    0.364   84.463
  514.750    4.038    0.110    0.350   74.508
  515.000    3.884    0.197    0.336   67.476
  515.250    3.806    0.209    0.358   62.759
  515.500    3.797    0.216    0.368   62.710
  515.750    3.790    0.223    0.381   66.165
  516.000    3.784    0.231    0.388   74.263
  516.250    3.847    0.231    0.395   69.558
  516.500    4.054    0.234    0.407   64.260
  516.750    4.121    0.238    0.416   66.526
  517.000    4.422    0.234    0.412   71.727
  517.250    4.581    0.206    0.408   74.575
  517.500    4.659    0.193    0.406   74.538
  517.750    4.649    0.197    0.404   74.477
  518.000    4.556    0.202    0.410   74.416
  518.250    4.462    0.206    0.416   73.809
  518.500    4.375    0.208    0.415   73.166
  518.750    4.285    0.218    0.410   73.687
  519.000    4.276    0.225    0.406   74.244
  519.250    4.270    0.228    0.403   75.941
  519.500    4.182    0.228    0.402   72.388
  519.750    4.172    0.223    0.402   74.667
  520.000    4.166    0.210    0.403   78.679
  520.250    4.155    0.205    0.405   79.212
