~VERSION INFORMATION
 VERS.                 2.0:   CWLS LOG ASCII STANDARD -VERSION 2.0
 WRAP.                  NO:   ONE LINE PER DEPTH STEP
~WELL INFORMATION BLOCK
#MNEM.UNIT           DATA                    DESCRIPTION OF MNEMONIC
#---------    -------------------            -------------------------------
# Generated from Intellog Unique Number	CW_70_72/WELL/928
NULL.         -999.25                        : NULL_VALUE
WELL.         SUNDANCE MCMORAN SMITH 07-30   : Well_name    - WELL              
LOC .         07-30-072-24W4                 : Location     - LOCATION          
UWI .         00/07-30-072-24W4/0            : Uwi          - UNIQUE WELL ID    
ENTR.         JAYE                           : Entered      - ENTERED BY        
SRVC.         SCHLUMBERGER                   : Scn          - SERVICE COMPANY   
DATE.         17 JAN 75                      : Date         - LOG DATE          
STRT.M        411.48                         : top_depth    - START DEPTH       
STOP.M        624.73                         : bot_depth    - STOP DEPTH        
STEP.M        0.25                           : increment    - STEP LENGTH       
~CURVE INFORMATION BLOCK
#MNEM UNIT       ERCB CURVE CODE    CURVE DESCRIPTION
#-----------   ------------------   ----------------------------------
DEPT.M        00 001 00 00         : DEPTH        - DEPTH                       
DPHI.V/V      00 890 00 00         : PHID         - DENSITY POROSITY (SANDSTONE)
NPHI.V/V      00 330 00 00         : PHIN         - NEUTRON POROSITY (SANDSTONE)
GR  .API      00 310 00 00         : GR           - GAMMA RAY                   
CALI.MM       00 280 01 00         : CAL          - CALIPER                     
ILD .OHMM     00 120 00 00         : RESD         - DEEP RESISTIVITY (DIL)      
~PARAMETER INFORMATION       
#MNEM.UNIT           DATA             DESCRIPTION OF MNEMONIC
#---------         -----------     ------------------------------
GL  .M        633.984              : gl           - GROUND LEVEL ELEVATION      
EREF.M        642.518              : kb           - ELEVATION OF DEPTH REFERENCE
DATM.M        633.984              : datum        - DATUM ELEVATION             
TDD .M        624.84               : tdd          - TOTAL DEPTH DRILLER         
RUN .         ONE                  : Run          - RUN NUMBER                  
ENG .         JENSEN               : Engineer     - RECORDING ENGINEER          
WIT .         COPLAND/RUDD         : Witness      - WITNESSED BY                
BASE.         EDM                  : Branch       - HOME BASE OF LOGGING UNIT   
MUD .         GEL CHEM             : Mud_type     - MUD TYPE                    
MATR.         SANDSTONE            : Logunit      - NEUTRON MATRIX              
TMAX.C        25.5556              : BHT          - MAXIMUM RECORDED TEMPERATURE
BHTD.M        624.84               : BHTDEP       - MAXIMUM RECORDED TEMPERATURE
RMT .C        15.5556              : MDTP         - TEMPERATURE OF MUD          
MUDD.KG/M     1104                 : MWT          - MUD DENSITY                 
NEUT.         1                    : NEUTRON      - NEUTRON TYPE                
RESI.         0                    : RESIST       - RESISTIVITY TYPE            
RM  .OHMM     7.26                 : RM           - RESISTIVITY OF MUD          
RMC .OHMM     0                    : RMC          - RESISTIVITY OF MUD CAKE     
RMF .OHMM     8.24                 : RMF          - RESISTIVITY OF MUD FILTRATE 
SUFT.C        0                    : SUFT         - SURFACE TEMPERATURE         
~A  DEPTH     PHID     PHIN       GR      CAL     RESD
# ...
  447.980    0.251    0.428   80.965  183.571    9.739
  448.230    0.300    0.435   71.218  181.513   10.313
  448.480    0.354    0.457   62.213  179.980   10.545
  448.730    0.409    0.498   57.598  178.661   10.392
  448.980    0.326    0.539   64.242  178.291   10.055
  449.230    0.263    0.368   72.552  177.808    9.764
  449.480    0.239    0.384   80.865  177.842    9.874
  449.730    0.236    0.388   92.146  178.305   10.572
  449.980    0.203    0.402  101.758  178.666   11.552
  450.230    0.182    0.437  108.029  180.695   13.439
  450.480    0.159    0.381  100.445  182.931   15.125
  450.730    0.128    0.309   89.894  184.023   16.649
  450.980    0.092    0.276   76.992  181.971   16.347
  451.230    0.085    0.261   58.526  180.440   14.108
  451.480    0.143    0.288   49.519  179.642   12.085
  451.730    0.174    0.323   53.069  179.377   10.353
  451.980    0.234    0.350   54.021  179.103    9.084
  452.230    0.269    0.367   48.728  179.042    8.180
  452.480    0.283    0.387   44.484  179.185    7.627
  452.730    0.284    0.397   43.645  179.122    7.205
  452.980    0.289    0.391   43.111  178.432    6.693
  453.230    0.288    0.373   42.209  178.154    6.311
  453.480    0.291    0.365   45.139  177.364    6.095
  453.730    0.288    0.362   50.050  177.089    6.107
  453.980    0.297    0.358   50.941  177.232    6.164
  454.230    0.303    0.370   47.443  176.867    6.257
  454.480    0.298    0.361   47.035  176.588    6.304
  454.730    0.278    0.367   47.369  176.530    6.305
  454.980    0.285    0.370   47.763  176.667    6.376
  455.230    0.289    0.371   48.346  176.086    6.365
  455.480    0.295    0.371   48.308  176.438    6.354
  455.730    0.307    0.370   48.206  176.797    6.367
  455.980    0.299    0.368   47.678  177.044    6.368
  456.230    0.273    0.364   47.884  177.192    6.381
  456.480    0.272    0.361   49.271  176.501    6.405
  456.730    0.275    0.364   49.543  176.339    6.442
  456.980    0.284    0.380   49.256  176.172    6.419
  457.230    0.283    0.379   47.304  176.318    6.432
  457.480    0.296    0.356   44.668  176.876    6.516
  457.730    0.273    0.333   41.971  176.704    6.565
  457.980    0.248    0.317   39.151  176.651    6.627
  458.230    0.240    0.306   37.380  176.474    6.714
  458.480    0.215    0.333   40.251  176.516    6.878
  458.730    0.246    0.362   44.980  176.985    7.137
  458.980    0.277    0.372   46.669  177.126    7.366
  459.230    0.286    0.371   44.841  176.962    7.615
  459.480    0.245    0.342   41.154  176.589    7.787
  459.730    0.213    0.307   43.406  176.211    7.745
  459.980    0.262    0.355   46.956  176.252    7.329
  460.230    0.287    0.409   49.143  176.287    6.949
  460.480    0.287    0.447   48.797  176.120    6.552
  460.730    0.271    0.356   48.823  176.688    6.281
  460.980    0.277    0.364   48.414  176.729    6.054
  461.230    0.279    0.404   47.451  176.256    5.804
  461.480    0.273    0.384   46.113  176.289    5.667
  461.730    0.289    0.378   44.095  176.335    5.524
  461.980    0.270    0.376   38.927  176.268    5.384
  462.230    0.280    0.381   38.457  176.218    5.238
  462.480    0.292    0.380   39.778  176.053    5.143
  462.730    0.295    0.361   41.721  175.982    5.143
  462.980    0.295    0.374   42.425  176.124    5.125
  463.230    0.286    0.392   40.472  176.475    5.098
  463.480    0.270    0.404   39.197  176.528    5.108
  463.730    0.288    0.393   38.233  176.559    5.109
  463.980    0.302    0.378   38.319  177.224    5.053
  464.230    0.286    0.387   38.654  177.800    5.045
  464.480    0.276    0.391   39.047  177.844    5.045
  464.730    0.282    0.384   39.504  177.567    5.083
  464.980    0.281    0.376   40.397  177.717    5.084
  465.230    0.276    0.365   40.235  177.652    5.085
  465.480    0.272    0.383   38.408  177.703    5.039
  465.730    0.265    0.377   37.069  177.630    5.049
  465.980    0.287    0.373   36.351  177.248    5.087
  466.230    0.275    0.375   36.438  177.075    5.107
  466.480    0.274    0.378   37.141  177.437    5.108
  466.730    0.282    0.386   39.022  177.787    5.118
  466.980    0.289    0.399   38.987  178.156    5.137
  467.230    0.284    0.369   39.318  178.292    5.138
  467.480    0.273    0.360   42.311  178.441    5.158
  467.730    0.274    0.371   44.873  178.485    5.159
  467.980    0.285    0.385   43.351  179.377    5.150
  468.230    0.281    0.393   40.839  179.931    5.151
  468.480    0.273    0.385   40.121  179.660    5.180
  468.730    0.281    0.368   40.765  179.288    5.200
  468.980    0.275    0.360   40.976  178.286    5.249
  469.230    0.263    0.359   40.133  177.584    5.249
  469.480    0.257    0.363   39.724  177.098    5.279
  469.730    0.263    0.363   40.186  176.714    5.261
  469.980    0.278    0.365   40.890  177.384    5.262
  470.230    0.263    0.375   41.780  177.644    5.262
  470.480    0.260    0.388   43.906  177.691    5.292
  470.730    0.269    0.384   44.610  177.314    5.342
  470.980    0.279    0.378   43.276  176.930    5.422
  471.230    0.270    0.370   42.559  176.443    5.494
  471.480    0.272    0.359   43.014  176.482    5.514
  471.730    0.283    0.366   44.585  176.943    5.556
  471.980    0.277    0.376   46.281  176.783    5.588
  472.230    0.266    0.380   48.408  176.195    5.651
  472.480    0.256    0.373   49.114  175.723    5.767
  472.730    0.246    0.371   49.385  175.857    5.822
  472.980    0.249    0.377   49.346  176.230    5.876
  473.230    0.251    0.370   46.775  176.257    5.932
  473.480    0.251    0.360   46.306  176.615    5.999
  473.730    0.263    0.361   47.008  176.653    6.168
  473.980    0.245    0.370   48.642  176.595    6.436
  474.230    0.258    0.380   50.157  176.737    6.778
  474.480    0.267    0.390   51.539  176.777    7.324
  474.730    0.245    0.383   52.614  177.041    8.092
  474.980    0.258    0.370   53.752  176.862    9.007
  475.230    0.234    0.357   54.395  176.169    9.896
  475.480    0.209    0.334   54.478  176.109   10.655
  475.730    0.179    0.317   54.753  176.247   10.755
  475.980    0.163    0.300   54.652  176.406    9.472
  476.230    0.158    0.290   50.594  176.758    8.250
  476.480    0.154    0.291   48.332  177.106    7.252
  476.730    0.153    0.299   48.606  177.890    6.901
  476.980    0.174    0.322   49.122  178.027    6.839
  477.230    0.192    0.337   50.570  177.777    7.487
  477.480    0.191    0.350   52.697  177.286    8.379
  477.730    0.238    0.364   55.691  177.009    9.570
  477.980    0.245    0.353   55.961  176.528   10.750
  478.230    0.205    0.330   52.893  176.036   11.114
  478.480    0.178    0.308   52.178  175.553    9.842
  478.730    0.159    0.297   54.307  175.596    8.894
  478.980    0.148    0.282   56.369  175.546    8.008
  479.230    0.195    0.310   61.465  175.583    7.399
  479.480    0.232    0.358   64.150  175.528    6.786
  479.730    0.225    0.378   60.525  175.451    6.602
  479.980    0.241    0.391   60.798  174.766    6.826
  480.230    0.269    0.398   62.742  174.184    7.228
  480.480    0.234    0.411   65.547  174.216    7.598
  480.730    0.227    0.425   69.221  174.048    7.885
  480.980    0.236    0.437   71.783  173.883    8.304
  481.230    0.221    0.400   73.907  174.339    8.697
  481.480    0.215    0.392   74.923  175.010    9.468
  481.730    0.227    0.397   75.011  176.306   10.557
  481.980    0.212    0.390   76.891  176.143   11.969
  482.230    0.188    0.378   77.100  176.599   13.395
  482.480    0.163    0.354   73.600  177.902   14.718
  482.730    0.175    0.306   69.974  179.091   15.643
  482.980    0.119    0.268   61.834  181.644   15.531
  483.230    0.109    0.281   64.519  184.200   15.334
  483.480    0.182    0.366   66.956  179.956   15.824
  483.730    0.213    0.379   63.083  177.588   16.301
  483.980    0.230    0.372   60.820  176.365   16.424
  484.230    0.218    0.407   62.575  175.679   16.096
