~VERSION INFORMATION
 VERS.                 2.0:   CWLS LOG ASCII STANDARD -VERSION 2.0
 WRAP.                  NO:   ONE LINE PER DEPTH STEP
~WELL INFORMATION BLOCK
#MNEM.UNIT           DATA                    DESCRIPTION OF MNEMONIC
#---------    -------------------            -------------------------------
# Generated from Intellog Unique Number	CS_69_70/WELL/853
WELL.         AMERICAN NATURAL GAS           : Well_name    - WELL
LOC .         00/08-09-070-18W4/0            : Location     - LOCATION
UWI .         00/08-09-070-18W4/0            : Uwi          - UNIQUE WELL ID
ENTR.         SP                             : Entered      - ENTERED BY
SRVC.         SCHLUMBERGER                   : Scn          - SERVICE COMPANY
STRT.M        280                            : top_depth    - START DEPTH
STOP.M        470                            : bot_depth    - STOP DEPTH
STEP.M        0.25                           : increment    - STEP LENGTH
 NULL. -999.2500:NULL Value
~CURVE INFORMATION BLOCK
#MNEM UNIT       ERCB CURVE CODE    CURVE DESCRIPTION
#-----------   ------------------   ----------------------------------
DEPT.M        00 001 00 00         : DEPTH        - DEPTH
DPHI.V/V      00 890 00 00         : PHID         - DENSITY POROSITY (LIMESTONE)
NPHI.V/V      00 330 00 00         : PHIN         - NEUTRON POROSITY (LIMESTONE)
GR  .API      00 310 00 00         : GR           - GAMMA RAY
ILD .OHMM     00 120 00 00         : RESD         - DEEP RESISTIVITY (DIL)
~PARAMETER INFORMATION
#MNEM.UNIT           DATA             DESCRIPTION OF MNEMONIC
#---------         -----------     ------------------------------
GL  .M        553.6                : gl           - GROUND LEVEL ELEVATION
EREF.M        556.9                : kb           - ELEVATION OF DEPTH REFERENCE
DATM.M        553.6                : datum        - DATUM ELEVATION
TDD .M        471                  : tdd          - TOTAL DEPTH DRILLER
RUN .         ONE                  : Run          - RUN NUMBER
ENG .         BILL                 : Engineer     - RECORDING ENGINEER
WIT .         JIM                  : Witness      - WITNESSED BY
MUD .         GEL                  : Mud_type     - MUD TYPE
MATR.         LIMESTONE            : Logunit      - NEUTRON MATRIX
TMAX.C        18                   : BHT          - MAXIMUM RECORDED TEMPERATURE
BHTD.M        471                  : BHTDEP       - MAXIMUM RECORDED TEMPERATURE
MATR.         1                    : LOGUNIT      - NEUTRON MATRIX
RMT .C        25                   : MDTP         - TEMPERATURE OF MUD
NEUT.         1                    : NEUTRON      - NEUTRON TYPE
RESI.         0                    : RESIST       - RESISTIVITY TYPE
RMC .OHMM     0.25                 : RMC          - RESISTIVITY OF MUD CAKE
RMF .OHMM     0.25                 : RMF          - RESISTIVITY OF MUD FILTRATE
SUFT.C        15                   : SUFT         - SURFACE TEMPERATURE
~A  DEPTH     PHID     PHIN       GR     RESD
# ...
  367.000    0.250    0.459   80.015    3.231
  367.250    0.258    0.429   78.022    3.697
  367.500    0.257    0.421   76.400    3.863
  367.750    0.250    0.432   74.652    4.052
  368.000    0.247    0.392   72.653    4.270
  368.250    0.252    0.390   71.716    4.305
  368.500    0.265    0.417   69.476    4.333
  368.750    0.278    0.411   66.372    4.250
  369.000    0.287    0.401   65.491    4.160
  369.250    0.271    0.390   67.512    4.102
  369.500    0.255    0.395   68.425    4.108
  369.750    0.236    0.396   68.966    4.199
  370.000    0.222    0.391   68.149    4.763
  370.250    0.218    0.398   70.974    4.481
  370.500    0.216    0.409   72.876    4.461
  370.750    0.212    0.394   69.091    4.383
  371.000    0.210    0.383   72.721    4.275
  371.250    0.207    0.397   71.902    4.231
  371.500    0.205    0.400   67.684    4.306
  371.750    0.218    0.393   63.590    4.596
  372.000    0.229    0.368   59.805    5.072
  372.250    0.243    0.355   62.446    5.900
  372.500    0.267    0.314   57.548    7.356
  372.750    0.265    0.273   50.856   10.075
  373.000    0.229    0.245   46.825   13.093
  373.250    0.156    0.218   41.186   16.202
  373.500    0.174    0.235   45.805   20.702
  373.750    0.211    0.285   47.583   25.383
  374.000    0.186    0.263   45.711   30.141
  374.250    0.130    0.177   42.545   34.410
  374.500    0.040    0.140   39.499   36.102
  374.750    0.059    0.176   38.126   23.117
  375.000    0.078    0.218   46.266   14.557
  375.250    0.111    0.234   49.837   10.473
  375.500    0.129    0.235   51.244    7.985
  375.750    0.143    0.266   54.133    6.405
  376.000    0.179    0.310   53.623    5.849
  376.250    0.253    0.336   49.034    6.102
  376.500    0.245    0.299   44.815    6.403
  376.750    0.070    0.263   41.216    6.493
  377.000    0.071    0.193   46.454    6.179
  377.250    0.132    0.218   52.309    5.579
  377.500    0.196    0.370   58.286    4.916
  377.750    0.228    0.387   61.794    4.480
  378.000    0.251    0.372   62.768    4.160
  378.250    0.258    0.368   61.640    3.944
  378.500    0.257    0.387   62.121    4.001
  378.750    0.254    0.393   64.948    4.237
  379.000    0.252    0.386   66.971    4.423
  379.250    0.249    0.393   67.327    4.475
  379.500    0.243    0.391   71.080    4.601
  379.750    0.241    0.389   73.291    4.629
  380.000    0.239    0.394   73.399    4.713
  380.250    0.241    0.406   69.733    4.736
  380.500    0.226    0.416   68.918    4.741
  380.750    0.239    0.408   71.004    4.693
  381.000    0.241    0.403   73.152    4.716
  381.250    0.233    0.405   71.592    4.858
  381.500    0.230    0.416   68.733    4.935
  381.750    0.223    0.403   74.464    5.061
  382.000    0.217    0.398   72.224    5.182
  382.250    0.215    0.390   74.186    5.296
  382.500    0.208    0.392   78.126    5.341
  382.750    0.204    0.381   81.695    5.327
  383.000    0.201    0.388   83.473    5.214
  383.250    0.202    0.403   77.462    5.141
  383.500    0.209    0.420   73.615    5.100
  383.750    0.214    0.438   75.020    5.075
  384.000    0.214    0.394   76.674    5.024
  384.250    0.220    0.372   73.442    4.991
  384.500    0.228    0.385   71.389    4.904
  384.750    0.230    0.381   69.148    4.809
  385.000    0.231    0.377   72.470    4.734
  385.250    0.233    0.381   72.455    4.608
  385.500    0.234    0.394   67.805    4.517
  385.750    0.238    0.374   62.413    4.348
  386.000    0.241    0.391   65.858    4.254
  386.250    0.245    0.402   67.759    4.056
  386.500    0.249    0.395   65.208    3.845
  386.750    0.252    0.398   68.159    3.633
  387.000    0.253    0.412   71.913    3.482
  387.250    0.262    0.405   71.219    3.351
  387.500    0.274    0.409   68.237    3.267
  387.750    0.281    0.400   66.182    3.217
  388.000    0.280    0.401   66.476    3.268
  388.250    0.283    0.380   70.972    3.654
  388.500    0.284    0.341   70.955    4.670
  388.750    0.097    0.305   67.107    5.801
  389.000    0.089    0.261   63.632    6.786
  389.250    0.089    0.236   59.291    7.067
  389.500    0.103    0.235   55.444    6.332
  389.750    0.121    0.245   62.905    5.424
  390.000    0.146    0.277   68.573    4.673
  390.250    0.170    0.335   70.848    4.211
  390.500    0.215    0.360   68.605    3.788
  390.750    0.251    0.374   66.244    3.749
  391.000    0.260    0.380   68.144    3.839
  391.250    0.261    0.398   68.991    3.828
  391.500    0.264    0.397   69.040    3.536
  391.750    0.265    0.396   67.726    3.081
  392.000    0.262    0.405   70.368    2.765
  392.250    0.259    0.397   66.273    2.487
  392.500    0.259    0.397   73.179    2.213
  392.750    0.266    0.478   80.148    2.117
  393.000    0.274    0.514   85.571    2.022
  393.250    0.278    0.536   90.932    1.979
  393.500    0.272    0.539   93.390    2.100
  393.750    0.255    0.481   93.805    2.283
  394.000    0.228    0.446   93.234    2.572
  394.250    0.214    0.420   92.231    2.987
  394.500    0.203    0.406   86.898    3.416
  394.750    0.201    0.412   86.512    3.756
  395.000    0.211    0.428   87.982    3.993
  395.250    0.217    0.421   84.814    4.166
  395.500    0.222    0.403   80.471    4.257
  395.750    0.225    0.393   75.945    4.342
  396.000    0.216    0.387   83.902    4.497
  396.250    0.215    0.394   87.160    4.603
  396.500    0.211    0.388   85.045    4.705
  396.750    0.206    0.378   82.311    4.745
  397.000    0.210    0.372   81.863    4.672
  397.250    0.210    0.377   79.252    4.615
  397.500    0.206    0.384   76.081    4.559
  397.750    0.211    0.394   78.108    4.546
  398.000    0.218    0.377   75.002    4.690
  398.250    0.229    0.360   75.728    5.080
  398.500    0.208    0.341   77.256    5.735
  398.750    0.116    0.310   74.028    6.510
  399.000    0.103    0.283   64.495    7.688
  399.250    0.096    0.221   53.541    8.500
  399.500    0.135    0.257   56.430    8.119
  399.750    0.173    0.374   65.188    7.021
  400.000    0.268    0.386   65.175    5.632
  400.250    0.274    0.398   64.047    4.897
  400.500    0.269    0.406   70.458    4.203
  400.750    0.259    0.411   74.585    3.732
  401.000    0.243    0.378   69.440    3.625
  401.250    0.230    0.363   63.738    3.609
  401.500    0.269    0.370   67.244    3.566
  401.750    0.290    0.384   67.724    3.503
  402.000    0.293    0.382   60.044    3.273
  402.250    0.290    0.383   59.041    3.225
  402.500    0.287    0.371   60.939    2.985
  402.750    0.286    0.356   62.471    2.905
  403.000    0.288    0.354   63.505    2.919
  403.250    0.290    0.351   61.327    3.063
  403.500    0.279    0.330   59.828    3.470
  403.750    0.259    0.298   56.352    4.105
  404.000    0.149    0.270   58.066    4.811
  404.250    0.130    0.243   59.533    5.627
  404.500    0.136    0.278   59.889    5.981
  404.750    0.161    0.316   60.986    5.230
  405.000    0.218    0.366   64.182    4.285
  405.250    0.251    0.398   65.157    3.889
  405.500    0.256    0.382   65.575    3.552
  405.750    0.250    0.395   68.833    3.443
  406.000    0.235    0.407   71.352    3.377
  406.250    0.227    0.423   71.771    3.666
  406.500    0.236    0.405   69.345    3.831
  406.750    0.245    0.395   72.913    3.951
  407.000    0.250    0.377   74.197    4.107
  407.250    0.241    0.378   71.398    4.312
  407.500    0.233    0.370   68.788    4.423
  407.750    0.228    0.364   70.008    4.459
  408.000    0.225    0.368   71.477    4.547
  408.250    0.232    0.363   69.051    4.943
  408.500    0.225    0.362   65.821    5.102
  408.750    0.229    0.363   70.626    5.173
  409.000    0.222    0.372   71.910    5.246
  409.250    0.217    0.383   72.759    5.404
  409.500    0.217    0.393   72.557    5.534
  409.750    0.215    0.388   75.631    5.588
  410.000    0.215    0.365   76.792    5.802
  410.250    0.219    0.363   75.972    5.804
