~VERSION INFORMATION
 VERS.                 2.0:   CWLS LOG ASCII STANDARD -VERSION 2.0
 WRAP.                  NO:   ONE LINE PER DEPTH STEP
~WELL INFORMATION BLOCK
#MNEM.UNIT           DATA                    DESCRIPTION OF MNEMONIC
#---------    -------------------            -------------------------------
# Generated from Intellog Unique Number	CS_67_68/WELL/2176
WELL.         07-08-067-02W4                 : Well_name    - WELL
LOC .         00/07-08-067-02W4/0            : Location     - LOCATION
UWI .         00/07-08-067-02W4/0            : Uwi          - UNIQUE WELL ID
ENTR.         SP                             : Entered      - ENTERED BY
SRVC.         SCHLUMBERGER                   : Scn          - SERVICE COMPANY
STRT.M        345                            : top_depth    - START DEPTH
STOP.M        606                            : bot_depth    - STOP DEPTH
STEP.M        0.25                           : increment    - STEP LENGTH
 NULL. -999.2500:NULL Value
~CURVE INFORMATION BLOCK
#MNEM UNIT       ERCB CURVE CODE    CURVE DESCRIPTION
#-----------   ------------------   ----------------------------------
DEPT.M        00 001 00 00         : DEPTH        - DEPTH
ILD .OHMM     00 120 00 00         : RESD         - DEEP RESISTIVITY (DIL)
DPHI.V/V      00 890 00 00         : PHID         - DENSITY POROSITY (LIMESTONE)
NPHI.V/V      00 330 00 00         : PHIN         - NEUTRON POROSITY (LIMESTONE)
GR  .API      00 310 00 00         : GR           - GAMMA RAY
CALI.MM       00 280 01 00         : CAL          - CALIPER
~PARAMETER INFORMATION
#MNEM.UNIT           DATA             DESCRIPTION OF MNEMONIC
#---------         -----------     ------------------------------
GL  .M        644.3                : gl           - GROUND LEVEL ELEVATION
EREF.M        648.1                : kb           - ELEVATION OF DEPTH REFERENCE
DATM.M        648.1                : datum        - DATUM ELEVATION
TDD .M        613.8                : tdd          - TOTAL DEPTH DRILLER
RUN .         ONE                  : Run          - RUN NUMBER
ENG .         BILL                 : Engineer     - RECORDING ENGINEER
WIT .         JIM                  : Witness      - WITNESSED BY
MUD .         GEL                  : Mud_type     - MUD TYPE
MATR.         LIMESTONE            : Logunit      - NEUTRON MATRIX
TMAX.C        25.5                 : BHT          - MAXIMUM RECORDED TEMPERATURE
BHTD.M        618.3                : BHTDEP       - MAXIMUM RECORDED TEMPERATURE
MATR.         1                    : LOGUNIT      - NEUTRON MATRIX
RMT .C        25                   : MDTP         - TEMPERATURE OF MUD
NEUT.         1                    : NEUTRON      - NEUTRON TYPE
RESI.         0                    : RESIST       - RESISTIVITY TYPE
RMC .OHMM     0.25                 : RMC          - RESISTIVITY OF MUD CAKE
RMF .OHMM     0.25                 : RMF          - RESISTIVITY OF MUD FILTRATE
SUFT.C        15                   : SUFT         - SURFACE TEMPERATURE
~A  DEPTH     RESD     PHID     PHIN       GR      CAL
# ...
  418.000    8.545    0.337    0.419   67.696  149.918
  418.250    8.559    0.340    0.419   63.171  149.910
  418.500    8.558    0.342    0.423   59.189  150.605
  418.750    8.477    0.344    0.426   61.495  151.103
  419.000    8.349    0.346    0.429   65.489  151.702
  419.250    8.178    0.343    0.429   70.391  152.302
  419.500    8.161    0.338    0.420   75.234  152.798
  419.750    8.190    0.332    0.432   78.564  153.396
  420.000    8.312    0.327    0.443   71.016  153.993
  420.250    8.436    0.325    0.430   62.200  154.186
  420.500    8.545    0.335    0.419   55.620  153.673
  420.750    8.672    0.341    0.420   51.336  152.449
  421.000    8.769    0.341    0.414   55.150  151.835
  421.250    8.866    0.337    0.407   59.448  152.128
  421.500    8.930    0.329    0.417   61.873  152.321
  421.750    8.946    0.319    0.427   60.127  152.616
  422.000    9.011    0.317    0.412   57.174  153.011
  422.250    9.026    0.320    0.396   55.971  153.206
  422.500    8.974    0.324    0.386   56.099  153.701
  422.750    8.757    0.314    0.381   58.041  153.997
  423.000    8.309    0.310    0.393   60.646  154.593
  423.250    7.724    0.303    0.407   64.037  154.890
  423.500    7.234    0.287    0.415   67.671  155.083
  423.750    6.915    0.275    0.419   70.156  155.580
  424.000    6.710    0.290    0.421   70.706  155.369
  424.250    6.610    0.300    0.422   68.115  155.360
  424.500    6.535    0.304    0.423   65.765  155.654
  424.750    6.533    0.306    0.418   63.657  156.252
  425.000    6.581    0.308    0.416   62.213  156.445
  425.250    6.617    0.303    0.412   62.764  156.336
  425.500    6.703    0.312    0.412   63.377  156.023
  425.750    6.803    0.323    0.416   62.235  155.913
  426.000    6.929    0.327    0.415   59.824  155.599
  426.250    6.980    0.325    0.420   60.557  155.592
  426.500    6.992    0.320    0.423   62.256  155.583
  426.750    6.965    0.318    0.427   63.290  155.170
  427.000    6.911    0.314    0.424   62.995  154.351
  427.250    6.897    0.312    0.417   60.645  153.430
  427.500    6.870    0.313    0.427   56.301  153.019
  427.750    6.818    0.317    0.437   53.769  152.505
  428.000    6.791    0.327    0.435   52.447  152.699
  428.250    6.752    0.330    0.429   54.812  153.700
  428.500    6.700    0.326    0.424   56.813  154.703
  428.750    6.712    0.323    0.413   57.908  155.402
  429.000    6.748    0.320    0.410   55.376  154.989
  429.250    6.798    0.318    0.429   53.268  153.766
  429.500    6.899    0.317    0.437   54.846  153.049
  429.750    7.001    0.319    0.434   55.942  152.940
  430.000    7.105    0.314    0.431   56.795  153.436
  430.250    7.184    0.312    0.423   57.043  154.033
  430.500    7.210    0.325    0.414   55.358  155.036
  430.750    7.209    0.329    0.401   53.915  155.834
  431.000    7.261    0.324    0.388   53.922  156.534
  431.250    7.273    0.319    0.390   55.984  157.235
  431.500    7.395    0.314    0.403   56.716  157.833
  431.750    7.520    0.323    0.398   52.070  158.128
  432.000    7.703    0.339    0.397   48.994  158.220
  432.250    7.950    0.346    0.401   49.183  158.211
  432.500    8.144    0.350    0.397   51.365  158.303
  432.750    8.250    0.339    0.394   48.169  158.292
  433.000    8.310    0.334    0.397   48.479  158.185
  433.250    8.309    0.340    0.400   50.057  157.872
  433.500    8.245    0.343    0.410   49.944  157.458
  433.750    8.244    0.342    0.411   48.017  156.739
  434.000    8.258    0.343    0.395   45.727  156.833
  434.250    8.272    0.342    0.402   47.003  157.128
  434.500    8.270    0.339    0.404   47.373  157.524
  434.750    8.299    0.333    0.407   45.990  157.920
  435.000    8.267    0.328    0.408   45.755  158.315
  435.250    8.250    0.336    0.408   47.032  158.407
  435.500    8.203    0.346    0.404   46.737  158.197
  435.750    8.079    0.352    0.398   46.380  157.580
  436.000    8.047    0.355    0.406   46.872  156.457
  436.250    7.882    0.346    0.412   48.330  155.944
  436.500    7.793    0.339    0.416   49.424  155.633
  436.750    7.690    0.333    0.413   51.245  154.816
  437.000    7.589    0.347    0.400   53.124  153.490
  437.250    7.531    0.361    0.402   55.308  153.076
  437.500    7.530    0.360    0.409   56.523  153.070
  437.750    7.542    0.357    0.409   56.107  153.059
  438.000    7.569    0.353    0.405   55.570  153.355
  438.250    7.639    0.349    0.401   55.335  153.447
  438.500    7.738    0.353    0.405   56.188  154.246
  438.750    7.912    0.362    0.414   54.564  154.745
  439.000    8.045    0.363    0.409   52.999  154.837
  439.250    8.134    0.358    0.399   55.425  155.129
  439.500    8.133    0.353    0.391   56.338  155.122
  439.750    8.055    0.349    0.387   55.922  154.808
  440.000    7.949    0.348    0.379   56.896  154.801
  440.250    7.844    0.347    0.405   57.327  154.691
  440.500    7.843    0.348    0.425   57.151  154.784
  440.750    7.827    0.348    0.430   55.951  155.482
  441.000    7.796    0.349    0.412   55.171  156.182
  441.250    7.694    0.350    0.398   53.849  156.274
  441.500    7.606    0.350    0.396   54.460  155.051
  441.750    7.534    0.350    0.392   58.940  153.020
  442.000    7.407    0.351    0.429   63.540  151.393
  442.250    7.323    0.368    0.447   66.992  150.979
  442.500    7.240    0.372    0.453   69.114  151.475
  442.750    7.212    0.368    0.449   60.056  152.378
  443.000    7.238    0.373    0.442   55.832  152.976
  443.250    7.277    0.377    0.433   55.960  153.169
  443.500    7.330    0.378    0.426   55.121  152.855
  443.750    7.467    0.377    0.443   54.645  152.847
  444.000    7.707    0.370    0.460   56.527  153.040
  444.250    7.894    0.359    0.463   58.768  153.233
  444.500    8.042    0.358    0.449   59.562  153.226
  444.750    8.269    0.356    0.436   58.420  153.925
  445.000    8.408    0.352    0.442   56.977  154.219
  445.250    8.613    0.344    0.441   55.232  154.210
  445.500    8.758    0.336    0.437   53.848  153.593
  445.750    8.888    0.333    0.442   55.066  152.777
  446.000    9.037    0.332    0.447   56.340  151.351
  446.250    9.154    0.333    0.437   57.858  150.432
  446.500    9.273    0.333    0.439   59.557  149.919
  446.750    9.341    0.341    0.445   59.202  149.505
  447.000    9.270    0.346    0.447   57.033  149.597
  447.250    9.216    0.346    0.445   54.805  149.587
  447.500    9.180    0.344    0.445   52.938  149.780
  447.750    9.076    0.340    0.444   51.192  149.875
  448.000    8.973    0.340    0.445   50.051  149.763
  448.250    8.805    0.343    0.454   49.999  149.553
  448.500    8.625    0.356    0.465   50.186  149.745
  448.750    8.448    0.365    0.476   52.671  149.738
  449.000    8.290    0.369    0.486   55.216  150.134
  449.250    8.119    0.363    0.477   55.706  151.238
  449.500    8.013    0.358    0.477   55.230  151.734
  449.750    7.937    0.362    0.482   54.754  150.613
  450.000    7.935    0.368    0.470   54.459  150.806
  450.250    8.360    0.372    0.456   54.163  152.010
  450.500    9.143    0.318    0.469   52.781  153.011
  450.750   10.380    0.278    0.421   48.617  153.914
  451.000   11.739    0.178    0.335   43.790  154.713
  451.250   12.437    0.107    0.152   41.561  154.908
  451.500   11.956    0.037    0.393   46.645  154.798
  451.750    9.991    0.358    0.421   50.459  155.093
  452.000    8.491    0.366    0.445   53.488  155.386
  452.250    7.660    0.368    0.462   56.033  155.985
  452.500    7.214    0.371    0.448   57.974  156.279
  452.750    7.240    0.367    0.437   58.223  156.471
  453.000    7.347    0.359    0.432   53.939  156.464
  453.250    7.443    0.357    0.441   54.248  156.152
  453.500    7.525    0.356    0.445   54.799  156.041
  453.750    7.623    0.361    0.441   52.148  155.830
  454.000    7.622    0.373    0.439   49.797  155.517
  454.250    7.606    0.382    0.451   49.744  155.105
