~VERSION INFORMATION
 VERS.                 2.0:   CWLS LOG ASCII STANDARD -VERSION 2.0
 WRAP.                  NO:   ONE LINE PER DEPTH STEP
~WELL INFORMATION BLOCK
#MNEM.UNIT           DATA                    DESCRIPTION OF MNEMONIC
#---------    -------------------            -------------------------------
# Generated from Intellog Unique Number	CS_71_72/WELL/805
WELL.         PEX PHILLIPS AEC GRIST         : Well_name    - WELL
LOC .         00/07-09-072-08W4/0            : Location     - LOCATION
UWI .         00/07-09-072-08W4/0            : Uwi          - UNIQUE WELL ID
ENTR.         SP                             : Entered      - ENTERED BY
SRVC.         SCHLUMBERGER                   : Scn          - SERVICE COMPANY
STRT.M        315                            : top_depth    - START DEPTH
STOP.M        535                            : bot_depth    - STOP DEPTH
STEP.M        0.25                           : increment    - STEP LENGTH
 NULL. -999.2500:NULL Value
~CURVE INFORMATION BLOCK
#MNEM UNIT       ERCB CURVE CODE    CURVE DESCRIPTION
#-----------   ------------------   ----------------------------------
DEPT.M        00 001 00 00         : DEPTH        - DEPTH
ILD .OHMM     00 120 00 00         : RESD         - DEEP RESISTIVITY (DIL)
DPHI.V/V      00 890 00 00         : PHID         - DENSITY POROSITY (LIMESTONE)
NPHI.V/V      00 330 00 00         : PHIN         - NEUTRON POROSITY (LIMESTONE)
GR  .API      00 310 00 00         : GR           - GAMMA RAY
~PARAMETER INFORMATION
#MNEM.UNIT           DATA             DESCRIPTION OF MNEMONIC
#---------         -----------     ------------------------------
GL  .M        673.1                : gl           - GROUND LEVEL ELEVATION
EREF.M        676.9                : kb           - ELEVATION OF DEPTH REFERENCE
DATM.M        673.1                : datum        - DATUM ELEVATION
TDD .M        547                  : tdd          - TOTAL DEPTH DRILLER
RUN .         ONE                  : Run          - RUN NUMBER
ENG .         BILL                 : Engineer     - RECORDING ENGINEER
WIT .         JIM                  : Witness      - WITNESSED BY
MUD .         GEL                  : Mud_type     - MUD TYPE
MATR.         LIMESTONE            : Logunit      - NEUTRON MATRIX
TMAX.C        23                   : BHT          - MAXIMUM RECORDED TEMPERATURE
BHTD.M        547                  : BHTDEP       - MAXIMUM RECORDED TEMPERATURE
MATR.         1                    : LOGUNIT      - NEUTRON MATRIX
RMT .C        25                   : MDTP         - TEMPERATURE OF MUD
NEUT.         1                    : NEUTRON      - NEUTRON TYPE
RESI.         0                    : RESIST       - RESISTIVITY TYPE
RMC .OHMM     0.25                 : RMC          - RESISTIVITY OF MUD CAKE
RMF .OHMM     0.25                 : RMF          - RESISTIVITY OF MUD FILTRATE
SUFT.C        15                   : SUFT         - SURFACE TEMPERATURE
~A  DEPTH     RESD     PHID     PHIN       GR
  315.000    2.813    0.239    0.534   89.277
  315.250    2.813    0.243    0.507   88.690
  315.500    3.029    0.231    0.498   92.349
  315.750    3.201    0.219    0.524   92.362
  316.000    3.384    0.219    0.540   86.306
  316.250    3.447    0.156    0.552   82.072
  316.500    3.577    0.146    0.471   82.086
  316.750    3.780    0.162    0.456   88.177
  317.000    3.780    0.212    0.448   91.835
  317.250    3.643    0.235    0.442   93.068
  317.500    3.384    0.226    0.467   96.121
  317.750    3.261    0.249    0.495   95.530
  318.000    3.085    0.259    0.513   92.505
  318.250    3.029    0.247    0.500   90.705
  318.500    2.973    0.240    0.490   91.929
  318.750    3.029    0.238    0.501   93.767
  319.000    3.029    0.246    0.485   91.358
  319.250    3.143    0.246    0.480   90.155
  319.500    3.322    0.252    0.480   89.563
  319.750    3.384    0.249    0.501   92.615
  320.000    3.322    0.244    0.499   92.630
  320.250    3.261    0.247    0.492   95.688
  320.500    3.322    0.243    0.504   96.308
  320.750    3.384    0.237    0.511   93.900
  321.000    3.577    0.244    0.505   91.479
  321.250    3.851    0.258    0.502   88.458
  321.500    3.996    0.275    0.502   84.225
  321.750    4.223    0.280    0.515   89.099
  322.000    4.464    0.281    0.442   93.977
  322.250    4.896    0.286    0.416   97.026
  322.500    5.080    0.251    0.413   96.433
  322.750    5.370    0.242    0.425   94.019
  323.000    5.676    0.260    0.459   98.899
  323.250    5.889    0.272    0.487  100.124
  323.500    5.999    0.302    0.515   93.469
  323.750    6.225    0.348    0.488   91.656
  324.000    6.459    0.384    0.482   86.812
  324.250    6.827    0.414    0.500   78.935
  324.500    7.084    0.399    0.437   73.486
  324.750    7.084    0.352    0.417   80.181
  325.000    6.827    0.342    0.452   88.698
  325.250    6.579    0.365    0.491   98.433
  325.500    6.954    0.352    0.522   90.550
  325.750    7.216    0.352    0.553   69.917
  326.000    7.914    0.378    0.425   58.395
  326.250    8.521    0.358    0.359   46.871
  326.500    9.006    0.333    0.345   54.786
  326.750    9.519    0.326    0.371   63.907
  327.000    9.697    0.361    0.402   63.923
  327.250    9.345    0.375    0.438   49.364
  327.500    9.006    0.366    0.438   40.878
  327.750    8.841    0.373    0.401   54.867
  328.000    9.006    0.386    0.418   60.953
  328.250    9.006    0.324    0.440   70.081
  328.500    9.006    0.295    0.434   76.778
  328.750    9.006    0.305    0.411   79.824
  329.000    9.006    0.275    0.404   84.092
  329.250    8.841    0.232    0.414   86.536
  329.500    8.680    0.217    0.405   81.090
  329.750    8.521    0.238    0.394   77.460
  330.000    8.521    0.209    0.415   81.729
  330.250    8.841    0.208    0.446   84.171
  330.500    9.345    0.211    0.438   71.433
  330.750    9.697    0.240    0.420   58.699
  331.000   10.249    0.268    0.399   47.783
  331.250   10.440    0.303    0.379   41.721
  331.500   10.833    0.291    0.369   43.559
  331.750   11.035    0.281    0.379   57.548
  332.000   10.062    0.289    0.374   67.276
  332.250    9.174    0.269    0.376   82.478
  332.500    8.062    0.225    0.407   90.995
  332.750    7.627    0.193    0.427   98.905
  333.000    6.954    0.171    0.449  103.174
  333.250    6.225    0.157    0.460  106.836
  333.500    5.470    0.151    0.476  111.713
  333.750    4.987    0.187    0.488  114.152
  334.000    4.382    0.214    0.504  117.811
  334.250    4.146    0.190    0.524  107.502
  334.500    3.923    0.172    0.552  103.267
  334.750    3.780    0.189    0.542  109.363
  335.000    3.511    0.226    0.541  111.194
  335.250    3.322    0.252    0.562  109.995
  335.500    3.384    0.264    0.574  113.050
  335.750    3.851    0.261    0.580  116.102
  336.000    4.070    0.266    0.589  105.184
  336.250    5.271    0.256    0.503   95.485
  336.500    6.341    0.250    0.449   88.821
  336.750    8.365    0.231    0.433   86.407
  337.000   10.635    0.198    0.426   87.031
  337.250   11.450    0.181    0.443   90.088
  337.500   11.881    0.216    0.445   91.922
  337.750   12.103    0.252    0.452   82.216
  338.000   12.329    0.296    0.462   70.088
  338.250   12.792    0.328    0.443   61.600
  338.500   13.521    0.343    0.426   53.113
  338.750   14.292    0.345    0.415   46.447
  339.000   14.829    0.335    0.410   48.896
  339.250   15.674    0.333    0.420   51.345
  339.500   15.966    0.335    0.402   51.961
  339.750   16.264    0.341    0.386   55.630
  340.000   16.264    0.341    0.388   58.074
  340.250   16.264    0.336    0.394   61.127
  340.500   16.264    0.334    0.400   62.959
  340.750   15.966    0.341    0.403   65.401
  341.000   15.966    0.336    0.405   56.310
  341.250   15.674    0.333    0.406   48.433
  341.500   15.674    0.333    0.409   44.194
  341.750   15.387    0.336    0.412   44.215
  342.000   15.387    0.343    0.416   45.441
  342.250   15.106    0.349    0.411   48.492
  342.500   14.829    0.337    0.408   59.445
  342.750   14.558    0.318    0.414   66.748
  343.000   14.558    0.323    0.430   74.048
  343.250   14.558    0.336    0.432   81.962
  343.500   14.558    0.346    0.431   89.265
  343.750   14.558    0.346    0.434   88.063
  344.000   14.558    0.346    0.430   82.013
  344.250   14.292    0.346    0.427   80.201
  344.500   14.030    0.331    0.423   79.001
  344.750   13.521    0.312    0.413   83.883
  345.000   13.031    0.290    0.414   86.325
  345.250   12.558    0.277    0.424   87.551
  345.500   12.329    0.267    0.439   86.354
  345.750   12.329    0.262    0.453   84.552
  346.000   12.792    0.285    0.461   82.133
  346.250   13.521    0.298    0.468   71.219
  346.500   14.030    0.312    0.445   58.484
  346.750   14.558    0.316    0.410   52.425
  347.000   14.829    0.309    0.392   45.149
  347.250   14.829    0.309    0.385   48.202
  347.500   14.829    0.308    0.397   52.476
  347.750   14.558    0.303    0.403   53.703
  348.000   14.558    0.298    0.404   55.543
  348.250   14.558    0.300    0.399   56.166
  348.500   14.558    0.309    0.394   57.390
  348.750   14.292    0.314    0.391   60.451
  349.000   14.292    0.315    0.386   62.285
  349.250   14.030    0.323    0.392   65.336
  349.500   13.773    0.327    0.403   67.778
  349.750   13.274    0.313    0.411   73.265
  350.000   12.558    0.291    0.422   77.528
  350.250   12.103    0.271    0.428   81.186
  350.500   11.450    0.242    0.435   79.988
  350.750   10.635    0.215    0.446   87.903
  351.000    9.697    0.231    0.430   90.951
  351.250    9.006    0.239    0.434   86.722
  351.500    9.174    0.239    0.442   81.882
  351.750    9.697    0.240    0.440   79.461
  352.000   10.635    0.258    0.413   75.832
  352.250   11.881    0.258    0.381   78.278
  352.500   12.103    0.242    0.365   83.155
  352.750   11.241    0.242    0.390   86.206
  353.000   10.833    0.246    0.414   94.723
  353.250    9.519    0.244    0.444  105.067
  353.500    8.521    0.241    0.468  109.937
  353.750    7.216    0.232    0.472  102.669
  354.000    6.111    0.229    0.449   95.397
  354.250    5.889    0.224    0.455   88.734
  354.500    6.954    0.248    0.472   83.887
  354.750    8.062    0.257    0.485   75.400
  355.000   10.249    0.219    0.455   66.306
  355.250   12.558   -0.005    0.294   59.640
  355.500   15.387   -0.001    0.202   51.762
  355.750   15.966    0.019    0.189   46.311
  356.000   15.966    0.061    0.205   60.297
  356.250   13.521    0.140    0.330   74.889
  356.500   11.664    0.190    0.398   86.443
  356.750   10.440    0.220    0.452   94.355
  357.000    9.697    0.240    0.445   96.194
  357.250    9.697    0.253    0.414   94.384
  357.500    9.697    0.258    0.400   90.149
  357.750    9.878    0.263    0.409   86.524
  358.000   10.062    0.250    0.420   91.397
  358.250   10.062    0.233    0.402   98.094
