~VERSION INFORMATION
 VERS.                 2.0:   CWLS LOG ASCII STANDARD -VERSION 2.0
 WRAP.                  NO:   ONE LINE PER DEPTH STEP
~WELL INFORMATION BLOCK
#MNEM.UNIT           DATA                    DESCRIPTION OF MNEMONIC
#---------    -------------------            -------------------------------
# Generated from Intellog Unique Number	CS_69_70/WELL/623
NULL.         -999.25                        : NULL_VALUE
WELL.         BVI HEART LAKE                 : Well_name    - WELL              
LOC .         00/04-11-070-10W4/0            : Location     - LOCATION          
UWI .         00/04-11-070-10W4/0            : Uwi          - UNIQUE WELL ID    
ENTR.         SP                             : Entered      - ENTERED BY        
SRVC.         SCHLUMBERGER                   : Scn          - SERVICE COMPANY   
STRT.M        275                            : top_depth    - START DEPTH       
STOP.M        495                            : bot_depth    - STOP DEPTH        
STEP.M        0.25                           : increment    - STEP LENGTH       
~CURVE INFORMATION BLOCK
#MNEM UNIT       ERCB CURVE CODE    CURVE DESCRIPTION
#-----------   ------------------   ----------------------------------
DEPT.M        00 001 00 00         : DEPTH        - DEPTH                       
ILD .OHMM     00 120 00 00         : RESD         - DEEP RESISTIVITY (DIL)      
DPHI.V/V      00 890 00 00         : PHID         - DENSITY POROSITY (LIMESTONE)
NPHI.V/V      00 330 00 00         : PHIN         - NEUTRON POROSITY (LIMESTONE)
GR  .API      00 310 00 00         : GR           - GAMMA RAY                   
~PARAMETER INFORMATION       
#MNEM.UNIT           DATA             DESCRIPTION OF MNEMONIC
#---------         -----------     ------------------------------
GL  .M        614.6                : gl           - GROUND LEVEL ELEVATION      
EREF.M        617.8                : kb           - ELEVATION OF DEPTH REFERENCE
DATM.M        614.6                : datum        - DATUM ELEVATION             
TDD .M        520                  : tdd          - TOTAL DEPTH DRILLER         
RUN .         ONE                  : Run          - RUN NUMBER                  
ENG .         BILL                 : Engineer     - RECORDING ENGINEER          
WIT .         JIM                  : Witness      - WITNESSED BY                
MUD .         GEL                  : Mud_type     - MUD TYPE                    
MATR.         LIMESTONE            : Logunit      - NEUTRON MATRIX              
TMAX.C        23                   : BHT          - MAXIMUM RECORDED TEMPERATURE
BHTD.M        520                  : BHTDEP       - MAXIMUM RECORDED TEMPERATURE
MATR.         1                    : LOGUNIT      - NEUTRON MATRIX              
RMT .C        25                   : MDTP         - TEMPERATURE OF MUD          
NEUT.         1                    : NEUTRON      - NEUTRON TYPE                
RESI.         0                    : RESIST       - RESISTIVITY TYPE            
RMC .OHMM     0.25                 : RMC          - RESISTIVITY OF MUD CAKE     
RMF .OHMM     0.25                 : RMF          - RESISTIVITY OF MUD FILTRATE 
SUFT.C        15                   : SUFT         - SURFACE TEMPERATURE         
~A  DEPTH     RESD     PHID     PHIN       GR
  275.000    2.624    0.240    0.497  117.154
  275.250    2.813    0.236    0.493  120.868
  275.500    2.780    0.235    0.509  122.684
  275.750    2.728    0.236    0.529  121.871
  276.000    2.701    0.238    0.543  121.731
  276.250    2.665    0.239    0.560  122.873
  276.500    2.685    0.234    0.536  121.512
  276.750    2.720    0.225    0.551  117.702
  277.000    2.714    0.220    0.565  114.321
  277.250    2.678    0.229    0.576  114.791
  277.500    2.682    0.235    0.565  117.403
  277.750    2.707    0.233    0.538  117.384
  278.000    2.742    0.226    0.520  117.305
  278.250    2.804    0.223    0.502  120.587
  278.500    2.921    0.226    0.478  122.342
  278.750    3.004    0.222    0.480  123.426
  279.000    3.015    0.217    0.494  123.958
  279.250    2.997    0.211    0.469  122.962
  279.500    3.025    0.203    0.462  119.152
  279.750    3.140    0.202    0.467  115.954
  280.000    3.372    0.206    0.480  111.901
  280.250    3.635    0.211    0.489  110.538
  280.500    3.795    0.214    0.464  117.674
  280.750    3.881    0.216    0.431  118.267
  281.000    3.887    0.214    0.444  114.764
  281.250    3.857    0.212    0.463  113.828
  281.500    3.678    0.209    0.459  117.355
  281.750    3.443    0.204    0.458  121.069
  282.000    3.290    0.202    0.469  124.718
  282.250    3.131    0.201    0.470  127.142
  282.500    3.015    0.202    0.477  126.638
  282.750    2.875    0.206    0.490  120.750
  283.000    2.902    0.209    0.498  115.351
  283.250    2.984    0.206    0.444  113.744
  283.500    3.139    0.203    0.431  115.866
  283.750    3.277    0.204    0.435  118.842
  284.000    3.320    0.206    0.466  121.882
  284.250    3.331    0.209    0.476  124.979
  284.500    3.356    0.214    0.471  126.066
  284.750    3.368    0.214    0.479  125.436
  285.000    3.360    0.209    0.495  127.129
  285.250    3.290    0.206    0.507  117.695
  285.500    3.204    0.208    0.481  114.864
  285.750    3.161    0.212    0.443  109.403
  286.000    3.148    0.218    0.421  104.004
  286.250    3.147    0.221    0.411  102.152
  286.500    3.135    0.213    0.414  106.476
  286.750    3.093    0.210    0.450  106.946
  287.000    3.092    0.212    0.472  109.803
  287.250    3.283    0.218    0.479  112.291
  287.500    3.926    0.231    0.391  112.394
  287.750    5.138    0.244    0.345  105.346
  288.000   10.916    0.261    0.288   91.998
  288.250   20.709    0.279    0.225   71.188
  288.500   37.130    0.299    0.193   53.316
  288.750   59.231    0.319    0.163   45.166
  289.000   70.158    0.332    0.150   42.579
  289.250   76.489    0.332    0.147   44.518
  289.500   78.957    0.328    0.146   46.883
  289.750   78.344    0.326    0.145   49.923
  290.000   68.127    0.339    0.146   56.138
  290.250   59.357    0.352    0.148   59.609
  290.500   50.559    0.369    0.178   65.886
  290.750   42.661    0.372    0.178   71.308
  291.000   34.470    0.352    0.209   74.536
  291.250   35.987    0.342    0.219   78.431
  291.500   44.264    0.338    0.207   74.987
  291.750   52.628    0.340    0.194   61.457
  292.000   47.702    0.342    0.184   44.073
  292.250   31.152    0.333    0.186   46.255
  292.500   20.497    0.303    0.237   54.797
  292.750   15.622    0.288    0.268   63.708
  293.000   11.684    0.270    0.309   73.718
  293.250    9.212    0.248    0.353   81.098
  293.500    8.382    0.229    0.370   88.538
  293.750    7.786    0.218    0.389   95.920
  294.000    7.496    0.211    0.402  107.521
  294.250    7.230    0.206    0.407  115.145
  294.500    7.066    0.199    0.396  118.123
  294.750    6.946    0.195    0.394  120.733
  295.000    6.827    0.203    0.393  122.367
  295.250    6.825    0.216    0.388  123.694
  295.500    7.207    0.211    0.383  125.021
  295.750    7.552    0.207    0.387  117.849
  296.000    7.723    0.247    0.402  109.759
  296.250    7.942    0.270    0.415  104.911
  296.500    8.106    0.285    0.379   98.411
  296.750    8.290    0.271    0.356   86.225
  297.000    8.736    0.260    0.339   71.348
  297.250    9.086    0.248    0.324   58.672
  297.500    9.239    0.237    0.319   64.891
  297.750    9.220    0.226    0.339   72.699
  298.000    8.960    0.217    0.372   79.041
  298.250    8.513    0.212    0.393   85.928
  298.500    8.135    0.250    0.378   88.972
  298.750    7.628    0.268    0.360   73.177
  299.000    7.046    0.269    0.348   66.617
  299.250    6.532    0.238    0.361   81.763
  299.500    6.183    0.203    0.372  103.818
  299.750    5.942    0.156    0.378  118.292
  300.000    5.561    0.106    0.383  118.519
  300.250    5.088    0.083    0.391  119.907
  300.500    4.621    0.091    0.408  127.774
  300.750    4.284    0.123    0.431  134.607
  301.000    3.883    0.156    0.434  142.659
  301.250    3.526    0.175    0.442  146.984
  301.500    3.037    0.184    0.464  146.843
  301.750    2.832    0.194    0.494  143.156
  302.000    2.886    0.206    0.532  144.850
  302.250    3.463    0.222    0.527  140.673
  302.500    4.236    0.229    0.502  127.018
  302.750    5.075    0.234    0.485  117.706
  303.000    6.241    0.240    0.442  109.188
  303.250    7.449    0.251    0.420  102.139
  303.500    8.529    0.259    0.421   96.924
  303.750    9.565    0.247    0.422  106.078
  304.000   10.119    0.238    0.425  107.099
  304.250    9.723    0.233    0.428  110.502
  304.500    8.964    0.237    0.434  116.109
  304.750    8.342    0.232    0.446  119.213
  305.000    7.779    0.221    0.455  121.518
  305.250    7.144    0.212    0.456  119.543
  305.500    6.306    0.201    0.457  119.158
  305.750    6.774    0.192    0.468  123.113
  306.000    6.139    0.183    0.479  125.419
  306.250    5.628    0.178    0.456  125.340
  306.500    5.278    0.173    0.431  121.102
  306.750    4.939    0.170    0.441  123.897
  307.000    4.588    0.191    0.492  127.118
  307.250    4.294    0.214    0.534  129.426
  307.500    4.057    0.224    0.518  133.076
  307.750    3.826    0.228    0.510  137.030
  308.000    3.761    0.231    0.485  139.885
  308.250    3.941    0.246    0.439  139.320
  308.500    4.445    0.266    0.429  126.582
  308.750    5.176    0.285    0.423  114.212
  309.000    5.927    0.299    0.412  103.003
  309.250    6.634    0.309    0.404   97.789
  309.500    7.260    0.297    0.396   97.588
  309.750    7.856    0.293    0.385   97.690
  310.000    8.125    0.292    0.384   96.084
  310.250    8.184    0.296    0.412   91.664
  310.500    8.151    0.290    0.430   85.469
  310.750    8.088    0.280    0.439   85.329
  311.000    7.757    0.273    0.417   92.341
  311.250    7.084    0.268    0.414   96.544
  311.500    6.618    0.266    0.438   99.460
  311.750    6.265    0.275    0.450   98.892
  312.000    6.192    0.295    0.445   93.554
  312.250    6.477    0.313    0.449   86.932
  312.500    6.878    0.329    0.450   81.472
  312.750    7.262    0.325    0.439   85.795
  313.000    7.525    0.319    0.431   91.525
  313.250    7.768    0.313    0.424   96.275
  313.500    7.913    0.308    0.419   98.643
  313.750    7.954    0.306    0.410   98.502
  314.000    7.864    0.307    0.400   95.547
  314.250    8.241    0.311    0.394   96.386
  314.500    8.177    0.315    0.402   99.119
  314.750    8.129    0.318    0.428  100.875
  315.000    8.005    0.317    0.441  101.347
  315.250    7.898    0.314    0.431   98.514
  315.500    7.793    0.313    0.414   96.111
  315.750    7.747    0.312    0.402   93.953
  316.000    7.744    0.313    0.403   92.038
  316.250    7.742    0.312    0.408   89.938
  316.500    7.828    0.305    0.403   88.576
  316.750    7.975    0.288    0.391   88.806
  317.000    8.389    0.218    0.369   88.788
  317.250    9.751    0.175    0.294   87.058
  317.500   11.420    0.143    0.264   82.821
  317.750   13.150    0.123    0.249   80.540
  318.000   13.990    0.116    0.246   82.537
  318.250   12.995    0.118    0.251   83.988
