~VERSION INFORMATION
 VERS.                 2.0:   CWLS LOG ASCII STANDARD -VERSION 2.0
 WRAP.                  NO:   ONE LINE PER DEPTH STEP
~WELL INFORMATION BLOCK
#MNEM.UNIT           DATA                    DESCRIPTION OF MNEMONIC
#---------    -------------------            -------------------------------
# Generated from Intellog Unique Number	CS_73_76/WELL/2177
WELL.         AMOCO CANADA PETOLEUM          : Well_name    - WELL
LOC .         00/07-27-074-09W4/0            : Location     - LOCATION
UWI .         00/07-27-074-09W4/0            : Uwi          - UNIQUE WELL ID
ENTR.         SP                             : Entered      - ENTERED BY
SRVC.         SCHLUMBERGER                   : Scn          - SERVICE COMPANY
STRT.M        286.512                        : top_depth    - START DEPTH
STOP.M        490.512                        : bot_depth    - STOP DEPTH
STEP.M        0.25                           : increment    - STEP LENGTH
 NULL. -999.2500:NULL Value
~CURVE INFORMATION BLOCK
#MNEM UNIT       ERCB CURVE CODE    CURVE DESCRIPTION
#-----------   ------------------   ----------------------------------
DEPT.M        00 001 00 00         : DEPTH        - DEPTH
GR  .API      00 310 00 00         : GR           - GAMMA RAY
DPHI.V/V      00 890 00 00         : PHID         - DENSITY POROSITY (SANDSTONE)
NPHI.V/V      00 330 00 00         : PHIN         - NEUTRON POROSITY (SANDSTONE)
ILD .OHMM     00 120 00 00         : RESD         - DEEP RESISTIVITY (DIL)
~PARAMETER INFORMATION
#MNEM.UNIT           DATA             DESCRIPTION OF MNEMONIC
#---------         -----------     ------------------------------
GL  .M        661.416              : gl           - GROUND LEVEL ELEVATION
EREF.M        665.074              : kb           - ELEVATION OF DEPTH REFERENCE
DATM.M        661.416              : datum        - DATUM ELEVATION
TDD .M        594.36               : tdd          - TOTAL DEPTH DRILLER
RUN .         ONE                  : Run          - RUN NUMBER
ENG .         BILL                 : Engineer     - RECORDING ENGINEER
WIT .         JIM                  : Witness      - WITNESSED BY
MUD .         GEL                  : Mud_type     - MUD TYPE
MATR.         SANDSTONE            : Logunit      - NEUTRON MATRIX
TMAX.C        24.4444              : BHT          - MAXIMUM RECORDED TEMPERATURE
BHTD.M        594.36               : BHTDEP       - MAXIMUM RECORDED TEMPERATURE
MATR.         1                    : LOGUNIT      - NEUTRON MATRIX
RMT .C        25                   : MDTP         - TEMPERATURE OF MUD
NEUT.         1                    : NEUTRON      - NEUTRON TYPE
RESI.         0                    : RESIST       - RESISTIVITY TYPE
RMC .OHMM     0.25                 : RMC          - RESISTIVITY OF MUD CAKE
RMF .OHMM     0.25                 : RMF          - RESISTIVITY OF MUD FILTRATE
SUFT.C        15                   : SUFT         - SURFACE TEMPERATURE
~A  DEPTH       GR     PHID     PHIN     RESD
# ...
  330.012   91.374    0.264    0.441   10.886
  330.262   92.663    0.265    0.435   10.326
  330.512   95.159    0.262    0.448    9.893
  330.762   97.318    0.260    0.430    9.593
  331.012   99.317    0.264    0.416    9.606
  331.262  101.207    0.264    0.396    9.709
  331.512  102.794    0.265    0.382   10.015
  331.762  100.870    0.265    0.386   10.519
  332.012   97.133    0.270    0.401   10.743
  332.262   95.042    0.266    0.405   10.979
  332.512   93.559    0.253    0.408   10.944
  332.762   90.997    0.245    0.406   11.194
  333.012   89.104    0.241    0.414   11.182
  333.262   90.499    0.231    0.417   10.889
  333.512   91.168    0.217    0.414   10.283
  333.762   90.410    0.215    0.419    9.987
  334.012   90.406    0.215    0.426    9.396
  334.262   90.358    0.217    0.428    8.883
  334.512   89.158    0.231    0.421    8.475
  334.762   92.708    0.248    0.428    8.045
  335.012   95.823    0.259    0.434    7.789
  335.262   99.314    0.271    0.441    7.441
  335.512   99.068    0.280    0.436    7.263
  335.762   95.480    0.289    0.428    7.647
  336.012   91.886    0.299    0.415    8.529
  336.262   88.201    0.306    0.402    9.269
  336.512   85.020    0.311    0.397   10.046
  336.762   82.437    0.312    0.393   10.481
  337.012   82.831    0.310    0.398   11.241
  337.262   82.126    0.309    0.394   11.861
  337.512   80.042    0.306    0.416   12.579
  337.762   82.843    0.290    0.442   13.082
  338.012   85.772    0.275    0.447   10.931
  338.262   87.805    0.258    0.442    9.305
  338.512   89.619    0.240    0.430    9.101
  338.762   89.156    0.243    0.424    8.964
  339.012   87.379    0.246    0.405    9.240
  339.262   86.476    0.251    0.397    9.541
  339.512   86.431    0.255    0.398    9.868
  339.762   88.347    0.252    0.403   10.146
  340.012   88.975    0.259    0.413   10.243
  340.262   88.360    0.250    0.426   10.243
  340.512   84.849    0.237    0.437   10.216
  340.762   82.992    0.229    0.431    9.705
  341.012   80.972    0.224    0.404    9.412
  341.262   79.804    0.231    0.412    9.122
  341.512   78.819    0.234    0.393    8.992
  341.762   78.119    0.238    0.375    8.825
  342.012   78.236    0.239    0.372    8.665
  342.262   79.171    0.246    0.379    8.386
  342.512   81.582    0.251    0.391    8.124
  342.762   83.177    0.259    0.397    8.048
  343.012   85.522    0.254    0.386    7.903
  343.262   89.265    0.254    0.380    7.959
  343.512   92.852    0.254    0.388    8.062
  343.762   97.056    0.256    0.394    8.154
  344.012  101.813    0.262    0.385    8.427
  344.262  107.213    0.269    0.386    8.525
  344.512  108.483    0.269    0.388    8.617
  344.762  103.818    0.270    0.389    8.541
  345.012   98.151    0.275    0.392    8.538
  345.262   93.380    0.275    0.389    8.576
  345.512   86.963    0.289    0.387    9.261
  345.762   81.691    0.308    0.384   10.491
  346.012   79.517    0.328    0.381   11.773
  346.262   77.187    0.347    0.370   13.921
  346.512   75.387    0.350    0.352   15.188
  346.762   73.247    0.332    0.349   16.223
  347.012   70.651    0.327    0.367   17.043
  347.262   66.842    0.334    0.378   18.114
  347.512   67.445    0.339    0.379   19.199
  347.762   69.293    0.347    0.385   20.108
  348.012   71.567    0.354    0.391   21.265
  348.262   73.869    0.359    0.391   20.843
  348.512   75.755    0.352    0.384   19.957
  348.762   77.326    0.338    0.376   18.501
  349.012   74.808    0.332    0.372   18.417
  349.262   72.942    0.328    0.370   18.695
  349.512   70.251    0.328    0.367   18.798
  349.762   68.320    0.328    0.361   18.434
  350.012   71.294    0.322    0.369   18.247
  350.262   73.009    0.306    0.377   17.689
  350.512   72.191    0.295    0.378   16.848
  350.762   68.749    0.291    0.368   15.812
  351.012   67.535    0.296    0.360   15.168
  351.262   66.943    0.300    0.359   14.011
  351.512   70.222    0.283    0.354   13.056
  351.762   70.455    0.271    0.362   12.456
  352.012   75.102    0.256    0.370   12.057
  352.262   80.488    0.255    0.374   12.028
  352.512   79.302    0.255    0.374   12.023
  352.762   76.484    0.254    0.376   11.655
  353.012   73.712    0.253    0.383   11.313
  353.262   76.369    0.251    0.390   10.774
  353.512   80.190    0.249    0.396    9.609
  353.762   82.941    0.247    0.400    8.952
  354.012   85.925    0.245    0.395    8.029
  354.262   90.727    0.259    0.414    7.336
  354.512   92.481    0.263    0.433    6.724
  354.762   92.938    0.261    0.438    6.348
  355.012   92.930    0.259    0.434    5.874
  355.262   92.912    0.257    0.429    5.595
  355.512   92.349    0.268    0.428    5.356
  355.762   92.599    0.278    0.437    5.191
  356.012   93.003    0.290    0.444    5.412
  356.262   92.774    0.301    0.423    6.093
  356.512   90.207    0.311    0.404    6.982
  356.762   87.691    0.310    0.398    7.561
  357.012   84.076    0.307    0.381    8.232
  357.262   82.233    0.310    0.396    8.312
  357.512   87.462    0.321    0.405    8.320
  357.762   90.311    0.327    0.403    8.331
  358.012   90.038    0.318    0.411    8.135
  358.262   90.102    0.310    0.414    7.528
  358.512   91.433    0.311    0.411    7.049
  358.762   93.788    0.315    0.411    6.029
  359.012   92.755    0.300    0.414    5.453
  359.262   91.938    0.290    0.416    4.834
  359.512   92.013    0.283    0.408    4.502
  359.762   92.169    0.291    0.408    4.353
  360.012   90.805    0.301    0.406    4.437
  360.262   88.713    0.318    0.400    5.172
  360.512   82.416    0.330    0.392    6.154
  360.762   76.116    0.341    0.384    7.447
  361.012   69.727    0.342    0.378    8.856
  361.262   66.081    0.343    0.381    9.875
  361.512   69.836    0.345    0.387   10.464
  361.762   72.890    0.337    0.382   10.638
  362.012   74.606    0.331    0.378   10.890
  362.262   75.200    0.326    0.381   10.648
  362.512   75.831    0.324    0.385   10.523
  362.762   75.775    0.327    0.391   10.509
  363.012   76.416    0.333    0.389   10.850
  363.262   76.121    0.337    0.387   11.243
  363.512   75.118    0.330    0.381   12.482
  363.762   71.689    0.327    0.370   13.036
  364.012   74.848    0.327    0.364   13.355
  364.262   77.445    0.333    0.381   13.338
  364.512   79.939    0.334    0.406   12.547
  364.762   81.814    0.322    0.419   11.408
  365.012   81.382    0.313    0.408    9.669
  365.262   81.901    0.308    0.397    9.056
  365.512   82.044    0.308    0.395    7.923
  365.762   82.076    0.307    0.389    7.355
  366.012   82.097    0.300    0.403    6.305
  366.262   82.141    0.295    0.413    5.908
  366.512   81.554    0.286    0.425    5.388
  366.762   81.738    0.275    0.434    4.809
  367.012   84.354    0.267    0.441    4.385
  367.262   87.315    0.263    0.438    3.938
  367.512   89.922    0.267    0.430    3.616
  367.762   90.135    0.268    0.421    3.490
  368.012   90.884    0.272    0.433    3.484
  368.262   88.082    0.276    0.439    3.706
  368.512   85.819    0.276    0.441    4.065
  368.762   81.680    0.276    0.432    4.522
  369.012   79.214    0.283    0.433    5.013
  369.262   78.592    0.292    0.432    5.466
  369.512   80.150    0.294    0.416    5.807
  369.762   82.583    0.278    0.408    6.142
  370.012   83.522    0.266    0.412    6.125
  370.262   82.293    0.259    0.407    6.139
  370.512   81.047    0.251    0.408    6.007
  370.762   80.880    0.248    0.410    6.013
  371.012   84.604    0.248    0.403    6.227
  371.262   86.114    0.259    0.395    6.628
  371.512   86.675    0.277    0.387    7.152
  371.762   86.189    0.285    0.384    7.644
  372.012   83.059    0.288    0.384    7.971
  372.262   80.435    0.286    0.380    8.237
  372.512   79.715    0.286    0.374    8.282
  372.762   81.222    0.289    0.372    8.138
  373.012   83.960    0.291    0.371    7.340
  373.262   85.176    0.293    0.367    5.578
