~VERSION INFORMATION
 VERS.                 2.0:   CWLS LOG ASCII STANDARD -VERSION 2.0
 WRAP.                  NO:   ONE LINE PER DEPTH STEP
~WELL INFORMATION BLOCK
#MNEM.UNIT           DATA                    DESCRIPTION OF MNEMONIC
#---------    -------------------            -------------------------------
# Generated from Intellog Unique Number	CX_WELLS/WELL/3164
LOC .         00/03-13-083-10W4/0            : Location     - LOCATION
UWI .         00/03-13-083-10W400            : Uwi          - UNIQUE WELL ID
ENTR.         DW                             : Entered      - ENTERED BY
SRVC.         SCHLUMBERGER                   : Scn          - SERVICE COMPANY
STRT.F        738.189                        : top_depth    - START DEPTH
STOP.F        1573.98                        : bot_depth    - STOP DEPTH
STEP.F        0.82                           : increment    - STEP LENGTH
 NULL. -999.2500:NULL Value
~CURVE INFORMATION BLOCK
#MNEM UNIT       ERCB CURVE CODE    CURVE DESCRIPTION
#-----------   ------------------   ----------------------------------
DEPT.F        00 001 00 00         : DEPTH        - DEPTH
NPHI.V/V      00 330 00 00         : PHIN         - NEUTRON POROSITY (SANDSTONE)
DPHI.V/V      00 890 00 00         : PHID         - DENSITY POROSITY (SANDSTONE)
GR  .API      00 310 00 00         : GR           - GAMMA RAY
ILD .OHMM     00 120 00 00         : RESD         - DEEP RESISTIVITY (DIL)
~PARAMETER INFORMATION
#MNEM.UNIT           DATA             DESCRIPTION OF MNEMONIC
#---------         -----------     ------------------------------
GL  .F        2341.54              : gl           - GROUND LEVEL ELEVATION
EREF.F        2354                 : kb           - ELEVATION OF DEPTH REFERENCE
DATM.F        2354                 : datum        - DATUM ELEVATION
TDD .F        1587.93              : tdd          - TOTAL DEPTH DRILLER
RUN .         ONE                  : Run          - RUN NUMBER
ENG .         BILL                 : Engineer     - RECORDING ENGINEER
WIT .         JIM                  : Witness      - WITNESSED BY
MUD .         GEL                  : Mud_type     - MUD TYPE
MATR.         SANDSTONE            : Logunit      - NEUTRON MATRIX
TMAX.F        69.8                 : BHT          - MAXIMUM RECORDED TEMPERATURE
BHTD.F        1587.93              : BHTDEP       - MAXIMUM RECORDED TEMPERATURE
MATR.         1                    : LOGUNIT      - NEUTRON MATRIX
RMT .F        77                   : MDTP         - TEMPERATURE OF MUD
NEUT.         1                    : NEUTRON      - NEUTRON TYPE
RESI.         0                    : RESIST       - RESISTIVITY TYPE
RMC .OHMM     0.25                 : RMC          - RESISTIVITY OF MUD CAKE
RMF .OHMM     0.25                 : RMF          - RESISTIVITY OF MUD FILTRATE
SUFT.F        59                   : SUFT         - SURFACE TEMPERATURE
~A  DEPTH     PHIN     PHID       GR     RESD
# ...
 1451.770    0.372    0.313   37.426   70.894
 1452.590    0.368    0.329   30.330   69.706
 1453.410    0.361    0.330   36.889   61.242
 1454.230    0.354    0.300   56.825   54.803
 1455.050    0.356    0.274   74.644   49.040
 1455.870    0.367    0.284   77.925   40.736
 1456.690    0.364    0.294   74.792   36.465
 1457.510    0.341    0.249   82.501   33.886
 1458.330    0.334    0.235   86.966   30.918
 1459.150    0.345    0.253   77.699   29.263
 1459.970    0.357    0.288   63.586   28.772
 1460.790    0.364    0.324   53.190   28.803
 1461.610    0.373    0.335   45.368   31.694
 1462.430    0.376    0.338   43.185   34.180
 1463.250    0.374    0.335   41.898   39.015
 1464.070    0.390    0.336   42.295   47.992
 1464.900    0.412    0.339   41.259   89.105
 1465.720    0.416    0.340   37.052  124.933
 1466.540    0.406    0.344   35.524  148.040
 1467.360    0.398    0.345   38.776  165.971
 1468.180    0.407    0.344   38.350  166.150
 1469.000    0.409    0.341   32.948  157.369
 1469.820    0.391    0.333   32.078  151.702
 1470.640    0.366    0.325   40.087  149.106
 1471.460    0.368    0.321   49.226  143.892
 1472.280    0.410    0.319   52.031  144.099
 1473.100    0.415    0.321   44.978  141.684
 1473.920    0.384    0.321   40.079  141.836
 1474.740    0.370    0.319   42.561  141.989
 1475.560    0.379    0.317   45.314  139.559
 1476.380    0.384    0.321   43.219  132.136
 1477.200    0.403    0.343   41.086  118.284
 1478.020    0.420    0.355   40.143   98.255
 1478.840    0.436    0.342   43.956   77.165
 1479.660    0.410    0.311   53.340   67.796
 1480.480    0.368    0.290   59.731   65.402
 1481.300    0.377    0.298   56.028   64.329
 1482.120    0.372    0.309   51.260   64.421
 1482.940    0.365    0.315   47.703   64.468
 1483.760    0.367    0.326   43.601   64.560
 1484.580    0.374    0.328   46.913   56.722
 1485.400    0.387    0.318   57.764   48.912
 1486.220    0.398    0.321   64.278   44.595
 1487.040    0.381    0.325   68.625   37.742
 1487.860    0.364    0.266   77.369   30.782
 1488.680    0.395    0.235   87.471   27.555
 1489.500    0.425    0.248   84.068   27.604
 1490.320    0.400    0.259   72.198   28.677
 1491.140    0.379    0.282   70.160   33.351
 1491.960    0.430    0.326   66.592   41.025
 1492.780    0.438    0.330   62.446   53.376
 1493.600    0.398    0.310   57.800   70.782
 1494.420    0.405    0.313   52.025   65.800
 1495.240    0.438    0.334   43.603   58.881
 1496.060    0.406    0.344   33.289   52.708
 1496.880    0.379    0.345   31.452   47.166
 1497.700    0.361    0.340   47.499   41.439
 1498.520    0.351    0.271   65.801   37.109
 1499.340    0.363    0.218   72.289   40.033
 1500.160    0.392    0.255   63.481   44.850
 1500.980    0.405    0.308   47.310   51.195
 1501.800    0.398    0.330   42.263   65.397
 1502.620    0.394    0.333   41.478   74.649
 1503.440    0.391    0.327   41.781   85.209
 1504.270    0.387    0.320   41.866   97.262
 1505.090    0.387    0.320   39.205  104.966
 1505.910    0.389    0.328   35.107  113.279
 1506.730    0.394    0.342   34.980  113.442
 1507.550    0.395    0.346   36.166   99.669
 1508.370    0.396    0.337   39.419   87.568
 1509.190    0.396    0.322   45.221   76.936
 1510.010    0.398    0.320   46.859   68.871
 1510.830    0.402    0.331   44.479   64.046
 1511.650    0.386    0.326   55.207   62.927
 1512.470    0.364    0.308   64.669   61.828
 1513.290    0.356    0.308   65.685   57.497
 1514.110    0.368    0.312   63.052   55.446
 1514.930    0.399    0.303   62.368   51.506
 1515.750    0.422    0.302   72.195   47.863
 1516.570    0.389    0.307  102.454   43.639
 1517.390    0.370    0.298  123.583   39.801
 1518.210    0.361    0.279  125.688   34.969
 1519.030    0.345    0.238  102.391   31.894
 1519.850    0.336    0.203   74.257   30.208
 1520.670    0.348    0.213   70.733   30.241
 1521.490    0.365    0.225   68.016   30.867
 1522.310    0.358    0.245   67.466   32.683
 1523.130    0.355    0.256   66.613   37.320
 1523.950    0.371    0.266   55.173   43.387
 1524.770    0.399    0.288   38.592   70.673
 1525.590    0.429    0.308   32.126  100.961
 1526.410    0.423    0.326   30.607  144.229
 1527.230    0.401    0.337   35.061  164.691
 1528.050    0.382    0.340   36.618  113.475
 1528.870    0.395    0.337   34.312  107.401
 1529.690    0.410    0.342   34.470   96.142
 1530.510    0.381    0.347   39.145   82.904
 1531.330    0.366    0.307   44.767   74.213
 1532.150    0.357    0.297   42.957   66.457
 1532.970    0.405    0.333   37.160   64.133
 1533.790    0.430    0.352   40.289   62.991
 1534.610    0.382    0.316   50.706   63.081
 1535.430    0.355    0.276   55.687   64.387
 1536.250    0.369    0.283   57.545   65.696
 1537.070    0.400    0.302   48.036   67.008
 1537.890    0.400    0.316   42.028   71.027
 1538.710    0.394    0.326   42.976   72.445
 1539.530    0.398    0.323   42.784   76.735
 1540.350    0.380    0.303   40.490   82.842
 1541.170    0.363    0.299   37.931   86.060
 1541.990    0.383    0.318   34.611   91.156
 1542.810    0.405    0.340   30.706   93.043
 1543.640    0.423    0.365   34.518   98.623
 1544.460    0.456    0.371   44.002  100.593
 1545.280    0.475    0.340   47.331  102.601
 1546.100    0.429    0.326   47.424  104.650
 1546.920    0.415    0.323   38.990  108.794
 1547.740    0.418    0.332   31.734  111.006
 1548.560    0.411    0.344   30.316  105.102
 1549.380    0.400    0.350   31.444   90.663
 1550.200    0.395    0.351   33.605   78.152
 1551.020    0.401    0.343   36.235   49.025
 1551.840    0.415    0.330   37.904   43.073
 1552.660    0.403    0.305   39.727   35.116
 1553.480    0.370    0.303   43.306   29.720
 1554.300    0.349    0.296   45.057   27.618
 1555.120    0.352    0.235   56.224   26.168
 1555.940    0.361    0.227   98.189   27.185
 1556.760    0.386    0.240  103.350   29.892
 1557.580    0.404    0.117   95.855   34.132
 1558.400    0.395   -0.001   97.718   38.225
 1559.220    0.349    0.002  101.001   45.295
 1560.040    0.289    0.000  103.997   69.757
 1560.860    0.260    0.003  105.664   75.308
 1561.680    0.171    0.002  105.389   79.767
 1562.500    0.133    0.003  104.729   79.911
 1563.320    0.146    0.006  104.193   79.997
 1564.140    0.141    0.010  103.768   78.656
 1564.960    0.143    0.015  103.792   77.310
 1565.780    0.144    0.018  103.734   75.960
 1566.600    0.145    0.019  104.163   74.633
 1567.420    0.147    0.021  104.614   71.997
 1568.240    0.147    0.025  105.420   70.791
 1569.060    0.147    0.028  106.251   70.867
 1569.880    0.146    0.030  106.149   73.699
 1570.700    0.145    0.030  106.158   81.066
 1571.520    0.145    0.028  105.716   84.215
 1572.340    0.145    0.028  105.131   89.234
 1573.160    0.145    0.030  104.619   91.081
 1573.980    0.146    0.034  104.077   89.458
