~VERSION INFORMATION
 VERS.                 2.0:   CWLS LOG ASCII STANDARD -VERSION 2.0
 WRAP.                  NO:   ONE LINE PER DEPTH STEP
~WELL INFORMATION BLOCK
#MNEM.UNIT           DATA                    DESCRIPTION OF MNEMONIC
#---------    -------------------            -------------------------------
# Generated from Intellog Unique Number	CS_71_72/WELL/806
WELL.         MAYNARD ET AL LOGAN            : Well_name    - WELL
LOC .         00/07-09-072-13W4/0            : Location     - LOCATION
UWI .         00/07-09-072-13W4/0            : Uwi          - UNIQUE WELL ID
ENTR.         SP                             : Entered      - ENTERED BY
SRVC.         SCHLUMBERGER                   : Scn          - SERVICE COMPANY
STRT.M        300                            : top_depth    - START DEPTH
STOP.M        535                            : bot_depth    - STOP DEPTH
STEP.M        0.25                           : increment    - STEP LENGTH
 NULL. -999.2500:NULL Value
~CURVE INFORMATION BLOCK
#MNEM UNIT       ERCB CURVE CODE    CURVE DESCRIPTION
#-----------   ------------------   ----------------------------------
DEPT.M        00 001 00 00         : DEPTH        - DEPTH
ILD .OHMM     00 120 00 00         : RESD         - DEEP RESISTIVITY (DIL)
DPHI.V/V      00 890 00 00         : PHID         - DENSITY POROSITY (LIMESTONE)
NPHI.V/V      00 330 00 00         : PHIN         - NEUTRON POROSITY (LIMESTONE)
GR  .API      00 310 00 00         : GR           - GAMMA RAY
~PARAMETER INFORMATION
#MNEM.UNIT           DATA             DESCRIPTION OF MNEMONIC
#---------         -----------     ------------------------------
GL  .M        632.57               : gl           - GROUND LEVEL ELEVATION
EREF.M        636.97               : kb           - ELEVATION OF DEPTH REFERENCE
DATM.M        632.57               : datum        - DATUM ELEVATION
TDD .M        545                  : tdd          - TOTAL DEPTH DRILLER
RUN .         ONE                  : Run          - RUN NUMBER
ENG .         BILL                 : Engineer     - RECORDING ENGINEER
WIT .         JIM                  : Witness      - WITNESSED BY
MUD .         GEL                  : Mud_type     - MUD TYPE
MATR.         LIMESTONE            : Logunit      - NEUTRON MATRIX
TMAX.C        23                   : BHT          - MAXIMUM RECORDED TEMPERATURE
BHTD.M        5456                 : BHTDEP       - MAXIMUM RECORDED TEMPERATURE
MATR.         1                    : LOGUNIT      - NEUTRON MATRIX
RMT .C        25                   : MDTP         - TEMPERATURE OF MUD
NEUT.         1                    : NEUTRON      - NEUTRON TYPE
RESI.         0                    : RESIST       - RESISTIVITY TYPE
RMC .OHMM     0.25                 : RMC          - RESISTIVITY OF MUD CAKE
RMF .OHMM     0.25                 : RMF          - RESISTIVITY OF MUD FILTRATE
SUFT.C        15                   : SUFT         - SURFACE TEMPERATURE
~A  DEPTH     RESD     PHID     PHIN       GR
# ...
  387.000    8.189    0.379    0.402   44.868
  387.250    8.106    0.376    0.405   44.853
  387.500    8.105    0.376    0.413   46.026
  387.750    7.942    0.372    0.415   48.400
  388.000    7.861    0.363    0.414   53.765
  388.250    7.698    0.349    0.414   59.734
  388.500    7.294    0.344    0.418   62.717
  388.750    6.889    0.334    0.432   71.684
  389.000    6.404    0.325    0.449   76.464
  389.250    6.242    0.319    0.470   79.433
  389.500    5.837    0.313    0.494   82.404
  389.750    5.674    0.312    0.502   86.575
  390.000    5.593    0.299    0.495   88.356
  390.250    5.511    0.290    0.476   89.526
  390.500    5.348    0.288    0.423   90.698
  390.750    5.508    0.293    0.411   84.674
  391.000    5.829    0.313    0.427   76.245
  391.250    6.070    0.330    0.433   73.224
  391.500    6.633    0.340    0.434   68.992
  391.750    6.874    0.339    0.437   68.376
  392.000    7.357    0.324    0.443   71.346
  392.250    7.597    0.317    0.460   73.718
  392.500    7.677    0.301    0.479   75.494
  392.750    7.837    0.303    0.438   74.866
  393.000    7.916    0.314    0.422   72.443
  393.250    7.915    0.319    0.407   69.420
  393.500    7.914    0.331    0.397   66.391
  393.750    7.993    0.343    0.393   64.560
  394.000    7.991    0.332    0.392   64.537
  394.250    7.910    0.331    0.394   64.516
  394.500    7.908    0.334    0.406   65.071
  394.750    7.827    0.345    0.413   65.057
  395.000    7.825    0.344    0.419   65.020
  395.250    7.824    0.341    0.424   65.010
  395.500    7.742    0.338    0.426   66.182
  395.750    7.741    0.325    0.426   67.355
  396.000    7.739    0.323    0.427   68.531
  396.250    7.658    0.336    0.416   68.502
  396.500    7.656    0.348    0.402   68.474
  396.750    7.574    0.358    0.394   69.650
  397.000    7.573    0.362    0.391   72.614
  397.250    7.572    0.362    0.391   72.599
  397.500    7.571    0.357    0.391   69.564
  397.750    7.569    0.351    0.392   67.147
  398.000    7.568    0.336    0.394   64.113
  398.250    7.567    0.332    0.397   62.895
  398.500    7.566    0.332    0.399   61.672
  398.750    7.564    0.337    0.404   62.846
  399.000    7.563    0.340    0.413   63.416
  399.250    7.561    0.346    0.420   63.393
  399.500    7.560    0.350    0.424   60.954
  399.750    7.559    0.345    0.422   60.338
  400.000    7.558    0.344    0.418   60.901
  400.250    7.638    0.343    0.418   61.474
  400.500    7.877    0.338    0.420   62.648
  400.750    7.957    0.341    0.429   63.822
  401.000    7.956    0.349    0.437   65.004
  401.250    7.875    0.354    0.447   67.376
  401.500    7.873    0.356    0.442   69.142
  401.750    7.872    0.346    0.416   69.723
  402.000    8.032    0.317    0.383   70.305
  402.250    8.192    0.215    0.348   68.479
  402.500    8.432    0.073    0.294   59.451
  402.750    8.592    0.056    0.248   52.228
  403.000    8.672    0.145    0.244   50.996
  403.250    8.429    0.194    0.339   55.171
  403.500    7.863    0.247    0.369   58.150
  403.750    7.378    0.287    0.386   64.109
  404.000    7.135    0.313    0.399   67.082
  404.250    6.891    0.332    0.415   69.461
  404.500    6.810    0.337    0.425   73.025
  404.750    6.728    0.337    0.420   74.213
  405.000    6.807    0.333    0.411   77.787
  405.250    6.967    0.329    0.401   81.958
  405.500    7.127    0.326    0.395   86.133
  405.750    7.368    0.327    0.392   85.492
  406.000    7.609    0.322    0.390   84.881
  406.250    8.010    0.303    0.390   80.655
  406.500    8.170    0.296    0.395   78.223
  406.750    8.411    0.284    0.394   81.789
  407.000    8.491    0.262    0.390   84.172
  407.250    8.570    0.239    0.387   87.145
  407.500    8.569    0.232    0.383   88.907
  407.750    8.567    0.232    0.379   89.485
  408.000    8.566    0.239    0.381   89.463
  408.250    8.565    0.244    0.394   88.840
  408.500    8.483    0.254    0.404   88.817
  408.750    8.401    0.267    0.411   88.169
  409.000    8.319    0.271    0.413   87.547
  409.250    8.075    0.278    0.409   87.526
  409.500    7.913    0.286    0.403   86.908
  409.750    7.751    0.278    0.398   85.077
  410.000    7.346    0.271    0.402   83.856
  410.250    7.184    0.273    0.405   82.623
  410.500    7.102    0.286    0.410   82.602
  410.750    6.778    0.298    0.414   83.775
  411.000    6.696    0.291    0.413   84.358
  411.250    6.695    0.279    0.405   86.727
  411.500    6.774    0.261    0.401   88.484
  411.750    7.015    0.253    0.396   89.067
  412.000    7.256    0.260    0.401   89.652
  412.250    7.738    0.256    0.398   89.625
  412.500    8.140    0.239    0.385   85.400
  412.750    8.462    0.179    0.378   79.972
  413.000    8.460    0.172    0.374   81.141
  413.250    7.813    0.169    0.394   85.318
  413.500    7.571    0.208    0.411   89.492
  413.750    7.085    0.230    0.422   87.653
  414.000    6.681    0.229    0.433   87.043
  414.250    6.357    0.238    0.441   90.005
  414.500    6.275    0.249    0.452   91.191
  414.750    6.112    0.261    0.457   92.956
  415.000    6.112    0.273    0.462   92.936
  415.250    6.109    0.257    0.486   90.503
  415.500    6.108    0.253    0.497   88.672
  415.750    6.107    0.252    0.503   88.058
  416.000    6.186    0.252    0.480   86.826
  416.250    6.346    0.262    0.446   86.808
  416.500    6.426    0.267    0.433   85.574
  416.750    6.586    0.259    0.428   84.348
  417.000    6.747    0.262    0.425   81.921
  417.250    6.987    0.275    0.420   79.491
  417.500    7.067    0.270    0.418   77.674
  417.750    7.065    0.276    0.418   77.044
  418.000    6.903    0.273    0.418   77.624
  418.250    6.176    0.271    0.418   80.592
  418.500    5.529    0.268    0.415   82.972
  418.750    4.641    0.268    0.412   86.540
  419.000    3.672    0.268    0.418   90.103
  419.250    3.187    0.278    0.474   91.290
  419.500    2.702    0.309    0.569   94.259
  419.750    2.459    0.324    0.593   96.034
  420.000    2.216    0.331    0.600   95.414
  420.250    2.053    0.314    0.587   92.383
  420.500    2.052    0.300    0.581   89.355
  420.750    2.131    0.298    0.593   86.923
  421.000    2.533    0.294    0.584   86.910
  421.250    3.015    0.288    0.551   88.681
  421.500    3.417    0.287    0.520   92.248
  421.750    4.142    0.278    0.473   94.622
  422.000    4.866    0.269    0.443   94.004
  422.250    5.349    0.264    0.431   96.372
  422.500    5.590    0.265    0.421   96.949
  422.750    5.669    0.263    0.421   98.718
  423.000    5.667    0.261    0.424  101.694
  423.250    5.586    0.258    0.419  104.671
  423.500    5.584    0.257    0.415   99.842
  423.750    5.583    0.256    0.413   93.812
  424.000    5.663    0.256    0.412   88.385
  424.250    5.822    0.263    0.413   85.969
  424.500    5.902    0.257    0.417   85.936
  424.750    5.981    0.257    0.424   88.312
  425.000    6.061    0.266    0.430   89.489
  425.250    6.140    0.272    0.445   84.666
  425.500    6.220    0.282    0.446   79.240
  425.750    6.218    0.287    0.428   73.217
  426.000    6.056    0.297    0.419   71.387
  426.250    5.974    0.306    0.429   72.558
  426.500    5.892    0.324    0.416   71.932
  426.750    5.648    0.335    0.409   68.312
  427.000    5.567    0.345    0.399   62.284
  427.250    5.566    0.354    0.400   57.455
  427.500    5.402    0.353    0.403   55.638
  427.750    5.321    0.345    0.404   59.194
  428.000    5.320    0.339    0.408   60.379
  428.250    5.238    0.333    0.409   61.555
  428.500    5.236    0.332    0.399   62.120
  428.750    5.235    0.338    0.396   61.503
  429.000    5.234    0.334    0.406   60.858
  429.250    5.233    0.351    0.412   60.233
  429.500    5.232    0.353    0.409   60.209
  429.750    5.230    0.351    0.404   60.787
  430.000    5.229    0.351    0.397   60.770
  430.250    5.308    0.355    0.395   61.349
