~VERSION INFORMATION
 VERS.                 2.0:   CWLS LOG ASCII STANDARD -VERSION 2.0
 WRAP.                  NO:   ONE LINE PER DEPTH STEP
~WELL INFORMATION BLOCK
#MNEM.UNIT           DATA                    DESCRIPTION OF MNEMONIC
#---------    -------------------            -------------------------------
# Generated from Intellog Unique Number	CW_79_81/WELL/2463
WELL.         HB GODIN                       : Well_name    - WELL
LOC .         00/07-36-081-02W5/0            : Location     - LOCATION
UWI .         00/07-36-081-02W5/0            : Uwi          - UNIQUE WELL ID
ENTR.         MAX                            : Entered      - ENTERED BY
SRVC.         SCHLUMBERGER                   : Scn          - SERVICE COMPANY
STRT.M        243.84                         : top_depth    - START DEPTH
STOP.M        463.09                         : bot_depth    - STOP DEPTH
STEP.M        0.25                           : increment    - STEP LENGTH
 NULL. -999.2500:NULL Value
~CURVE INFORMATION BLOCK
#MNEM UNIT       ERCB CURVE CODE    CURVE DESCRIPTION
#-----------   ------------------   ----------------------------------
DEPT.M        00 001 00 00         : DEPTH        - DEPTH
ILD .OHMM     00 120 00 00         : RESD         - DEEP RESISTIVITY (DIL)
NPHI.V/V      00 330 00 00         : PHIN         - NEUTRON POROSITY (SANDSTONE)
DPHI.V/V      00 890 00 00         : PHID         - DENSITY POROSITY (SANDSTONE)
GR  .API      00 310 00 00         : GR           - GAMMA RAY
CALI.MM       00 280 01 00         : CAL          - CALIPER
~PARAMETER INFORMATION
#MNEM.UNIT           DATA             DESCRIPTION OF MNEMONIC
#---------         -----------     ------------------------------
GL  .M        578.206              : gl           - GROUND LEVEL ELEVATION
EREF.M        581.863              : kb           - ELEVATION OF DEPTH REFERENCE
DATM.M        578.206              : datum        - DATUM ELEVATION
TDD .M        457.81               : tdd          - TOTAL DEPTH DRILLER
RUN .         ONE                  : Run          - RUN NUMBER
ENG .         BILL                 : Engineer     - RECORDING ENGINEER
WIT .         JIM                  : Witness      - WITNESSED BY
MUD .         GEL                  : Mud_type     - MUD TYPE
MATR.         SANDSTONE            : Logunit      - NEUTRON MATRIX
TMAX.C        23.3333              : BHT          - MAXIMUM RECORDED TEMPERATURE
BHTD.M        457.81               : BHTDEP       - MAXIMUM RECORDED TEMPERATURE
MATR.         1                    : LOGUNIT      - NEUTRON MATRIX
RMT .C        15.5556              : MDTP         - TEMPERATURE OF MUD
NEUT.         1                    : NEUTRON      - NEUTRON TYPE
RESI.         0                    : RESIST       - RESISTIVITY TYPE
RMC .OHMM     6.42                 : RMC          - RESISTIVITY OF MUD CAKE
RMF .OHMM     6.17                 : RMF          - RESISTIVITY OF MUD FILTRATE
SUFT.C        -15                  : SUFT         - SURFACE TEMPERATURE
~A  DEPTH     RESD     PHIN     PHID       GR      CAL
  243.840    3.596    0.463    0.202   72.719  202.200
  244.090    3.488    0.470    0.219   73.239  201.400
  244.340    3.410    0.507    0.217   78.903  201.266
  244.590    3.399    0.542    0.213   82.861  200.698
  244.840    3.499    0.559    0.210   82.766  199.527
  245.090    3.884    0.544    0.216   80.038  198.114
  245.340    4.575    0.502    0.228   75.843  196.893
  245.590    5.363    0.522    0.246   72.528  196.521
  245.840    6.266    0.529    0.250   69.032  196.151
  246.090    7.435    0.517    0.247   65.119  195.785
  246.340    8.799    0.500    0.250   60.910  195.320
  246.590    9.803    0.511    0.282   57.181  194.395
  246.840   11.826    0.517    0.311   58.700  193.590
  247.090   13.668    0.512    0.313   59.436  193.222
  247.340   15.017    0.510    0.308   59.280  192.559
  247.590   15.369    0.507    0.303   58.467  192.197
  247.840   14.899    0.504    0.301   57.834  192.333
  248.090   14.115    0.502    0.306   59.264  192.780
  248.340   12.985    0.488    0.302   61.523  192.825
  248.590   11.612    0.488    0.292   64.166  192.860
  248.840   10.150    0.489    0.282   66.631  192.598
  249.090    8.356    0.497    0.271   69.513  192.436
  249.340    6.788    0.514    0.259   73.291  192.674
  249.590    5.604    0.545    0.246   79.716  193.868
  249.840    4.679    0.554    0.238   86.695  195.587
  250.090    3.998    0.547    0.238   86.957  196.429
  250.340    3.584    0.547    0.235   87.932  196.666
  250.590    3.245    0.546    0.240   89.147  196.905
  250.840    2.988    0.545    0.249   89.828  197.348
  251.090    2.906    0.558    0.246   87.957  197.799
  251.340    2.929    0.570    0.240   83.258  197.839
  251.590    3.152    0.543    0.237   78.037  197.879
  251.840    3.647    0.519    0.229   71.025  197.920
  252.090    4.312    0.492    0.214   64.968  197.758
  252.340    5.170    0.464    0.209   60.641  197.288
  252.590    7.149    0.447    0.254   56.707  196.271
  252.840    8.694    0.475    0.309   55.981  195.046
  253.090    9.836    0.469    0.301   57.913  194.681
  253.340   10.397    0.477    0.290   56.801  195.231
  253.590   11.054    0.485    0.275   53.009  196.079
  253.840   12.391    0.476    0.270   47.968  196.620
  254.090   15.487    0.428    0.301   43.634  195.925
  254.340   19.755    0.426    0.319   40.922  194.276
  254.590   24.487    0.444    0.321   38.561  193.507
  254.840   27.796    0.456    0.311   37.455  192.442
  255.090   29.422    0.464    0.306   36.524  191.876
  255.340   29.923    0.468    0.307   35.114  191.908
  255.590   29.886    0.464    0.300   32.797  192.120
  255.840   29.663    0.460    0.295   31.825  193.006
  256.090   29.235    0.464    0.302   31.853  193.045
  256.340   28.174    0.460    0.313   31.158  193.387
  256.590   26.756    0.464    0.316   30.463  193.426
  256.840   25.137    0.471    0.314   30.424  193.061
  257.090   23.005    0.457    0.317   32.091  192.703
  257.340   21.322    0.439    0.319   34.350  192.735
  257.590   19.357    0.433    0.322   34.850  192.778
  257.840   17.584    0.428    0.323   35.352  192.818
  258.090   16.233    0.429    0.324   34.898  192.855
  258.340   15.317    0.433    0.325   33.548  192.891
  258.590   14.678    0.441    0.329   32.481  193.023
  258.840   14.238    0.449    0.335   33.001  193.484
  259.090   13.826    0.443    0.337   34.457  193.523
  259.340   13.578    0.451    0.339   35.373  193.565
  259.590   13.432    0.450    0.340   35.752  193.602
  259.840   13.361    0.436    0.339   35.716  193.635
  260.090   13.364    0.415    0.337   35.456  193.682
  260.340   13.368    0.414    0.336   35.231  193.723
  260.590   13.469    0.427    0.337   34.775  193.354
  260.840   13.497    0.427    0.336   34.502  193.291
  261.090   13.500    0.424    0.334   34.286  193.330
  261.340   13.527    0.423    0.332   34.248  193.371
  261.590   13.652    0.428    0.334   34.903  193.425
  261.840   13.760    0.437    0.337   35.668  193.457
  262.090   13.763    0.444    0.334   36.406  193.896
  262.340   13.766    0.445    0.333   36.785  194.041
  262.590   13.718    0.447    0.336   37.045  193.876
  262.840   13.646    0.451    0.343   37.307  193.605
  263.090   13.649    0.458    0.346   37.477  193.659
  263.340   13.652    0.452    0.343   37.006  193.691
  263.590   14.165    0.447    0.333   37.263  193.331
  263.840   15.906    0.430    0.316   37.345  193.264
  264.090   18.797    0.404    0.266   37.129  193.299
  264.340   22.505    0.362    0.179   36.794  193.440
  264.590   25.680    0.283    0.077   36.969  194.063
  264.840   26.284    0.241    0.076   37.738  194.949
  265.090   25.713    0.307    0.212   41.098  196.191
  265.340   23.903    0.369    0.251   44.816  197.134
  265.590   22.908    0.392    0.234   47.222  197.577
  265.840   23.363    0.348    0.160   47.661  197.820
  266.090   26.127    0.199   -0.011   46.003  198.844
  266.340   30.779    0.134   -0.014   43.544  199.730
  266.590   40.852    0.143   -0.013   41.185  199.761
  266.840   57.152    0.148   -0.010   40.255  199.495
  267.090   66.859    0.155   -0.002   40.157  198.931
  267.340   60.483    0.165    0.013   40.414  198.163
  267.590   53.712    0.176    0.041   40.827  197.312
  267.840   47.948    0.191    0.074   41.599  196.936
  268.090   40.655    0.258    0.111   43.050  196.568
  268.340   33.501    0.344    0.197   44.683  196.502
  268.590   27.109    0.423    0.283   47.090  195.933
  268.840   21.599    0.476    0.337   49.674  194.761
  269.090   16.492    0.494    0.348   50.557  193.515
  269.340   14.504    0.495    0.340   50.087  193.143
  269.590   13.268    0.490    0.335   46.291  193.170
  269.840   12.851    0.485    0.342   43.214  193.209
  270.090   12.571    0.484    0.344   41.568  193.652
  270.340   12.277    0.485    0.340   41.531  194.496
  270.590   12.227    0.482    0.336   43.049  195.434
  270.840   12.419    0.476    0.333   44.563  195.895
  271.090   12.422    0.474    0.316   46.252  195.938
  271.340   12.083    0.465    0.306   47.942  195.670
  271.590   11.472    0.458    0.298   49.395  195.303
  271.840   10.319    0.458    0.287   50.374  195.042
  272.090    8.242    0.468    0.268   50.692  195.089
  272.340    7.357    0.487    0.269   50.959  195.125
  272.590    7.690    0.479    0.267   50.269  195.568
  272.840    8.344    0.489    0.272   51.005  195.099
  273.090    8.608    0.495    0.279   52.577  194.329
  273.340    8.361    0.491    0.283   54.629  193.662
  273.590    8.377    0.478    0.286   57.883  193.304
  273.840    8.776    0.473    0.278   62.129  193.341
  274.090    8.843    0.475    0.284   61.201  193.388
  274.340    8.666    0.476    0.277   62.057  194.034
  274.590    8.193    0.474    0.261   65.177  194.675
  274.840    7.692    0.473    0.251   69.848  195.213
  275.090    7.605    0.482    0.262   73.671  196.151
  275.340    7.725    0.486    0.253   71.210  196.612
  275.590    8.132    0.501    0.249   70.756  196.647
  275.840    8.609    0.509    0.246   70.302  196.383
  276.090    8.611    0.513    0.242   71.278  196.222
  276.340    7.681    0.516    0.234   74.279  196.265
  276.590    5.771    0.525    0.224   80.617  196.397
  276.840    4.748    0.534    0.217   88.339  196.846
  277.090    4.119    0.539    0.221   90.746  197.289
  277.340    3.684    0.546    0.230   90.112  197.429
  277.590    3.519    0.548    0.242   87.391  197.468
  277.840    3.603    0.543    0.255   83.599  197.507
  278.090    3.978    0.528    0.270   79.116  197.303
  278.340    4.540    0.512    0.285   75.661  196.086
  278.590    5.322    0.511    0.291   72.587  194.910
  278.840    6.282    0.509    0.300   69.153  194.043
  279.090    7.347    0.515    0.312   65.598  193.676
  279.340    8.645    0.527    0.330   61.510  194.012
  279.590   11.512    0.529    0.358   55.617  195.353
  279.840   14.110    0.527    0.357   54.648  195.811
  280.090   17.249    0.517    0.350   56.814  196.253
