~VERSION INFORMATION
 VERS.                 2.0:   CWLS LOG ASCII STANDARD -VERSION 2.0
 WRAP.                  NO:   ONE LINE PER DEPTH STEP
~WELL INFORMATION BLOCK
#MNEM.UNIT           DATA                    DESCRIPTION OF MNEMONIC
#---------    -------------------            -------------------------------
# Generated from Intellog Unique Number	CS_73_76/WELL/2105
WELL.         PEX KIRBY                      : Well_name    - WELL
LOC .         00/07-09-075-06W4/0            : Location     - LOCATION
UWI .         00/07-09-075-06W4/0            : Uwi          - UNIQUE WELL ID
ENTR.         SP                             : Entered      - ENTERED BY
SRVC.         SCHLUMBERGER                   : Scn          - SERVICE COMPANY
STRT.M        250                            : top_depth    - START DEPTH
STOP.M        490                            : bot_depth    - STOP DEPTH
STEP.M        0.25                           : increment    - STEP LENGTH
 NULL. -999.2500:NULL Value
~CURVE INFORMATION BLOCK
#MNEM UNIT       ERCB CURVE CODE    CURVE DESCRIPTION
#-----------   ------------------   ----------------------------------
DEPT.M        00 001 00 00         : DEPTH        - DEPTH
ILD .OHMM     00 120 00 00         : RESD         - DEEP RESISTIVITY (DIL)
DPHI.V/V      00 890 00 00         : PHID         - DENSITY POROSITY (LIMESTONE)
NPHI.V/V      00 330 00 00         : PHIN         - NEUTRON POROSITY (LIMESTONE)
GR  .API      00 310 00 00         : GR           - GAMMA RAY
~PARAMETER INFORMATION
#MNEM.UNIT           DATA             DESCRIPTION OF MNEMONIC
#---------         -----------     ------------------------------
GL  .M        648.36               : gl           - GROUND LEVEL ELEVATION
EREF.M        651.64               : kb           - ELEVATION OF DEPTH REFERENCE
DATM.M        648.36               : datum        - DATUM ELEVATION
TDD .M        497                  : tdd          - TOTAL DEPTH DRILLER
RUN .         ONE                  : Run          - RUN NUMBER
ENG .         BILL                 : Engineer     - RECORDING ENGINEER
WIT .         JIM                  : Witness      - WITNESSED BY
MUD .         GEL                  : Mud_type     - MUD TYPE
MATR.         LIMESTONE            : Logunit      - NEUTRON MATRIX
TMAX.C        21                   : BHT          - MAXIMUM RECORDED TEMPERATURE
BHTD.M        497                  : BHTDEP       - MAXIMUM RECORDED TEMPERATURE
MATR.         1                    : LOGUNIT      - NEUTRON MATRIX
RMT .C        25                   : MDTP         - TEMPERATURE OF MUD
NEUT.         1                    : NEUTRON      - NEUTRON TYPE
RESI.         0                    : RESIST       - RESISTIVITY TYPE
RMC .OHMM     0.25                 : RMC          - RESISTIVITY OF MUD CAKE
RMF .OHMM     0.25                 : RMF          - RESISTIVITY OF MUD FILTRATE
SUFT.C        15                   : SUFT         - SURFACE TEMPERATURE
~A  DEPTH     RESD     PHID     PHIN       GR
  250.000    3.086    0.266    0.460   93.294
  250.250    3.146    0.272    0.462   90.856
  250.500    3.207    0.269    0.470   89.029
  250.750    3.270    0.258    0.463   92.689
  251.000    3.333    0.244    0.450   92.692
  251.250    3.398    0.249    0.441   92.084
  251.500    3.530    0.251    0.440   92.086
  251.750    3.666    0.258    0.442   93.307
  252.000    3.808    0.257    0.434   90.870
  252.250    3.882    0.239    0.424   92.092
  252.500    4.033    0.215    0.426   95.142
  252.750    4.189    0.190    0.420   96.364
  253.000    4.351    0.211    0.444   93.927
  253.250    4.606    0.209    0.448   93.319
  253.500    4.696    0.185    0.442   96.370
  253.750    4.610    0.187    0.426   97.592
  254.000    4.442    0.182    0.436   93.935
  254.250    4.201    0.191    0.448   92.718
  254.500    4.047    0.208    0.457   94.549
  254.750    3.899    0.225    0.458   95.771
  255.000    3.829    0.215    0.445   92.114
  255.250    3.830    0.222    0.429   95.775
  255.500    3.905    0.224    0.467   97.606
  255.750    3.980    0.217    0.461   96.388
  256.000    4.058    0.208    0.470   92.122
  256.250    4.136    0.218    0.463   93.953
  256.500    4.138    0.220    0.464   92.126
  256.750    4.064    0.214    0.451   97.007
  257.000    4.065    0.199    0.453   97.618
  257.250    3.991    0.219    0.469   95.791
  257.500    3.845    0.237    0.465   96.403
  257.750    3.706    0.245    0.448  100.673
  258.000    3.707    0.240    0.439  103.724
  258.250    3.779    0.228    0.424  101.896
  258.500    4.000    0.210    0.423   95.801
  258.750    4.233    0.190    0.414   93.364
  259.000    4.831    0.164    0.420   87.268
  259.250    5.512    0.190    0.421   83.612
  259.500    6.290    0.206    0.395   81.175
  259.750    8.994    0.219    0.374   78.738
  260.000   12.386    0.225    0.376   80.569
  260.250   13.871    0.223    0.365   84.230
  260.500   15.535    0.220    0.357   83.622
  260.750   16.134    0.234    0.349   90.941
  261.000   17.078    0.248    0.360   89.724
  261.250   17.740    0.286    0.353   86.068
  261.500   17.751    0.321    0.351   84.240
  261.750   17.425    0.312    0.368   92.779
  262.000   17.108    0.294    0.376   93.391
  262.250   16.802    0.262    0.380   88.514
  262.500   16.806    0.231    0.369   92.785
  262.750   16.816    0.225    0.362   98.275
  263.000   16.820    0.226    0.366   98.886
  263.250   17.150    0.232    0.369   93.402
  263.500   17.481    0.250    0.361   89.745
  263.750   17.819    0.267    0.368   87.307
  264.000   18.167    0.263    0.363   87.919
  264.250   17.837    0.258    0.365   81.824
  264.500   17.843    0.270    0.355   73.289
  264.750   17.518    0.285    0.355   65.974
  265.000   17.199    0.265    0.370   68.415
  265.250   16.574    0.258    0.365   72.686
  265.500   16.579    0.252    0.352   71.468
  265.750   16.585    0.231    0.357   69.031
  266.000   16.592    0.205    0.372   72.691
  266.250   16.919    0.167    0.365   75.742
  266.500   17.247    0.205    0.371   77.573
  266.750   17.917    0.245    0.363   81.234
  267.000   18.263    0.252    0.371   88.553
  267.250   18.616    0.250    0.368   83.678
  267.500   19.705    0.291    0.358   80.021
  267.750   20.469    0.310    0.353   77.583
  268.000   20.476    0.305    0.348   74.537
  268.250   19.728    0.317    0.346   72.100
  268.500   16.355    0.333    0.338   69.663
  268.750   12.576    0.344    0.339   69.055
  269.000   10.826    0.287    0.363   80.642
  269.250    9.676    0.187    0.385   91.620
  269.500    8.979    0.177    0.387   99.549
  269.750    8.652    0.177    0.376  106.868
  270.000    8.493    0.170    0.367  108.089
  270.250    9.877    0.154    0.342   96.507
  270.500   11.272    0.175    0.360   93.460
  270.750   12.155    0.225    0.376   90.412
  271.000   12.867    0.284    0.370   86.757
  271.250   13.618    0.265    0.367   86.148
  271.500   14.418    0.207    0.354   91.638
  271.750   14.697    0.156    0.341   85.543
  272.000   14.701    0.213    0.339   84.325
  272.250   15.562    0.220    0.333   82.498
  272.500   16.784    0.252    0.336   72.744
  272.750   17.765    0.258    0.347   67.258
  273.000   17.116    0.252    0.356   63.602
  273.250   13.927    0.281    0.360   61.774
  273.500   12.446    0.287    0.367   63.606
  273.750   10.513    0.300    0.374   71.534
  274.000    8.881    0.191    0.396   77.634
  274.250    7.645    0.122    0.422   97.758
  274.500    7.228    0.134    0.429  113.004
  274.750    6.461    0.144    0.422  113.006
  275.000    5.884    0.137    0.422  110.570
  275.250    5.460    0.189    0.448  108.742
  275.500    4.881    0.213    0.458  107.524
  275.750    4.615    0.199    0.458  105.087
  276.000    4.363    0.193    0.469  107.529
  276.250    4.049    0.175    0.461  107.531
  276.500    3.688    0.164    0.444  110.581
  276.750    3.553    0.159    0.444  111.193
  277.000    3.423    0.186    0.453  113.635
  277.250    3.981    0.209    0.446  113.636
  277.500    4.897    0.225    0.398  107.541
  277.750    6.025    0.252    0.373  101.445
  278.000    7.412    0.281    0.375   94.740
  278.250    8.617    0.243    0.351   89.864
  278.500   11.007    0.273    0.334   87.427
  278.750   12.799    0.295    0.343   79.502
  279.000   12.569    0.302    0.351   72.187
  279.250   12.111    0.273    0.375   77.067
  279.500   11.891    0.210    0.383   84.997
  279.750   11.675    0.222    0.373   86.827
  280.000   11.461    0.232    0.373   83.171
  280.250   11.252    0.249    0.381   81.343
  280.500   11.046    0.258    0.392   83.784
  280.750   10.446    0.249    0.391   81.347
  281.000   10.450    0.242    0.378   82.569
  281.250   10.259    0.237    0.378   82.571
  281.500   10.460    0.227    0.387   81.963
  281.750   10.864    0.225    0.376   80.746
  282.000   11.499    0.193    0.365   81.967
  282.250   12.638    0.178    0.377   83.189
  282.500   14.156    0.127    0.383   79.532
  282.750   14.705    0.124    0.397   83.803
  283.000   14.988    0.271    0.408   84.414
  283.250   15.569    0.326    0.411   91.125
  283.500   15.873    0.333    0.399   92.955
  283.750   15.879    0.337    0.386   86.250
  284.000   15.588    0.335    0.401   81.984
  284.250   15.309    0.288    0.398   85.645
  284.500   15.313    0.285    0.405   81.988
  284.750   15.318    0.293    0.409   83.820
  285.000   15.043    0.303    0.406   85.041
  285.250   15.332    0.301    0.411   86.262
  285.500   15.630    0.315    0.409   83.825
  285.750   16.239    0.321    0.404   83.827
  286.000   16.245    0.329    0.388   79.561
  286.250   16.559    0.307    0.388   69.197
  286.500   16.569    0.326    0.381   58.223
  286.750   16.573    0.340    0.364   42.372
  287.000   16.273    0.325    0.359   47.863
  287.250   15.975    0.308    0.350   49.693
  287.500   15.395    0.292    0.348   59.451
  287.750   15.113    0.265    0.353   59.454
  288.000   14.837    0.266    0.361   58.236
  288.250   14.567    0.294    0.357   58.238
  288.500   14.577    0.305    0.348   57.630
  288.750   14.310    0.312    0.353   57.632
  289.000   14.315    0.293    0.350   55.195
  289.250   14.323    0.282    0.348   54.587
  289.500   14.328    0.303    0.357   55.809
  289.750   14.335    0.324    0.342   56.420
  290.000   14.074    0.331    0.329   67.398
  290.250   14.082    0.276    0.346   72.278
  290.500   14.085    0.282    0.360   70.451
  290.750   14.094    0.271    0.368   68.624
  291.000   14.098    0.265    0.371   72.284
  291.250   13.841    0.286    0.367   68.018
  291.500   13.089    0.305    0.361   63.752
  291.750   12.612    0.290    0.362   67.413
  292.000   12.616    0.256    0.346   71.683
  292.250   12.622    0.242    0.339   82.051
  292.500   12.867    0.205    0.343   85.711
  292.750   13.366    0.168    0.344   88.762
  293.000   13.625    0.054    0.345   80.837
  293.250   13.631    0.000    0.332   72.302
