~VERSION INFORMATION
 VERS.                 2.0:   CWLS LOG ASCII STANDARD -VERSION 2.0
 WRAP.                  NO:   ONE LINE PER DEPTH STEP
~WELL INFORMATION BLOCK
#MNEM.UNIT           DATA                    DESCRIPTION OF MNEMONIC
#---------    -------------------            -------------------------------
# Generated from Intellog Unique Number	CS_77_79/WELL/3270
WELL.         LOGAN RESOURCES LTD.           : Well_name    - WELL
LOC .         00/03-02-077-14W4/0            : Location     - LOCATION
UWI .         00/03-02-077-14W4/0            : Uwi          - UNIQUE WELL ID
ENTR.         JO                             : Entered      - ENTERED BY
SRVC.         SCHLUMBERGER                   : Scn          - SERVICE COMPANY
DATE.         05/22/92                       : Date         - LOG DATE
STRT.M        285                            : top_depth    - START DEPTH
STOP.M        515                            : bot_depth    - STOP DEPTH
STEP.M        0.25                           : increment    - STEP LENGTH
 NULL. -999.2500:NULL Value
~CURVE INFORMATION BLOCK
#MNEM UNIT       ERCB CURVE CODE    CURVE DESCRIPTION
#-----------   ------------------   ----------------------------------
DEPT.M        00 001 00 00         : DEPTH        - DEPTH
ILD .OHMM     00 120 00 00         : RESD         - DEEP RESISTIVITY (DIL)
DPHI.V/V      00 890 00 00         : PHID         - DENSITY POROSITY (SANDSTONE)
NPHI.V/V      00 330 00 00         : PHIN         - NEUTRON POROSITY (SANDSTONE)
GR  .API      00 310 00 00         : GR           - GAMMA RAY
~PARAMETER INFORMATION
#MNEM.UNIT           DATA             DESCRIPTION OF MNEMONIC
#---------         -----------     ------------------------------
GL  .M        671.9                : gl           - GROUND LEVEL ELEVATION
EREF.M        675.4                : kb           - ELEVATION OF DEPTH REFERENCE
DATM.M        675.4                : datum        - DATUM ELEVATION
TDD .M        522                  : tdd          - TOTAL DEPTH DRILLER
RUN .         ONE                  : Run          - RUN NUMBER
ENG .         BILL                 : Engineer     - RECORDING ENGINEER
WIT .         JIM                  : Witness      - WITNESSED BY
MUD .         GEL                  : Mud_type     - MUD TYPE
MATR.         SANDSTONE            : Logunit      - NEUTRON MATRIX
TMAX.C        30                   : BHT          - MAXIMUM RECORDED TEMPERATURE
BHTD.M        522.2                : BHTDEP       - MAXIMUM RECORDED TEMPERATURE
RMT .C        18                   : MDTP         - TEMPERATURE OF MUD
MUDD.KG/M     1160                 : MWT          - MUD DENSITY
NEUT.         1                    : NEUTRON      - NEUTRON TYPE
RESI.         0                    : RESIST       - RESISTIVITY TYPE
RM  .OHMM     2.8                  : RM           - RESISTIVITY OF MUD
RMC .OHMM     1.9                  : RMC          - RESISTIVITY OF MUD CAKE
RMF .OHMM     2.2                  : RMF          - RESISTIVITY OF MUD FILTRATE
SUFT.C        4                    : SUFT         - SURFACE TEMPERATURE
~A  DEPTH     RESD     PHID     PHIN       GR
  285.000    3.050    0.265    0.552   96.118
  285.250    3.103    0.257    0.554   91.945
  285.500    3.277    0.253    0.522   94.298
  285.750    3.335    0.260    0.513   97.837
  286.000    3.458    0.253    0.502   96.630
  286.250    3.519    0.231    0.517   96.600
  286.500    3.449    0.230    0.560  103.111
  286.750    3.447    0.235    0.593   93.598
  287.000    3.318    0.235    0.594  104.850
  287.250    3.194    0.243    0.527  114.322
  287.500    3.132    0.251    0.516  103.623
  287.750    3.015    0.249    0.547   97.669
  288.000    2.956    0.243    0.524  102.390
  288.250    2.953    0.248    0.495   97.629
  288.500    2.950    0.243    0.504   93.450
  288.750    3.114    0.227    0.560   95.210
  289.000    3.171    0.225    0.589   97.558
  289.250    3.410    0.234    0.535   91.016
  289.500    3.470    0.237    0.510   92.776
  289.750    3.404    0.230    0.464   96.903
  290.000    3.215    0.230    0.457   97.482
  290.250    3.096    0.236    0.508  105.767
  290.500    2.925    0.241    0.572  103.374
  290.750    2.868    0.242    0.520   95.641
  291.000    2.866    0.236    0.474   92.061
  291.250    2.916    0.228    0.485  109.839
  291.500    3.256    0.236    0.495  119.905
  291.750    3.635    0.265    0.457  113.358
  292.000    4.452    0.275    0.438   81.295
  292.250    5.873    0.286    0.412   80.681
  292.500    7.466    0.289    0.393   82.441
  292.750    8.491    0.297    0.421   87.167
  293.000    9.652    0.305    0.421   82.994
  293.250   10.011    0.277    0.412   69.921
  293.500   10.765    0.227    0.394   70.489
  293.750   11.166    0.141    0.388   67.502
  294.000   11.573    0.257    0.399   68.668
  294.250   11.140    0.249    0.388   76.954
  294.500   10.336    0.235    0.422   85.833
  294.750    9.067    0.221    0.426   86.995
  295.000    8.103    0.229    0.412   89.352
  295.250    7.802    0.236    0.402   93.480
  295.500    7.510    0.228    0.405   88.719
  295.750    7.641    0.220    0.423   85.138
  296.000    8.065    0.222    0.451   94.611
  296.250    8.366    0.241    0.445  101.710
  296.500    8.515    0.235    0.452  107.029
  296.750    9.159    0.245    0.470   98.703
  297.000    9.851    0.264    0.416   86.817
  297.250   10.030    0.255    0.398   77.892
  297.500    9.476    0.232    0.403   70.752
  297.750    8.628    0.223    0.440   95.650
  298.000    7.432    0.220    0.452  103.343
  298.250    6.643    0.223    0.446  109.848
  298.500    6.160    0.214    0.428  109.828
  298.750    5.929    0.276    0.436  104.463
  299.000    5.814    0.309    0.451  104.448
  299.250    6.030    0.326    0.399   77.730
  299.500    6.987    0.337    0.395   79.489
  299.750    8.558    0.334    0.427   81.837
  300.000   10.479    0.320    0.421   74.697
  300.250   11.700    0.297    0.412   75.270
  300.500   12.356    0.288    0.421   88.302
  300.750   11.897    0.298    0.417   93.621
  301.000   11.036    0.309    0.432  109.027
  301.250   11.432    0.324    0.408  107.226
  301.500   11.634    0.324    0.393   84.068
  301.750   11.845    0.315    0.413   87.607
  302.000   12.052    0.308    0.422   86.994
  302.250   12.039    0.302    0.413   94.093
  302.500   12.024    0.301    0.417   95.852
  302.750   11.794    0.301    0.415   99.392
  303.000   11.785    0.300    0.428  101.745
  303.250   11.339    0.294    0.446   98.753
  303.500   11.119    0.278    0.422   92.206
  303.750   10.906    0.252    0.387   85.660
  304.000   10.496    0.226    0.368   85.046
  304.250   10.296    0.225    0.370   80.280
  304.500    9.911    0.207    0.380   76.106
  304.750    9.363    0.188    0.387   63.029
  305.000    8.845    0.224    0.394   74.286
  305.250    8.519    0.214    0.395   80.792
  305.500    8.048    0.196    0.398   78.393
  305.750    7.603    0.193    0.396   90.239
  306.000    7.458    0.206    0.435   99.123
  306.250    7.179    0.204    0.466  107.408
  306.500    6.659    0.196    0.483  112.728
  306.750    6.062    0.197    0.459  117.449
  307.000    5.625    0.191    0.455  114.457
  307.250    5.026    0.197    0.459  119.183
  307.500    4.490    0.210    0.489  120.354
  307.750    4.324    0.200    0.493  126.267
  308.000    4.318    0.180    0.482  124.467
  308.250    4.397    0.179    0.472  117.920
  308.500    4.730    0.190    0.474  113.153
  308.750    4.814    0.187    0.470  113.133
  309.000    4.805    0.155    0.467  111.926
  309.250    4.714    0.128    0.488  107.155
  309.500    4.539    0.202    0.476  119.598
  309.750    4.057    0.202    0.519  124.324
  310.000    3.694    0.197    0.518  122.519
  310.250    3.425    0.207    0.513  131.991
  310.500    3.177    0.219    0.591  137.311
  310.750    3.117    0.226    0.599  136.697
  311.000    2.999    0.235    0.550  139.050
  311.250    3.227    0.249    0.498  124.197
  311.500    3.810    0.264    0.463  109.345
  311.750    5.513    0.268    0.408  108.138
  312.000    7.139    0.266    0.405  104.553
  312.250    8.744    0.253    0.420  108.092
  312.500    9.760    0.241    0.429  125.876
  312.750    9.393    0.251    0.461  116.951
  313.000    9.216    0.263    0.462  100.912
  313.250    9.206    0.294    0.443   94.959
  313.500    9.905    0.305    0.461   88.412
  313.750   10.080    0.270    0.458  107.377
  314.000    7.766    0.245    0.454  114.476
  314.250    6.328    0.221    0.458  116.829
  314.500    5.551    0.215    0.453  135.201
  314.750    6.083    0.208    0.459  130.434
  315.000    8.175    0.219    0.465  132.787
  315.250    8.633    0.227    0.444  120.901
  315.500    9.459    0.222    0.408   97.144
  315.750    9.809    0.231    0.392  107.210
  316.000   10.171    0.259    0.383  105.409
  316.250   10.348    0.265    0.424  100.049
  316.500   10.340    0.274    0.456  108.923
  316.750   10.330    0.290    0.447   91.703
  317.000   10.127    0.260    0.427   81.591
  317.250    9.928    0.225    0.433  102.935
  317.500    9.557    0.229    0.473  115.962
  317.750    8.863    0.236    0.456  117.133
  318.000    8.534    0.237    0.423  123.046
  318.250    8.525    0.239    0.420  123.025
  318.500    9.169    0.243    0.407  113.507
  318.750    9.511    0.245    0.399  101.621
  319.000   10.229    0.201    0.380   79.649
  319.250   10.413    0.127    0.385   71.313
  319.500   10.795    0.164    0.418   67.144
  319.750   10.986    0.192    0.432   66.526
  320.000   10.972    0.215    0.441   72.438
  320.250   10.756    0.276    0.450   69.451
  320.500   10.548    0.319    0.443   71.216
  320.750   10.151    0.312    0.418   77.129
  321.000    9.960    0.306    0.417   72.955
  321.250    9.587    0.304    0.412   81.241
  321.500    8.891    0.310    0.402   88.340
  321.750    7.947    0.304    0.431   90.100
  322.000    6.845    0.268    0.442  113.811
  322.250    6.006    0.256    0.475  116.159
  322.500    5.888    0.249    0.457  111.392
  322.750    6.699    0.237    0.435  110.190
  323.000    6.941    0.220    0.447  110.763
  323.250    6.810    0.207    0.447  115.489
  323.500    6.317    0.210    0.446   90.546
  323.750    5.752    0.243    0.491  117.812
  324.000    5.536    0.252    0.549  119.576
  324.250    5.631    0.252    0.484  111.250
  324.500    5.840    0.255    0.444  103.517
  324.750    6.401    0.253    0.443  101.118
  325.000    7.144    0.254    0.440  100.510
  325.250    6.751    0.247    0.454  100.490
  325.500    6.746    0.234    0.472  100.469
  325.750    6.992    0.239    0.461  105.195
  326.000    7.661    0.262    0.442   98.644
  326.250    8.094    0.300    0.418   96.250
  326.500    8.869    0.307    0.394   92.670
  326.750    9.366    0.313    0.412   89.090
  327.000    9.889    0.319    0.443   89.663
  327.250    9.884    0.328    0.458   68.878
  327.500   10.244    0.336    0.423   59.360
  327.750   10.422    0.344    0.433   56.966
  328.000   10.414    0.341    0.436   63.472
  328.250   10.596    0.338    0.429   69.973
