~VERSION INFORMATION
 VERS.                 2.0:   CWLS LOG ASCII STANDARD -VERSION 2.0
 WRAP.                  NO:   ONE LINE PER DEPTH STEP
~WELL INFORMATION BLOCK
#MNEM.UNIT           DATA                    DESCRIPTION OF MNEMONIC
#---------    -------------------            -------------------------------
# Generated from Intellog Unique Number	CW_82_90/WELL/288
WELL.         04-19-083-23W4                 : Well_name    - WELL
LOC .         00/04-19-083-23W4/0            : Location     - LOCATION
UWI .         00/04-19-083-23W4/0            : Uwi          - UNIQUE WELL ID
ENTR.         JAYE                           : Entered      - ENTERED BY
SRVC.         SCHLUMBERGER                   : Scn          - SERVICE COMPANY
DATE.         22 JAN 76                      : Date         - LOG DATE
STRT.M        207.264                        : top_depth    - START DEPTH
STOP.M        417.514                        : bot_depth    - STOP DEPTH
STEP.M        0.25                           : increment    - STEP LENGTH
 NULL. -999.2500:NULL Value
~CURVE INFORMATION BLOCK
#MNEM UNIT       ERCB CURVE CODE    CURVE DESCRIPTION
#-----------   ------------------   ----------------------------------
DEPT.M        00 001 00 00         : DEPTH        - DEPTH
CALI.MM       00 280 01 00         : CAL          - CALIPER
GR  .API      00 310 00 00         : GR           - GAMMA RAY
NPHI.V/V      00 330 00 00         : PHIN         - NEUTRON POROSITY (SANDSTONE)
DPHI.V/V      00 890 00 00         : PHID         - DENSITY POROSITY (SANDSTONE)
ILD .OHMM     00 120 00 00         : RESD         - DEEP RESISTIVITY (DIL)
~PARAMETER INFORMATION
#MNEM.UNIT           DATA             DESCRIPTION OF MNEMONIC
#---------         -----------     ------------------------------
GL  .M        592.531              : gl           - GROUND LEVEL ELEVATION
EREF.M        595.884              : kb           - ELEVATION OF DEPTH REFERENCE
DATM.M        592.531              : datum        - DATUM ELEVATION
TDD .M        421.234              : tdd          - TOTAL DEPTH DRILLER
ENG .         DODSWORTH            : Engineer     - RECORDING ENGINEER
WIT .         7658                 : Witness      - WITNESSED BY
BASE.         EDMONTON             : Branch       - HOME BASE OF LOGGING UNIT
MUD .         GEL CHEM             : Mud_type     - MUD TYPE
MATR.         SANDSTONE            : Logunit      - NEUTRON MATRIX
TMAX.C        26.6667              : BHT          - MAXIMUM RECORDED TEMPERATURE
BHTD.M        421.234              : BHTDEP       - MAXIMUM RECORDED TEMPERATURE
RMT .C        -17.7778             : MDTP         - TEMPERATURE OF MUD
MUDD.KG/M     9000                 : MWT          - MUD DENSITY
NEUT.         1                    : NEUTRON      - NEUTRON TYPE
RESI.         0                    : RESIST       - RESISTIVITY TYPE
RM  .OHMM     0                    : RM           - RESISTIVITY OF MUD
RMC .OHMM     0                    : RMC          - RESISTIVITY OF MUD CAKE
RMF .OHMM     64.91                : RMF          - RESISTIVITY OF MUD FILTRATE
SUFT.C        -17.7778             : SUFT         - SURFACE TEMPERATURE
~A  DEPTH      CAL       GR     PHIN     PHID     RESD
# ...
  280.264  158.855   70.630    0.385    0.308   16.117
  280.514  158.721   71.998    0.444    0.338   16.011
  280.764  158.423   74.475    0.451    0.356   15.791
  281.014  157.844   76.887    0.451    0.362   15.545
  281.264  157.287   78.443    0.457    0.357   15.329
  281.514  158.996   79.327    0.454    0.350   15.512
  281.764  158.593   81.374    0.433    0.344   15.992
  282.014  157.711   81.152    0.427    0.334   16.701
  282.264  158.908   79.402    0.429    0.331   17.576
  282.514  159.033   77.894    0.426    0.329   17.522
  282.764  158.450   77.612    0.427    0.325   16.839
  283.014  157.561   81.374    0.429    0.320   15.913
  283.264  157.497   86.604    0.432    0.322   15.151
  283.514  157.436   89.020    0.436    0.319   14.369
  283.764  158.828   90.512    0.444    0.312   13.382
  284.014  159.388   90.538    0.451    0.311   12.738
  284.264  159.641   92.097    0.455    0.303   11.731
  284.514  159.891   92.855    0.460    0.292   11.085
  284.764  159.618   93.063    0.474    0.298   10.322
  285.014  159.618   92.352    0.485    0.300    9.863
  285.264  159.192   92.196    0.487    0.303    9.408
  285.514  159.017   91.792    0.483    0.311    8.973
  285.764  158.659   87.713    0.472    0.315    8.559
  286.014  161.515   84.312    0.461    0.317    8.118
  286.264  162.467   82.251    0.461    0.325    7.643
  286.514  162.507   79.702    0.456    0.335    7.289
  286.764  161.823   77.889    0.454    0.343    6.915
  287.014  160.328   78.159    0.462    0.347    6.439
  287.264  158.588   77.513    0.463    0.347    5.928
  287.514  155.526   77.172    0.464    0.346    5.173
  287.764  154.948   77.382    0.464    0.343    4.668
  288.014  155.814   77.586    0.460    0.342    4.469
  288.264  158.256   80.674    0.456    0.343    4.523
  288.514  159.873   82.046    0.451    0.338    4.812
  288.764  159.879   82.929    0.446    0.327    5.044
  289.014  159.303   84.914    0.438    0.319    5.367
  289.264  159.141   86.409    0.437    0.317    5.563
  289.514  158.779   86.739    0.452    0.314    5.854
  289.764  159.739   87.013    0.462    0.313    6.171
  290.014  160.925   87.403    0.474    0.309    6.481
  290.264  160.860   88.531    0.456    0.295    6.935
  290.514  160.925   89.107    0.433    0.279    7.187
  290.764  160.943   88.641    0.446    0.277    7.733
  291.014  161.194   86.767    0.456    0.281    8.382
  291.264  160.943   85.447    0.456    0.284    8.834
  291.514  160.759   85.288    0.450    0.311    8.442
  291.764  160.494   86.476    0.440    0.327    7.803
  292.014  162.094   88.766    0.447    0.331    7.415
  292.264  163.491   90.444    0.457    0.333    7.231
  292.514  165.388   90.839    0.467    0.337    7.237
  292.764  173.731   91.353    0.481    0.348    7.758
  293.014  174.499   89.358    0.519    0.361    8.087
  293.264  171.945   85.097    0.527    0.378    8.276
  293.514  163.917   78.565    0.514    0.377    8.423
  293.764  164.154   73.139    0.483    0.376    8.508
  294.014  161.702   65.692    0.466    0.325    8.546
  294.264  157.910   61.675    0.446    0.310    8.586
  294.514  155.982   60.905    0.423    0.295    8.562
  294.764  155.606   57.988    0.411    0.274    8.288
  295.014  159.507   50.665    0.397    0.287    7.817
  295.264  160.464   47.569    0.407    0.339    6.885
  295.514  159.471   46.857    0.453    0.367    5.611
  295.764  158.791   47.249    0.427    0.382    4.675
  296.014  158.106   48.254    0.422    0.380    4.118
  296.264  157.213   48.401    0.428    0.378    4.062
  296.514  157.075   48.671    0.432    0.378    4.094
  296.764  156.464   47.597    0.434    0.374    4.496
  297.014  156.464   47.804    0.429    0.375    4.945
  297.264  154.808   48.380    0.430    0.384    5.739
  297.514  155.143   48.590    0.436    0.384    7.390
  297.764  157.900   48.367    0.438    0.382    8.657
  298.014  159.270   48.575    0.437    0.379   10.067
  298.264  159.328   51.359    0.434    0.375   11.300
  298.514  158.939   54.751    0.435    0.372   13.043
  298.764  157.323   57.718    0.441    0.366   13.597
  299.014  157.675   60.191    0.446    0.363   13.020
  299.264  158.778   61.379    0.444    0.358   12.886
  299.514  159.316   60.425    0.438    0.353   12.943
  299.764  160.007   60.636    0.435    0.351   12.980
  300.014  160.125   60.597    0.451    0.356   13.063
  300.264  159.650   60.317    0.459    0.363   13.443
  300.514  158.967   61.626    0.452    0.367   13.782
  300.764  159.034   63.918    0.444    0.369   14.103
  301.014  159.052   65.412    0.428    0.372   14.222
  301.264  159.011   66.848    0.430    0.368   13.842
  301.514  160.292   66.322    0.437    0.364   13.301
  301.764  161.463   66.776    0.444    0.370   12.877
  302.014  161.395   67.106    0.441    0.371   12.816
  302.264  160.816   66.946    0.431    0.371   12.923
  302.514  161.067   67.095    0.443    0.369   12.697
  302.764  161.317   66.630    0.576    0.343   11.735
  303.014  160.943   66.288    0.560    0.341   10.607
  303.264  158.094   69.312    0.538    0.333   10.212
  303.514  157.192   73.746    0.511    0.275   10.625
  303.764  157.132   78.182    0.419    0.259   10.974
  304.014  157.277   83.472    0.403    0.240   11.655
  304.264  158.562   88.274    0.395    0.238   12.149
  304.514  159.342   93.201    0.400    0.273   12.688
  304.764  160.328   92.859    0.440    0.275   12.014
  305.014  160.036   91.722    0.449    0.281   11.003
  305.264  159.874   92.845    0.448    0.286   10.454
  305.514  161.677   96.120    0.446    0.292    9.503
  305.764  161.825   93.388    0.448    0.291    8.558
  306.014  162.181   91.208    0.453    0.288    8.000
  306.264  161.494   87.617    0.457    0.288    7.617
  306.514  159.882   86.663    0.450    0.294    7.468
  306.764  156.496   81.420    0.433    0.318    7.269
  307.014  155.607   79.245    0.428    0.335    6.921
  307.264  158.664   79.941    0.428    0.332    6.625
  307.514  160.268   79.537    0.432    0.330    6.296
  307.764  160.191   77.420    0.442    0.328    5.756
  308.014  160.966   78.364    0.448    0.328    5.428
  308.264  160.914   80.102    0.440    0.329    5.254
  308.514  159.909   83.924    0.409    0.329    5.125
  308.764  159.035   87.932    0.410    0.328    5.236
  309.014  159.368   91.875    0.413    0.323    5.488
  309.264  160.139   95.575    0.410    0.310    5.795
  309.514  162.054   94.375    0.413    0.278    6.954
  309.764  163.228   90.727    0.420    0.280    8.177
  310.014  163.587   88.666    0.430    0.269    9.282
  310.264  163.848   86.669    0.445    0.269   10.733
  310.514  162.629   89.392    0.435    0.265   11.656
  310.764  158.940   88.804    0.421    0.269   11.861
  311.014  155.558   88.522    0.416    0.276   11.806
  311.264  157.889   88.547    0.410    0.268   11.428
  311.514  159.793   88.511    0.400    0.282   10.861
  311.764  162.010   88.841    0.398    0.275   10.188
  312.014  165.374   89.909    0.399    0.270    9.381
  312.264  168.631   92.264    0.403    0.273    8.638
  312.514  171.792   93.391    0.418    0.273    7.795
  312.764  172.964   95.373    0.433    0.278    7.338
  313.014  171.452   98.522    0.445    0.279    7.144
  313.264  171.078  102.405    0.456    0.274    7.189
  313.514  173.819  102.429    0.471    0.268    7.384
  313.764  176.145   98.045    0.477    0.267    7.756
  314.014  177.339   95.313    0.462    0.253    7.952
  314.264  175.813   90.075    0.455    0.245    7.943
  314.514  172.123   86.362    0.447    0.256    7.734
  314.764  166.979   77.872    0.441    0.269    7.583
  315.014  161.529   78.574    0.431    0.264    7.340
  315.264  159.283   79.332    0.413    0.253    6.925
  315.514  159.327   76.601    0.406    0.270    6.556
  315.764  159.483   73.807    0.402    0.324    6.299
  316.014  160.557   70.953    0.395    0.309    5.975
  316.264  162.565   71.775    0.389    0.296    5.563
  316.514  162.401   75.046    0.395    0.290    4.974
