~VERSION INFORMATION
 VERS.                 2.0:   CWLS LOG ASCII STANDARD -VERSION 2.0
 WRAP.                  NO:   ONE LINE PER DEPTH STEP
~WELL INFORMATION BLOCK
#MNEM.UNIT           DATA                    DESCRIPTION OF MNEMONIC
#---------    -------------------            -------------------------------
# Generated from Intellog Unique Number	CS_73_76/WELL/702
WELL.         AMOCO AEC IPIATIK              : Well_name    - WELL
LOC .         00/07-03-073-06W4/0            : Location     - LOCATION
UWI .         00/07-03-073-06W4/0            : Uwi          - UNIQUE WELL ID
ENTR.         SP                             : Entered      - ENTERED BY
SRVC.         SCHLUMBERGER                   : Scn          - SERVICE COMPANY
STRT.M        315                            : top_depth    - START DEPTH
STOP.M        560                            : bot_depth    - STOP DEPTH
STEP.M        0.25                           : increment    - STEP LENGTH
 NULL. -999.2500:NULL Value
~CURVE INFORMATION BLOCK
#MNEM UNIT       ERCB CURVE CODE    CURVE DESCRIPTION
#-----------   ------------------   ----------------------------------
DEPT.M        00 001 00 00         : DEPTH        - DEPTH
ILD .OHMM     00 120 00 00         : RESD         - DEEP RESISTIVITY (DIL)
DPHI.V/V      00 890 00 00         : PHID         - DENSITY POROSITY (LIMESTONE)
NPHI.V/V      00 330 00 00         : PHIN         - NEUTRON POROSITY (LIMESTONE)
GR  .API      00 310 00 00         : GR           - GAMMA RAY
~PARAMETER INFORMATION
#MNEM.UNIT           DATA             DESCRIPTION OF MNEMONIC
#---------         -----------     ------------------------------
GL  .M        703.68               : gl           - GROUND LEVEL ELEVATION
EREF.M        702.89               : kb           - ELEVATION OF DEPTH REFERENCE
DATM.M        703.68               : datum        - DATUM ELEVATION
TDD .M        578                  : tdd          - TOTAL DEPTH DRILLER
RUN .         ONE                  : Run          - RUN NUMBER
ENG .         BILL                 : Engineer     - RECORDING ENGINEER
WIT .         JIM                  : Witness      - WITNESSED BY
MUD .         GEL                  : Mud_type     - MUD TYPE
MATR.         LIMESTONE            : Logunit      - NEUTRON MATRIX
TMAX.C        17                   : BHT          - MAXIMUM RECORDED TEMPERATURE
BHTD.M        578                  : BHTDEP       - MAXIMUM RECORDED TEMPERATURE
MATR.         1                    : LOGUNIT      - NEUTRON MATRIX
RMT .C        25                   : MDTP         - TEMPERATURE OF MUD
NEUT.         1                    : NEUTRON      - NEUTRON TYPE
RESI.         0                    : RESIST       - RESISTIVITY TYPE
RMC .OHMM     0.25                 : RMC          - RESISTIVITY OF MUD CAKE
RMF .OHMM     0.25                 : RMF          - RESISTIVITY OF MUD FILTRATE
SUFT.C        15                   : SUFT         - SURFACE TEMPERATURE
~A  DEPTH     RESD     PHID     PHIN       GR
# ...
  532.500    5.759    0.223    0.463  101.482
  532.750    5.654    0.194    0.461  102.684
  533.000    5.449    0.197    0.460   98.465
  533.250    5.251    0.235    0.455   88.221
  533.500    5.061    0.257    0.414   87.014
  533.750    4.968    0.242    0.383   93.638
  534.000    4.788    0.237    0.408   97.250
  534.250    4.700    0.229    0.408   87.609
  534.500    4.447    0.273    0.400   78.570
  534.750    4.285    0.303    0.398   71.942
  535.000    4.054    0.295    0.398   67.722
  535.250    3.907    0.283    0.383   63.503
  535.500    4.286    0.270    0.363   63.501
  535.750    4.532    0.260    0.350   78.558
  536.000    4.880    0.244    0.358   85.785
  536.250    5.065    0.232    0.363   93.011
  536.500    5.355    0.217    0.370   95.417
  536.750    5.455    0.199    0.373   97.222
  537.000    5.558    0.203    0.373   97.822
  537.250    5.456    0.226    0.385   95.410
  537.500    5.456    0.242    0.399   96.010
  537.750    5.357    0.241    0.409  102.031
  538.000    5.457    0.235    0.404  104.439
  538.250    5.560    0.230    0.395  106.846
  538.500    5.560    0.221    0.389  106.843
  538.750    5.771    0.218    0.395  104.431
  539.000    5.771    0.225    0.399  100.212
  539.250    5.665    0.216    0.389  100.812
  539.500    5.666    0.209    0.369  100.810
  539.750    5.460    0.213    0.361   99.602
  540.000    5.360    0.231    0.363   96.588
  540.250    5.166    0.242    0.369   92.971
  540.500    4.978    0.243    0.369   91.763
  540.750    4.710    0.243    0.369   90.556
  541.000    4.624    0.254    0.379   87.541
  541.250    4.456    0.266    0.386   84.527
  541.500    4.375    0.260    0.378   83.320
  541.750    4.295    0.258    0.372   89.341
  542.000    4.295    0.256    0.366   93.556
  542.250    4.216    0.256    0.355   88.132
  542.500    4.217    0.271    0.351   80.900
  542.750    4.296    0.265    0.349   74.874
  543.000    4.296    0.266    0.348   69.449
  543.250    4.297    0.260    0.361   67.640
  543.500    4.297    0.269    0.365   64.625
  543.750    4.297    0.265    0.364   62.213
  544.000    4.298    0.262    0.366   60.404
  544.250    4.219    0.280    0.373   55.582
  544.500    4.066    0.313    0.361   47.146
  544.750    3.846    0.299    0.360   42.324
  545.000    3.639    0.304    0.366   41.117
  545.250    3.442    0.296    0.361   42.319
  545.500    3.257    0.290    0.348   42.317
  545.750    3.197    0.287    0.348   39.904
  546.000    3.081    0.296    0.361   37.492
  546.250    3.025    0.312    0.373   35.683
  546.500    2.915    0.321    0.384   34.476
  546.750    2.758    0.320    0.394   33.268
  547.000    2.707    0.324    0.404   32.663
  547.250    2.609    0.321    0.410   32.661
  547.500    2.561    0.306    0.394   34.466
  547.750    2.515    0.311    0.375   35.066
  548.000    2.515    0.298    0.363   33.858
  548.250    2.515    0.307    0.366   32.651
  548.500    2.515    0.318    0.368   34.456
  548.750    2.562    0.309    0.366   43.489
  549.000    2.610    0.301    0.357   56.137
  549.250    2.760    0.296    0.348   63.966
  549.500    3.142    0.283    0.340   73.602
  549.750    3.384    0.263    0.334   77.214
  550.000    3.998    0.240    0.326   80.223
  550.250    4.227    0.227    0.323   82.630
  550.500    4.812    0.215    0.339   84.435
  550.750    5.087    0.211    0.353   85.035
  551.000    5.581    0.209    0.347   88.647
  551.250    5.792    0.208    0.345   91.656
  551.500    6.124    0.219    0.369   89.847
  551.750    6.124    0.211    0.392   71.169
  552.000    5.687    0.241    0.381   63.336
  552.250    5.090    0.268    0.374   56.708
  552.500    4.815    0.279    0.362   51.886
  552.750    4.390    0.272    0.356   58.509
  553.000    4.230    0.283    0.372   60.314
  553.250    4.077    0.294    0.390   56.095
  553.500    4.077    0.304    0.401   50.069
  553.750    4.077    0.301    0.385   34.403
  554.000    4.078    0.290    0.368   31.991
  554.250    4.078    0.260    0.362   35.001
  554.500    4.004    0.240    0.380   72.347
  554.750    3.787    0.250    0.390   81.983
  555.000    3.718    0.255    0.390   77.162
  555.250    3.718    0.249    0.384   73.544
  555.500    3.651    0.254    0.398   71.735
  555.750    3.719    0.265    0.390   72.335
  556.000    3.789    0.264    0.394   69.922
  556.250    3.932    0.255    0.385   67.511
  556.500    4.006    0.243    0.383   64.495
  556.750    4.081    0.270    0.389   62.083
  557.000    4.158    0.259    0.388   60.877
  557.250    4.158    0.252    0.400   53.645
  557.500    4.082    0.252    0.414   47.016
  557.750    3.721    0.253    0.400   42.797
  558.000    3.586    0.265    0.362   37.976
  558.250    3.331    0.282    0.346   34.961
  558.500    3.210    0.293    0.357   32.549
  558.750    2.981    0.307    0.364   36.763
  559.000    2.872    0.305    0.364   36.158
  559.250    4.161    0.297    0.376   32.542
  559.500    5.294    0.279    0.378   30.130
  559.750    6.254    0.214    0.368   29.524
  560.000    8.257    0.053    0.382   28.317
