~VERSION INFORMATION
 VERS.                 2.0:   CWLS LOG ASCII STANDARD -VERSION 2.0
 WRAP.                  NO:   ONE LINE PER DEPTH STEP
~WELL INFORMATION BLOCK
#MNEM.UNIT           DATA                    DESCRIPTION OF MNEMONIC
#---------    -------------------            -------------------------------
# Generated from Intellog Unique Number	CW_73_75/WELL/2731
WELL.         RIVA KELLY 07-22               : Well_name    - WELL
LOC .         00/07-22-073-19W4/0            : Location     - LOCATION
UWI .         00/07-22-073-19W4/0            : Uwi          - UNIQUE WELL ID
ENTR.         JAYE                           : Entered      - ENTERED BY
SRVC.         SCHLUMBERGER                   : Scn          - SERVICE COMPANY
DATE.         16 DEC 77                      : Date         - LOG DATE
STRT.M        365.76                         : top_depth    - START DEPTH
STOP.M        570.01                         : bot_depth    - STOP DEPTH
STEP.M        0.25                           : increment    - STEP LENGTH
 NULL. -999.2500:NULL Value
~CURVE INFORMATION BLOCK
#MNEM UNIT       ERCB CURVE CODE    CURVE DESCRIPTION
#-----------   ------------------   ----------------------------------
DEPT.M        00 001 00 00         : DEPTH        - DEPTH
ILD .OHMM     00 120 00 00         : RESD         - DEEP RESISTIVITY (DIL)
NPHI.V/V      00 330 00 00         : PHIN         - NEUTRON POROSITY (SANDSTONE)
DPHI.V/V      00 890 00 00         : PHID         - DENSITY POROSITY (SANDSTONE)
GR  .API      00 310 00 00         : GR           - GAMMA RAY
CALI.MM       00 280 01 00         : CAL          - CALIPER
~PARAMETER INFORMATION
#MNEM.UNIT           DATA             DESCRIPTION OF MNEMONIC
#---------         -----------     ------------------------------
GL  .M        670.865              : gl           - GROUND LEVEL ELEVATION
EREF.M        673.913              : kb           - ELEVATION OF DEPTH REFERENCE
DATM.M        670.865              : datum        - DATUM ELEVATION
TDD .M        567.842              : tdd          - TOTAL DEPTH DRILLER
RUN .         ONE                  : Run          - RUN NUMBER
ENG .         DALY                 : Engineer     - RECORDING ENGINEER
WIT .         STEIDEL              : Witness      - WITNESSED BY
BASE.         EDM                  : Branch       - HOME BASE OF LOGGING UNIT
MUD .         DAPP                 : Mud_type     - MUD TYPE
MATR.         SANDSTONE            : Logunit      - NEUTRON MATRIX
TMAX.C        23.3333              : BHT          - MAXIMUM RECORDED TEMPERATURE
BHTD.M        566.318              : BHTDEP       - MAXIMUM RECORDED TEMPERATURE
RMT .C        18.8889              : MDTP         - TEMPERATURE OF MUD
MUDD.KG/M     1176                 : MWT          - MUD DENSITY
NEUT.         1                    : NEUTRON      - NEUTRON TYPE
RESI.         0                    : RESIST       - RESISTIVITY TYPE
RM  .OHMM     0.99                 : RM           - RESISTIVITY OF MUD
RMC .OHMM     0                    : RMC          - RESISTIVITY OF MUD CAKE
RMF .OHMM     0                    : RMF          - RESISTIVITY OF MUD FILTRATE
SUFT.C        -17.7778             : SUFT         - SURFACE TEMPERATURE
~A  DEPTH     RESD     PHIN     PHID       GR      CAL
  365.760    2.356    0.495    0.201  113.477  168.147
  366.010    2.452    0.488    0.209  110.558  168.276
  366.260    2.527    0.498    0.216  106.579  168.517
  366.510    2.567    0.498    0.215  102.911  168.758
  366.760    2.563    0.498    0.210   99.866  168.996
  367.010    2.588    0.498    0.210   99.632  169.552
  367.260    2.569    0.498    0.208  103.897  170.221
  367.510    2.522    0.499    0.206  104.726  170.671
  367.760    2.443    0.501    0.216  105.871  170.690
  368.010    2.385    0.495    0.225  107.569  169.349
  368.260    2.328    0.501    0.223  110.959  168.533
  368.510    2.316    0.507    0.220  111.911  167.926
  368.760    2.387    0.494    0.223  112.053  167.106
  369.010    2.499    0.484    0.224  108.885  166.390
  369.260    2.581    0.481    0.223  103.468  165.361
  369.510    2.616    0.474    0.214  103.047  163.592
  369.760    2.617    0.489    0.208  104.252  162.352
  370.010    2.579    0.501    0.216  104.643  161.433
  370.260    2.517    0.519    0.224  106.594  161.350
  370.510    2.480    0.535    0.226  107.298  161.377
  370.760    2.500    0.534    0.223  105.380  161.736
  371.010    2.544    0.526    0.221  102.836  162.181
  371.260    2.622    0.517    0.220  100.041  162.525
  371.510    2.787    0.499    0.213   96.000  162.552
  371.760    3.086    0.481    0.147   90.581  162.583
  372.010    3.570    0.447    0.112   85.164  162.184
  372.260    4.114    0.403    0.157   79.873  161.681
  372.510    4.575    0.426    0.196   78.016  159.806
  372.760    4.954    0.437    0.230   77.534  158.354
  373.010    4.691    0.443    0.273   74.366  156.162
  373.260    4.502    0.444    0.297   73.944  153.865
  373.510    4.264    0.444    0.295   75.896  152.308
  373.760    4.053    0.433    0.300   79.473  151.171
  374.010    3.949    0.432    0.314   85.486  149.611
  374.260    3.980    0.448    0.328   90.186  148.686
  374.510    4.150    0.456    0.331   93.763  148.299
  374.760    4.427    0.446    0.327   99.774  148.747
  375.010    4.793    0.453    0.321  104.288  150.146
  375.260    5.103    0.458    0.304  102.243  152.608
  375.510    5.143    0.440    0.196   97.952  153.481
  375.760    5.078    0.379    0.204   94.284  154.149
  376.010    5.080    0.384    0.229   91.677  154.388
  376.260    5.110    0.388    0.241   89.695  153.782
  376.510    5.141    0.391    0.243   88.400  153.384
  376.760    5.113    0.402    0.247   88.291  152.888
  377.010    5.096    0.412    0.251   90.182  152.812
  377.260    5.079    0.404    0.256   92.821  152.730
  377.510    5.052    0.394    0.254   95.337  152.649
  377.760    5.034    0.389    0.245   97.790  152.469
  378.010    5.007    0.391    0.241   99.429  152.179
  378.260    4.991    0.397    0.242   99.945  152.416
  378.510    4.982    0.407    0.240  101.211  153.294
  378.760    4.965    0.416    0.230  103.539  153.959
  379.010    4.939    0.425    0.219  104.617  154.406
  379.260    4.922    0.429    0.209  102.574  155.067
  379.510    4.896    0.441    0.197  103.838  155.520
  379.760    4.851    0.435    0.198  105.416  155.970
  380.010    4.826    0.432    0.227  104.871  156.529
  380.260    4.809    0.432    0.230  103.014  156.871
  380.510    4.784    0.429    0.237  102.780  157.005
  380.760    4.803    0.420    0.246  100.487  156.721
  381.010    4.805    0.413    0.257   98.005  156.220
  381.260    4.815    0.411    0.253   97.209  154.870
  381.510    4.727    0.411    0.251   96.729  153.313
  381.760    4.485    0.411    0.250   95.870  153.975
  382.010    4.232    0.413    0.256   95.136  155.486
  382.260    4.031    0.418    0.267   96.403  156.465
  382.510    3.861    0.429    0.281   98.542  157.445
  382.760    3.754    0.445    0.295  100.745  157.791
  383.010    3.727    0.457    0.309  100.136  157.711
  383.260    3.764    0.456    0.305  100.529  156.896
  383.510    4.146    0.440    0.288  101.983  155.758
  383.760    4.506    0.426    0.269  101.873  154.199
  384.010    4.879    0.409    0.255   99.954  152.643
  384.260    5.204    0.404    0.248   98.909  152.462
  384.510    5.519    0.401    0.241  100.923  153.017
  384.760    5.777    0.393    0.234  102.315  153.999
  385.010    5.922    0.395    0.226  101.457  154.975
  385.260    5.925    0.404    0.226   98.726  156.066
  385.510    5.882    0.409    0.238   92.934  156.514
  385.760    5.741    0.411    0.248   85.643  155.694
  386.010    5.499    0.411    0.256   76.730  154.137
  386.260    5.179    0.405    0.269   62.944  153.322
  386.510    4.804    0.396    0.291   47.223  152.818
  386.760    4.515    0.385    0.312   38.371  152.528
  387.010    4.475    0.376    0.327   33.081  151.609
  387.260    4.510    0.366    0.317   32.410  150.262
  387.510    4.571    0.359    0.297   34.049  148.704
  387.760    4.599    0.352    0.269   38.126  147.566
  388.010    4.498    0.358    0.250   43.700  147.276
  388.260    4.349    0.365    0.254   49.401  148.894
  388.510    4.181    0.373    0.285   53.602  149.765
  388.760    4.043    0.378    0.299   60.863  151.063
  389.010    4.037    0.379    0.289   67.186  152.577
  389.260    4.138    0.381    0.273   74.885  153.344
  389.510    4.291    0.384    0.254   81.334  153.793
  389.760    4.482    0.389    0.240   87.409  154.030
  390.010    4.754    0.394    0.244   90.050  154.064
  390.260    4.874    0.398    0.248   92.128  153.560
  390.510    4.713    0.404    0.255   94.392  151.685
  390.760    4.242    0.416    0.273   97.842  150.653
  391.010    3.861    0.430    0.286  103.731  152.061
  391.260    3.508    0.449    0.291  108.930  153.883
  391.510    3.223    0.468    0.281  115.441  158.038
  391.760    2.990    0.488    0.260  115.459  162.404
  392.010    2.789    0.517    0.238  112.353  165.073
  392.260    2.733    0.534    0.223  111.807  166.263
  392.510    2.683    0.535    0.230  115.508  167.350
  392.760    2.560    0.520    0.256  118.960  170.443
  393.010    2.499    0.523    0.283  122.662  177.768
  393.260    2.542    0.537    0.295  125.176  175.152
  393.510    2.671    0.550    0.299  126.817  174.229
  393.760    2.865    0.563    0.297  128.956  178.171
  394.010    3.120    0.562    0.284  130.098  177.461
  394.260    3.424    0.506    0.255  125.805  174.420
  394.510    3.923    0.457    0.239  119.575  167.573
  394.760    4.479    0.432    0.228  117.594  160.942
  395.010    4.933    0.422    0.235  119.796  155.366
  395.260    4.925    0.412    0.238  119.065  150.109
  395.510    4.871    0.423    0.230  116.833  148.758
  395.760    4.882    0.444    0.223  114.475  150.583
  396.010    4.958    0.459    0.228  110.934  153.366
  396.260    5.026    0.471    0.251  104.829  156.246
  396.510    5.162    0.483    0.272   98.850  161.031
  396.760    5.342    0.482    0.287   93.683  158.734
  397.010    5.508    0.463    0.305   77.900  152.416
  397.260    5.721    0.450    0.317   68.548  145.888
  397.510    5.899    0.441    0.319   66.568  142.215
  397.760    5.934    0.432    0.318   67.020  141.188
  398.010    5.892    0.440    0.318   69.661  144.069
  398.260    5.816    0.451    0.319   70.177  146.846
  398.510    5.710    0.460    0.326   67.945  148.361
  398.760    5.636    0.464    0.328   65.963  149.338
  399.010    5.596    0.463    0.326   65.730  151.061
  399.260    5.608    0.454    0.323   66.059  152.037
  399.510    5.642    0.445    0.321   66.701  152.063
  399.760    5.697    0.440    0.321   67.215  151.459
  400.010    5.765    0.441    0.322   68.295  150.851
  400.260    5.799    0.441    0.329   69.499  149.716
  400.510    5.746    0.430    0.337   70.514  147.632
  400.760    5.726    0.435    0.334   71.904  145.438
  401.010    5.697    0.444    0.320   73.670  144.196
  401.260    5.623    0.452    0.306   76.184  143.170
  401.510    5.572    0.454    0.290   79.136  142.775
  401.760    5.511    0.446    0.280   82.213  142.484
  402.010    5.451    0.440    0.267   86.163  142.620
