~VERSION INFORMATION
 VERS.                 2.0:   CWLS LOG ASCII STANDARD -VERSION 2.0
 WRAP.                  NO:   ONE LINE PER DEPTH STEP
~WELL INFORMATION BLOCK
#MNEM.UNIT           DATA                    DESCRIPTION OF MNEMONIC
#---------    -------------------            -------------------------------
# Generated from Intellog Unique Number	CS_73_76/WELL/619
WELL.         MATNARD EXPLORATION            : Well_name    - WELL
LOC .         00/06-07-073-11W4/0            : Location     - LOCATION
UWI .         00/06-07-073-11W4/0            : Uwi          - UNIQUE WELL ID
ENTR.         SP                             : Entered      - ENTERED BY
SRVC.         SCHLUMBERGER                   : Scn          - SERVICE COMPANY
STRT.M        295                            : top_depth    - START DEPTH
STOP.M        544                            : bot_depth    - STOP DEPTH
STEP.M        0.25                           : increment    - STEP LENGTH
 NULL. -999.2500:NULL Value
~CURVE INFORMATION BLOCK
#MNEM UNIT       ERCB CURVE CODE    CURVE DESCRIPTION
#-----------   ------------------   ----------------------------------
DEPT.M        00 001 00 00         : DEPTH        - DEPTH
ILD .OHMM     00 120 00 00         : RESD         - DEEP RESISTIVITY (DIL)
DPHI.V/V      00 890 00 00         : PHID         - DENSITY POROSITY (LIMESTONE)
NPHI.V/V      00 330 00 00         : PHIN         - NEUTRON POROSITY (LIMESTONE)
GR  .API      00 310 00 00         : GR           - GAMMA RAY
~PARAMETER INFORMATION
#MNEM.UNIT           DATA             DESCRIPTION OF MNEMONIC
#---------         -----------     ------------------------------
GL  .M        656.4                : gl           - GROUND LEVEL ELEVATION
EREF.M        659.2                : kb           - ELEVATION OF DEPTH REFERENCE
DATM.M        656.4                : datum        - DATUM ELEVATION
TDD .M        552.67               : tdd          - TOTAL DEPTH DRILLER
RUN .         ONE                  : Run          - RUN NUMBER
ENG .         BILL                 : Engineer     - RECORDING ENGINEER
WIT .         JIM                  : Witness      - WITNESSED BY
MUD .         GEL                  : Mud_type     - MUD TYPE
MATR.         LIMESTONE            : Logunit      - NEUTRON MATRIX
TMAX.C        19                   : BHT          - MAXIMUM RECORDED TEMPERATURE
BHTD.M        552.67               : BHTDEP       - MAXIMUM RECORDED TEMPERATURE
MATR.         1                    : LOGUNIT      - NEUTRON MATRIX
RMT .C        25                   : MDTP         - TEMPERATURE OF MUD
NEUT.         1                    : NEUTRON      - NEUTRON TYPE
RESI.         0                    : RESIST       - RESISTIVITY TYPE
RMC .OHMM     0.25                 : RMC          - RESISTIVITY OF MUD CAKE
RMF .OHMM     0.25                 : RMF          - RESISTIVITY OF MUD FILTRATE
SUFT.C        15                   : SUFT         - SURFACE TEMPERATURE
~A  DEPTH     RESD     PHID     PHIN       GR
  295.000    2.608    0.245    0.527  115.339
  295.250    2.687    0.249    0.521  117.728
  295.500    2.686    0.240    0.510  118.923
  295.750    2.764    0.228    0.528  117.727
  296.000    2.842    0.216    0.536  113.543
  296.250    3.078    0.200    0.515  109.956
  296.500    3.314    0.178    0.520  108.761
  296.750    3.392    0.149    0.535  106.369
  297.000    3.707    0.148    0.521  103.978
  297.250    3.864    0.166    0.501  101.587
  297.500    4.021    0.174    0.497   99.196
  297.750    3.942    0.193    0.488  106.367
  298.000    3.862    0.217    0.504  111.744
  298.250    3.544    0.219    0.521  111.146
  298.500    3.385    0.222    0.526  110.548
  298.750    3.147    0.230    0.517  112.937
  299.000    3.067    0.231    0.520  112.937
  299.250    2.829    0.230    0.535  112.936
  299.500    2.828    0.240    0.548  110.545
  299.750    2.748    0.232    0.549  110.544
  300.000    2.826    0.230    0.541  111.141
  300.250    2.904    0.241    0.536  111.737
  300.500    3.061    0.244    0.548  112.335
  300.750    3.139    0.247    0.540  113.529
  301.000    3.218    0.235    0.553  115.919
  301.250    3.295    0.227    0.534  118.906
  301.500    3.294    0.229    0.547  114.125
  301.750    3.214    0.236    0.536  111.136
  302.000    3.214    0.241    0.538  109.940
  302.250    3.134    0.232    0.522  106.951
  302.500    2.974    0.238    0.504  105.157
  302.750    2.973    0.240    0.494  108.742
  303.000    2.893    0.232    0.497  108.742
  303.250    3.050    0.257    0.489  106.351
  303.500    3.208    0.272    0.463   99.178
  303.750    3.444    0.282    0.445   89.616
  304.000    3.838    0.289    0.423   81.249
  304.250    4.232    0.305    0.260   74.674
  304.500    5.259    0.317    0.230   60.928
  304.750    6.602    0.334    0.196   51.366
  305.000   19.841    0.347    0.184   52.560
  305.250   23.809    0.356    0.180   53.157
  305.500   39.682    0.344    0.177   54.352
  305.750   59.524    0.343    0.180   58.534
  306.000   57.937    0.330    0.196   63.912
  306.250   51.587    0.331    0.212   68.095
  306.500   45.238    0.319    0.221   72.277
  306.750   38.095    0.311    0.242   72.874
  307.000   31.746    0.285    0.268   78.849
  307.250   26.191    0.260    0.325   85.422
  307.500   15.050    0.234    0.392   90.203
  307.750   11.729    0.219    0.428   95.580
  308.000   10.226    0.221    0.442   98.568
  308.250    9.039    0.225    0.447  100.957
  308.500    8.485    0.225    0.448  102.750
  308.750    8.009    0.222    0.449  105.139
  309.000    7.613    0.217    0.453  105.736
  309.250    7.375    0.222    0.456  106.931
  309.500    7.216    0.227    0.453  106.930
  309.750    7.057    0.225    0.451  108.722
  310.000    6.897    0.221    0.447  112.904
  310.250    6.818    0.214    0.466  114.697
  310.500    6.579    0.206    0.476  116.489
  310.750    6.341    0.200    0.466  117.086
  311.000    6.182    0.203    0.464  117.085
  311.250    6.102    0.212    0.464  117.084
  311.500    6.259    0.227    0.444  112.900
  311.750    6.575    0.237    0.436  106.326
  312.000    7.048    0.247    0.425  103.934
  312.250    7.600    0.240    0.448  107.519
  312.500    8.153    0.234    0.461  109.312
  312.750    8.468    0.221    0.462  109.908
  313.000    8.783    0.214    0.460  106.920
  313.250    7.754    0.206    0.454  105.126
  313.500    6.963    0.196    0.447  106.321
  313.750    6.409    0.189    0.443  106.320
  314.000    5.933    0.180    0.442  105.721
  314.250    5.616    0.184    0.453  106.916
  314.500    5.378    0.190    0.460  108.111
  314.750    5.298    0.214    0.469  102.731
  315.000    6.009    0.233    0.446   90.778
  315.250    6.956    0.246    0.398   84.801
  315.500    7.746    0.253    0.383   81.215
  315.750    8.614    0.262    0.369   78.824
  316.000    9.641    0.273    0.364   77.628
  316.250   10.351    0.285    0.370   70.456
  316.500   10.903    0.288    0.370   60.893
  316.750   11.140    0.281    0.367   57.307
  317.000   11.929    0.278    0.364   50.733
  317.250   12.561    0.289    0.357   45.353
  317.500   13.034    0.294    0.351   43.560
  317.750   13.508    0.299    0.345   42.364
  318.000   13.507    0.291    0.342   42.363
  318.250   13.348    0.289    0.356   41.765
  318.500   12.793    0.305    0.369   39.374
  318.750   12.555    0.311    0.377   40.568
  319.000   12.238    0.312    0.380   44.153
  319.250   12.000    0.312    0.375   45.945
  319.500   11.919    0.313    0.367   47.737
  319.750   11.998    0.307    0.358   39.370
  320.000   12.471    0.298    0.355   35.186
  320.250   12.865    0.287    0.350   33.990
  320.500   13.418    0.284    0.347   34.587
  320.750   13.812    0.284    0.351   35.782
  321.000   13.969    0.287    0.356   37.574
  321.250   13.968    0.297    0.357   37.573
  321.500   13.967    0.303    0.364   36.377
  321.750   13.887    0.297    0.365   35.181
  322.000   13.886    0.293    0.362   34.583
  322.250   14.201    0.301    0.354   33.984
  322.500   14.358    0.293    0.349   33.983
  322.750   14.437    0.295    0.349   33.385
  323.000   14.594    0.306    0.343   33.982
  323.250   14.672    0.307    0.338   34.579
  323.500   14.750    0.304    0.331   35.773
  323.750   14.828    0.313    0.326   36.370
  324.000   14.748    0.318    0.336   36.370
  324.250   14.668    0.312    0.335   34.576
  324.500   14.430    0.310    0.337   32.782
  324.750   14.191    0.307    0.351   32.782
  325.000   14.191    0.310    0.364   32.781
  325.250   14.190    0.311    0.369   33.378
  325.500   14.189    0.312    0.374   33.975
  325.750   14.030    0.306    0.375   33.377
  326.000   13.950    0.297    0.373   31.583
  326.250   13.870    0.291    0.388   30.985
  326.500   13.869    0.288    0.393   33.374
  326.750   13.947    0.300    0.382   33.971
  327.000   13.946    0.297    0.367   33.971
  327.250   14.024    0.299    0.355   32.177
  327.500   14.260    0.306    0.362   31.579
  327.750   14.496    0.312    0.354   29.785
  328.000   14.653    0.303    0.349   29.784
  328.250   14.810    0.299    0.344   30.381
  328.500   14.651    0.297    0.341   33.368
  328.750   14.492    0.301    0.344   34.563
  329.000   14.333    0.307    0.357   35.160
  329.250   14.332    0.304    0.369   35.159
  329.500   14.410    0.306    0.382   34.561
  329.750   14.330    0.299    0.376   34.560
  330.000   14.408    0.293    0.368   33.962
  330.250   14.407    0.284    0.357   33.364
  330.500   14.169    0.280    0.351   32.765
  330.750   14.247    0.285    0.345   32.764
  331.000   14.404    0.292    0.341   33.361
  331.250   14.482    0.291    0.350   33.958
  331.500   14.482    0.288    0.363   36.348
  331.750   14.322    0.291    0.370   36.944
  332.000   14.005    0.294    0.376   36.944
  332.250   13.925    0.301    0.361   35.748
  332.500   13.845    0.309    0.353   35.150
  332.750   13.844    0.303    0.342   32.758
  333.000   13.843    0.304    0.340   31.563
  333.250   13.842    0.310    0.341   30.964
  333.500   13.841    0.307    0.338   31.561
  333.750   13.840    0.305    0.349   32.158
  334.000   13.839    0.309    0.363   33.950
  334.250   13.838    0.311    0.377   34.547
  334.500   13.837    0.309    0.372   35.144
  334.750   13.757    0.313    0.362   34.545
  335.000   13.677    0.318    0.375   33.947
  335.250   13.439    0.319    0.386   33.946
  335.500   13.201    0.316    0.388   33.946
  335.750   13.121    0.312    0.383   35.738
  336.000   12.883    0.312    0.382   37.530
  336.250   12.724    0.306    0.385   37.529
  336.500   12.565    0.303    0.380   37.528
  336.750   12.484    0.297    0.382   37.528
  337.000   12.483    0.291    0.386   36.331
  337.250   12.641    0.291    0.376   35.733
  337.500   12.956    0.296    0.370   34.538
  337.750   13.034    0.303    0.365   33.341
  338.000   13.033    0.306    0.363   32.145
  338.250   13.111    0.317    0.370   32.145
