~VERSION INFORMATION
 VERS.                 2.0:   CWLS LOG ASCII STANDARD -VERSION 2.0
 WRAP.                  NO:   ONE LINE PER DEPTH STEP
~WELL INFORMATION BLOCK
#MNEM.UNIT           DATA                    DESCRIPTION OF MNEMONIC
#---------    -------------------            -------------------------------
# Generated from Intellog Unique Number	CW_70_72/WELL/3302
NULL.         -999.25                        : NULL_VALUE
WELL.         CALSTAN MITSUE                 : Well_name    - WELL              
LOC .         04-18-072-04W5                 : Location     - LOCATION          
UWI .         00/04-18-072-04W5/0            : Uwi          - UNIQUE WELL ID    
ENTR.         CAMPBELL                       : Entered      - ENTERED BY        
SRVC.         SCHLUMBERGER                   : Scn          - SERVICE COMPANY   
DATE.         10 OCT 1964                    : Date         - LOG DATE          
STRT.M        481.584                        : top_depth    - START DEPTH       
STOP.M        624.834                        : bot_depth    - STOP DEPTH        
STEP.M        0.25                           : increment    - STEP LENGTH       
~CURVE INFORMATION BLOCK
#MNEM UNIT       ERCB CURVE CODE    CURVE DESCRIPTION
#-----------   ------------------   ----------------------------------
DEPT.M        00 001 00 00         : DEPTH        - DEPTH                       
ILD .OHMM     00 120 00 00         : RESD         - DEEP RESISTIVITY (DIL)      
DELT.US/F     00 520 00 00         : DELT         - SONIC TRAVEL TIME           
GR  .API      00 310 00 00         : GR           - GAMMA RAY                   
~PARAMETER INFORMATION       
#MNEM.UNIT           DATA             DESCRIPTION OF MNEMONIC
#---------         -----------     ------------------------------
GL  .M        589.3                : gl           - GROUND LEVEL ELEVATION      
EREF.M        593.446              : kb           - ELEVATION OF DEPTH REFERENCE
DATM.M        593.446              : datum        - DATUM ELEVATION             
TDD .M        1691.34              : tdd          - TOTAL DEPTH DRILLER         
RUN .         ONE                  : Run          - RUN NUMBER                  
MUD .         GEL                  : Mud_type     - MUD TYPE                    
MATR.         SANDSTONE            : Logunit      - NEUTRON MATRIX              
TMAX.C        53.3333              : BHT          - MAXIMUM RECORDED TEMPERATURE
BHTD.M        1691.34              : BHTDEP       - MAXIMUM RECORDED TEMPERATURE
RMT .C        17.7778              : MDTP         - TEMPERATURE OF MUD          
MUDD.KG/M     9600                 : MWT          - MUD DENSITY                 
NEUT.         1                    : NEUTRON      - NEUTRON TYPE                
RESI.         0                    : RESIST       - RESISTIVITY TYPE            
RM  .OHMM     1.38                 : RM           - RESISTIVITY OF MUD          
RMC .OHMM     1.97                 : RMC          - RESISTIVITY OF MUD CAKE     
RMF .OHMM     1.1                  : RMF          - RESISTIVITY OF MUD FILTRATE 
SUFT.C        10                   : SUFT         - SURFACE TEMPERATURE         
~A  DEPTH     RESD     DELT       GR
# ...
  590.084    3.482  364.514   67.688
  590.334    3.535  362.263   67.202
  590.584    3.538  354.861   65.303
  590.834    3.641  347.460   64.583
  591.084    3.742  340.057   63.861
  591.334    3.844  339.739   64.796
  591.584    3.946  342.318   65.731
  591.834    4.097  341.999   66.663
  592.084    4.199  342.003   68.069
  592.334    4.202  348.446   69.476
  592.584    4.108  341.044   66.394
  592.834    3.965  330.100   64.729
  593.084    3.675  345.880   63.300
  593.334    3.532  356.830   62.816
  593.584    3.438  350.394   62.570
  593.834    3.344  335.265   62.085
  594.084    3.201  328.186   63.021
  594.334    3.058  359.097   66.081
  594.584    2.964  376.809   67.486
  594.834    2.869  332.381   63.696
  595.084    2.678  336.570   65.103
  595.334    2.583  325.304   71.233
  595.584    2.440  344.626   77.836
  595.834    2.346  365.557   79.951
  596.084    2.350  371.034   82.537
  596.334    2.353  323.386   84.652
  596.584    2.309  383.275   83.696
  596.834    2.313  359.775   81.795
  597.084    2.316  369.116   79.423
  597.334    2.369  464.422   80.357
  597.584    2.422  344.009   82.942
  597.834    2.573  365.906   85.768
  598.084    2.772  275.114   89.537
  598.334    3.119  275.118   87.633
  598.584    3.418  317.299   83.843
  598.834    3.616  320.200   80.998
  599.084    3.914  274.162   81.224
  599.334    4.065  296.059   83.338
  599.584    4.167  302.824   85.218
  599.834    4.073  291.880   88.748
  600.084    4.027  309.592   90.628
  600.334    4.228  364.974   89.200
  600.584    4.476  316.360   75.251
  600.834    5.117  264.526   69.570
  601.084    5.806  283.204   72.866
  601.334    5.418  293.832   76.635
  601.584    5.128  321.203   80.167
  601.834    4.936  362.418   79.447
  602.084    4.940  317.990   79.437
  602.334    5.041  311.554   79.661
  602.584    5.095  335.383   80.121
  602.834    5.050  323.474   80.112
  603.084    4.809  302.871   80.572
  603.334    4.567  328.954   81.034
  603.584    4.425  332.821   80.787
  603.834    4.379  317.370   78.649
  604.084    4.285  299.343   77.221
  604.334    4.142  296.127   79.100
  604.584    4.048  358.270   82.158
  604.834    4.004  343.141   80.494
  605.084    3.957  331.875   78.829
  605.334    3.962  329.625   77.874
  605.584    3.966  376.314   78.098
  605.834    3.969  360.219   78.797
  606.084    3.875  262.988   80.439
  606.334    3.781  320.301   82.789
  606.584    3.638  338.657   84.432
  606.834    3.593  330.289   83.474
  607.084    3.548  321.600   82.521
  607.334    3.355  329.330   84.398
  607.584    2.968  320.318   86.042
  607.834    2.629  305.189   88.630
  608.084    2.241  326.442   87.436
  608.334    2.049  415.631   84.119
  608.584    1.906  400.180   81.744
  608.834    1.860  378.933   79.843
  609.084    1.717  463.614   77.470
  609.334    1.623  472.955   74.861
  609.584    1.529  459.113   73.668
  609.834    1.484  163.228   75.784
  610.084    1.488  286.223   79.314
  610.334    1.541  300.393   81.667
  610.584    1.692  326.798   83.782
  610.834    1.842  266.271   80.700
  611.084    2.091  222.487   70.767
  611.334    2.389  215.085   67.683
  611.584    2.588  234.729   68.854
  611.834    2.886  268.539   70.025
  612.084    3.037  322.633   72.848
  612.334    3.090  339.378   75.671
  612.584    3.094  296.238   77.549
  612.834    3.098  317.169   78.013
  613.084    3.151  317.173   78.709
  613.334    3.154  314.922   78.460
  613.584    3.158  345.191   77.505
  613.834    3.162  361.936   76.550
  614.084    3.215  377.716   75.356
  614.334    3.267  392.530   74.166
  614.584    3.320  315.583   72.972
  614.834    3.226  303.996   72.491
  615.084    3.083  324.605   75.075
  615.334    2.891  341.995   77.191
  615.584    2.748  359.384   79.072
  615.834    2.654  384.501   80.239
  616.084    2.609  356.815   80.937
  616.334    2.613  337.501   82.344
  616.584    2.763  315.610   83.986
  616.834    2.914  322.053   82.558
  617.084    3.065  320.446   81.131
  617.334    3.265  293.726   78.754
  617.584    3.318  316.911   77.799
  617.834    3.370  272.161   77.315
  618.084    3.423  214.532   77.306
  618.334    3.476  261.865   79.656
  618.584    3.480  317.569   81.535
  618.834    3.483  295.356   81.761
  619.084    3.488  241.913   81.278
  619.334    3.491  298.583   84.808
  619.584    3.544  321.768   86.215
  619.834    3.695  345.275   88.330
  620.084    3.944  355.259   78.634
  620.334    4.094  333.047   68.702
  620.584    4.539  300.210   61.603
  620.834    5.277  336.917   54.032
  621.084    5.869  314.705   48.825
  621.334    6.754  294.102   46.215
  621.584    7.590  284.447   46.202
  621.834    8.622  316.003   46.191
  622.084    9.508  324.055   47.124
  622.334   10.246  324.381   48.531
  622.584   10.740  328.248   49.464
  622.834   11.332  310.865   51.109
  623.084   11.727  315.376   52.751
  623.334   12.025  324.394   52.977
  623.584   12.371  318.281   50.367
  623.834   12.522  316.674   49.645
  624.084   12.624  316.033   51.998
  624.334   12.677  322.799   57.185
  624.584   12.681  319.904   60.240
  624.834   12.390  315.077   60.942
