~VERSION INFORMATION
 VERS.                 2.0:   CWLS LOG ASCII STANDARD -VERSION 2.0
 WRAP.                  NO:   ONE LINE PER DEPTH STEP
~WELL INFORMATION BLOCK
#MNEM.UNIT           DATA                    DESCRIPTION OF MNEMONIC
#---------    -------------------            -------------------------------
# Generated from Intellog Unique Number	CS_73_76/WELL/1031
WELL.         BP FT AL MARGIE                : Well_name    - WELL
LOC .         00/06-03-075-10W4/0            : Location     - LOCATION
UWI .         00/06-03-075-10W4/0            : Uwi          - UNIQUE WELL ID
ENTR.         SP                             : Entered      - ENTERED BY
SRVC.         SCHLUMBERGER                   : Scn          - SERVICE COMPANY
STRT.M        304.8                          : top_depth    - START DEPTH
STOP.M        511.8                          : bot_depth    - STOP DEPTH
STEP.M        0.25                           : increment    - STEP LENGTH
 NULL. -999.2500:NULL Value
~CURVE INFORMATION BLOCK
#MNEM UNIT       ERCB CURVE CODE    CURVE DESCRIPTION
#-----------   ------------------   ----------------------------------
DEPT.M        00 001 00 00         : DEPTH        - DEPTH
GR  .API      00 310 00 00         : GR           - GAMMA RAY
DPHI.V/V      00 890 00 00         : PHID         - DENSITY POROSITY (SANDSTONE)
NPHI.V/V      00 330 00 00         : PHIN         - NEUTRON POROSITY (SANDSTONE)
ILD .OHMM     00 120 00 00         : RESD         - DEEP RESISTIVITY (DIL)
~PARAMETER INFORMATION
#MNEM.UNIT           DATA             DESCRIPTION OF MNEMONIC
#---------         -----------     ------------------------------
GL  .M        683.88               : gl           - GROUND LEVEL ELEVATION
EREF.M        687.172              : kb           - ELEVATION OF DEPTH REFERENCE
DATM.M        683.88               : datum        - DATUM ELEVATION
TDD .M        676.656              : tdd          - TOTAL DEPTH DRILLER
RUN .         ONE                  : Run          - RUN NUMBER
ENG .         BILL                 : Engineer     - RECORDING ENGINEER
WIT .         JIM                  : Witness      - WITNESSED BY
MUD .         GEL                  : Mud_type     - MUD TYPE
MATR.         SANDSTONE            : Logunit      - NEUTRON MATRIX
TMAX.C        25.5556              : BHT          - MAXIMUM RECORDED TEMPERATURE
BHTD.M        676.656              : BHTDEP       - MAXIMUM RECORDED TEMPERATURE
MATR.         1                    : LOGUNIT      - NEUTRON MATRIX
RMT .C        25                   : MDTP         - TEMPERATURE OF MUD
NEUT.         1                    : NEUTRON      - NEUTRON TYPE
RESI.         0                    : RESIST       - RESISTIVITY TYPE
RMC .OHMM     0.25                 : RMC          - RESISTIVITY OF MUD CAKE
RMF .OHMM     0.25                 : RMF          - RESISTIVITY OF MUD FILTRATE
SUFT.C        15                   : SUFT         - SURFACE TEMPERATURE
~A  DEPTH       GR     PHID     PHIN     RESD
# ...
  478.800   53.133    0.246    0.376   15.562
  479.050   56.891    0.224    0.374   16.404
  479.300   58.145    0.213    0.380   16.568
  479.550   58.742    0.235    0.395   16.249
  479.800   59.509    0.249    0.410   16.323
  480.050   60.517    0.263    0.434   16.829
  480.300   60.764    0.262    0.422   17.689
  480.550   57.889    0.232    0.405   18.650
  480.800   57.090    0.208    0.400   19.185
  481.050   56.199    0.191    0.403   19.669
  481.300   56.218    0.182    0.420   21.156
  481.550   66.021    0.226    0.420   23.216
  481.800   68.457    0.279    0.381   24.047
  482.050   73.445    0.259    0.363   22.632
  482.300   47.469    0.261    0.403   22.155
  482.550   42.861    0.283    0.428   21.418
  482.800   46.561    0.301    0.412   21.447
  483.050   51.169    0.305    0.404   21.888
  483.300   59.438    0.272    0.399   22.755
  483.550   62.831    0.255    0.396   23.085
  483.800   65.703    0.251    0.391   22.959
  484.050   67.885    0.276    0.391   21.223
  484.300   71.500    0.280    0.402   19.324
  484.550   73.176    0.272    0.413   18.821
  484.800   74.891    0.265    0.405   19.247
  485.050   75.481    0.256    0.400   20.086
  485.300   75.359    0.243    0.398   21.445
  485.550   74.344    0.240    0.403   23.509
  485.800   56.907    0.244    0.426   27.409
  486.050   50.239    0.268    0.444   31.905
  486.300   47.410    0.288    0.447   34.968
  486.550   47.411    0.297    0.440   39.862
  486.800   46.548    0.299    0.445   46.684
  487.050   45.024    0.301    0.452   54.145
  487.300   45.250    0.304    0.439   62.264
  487.550   45.558    0.308    0.434   68.549
  487.800   45.209    0.317    0.427   75.234
  488.050   43.668    0.329    0.419   81.191
  488.300   43.775    0.334    0.411   88.244
  488.550   44.393    0.313    0.407   94.894
  488.800   44.257    0.315    0.401  107.100
  489.050   42.624    0.316    0.395  122.037
  489.300   40.798    0.316    0.405  133.262
  489.550   37.454    0.317    0.420  153.731
  489.800   34.463    0.317    0.421  197.721
  490.050   32.414    0.323    0.426  231.418
  490.300   30.415    0.327    0.433  257.079
  490.550   28.867    0.338    0.454  261.788
  490.800   28.773    0.348    0.472  247.268
  491.050   29.447    0.354    0.489  223.285
  491.300   30.802    0.336    0.503  200.512
  491.550   32.487    0.334    0.501  183.506
  491.800   32.388    0.337    0.491  167.613
  492.050   32.087    0.342    0.482  160.611
  492.300   30.226    0.355    0.472  159.253
  492.550   28.843    0.341    0.463  150.824
  492.800   27.876    0.330    0.453  138.524
  493.050   26.967    0.317    0.446  112.695
  493.300   26.972    0.311    0.445   79.261
  493.550   27.947    0.318    0.446   56.610
  493.800   29.033    0.331    0.449   37.096
  494.050   31.567    0.336    0.456   26.052
  494.300   34.816    0.352    0.474   16.568
  494.550   36.623    0.347    0.445   11.683
  494.800   39.111    0.329    0.397    8.982
  495.050   42.861    0.322    0.400    7.266
  495.300   47.799    0.313    0.395    6.456
  495.550   51.706    0.298    0.378    6.007
  495.800   57.807    0.271    0.362    5.792
  496.050   71.112    0.183    0.365    5.645
  496.300   77.317    0.134    0.390    5.656
  496.550   77.183    0.094    0.414    5.658
  496.800   78.860    0.101    0.413    5.750
  497.050   80.592    0.103    0.441    5.765
  497.300   80.100    0.090    0.431    5.768
  497.550   79.265    0.084    0.425    5.769
  497.800   76.901    0.097    0.431    5.770
  498.050   75.379    0.103    0.438    5.771
  498.300   75.564    0.096    0.447    5.774
  498.550   75.899    0.103    0.453    5.798
  498.800   75.384    0.096    0.463    5.882
  499.050   74.428    0.114    0.465    5.945
  499.300   73.488    0.109    0.463    6.001
  499.550   71.900    0.102    0.454    6.206
  499.800   71.495    0.090    0.430    6.259
  500.050   71.092    0.075    0.424    6.463
  500.300   69.531    0.070    0.426    6.636
  500.550   67.648    0.084    0.422    7.135
  500.800   66.377    0.087    0.414    7.477
  501.050   65.331    0.079    0.413    7.770
  501.300   65.139    0.069    0.417    8.744
  501.550   62.870    0.061    0.419   10.168
  501.800   59.494    0.047    0.421   13.213
  502.050   56.006    0.058    0.419   16.392
  502.300   48.830    0.072    0.367   21.716
  502.550   38.982    0.058    0.298   25.564
  502.800   27.282    0.038    0.245   29.897
  503.050   18.719    0.037    0.214   31.717
  503.300   14.921    0.039    0.192   31.230
  503.550   14.443    0.031    0.175   27.243
  503.800   17.455    0.035    0.170   22.464
  504.050   19.041    0.030    0.172   18.790
  504.300   23.399    0.030    0.178   15.261
  504.550   28.754    0.050    0.203   12.763
  504.800   41.572    0.073    0.256   10.456
  505.050   51.621    0.077    0.322    9.190
  505.300   58.413    0.071    0.361    8.384
  505.550   60.618    0.083    0.395    7.849
  505.800   63.138    0.100    0.412    7.369
  506.050   64.922    0.114    0.422    7.288
  506.300   65.915    0.091    0.418    7.219
  506.550   67.489    0.098    0.426    7.204
  506.800   67.365    0.104    0.432    7.376
  507.050   66.350    0.108    0.418    8.087
  507.300   66.149    0.099    0.405   10.251
  507.550   62.690    0.082    0.395   12.017
  507.800   55.161    0.106    0.394   15.543
  508.050   42.452    0.099    0.370   19.102
  508.300   33.045    0.075    0.317   21.394
  508.550   28.939    0.074    0.260   23.684
  508.800   26.737    0.065    0.239   25.883
  509.050   28.574    0.064    0.226   28.315
  509.300   32.701    0.068    0.246   31.015
  509.550   37.118    0.085    0.269   32.740
  509.800   29.767    0.065    0.234   34.477
  510.050   23.148    0.055    0.195   37.874
  510.300   19.020    0.046    0.174   39.245
  510.550   16.719    0.037    0.168   40.484
  510.800   16.130    0.048    0.186   39.426
  511.050   16.269    0.051    0.188   38.773
  511.300   17.310    0.049    0.197   35.729
  511.550   20.599    0.048    0.203   31.749
  511.800   24.072    0.049    0.202   27.557
