~VERSION INFORMATION
 VERS.                 2.0:   CWLS LOG ASCII STANDARD -VERSION 2.0
 WRAP.                  NO:   ONE LINE PER DEPTH STEP
~WELL INFORMATION BLOCK
#MNEM.UNIT           DATA                    DESCRIPTION OF MNEMONIC
#---------    -------------------            -------------------------------
# Generated from Intellog Unique Number	CS_77_79/WELL/920
WELL.         CANADIAN WORLDWIDE ENERGY      : Well_name    - WELL
LOC .         00/08-20-077-05W4/0            : Location     - LOCATION
UWI .         00/08-20-077-05W4/0            : Uwi          - UNIQUE WELL ID
ENTR.         SP                             : Entered      - ENTERED BY
SRVC.         SCHLUMBERGER                   : Scn          - SERVICE COMPANY
STRT.M        155.250                        : top_depth    - START DEPTH
STOP.M        408.000                        : bot_depth    - STOP DEPTH
STEP.M        0.25                           : increment    - STEP LENGTH
 NULL. -999.2500:NULL Value
~CURVE INFORMATION BLOCK
#MNEM UNIT       ERCB CURVE CODE    CURVE DESCRIPTION
#-----------   ------------------   ----------------------------------
DEPT.M        00 001 00 00         : DEPTH        - DEPTH
ILD .OHMM     00 120 00 00         : RESD         - DEEP RESISTIVITY (DIL)
DPHI.V/V      00 890 00 00         : PHID         - DENSITY POROSITY (SANDSTONE)
NPHI.V/V      00 330 00 00         : PHIN         - NEUTRON POROSITY (SANDSTONE)
GR  .API      00 310 00 00         : GR           - GAMMA RAY
~PARAMETER INFORMATION
#MNEM.UNIT           DATA             DESCRIPTION OF MNEMONIC
#---------         -----------     ------------------------------
GL  .M        570.1                : gl           - GROUND LEVEL ELEVATION
EREF.M        574                  : kb           - ELEVATION OF DEPTH REFERENCE
DATM.M        570.1                : datum        - DATUM ELEVATION
TDD .M        415                  : tdd          - TOTAL DEPTH DRILLER
RUN .         ONE                  : Run          - RUN NUMBER
ENG .         BILL                 : Engineer     - RECORDING ENGINEER
WIT .         JIM                  : Witness      - WITNESSED BY
MUD .         GEL                  : Mud_type     - MUD TYPE
MATR.         SANDSTONE            : Logunit      - NEUTRON MATRIX
TMAX.C        20                   : BHT          - MAXIMUM RECORDED TEMPERATURE
BHTD.M        415                  : BHTDEP       - MAXIMUM RECORDED TEMPERATURE
MATR.         1                    : LOGUNIT      - NEUTRON MATRIX
RMT .C        25                   : MDTP         - TEMPERATURE OF MUD
NEUT.         1                    : NEUTRON      - NEUTRON TYPE
RESI.         0                    : RESIST       - RESISTIVITY TYPE
RMC .OHMM     0.25                 : RMC          - RESISTIVITY OF MUD CAKE
RMF .OHMM     0.25                 : RMF          - RESISTIVITY OF MUD FILTRATE
SUFT.C        15                   : SUFT         - SURFACE TEMPERATURE
~A  DEPTH     RESD     PHID     PHIN       GR
# ...
  242.250    7.656    0.257    0.375   94.090
  242.500    7.522    0.258    0.384   99.010
  242.750    7.390    0.253    0.389   94.134
  243.000    7.398    0.247    0.392   87.421
  243.250    7.401    0.245    0.385   88.670
  243.500    7.408    0.249    0.369   91.751
  243.750    7.279    0.247    0.361   94.836
  244.000    7.148    0.238    0.345   94.867
  244.250    7.156    0.230    0.353   95.494
  244.500    7.163    0.224    0.362   96.134
  244.750    7.037    0.218    0.366   96.148
  245.000    7.042    0.224    0.365   94.331
  245.250    7.051    0.233    0.371   95.580
  245.500    6.796    0.238    0.367  101.726
  245.750    6.677    0.235    0.366   99.297
  246.000    6.683    0.226    0.370   96.257
  246.250    6.687    0.225    0.361   96.278
  246.500    6.824    0.233    0.358   97.527
  246.750    6.959    0.234    0.373   98.775
  247.000    6.963    0.230    0.382  101.242
  247.250    6.970    0.220    0.387  104.328
  247.500    7.110    0.214    0.380   98.849
  247.750    6.983    0.219    0.369   97.641
  248.000    7.123    0.220    0.356   97.664
  248.250    7.131    0.217    0.362   97.071
  248.500    7.135    0.226    0.414   92.196
  248.750    7.011    0.235    0.428   89.158
  249.000    7.016    0.225    0.412   87.958
  249.250    6.894    0.214    0.379   91.037
  249.500    6.900    0.209    0.385   94.732
  249.750    6.778    0.215    0.386   96.600
  250.000    6.660    0.217    0.385   97.224
  250.250    6.540    0.217    0.381   99.695
  250.500    6.425    0.218    0.373   99.723
  250.750    6.193    0.220    0.372   98.518
  251.000    5.859    0.219    0.379   96.709
  251.250    5.651    0.218    0.385   96.722
  251.500    5.656    0.227    0.401   96.747
  251.750    5.767    0.256    0.421   99.219
  252.000    6.222    0.286    0.433  101.082
  252.250    7.513    0.309    0.422   95.590
  252.500    8.904    0.322    0.402   86.428
  252.750    8.428    0.318    0.393   77.268
  253.000    8.275    0.309    0.379   76.681
  253.250    6.999    0.290    0.372   77.312
  253.500    6.376    0.281    0.384   81.621
  253.750    5.921    0.257    0.428   86.539
  254.000    5.707    0.240    0.436   88.407
  254.250    5.502    0.251    0.432   89.032
  254.500    5.305    0.258    0.420   90.278
  254.750    5.212    0.262    0.437   95.813
  255.000    5.119    0.256    0.447   93.385
  255.250    5.029    0.255    0.452   90.964
  255.500    5.033    0.246    0.458   90.376
  255.750    5.040    0.239    0.457   91.614
  256.000    5.045    0.240    0.448   97.763
  256.250    5.242    0.243    0.448   97.784
  256.500    5.344    0.248    0.456   94.742
  256.750    5.876    0.258    0.463   94.763
  257.000    6.706    0.248    0.458   97.847
  257.250    7.948    0.262    0.454   95.425
  257.500   10.155    0.328    0.442   91.774
  257.750   12.733    0.344    0.426   87.515
  258.000   13.997    0.336    0.413   84.472
  258.250   14.826    0.332    0.407   80.820
  258.500   15.119    0.332    0.404   74.107
  258.750   15.418    0.332    0.416   69.233
  259.000   15.148    0.336    0.425   65.583
  259.250   15.165    0.338    0.430   62.540
  259.500   14.897    0.350    0.414   62.565
  259.750   14.909    0.351    0.403   58.917
  260.000   14.920    0.351    0.396   56.490
  260.250   14.663    0.351    0.410   54.059
  260.500   14.675    0.349    0.424   52.246
  260.750   14.690    0.346    0.428   52.880
  261.000   14.428    0.346    0.424   56.584
  261.250   14.439    0.347    0.413   59.670
  261.500   14.457    0.347    0.406   60.907
  261.750   14.464    0.349    0.392   63.383
  262.000   14.479    0.351    0.394   65.856
  262.250   14.770    0.352    0.406   67.092
  262.500   14.781    0.353    0.414   68.343
  262.750   15.079    0.353    0.411   67.749
  263.000   15.670    0.352    0.409   63.493
  263.250   15.982    0.350    0.407   61.676
  263.500   16.609    0.346    0.401   61.694
  263.750   16.619    0.340    0.391   63.560
  264.000   16.644    0.334    0.373   62.964
  264.250   16.655    0.279    0.338   58.090
  264.500   16.356    0.095    0.280   53.827
  264.750   15.774    0.082    0.261   53.852
  265.000   15.491    0.114    0.312   59.383
  265.250   15.798    0.223    0.348   63.694
  265.500   16.424    0.315    0.382   65.551
  265.750   17.064    0.348    0.398   64.957
  266.000   17.732    0.342    0.398   66.207
  266.250   18.094    0.337    0.389   66.225
  266.500   18.106    0.334    0.383   63.188
  266.750   18.128    0.354    0.377   61.378
  267.000   17.800    0.363    0.358   60.781
  267.250   17.488    0.366    0.347   61.431
  267.500   16.550    0.334    0.341   62.671
  267.750   15.951    0.275    0.343   63.908
  268.000   15.092    0.286    0.363   66.385
  268.250   14.279    0.312    0.384   66.411
  268.500   14.026    0.330    0.415   67.041
  268.750   13.780    0.329    0.432   68.299
  269.000   13.790    0.324    0.432   69.542
  269.250   13.801    0.327    0.421   69.553
  269.500   13.820    0.321    0.427   68.963
  269.750   14.094    0.320    0.415   68.986
  270.000   14.102    0.319    0.407   71.460
  270.250   14.663    0.310    0.402   71.480
  270.500   14.673    0.308    0.430   66.610
  270.750   14.961    0.323    0.449   66.014
  271.000   14.976    0.330    0.431   66.654
  271.250   14.998    0.341    0.408   67.289
  271.500   15.008    0.337    0.407   66.696
  271.750   15.020    0.334    0.416   65.489
  272.000   14.757    0.332    0.419   69.800
  272.250   14.769    0.342    0.416   72.883
  272.500   14.504    0.341    0.411   72.297
  272.750   14.255    0.337    0.402   71.703
  273.000   14.265    0.338    0.392   70.498
  273.250   14.275    0.342    0.382   68.687
  273.500   14.288    0.342    0.372   68.100
  273.750   14.308    0.334    0.377   68.737
  274.000   14.315    0.327    0.382   69.365
  274.250   14.064    0.322    0.400   70.609
  274.500   14.077    0.326    0.404   68.193
  274.750   13.320    0.331    0.403   67.602
  275.000   12.367    0.332    0.421   68.233
  275.250   11.062    0.330    0.436   70.092
  275.500    9.891    0.329    0.437   69.508
  275.750    8.519    0.325    0.426   68.295
  276.000    7.070    0.323    0.412   64.647
  276.250    6.441    0.312    0.403   68.347
  276.500    5.760    0.276    0.398   73.266
  276.750    5.249    0.243    0.395   79.410
  277.000    4.784    0.230    0.418   87.996
  277.250    4.359    0.229    0.443   95.977
  277.500    4.124    0.226    0.434  104.570
  277.750    3.690    0.220    0.422  100.922
  278.000    3.426    0.219    0.441   97.881
  278.250    3.241    0.226    0.478   97.904
  278.500    3.066    0.242    0.475  102.216
  278.750    2.847    0.252    0.465  102.846
  279.000    2.694    0.256    0.463  100.423
  279.250    2.597    0.263    0.479   98.619
  279.500    2.599    0.274    0.490   98.032
  279.750    2.703    0.272    0.484   97.438
  280.000    2.756    0.261    0.462   97.452
  280.250    2.919    0.249    0.470   97.467
  280.500    3.033    0.242    0.472  103.003
  280.750    3.151    0.232    0.476  102.409
  281.000    3.400    0.232    0.496  102.436
  281.250    3.668    0.244    0.519  106.746
  281.500    4.032    0.258    0.527  103.703
  281.750    4.517    0.267    0.499   99.443
  282.000    4.966    0.265    0.484   97.623
  282.250    5.461    0.253    0.472   92.754
  282.500    5.783    0.238    0.458   90.324
  282.750    6.010    0.237    0.442   84.836
  283.000    6.129    0.242    0.437   79.353
  283.250    6.371    0.253    0.430   76.308
  283.500    6.620    0.264    0.410   75.723
  283.750    7.143    0.274    0.391   76.359
  284.000    7.563    0.287    0.401   75.765
  284.250    8.313    0.246    0.407   70.895
  284.500    9.853    0.257    0.394   70.299
  284.750   11.038    0.271    0.328   70.932
  285.000   12.603    0.268    0.275   69.120
  285.250   13.342    0.136    0.228   60.569
  285.500   13.109    0.000    0.171   55.083
