~VERSION INFORMATION
 VERS.                 2.0:   CWLS LOG ASCII STANDARD -VERSION 2.0
 WRAP.                  NO:   ONE LINE PER DEPTH STEP
~WELL INFORMATION BLOCK
#MNEM.UNIT           DATA                    DESCRIPTION OF MNEMONIC
#---------    -------------------            -------------------------------
# Generated from Intellog Unique Number	CW_76_78/WELL/416
WELL.         RR CHIEFCO PELICAN 06-03       : Well_name    - WELL
LOC .         00/06-03-077-22W4/0            : Location     - LOCATION
UWI .         00/06-03-077-22W4/0            : Uwi          - UNIQUE WELL ID
ENTR.         os                             : Entered      - ENTERED BY
SRVC.         SCHLUMBERGER                   : Scn          - SERVICE COMPANY
DATE.         25 JAN 1974                    : Date         - LOG DATE
STRT.M        438.912                        : top_depth    - START DEPTH
STOP.M        661.412                        : bot_depth    - STOP DEPTH
STEP.M        0.25                           : increment    - STEP LENGTH
 NULL. -999.2500:NULL Value
~CURVE INFORMATION BLOCK
#MNEM UNIT       ERCB CURVE CODE    CURVE DESCRIPTION
#-----------   ------------------   ----------------------------------
DEPT.M        00 001 00 00         : DEPTH        - DEPTH
ILD .OHMM     00 120 00 00         : RESD         - DEEP RESISTIVITY (DIL)
NPHI.V/V      00 330 00 00         : PHIN         - NEUTRON POROSITY (SANDSTONE)
DPHI.V/V      00 890 00 00         : PHID         - DENSITY POROSITY (SANDSTONE)
GR  .API      00 310 00 00         : GR           - GAMMA RAY
CALI.MM       00 280 01 00         : CAL          - CALIPER
~PARAMETER INFORMATION
#MNEM.UNIT           DATA             DESCRIPTION OF MNEMONIC
#---------         -----------     ------------------------------
GL  .M        756.94               : gl           - GROUND LEVEL ELEVATION
EREF.M        760.293              : kb           - ELEVATION OF DEPTH REFERENCE
DATM.M        756.94               : datum        - DATUM ELEVATION
TDD .M        675.742              : tdd          - TOTAL DEPTH DRILLER
RUN .         ONE                  : Run          - RUN NUMBER
ENG .         SIROIS & SMILEY      : Engineer     - RECORDING ENGINEER
WIT .         TAHMAZIAN            : Witness      - WITNESSED BY
BASE.         EDMONTON             : Branch       - HOME BASE OF LOGGING UNIT
MUD .         GEL CHEM             : Mud_type     - MUD TYPE
MATR.         SANDSTONE            : Logunit      - NEUTRON MATRIX
TMAX.C        28.8889              : BHT          - MAXIMUM RECORDED TEMPERATURE
BHTD.M        675.742              : BHTDEP       - MAXIMUM RECORDED TEMPERATURE
RMT .C        8.88889              : MDTP         - TEMPERATURE OF MUD
MUDD.KG/M     1080                 : MWT          - MUD DENSITY
NEUT.         1                    : NEUTRON      - NEUTRON TYPE
RESI.         0                    : RESIST       - RESISTIVITY TYPE
RM  .OHMM     4.42                 : RM           - RESISTIVITY OF MUD
RMC .OHMM     2.5                  : RMC          - RESISTIVITY OF MUD CAKE
RMF .OHMM     4.8                  : RMF          - RESISTIVITY OF MUD FILTRATE
SUFT.C        4.5                  : SUFT         - SURFACE TEMPERATURE
~A  DEPTH     RESD     PHIN     PHID       GR      CAL
  438.912    2.110    0.538    0.210  116.811  171.636
  439.162    2.093    0.546    0.207  116.973  171.705
  439.412    2.151    0.559    0.222  115.847  171.352
  439.662    2.226    0.559    0.232  115.640  167.681
  439.912    2.291    0.555    0.231  118.326  162.338
  440.162    2.368    0.562    0.229  120.086  164.071
  440.412    2.402    0.552    0.222  123.443  165.593
  440.662    2.404    0.531    0.226  123.425  172.530
  440.912    2.384    0.532    0.210  121.127  173.125
  441.162    2.396    0.539    0.201  121.971  168.195
  441.412    2.398    0.533    0.197  121.825  166.806
  441.662    2.455    0.540    0.204  118.913  162.707
  441.912    2.551    0.548    0.209  115.638  161.954
  442.162    2.583    0.538    0.224  111.255  168.880
  442.412    2.543    0.543    0.222  106.812  169.270
  442.662    2.439    0.525    0.209   99.787  165.592
  442.912    2.280    0.507    0.217   94.418  165.864
  443.162    2.135    0.486    0.204   93.170  165.107
  443.412    1.981    0.479    0.145   94.070  166.836
  443.662    1.900    0.508    0.136  102.344  170.863
  443.912    1.948    0.529    0.179  107.360  171.863
  444.162    2.189    0.546    0.210  106.231  170.164
  444.412    2.633    0.566    0.220  103.447  170.130
  444.662    3.263    0.578    0.237  100.294  172.595
  444.912    4.144    0.547    0.265   94.622  176.929
  445.162    5.982    0.532    0.272   87.964  173.566
  445.412    7.331    0.512    0.276   81.797  171.858
  445.662    7.890    0.484    0.270   76.983  165.683
  445.912    8.368    0.491    0.280   73.890  168.051
  446.162    8.743    0.474    0.334   69.816  164.996
  446.412    9.256    0.467    0.332   72.864  162.250
  446.662    9.887    0.471    0.313   75.057  161.593
  446.912   10.426    0.475    0.307   69.074  162.602
  447.162   10.655    0.468    0.295   64.693  162.871
  447.412   10.507    0.463    0.305   61.843  161.902
  447.662   10.084    0.454    0.325   59.790  160.727
  447.912    9.852    0.445    0.317   59.224  158.607
  448.162    9.682    0.452    0.309   59.381  159.708
  448.412    9.763    0.458    0.301   59.612  160.619
  448.662    9.994    0.450    0.313   60.389  159.856
  448.912    9.465    0.449    0.335   62.578  160.861
  449.162    8.830    0.451    0.331   64.832  159.249
  449.412    8.085    0.453    0.330   67.209  159.851
  449.662    7.241    0.460    0.313   71.183  160.124
  449.912    6.378    0.461    0.294   73.312  159.683
  450.162    5.712    0.450    0.275   79.125  160.059
  450.412    4.749    0.437    0.285   82.918  160.652
  450.662    3.964    0.442    0.267   86.338  163.008
  450.912    3.556    0.442    0.240   87.484  164.743
  451.162    3.115    0.436    0.255   86.358  164.807
  451.412    3.224    0.443    0.267   86.523  162.800
  451.662    4.124    0.461    0.251   93.996  163.179
  451.912    5.425    0.493    0.234  103.993  167.931
  452.162    6.312    0.512    0.240  105.877  169.971
  452.412    7.823    0.500    0.250   91.047  169.625
  452.662    8.789    0.461    0.266   75.542  167.825
  452.912    8.108    0.430    0.282   61.940  165.502
  453.162    6.804    0.422    0.310   58.664  163.798
  453.412    6.051    0.437    0.323   59.194  163.766
  453.662    5.623    0.438    0.328   62.248  162.680
  453.912    5.587    0.436    0.321   67.450  162.134
  454.162    5.936    0.436    0.334   68.720  161.884
  454.412    6.643    0.444    0.316   75.889  162.685
  454.662    7.993    0.447    0.289   80.720  163.166
  454.912    8.978    0.431    0.270   80.640  164.900
  455.162    9.260    0.437    0.253   77.422  167.156
  455.412    9.098    0.446    0.265   67.876  167.953
  455.662    8.332    0.445    0.284   64.170  167.610
  455.912    8.127    0.438    0.306   63.408  164.035
  456.162    8.168    0.445    0.304   66.400  163.374
  456.412    8.206    0.451    0.297   69.638  164.379
  456.662    8.592    0.457    0.284   71.646  163.308
  456.912    8.380    0.460    0.269   76.540  163.784
  457.162    7.875    0.456    0.257   75.533  163.859
  457.412    7.198    0.447    0.273   72.383  162.156
  457.662    6.531    0.435    0.289   67.561  160.768
  457.912    5.992    0.432    0.290   69.201  160.940
  458.162    5.856    0.437    0.296   73.057  158.928
  458.412    5.885    0.447    0.291   81.084  157.963
  458.662    6.185    0.447    0.257   90.342  160.735
  458.912    6.412    0.425    0.255   94.254  163.199
  459.162    6.699    0.425    0.244   92.268  165.240
  459.412    7.078    0.433    0.257   84.996  164.057
  459.662    7.520    0.446    0.272   83.070  162.364
  459.912    7.930    0.464    0.270   82.556  161.598
  460.162    7.923    0.458    0.278   82.292  163.336
  460.412    7.379    0.468    0.275   77.658  162.461
  460.662    6.833    0.484    0.261   78.250  162.216
  460.912    6.398    0.483    0.278   79.582  164.058
  461.162    6.059    0.468    0.292   79.380  163.820
  461.412    5.987    0.449    0.273   82.677  162.224
  461.662    6.140    0.440    0.231   89.233  162.708
  461.912    6.428    0.451    0.210   98.124  166.107
  462.162    6.842    0.452    0.228  104.858  168.463
  462.412    7.419    0.436    0.242  105.634  162.809
  462.662    7.665    0.427    0.214  106.230  162.563
  462.912    7.803    0.423    0.207  105.346  166.690
  463.162    8.047    0.431    0.195  102.134  165.821
  463.412    8.502    0.431    0.200   95.295  167.249
  463.662    9.017    0.419    0.223   89.491  166.585
  463.912    9.247    0.412    0.241   86.219  164.145
  464.162   10.028    0.394    0.243   80.052  164.333
  464.412   10.913    0.381    0.238   76.224  164.912
  464.662   11.791    0.381    0.238   72.269  163.423
  464.912   12.091    0.385    0.253   66.535  165.573
  465.162   12.173    0.383    0.280   58.341  165.753
  465.412   12.321    0.386    0.299   51.005  164.049
  465.662   13.190    0.383    0.308   48.345  164.012
  465.912   13.856    0.373    0.301   41.996  162.837
  466.162   14.776    0.382    0.305   42.032  162.580
  466.412   15.328    0.398    0.297   46.500  162.969
  466.662   14.866    0.423    0.283   51.271  161.263
  466.912   11.975    0.426    0.288   51.436  161.753
  467.162    9.976    0.400    0.318   44.963  160.883
  467.412    8.127    0.391    0.328   45.921  160.023
  467.662    6.670    0.381    0.306   49.777  159.776
  467.912    5.630    0.381    0.296   61.800  160.674
  468.162    5.243    0.401    0.281   85.803  162.923
  468.412    5.181    0.417    0.228  100.344  165.183
  468.662    5.402    0.421    0.227  103.395  167.443
  468.912    5.815    0.427    0.241  107.859  168.442
  469.162    5.788    0.436    0.233  112.820  167.166
  469.412    4.664    0.447    0.221  114.886  171.078
  469.662    3.935    0.466    0.211  114.437  171.255
  469.912    3.236    0.480    0.218  111.775  168.823
  470.162    2.782    0.480    0.232  104.995  166.299
  470.412    2.313    0.492    0.261  111.052  167.612
  470.662    2.219    0.519    0.261  117.796  163.626
  470.912    2.181    0.551    0.212  130.556  164.211
  471.162    2.200    0.560    0.203  134.158  175.831
  471.412    2.190    0.547    0.191  134.563  181.305
  471.662    2.101    0.550    0.193  134.487  179.608
  471.912    2.026    0.557    0.170  134.958  177.699
  472.162    2.075    0.569    0.162  134.506  177.979
  472.412    2.200    0.552    0.152  133.074  178.880
  472.662    2.359    0.530    0.148  130.655  178.432
  472.912    2.582    0.544    0.134  132.965  179.435
  473.162    2.949    0.561    0.163  133.257  178.775
  473.412    3.400    0.540    0.202  133.111  178.740
  473.662    3.700    0.496    0.214  135.179  178.696
  473.912    3.817    0.482    0.232  129.935  177.107
  474.162    3.785    0.463    0.238  126.106  174.467
  474.412    3.775    0.447    0.229  127.437  174.850
  474.662    4.041    0.454    0.204  127.970  177.726
  474.912    4.373    0.470    0.192  125.675  178.113
  475.162    4.814    0.472    0.183  123.073  176.934
