~VERSION INFORMATION
 VERS.                 2.0:   CWLS LOG ASCII STANDARD -VERSION 2.0
 WRAP.                  NO:   ONE LINE PER DEPTH STEP
~WELL INFORMATION BLOCK
#MNEM.UNIT           DATA                    DESCRIPTION OF MNEMONIC
#---------    -------------------            -------------------------------
# Generated from Intellog Unique Number	CW_79_81/WELL/2463
WELL.         HB GODIN                       : Well_name    - WELL
LOC .         00/07-36-081-02W5/0            : Location     - LOCATION
UWI .         00/07-36-081-02W5/0            : Uwi          - UNIQUE WELL ID
ENTR.         MAX                            : Entered      - ENTERED BY
SRVC.         SCHLUMBERGER                   : Scn          - SERVICE COMPANY
STRT.M        243.84                         : top_depth    - START DEPTH
STOP.M        463.09                         : bot_depth    - STOP DEPTH
STEP.M        0.25                           : increment    - STEP LENGTH
 NULL. -999.2500:NULL Value
~CURVE INFORMATION BLOCK
#MNEM UNIT       ERCB CURVE CODE    CURVE DESCRIPTION
#-----------   ------------------   ----------------------------------
DEPT.M        00 001 00 00         : DEPTH        - DEPTH
ILD .OHMM     00 120 00 00         : RESD         - DEEP RESISTIVITY (DIL)
NPHI.V/V      00 330 00 00         : PHIN         - NEUTRON POROSITY (SANDSTONE)
DPHI.V/V      00 890 00 00         : PHID         - DENSITY POROSITY (SANDSTONE)
GR  .API      00 310 00 00         : GR           - GAMMA RAY
CALI.MM       00 280 01 00         : CAL          - CALIPER
~PARAMETER INFORMATION
#MNEM.UNIT           DATA             DESCRIPTION OF MNEMONIC
#---------         -----------     ------------------------------
GL  .M        578.206              : gl           - GROUND LEVEL ELEVATION
EREF.M        581.863              : kb           - ELEVATION OF DEPTH REFERENCE
DATM.M        578.206              : datum        - DATUM ELEVATION
TDD .M        457.81               : tdd          - TOTAL DEPTH DRILLER
RUN .         ONE                  : Run          - RUN NUMBER
ENG .         BILL                 : Engineer     - RECORDING ENGINEER
WIT .         JIM                  : Witness      - WITNESSED BY
MUD .         GEL                  : Mud_type     - MUD TYPE
MATR.         SANDSTONE            : Logunit      - NEUTRON MATRIX
TMAX.C        23.3333              : BHT          - MAXIMUM RECORDED TEMPERATURE
BHTD.M        457.81               : BHTDEP       - MAXIMUM RECORDED TEMPERATURE
MATR.         1                    : LOGUNIT      - NEUTRON MATRIX
RMT .C        15.5556              : MDTP         - TEMPERATURE OF MUD
NEUT.         1                    : NEUTRON      - NEUTRON TYPE
RESI.         0                    : RESIST       - RESISTIVITY TYPE
RMC .OHMM     6.42                 : RMC          - RESISTIVITY OF MUD CAKE
RMF .OHMM     6.17                 : RMF          - RESISTIVITY OF MUD FILTRATE
SUFT.C        -15                  : SUFT         - SURFACE TEMPERATURE
~A  DEPTH     RESD     PHIN     PHID       GR      CAL
# ...
  353.340   12.298    0.503    0.239   70.491  196.909
  353.590   12.667    0.491    0.229   69.088  196.948
  353.840   13.119    0.483    0.222   68.215  196.685
  354.090   13.614    0.477    0.219   67.759  196.320
  354.340   14.104    0.472    0.217   68.021  195.954
  354.590   14.661    0.471    0.213   69.869  195.594
  354.840   15.359    0.471    0.218   70.635  195.635
  355.090   15.821    0.472    0.248   69.939  195.681
  355.340   15.767    0.475    0.248   70.141  195.719
  355.590   15.307    0.474    0.236   70.403  195.956
  355.840   14.650    0.474    0.224   71.022  196.295
  356.090   13.958    0.479    0.214   73.928  196.342
  356.340   13.645    0.488    0.225   76.438  196.378
  356.590   13.348    0.482    0.241   77.651  196.421
  356.840   13.059    0.476    0.243   79.582  196.761
  357.090   12.728    0.472    0.242   79.248  197.200
  357.340   12.243    0.472    0.244   77.123  197.539
  357.590   11.342    0.470    0.248   77.595  197.587
  357.840   10.754    0.468    0.246   79.854  197.631
  358.090    9.986    0.464    0.242   79.877  197.670
  358.340    9.542    0.467    0.238   80.256  197.703
  358.590    9.094    0.471    0.234   80.278  197.741
  358.840    8.611    0.473    0.231   79.944  197.682
  359.090    8.230    0.474    0.229   80.071  197.325
  359.340    8.169    0.476    0.229   80.594  197.366
  359.590    8.476    0.479    0.226   78.710  196.997
  359.840    9.082    0.481    0.222   77.538  196.332
  360.090    9.851    0.479    0.207   76.845  196.169
  360.340   10.671    0.471    0.185   76.749  196.609
  360.590   11.601    0.456    0.162   78.027  197.227
  360.840   12.154    0.427    0.147   79.541  198.104
  361.090   12.067    0.448    0.175   82.427  199.354
  361.340   11.650    0.464    0.202   84.056  199.696
  361.590   10.764    0.470    0.220   85.865  199.533
  361.840    9.648    0.466    0.223   87.855  199.170
  362.090    8.559    0.465    0.206   87.307  198.899
  362.340    8.116    0.476    0.185   80.877  199.348
  362.590    8.298    0.479    0.175   77.322  200.194
  362.840    8.858    0.463    0.153   75.735  200.738
  363.090    9.741    0.430    0.128   76.473  200.779
  363.340   10.799    0.407    0.121   78.583  200.518
  363.590   11.671    0.449    0.158   79.856  200.565
  363.840   11.854    0.449    0.167   80.121  200.606
  364.090   11.946    0.453    0.170   80.859  200.637
  364.340   12.168    0.453    0.177   81.778  200.374
  364.590   12.487    0.450    0.196   82.516  200.013
  364.840   12.747    0.448    0.217   83.073  199.650
  365.090   12.477    0.450    0.213   83.864  199.284
  365.340   11.653    0.454    0.206   84.136  199.321
  365.590   11.149    0.471    0.221   84.397  199.771
  365.840   10.728    0.485    0.225   84.657  199.910
  366.090   10.420    0.487    0.216   84.917  199.744
  366.340   10.233    0.476    0.199   85.179  199.377
  366.590   10.146    0.456    0.184   85.596  198.856
  366.840   10.070    0.444    0.176   86.363  198.051
  367.090    9.925    0.447    0.177   86.865  197.686
  367.340    9.891    0.451    0.189   86.468  197.322
  367.590    9.893    0.454    0.197   85.060  196.955
  367.840    9.895    0.461    0.198   83.415  196.589
  368.090    9.897    0.479    0.201   83.252  196.235
  368.340    9.899    0.493    0.205   83.527  196.272
  368.590    9.902    0.484    0.209   83.548  195.499
  368.840    9.849    0.473    0.210   83.926  195.336
  369.090    9.706    0.471    0.209   84.307  195.375
  369.340    9.479    0.480    0.206   84.629  195.514
  369.590    9.149    0.488    0.205   85.332  196.382
  369.840    8.876    0.490    0.200   86.347  198.529
  370.090    8.683    0.493    0.188   87.562  199.371
  370.340    8.638    0.488    0.190   88.418  200.217
  370.590    8.671    0.477    0.193   89.155  200.863
  370.840    8.785    0.465    0.191   89.715  201.105
  371.090    9.133    0.453    0.185   89.199  200.657
  371.340    9.567    0.456    0.193   86.489  200.277
  371.590   10.293    0.447    0.183   81.742  199.516
  371.840   11.197    0.431    0.172   76.998  199.050
  372.090   12.974    0.416    0.165   73.683  198.679
  372.340   16.379    0.397    0.154   72.036  198.411
  372.590   21.824    0.352    0.121   71.507  198.462
  372.840   23.401    0.325    0.121   73.518  198.502
  373.090   22.057    0.347    0.154   75.922  197.730
  373.340   19.857    0.366    0.197   79.759  197.264
  373.590   16.511    0.395    0.229   83.239  196.901
  373.840   13.802    0.429    0.236   84.811  196.740
  374.090   12.929    0.443    0.213   82.870  197.271
  374.340   12.075    0.438    0.197   81.404  197.732
  374.590   11.639    0.442    0.186   81.665  198.986
  374.840   11.410    0.448    0.178   80.854  199.629
  375.090   11.287    0.452    0.174   80.162  199.664
  375.340   11.227    0.455    0.173   80.066  199.396
  375.590   11.247    0.458    0.163   80.532  199.356
  375.840   11.336    0.458    0.155   81.545  198.980
  376.090   11.091    0.455    0.184   82.522  199.023
  376.340   10.790    0.452    0.186   83.856  198.755
  376.590   10.518    0.454    0.181   85.192  198.588
  376.840   10.310    0.462    0.178   86.231  198.426
  377.090   10.146    0.473    0.178   86.880  197.669
  377.340   10.071    0.477    0.175   87.649  197.706
  377.590    9.999    0.469    0.192   88.623  198.144
  377.840    9.928    0.464    0.189   88.348  198.583
  378.090    9.894    0.462    0.181   87.538  199.230
  378.340    9.877    0.461    0.173   86.727  199.879
  378.590    9.792    0.458    0.165   86.276  200.090
  378.840    9.720    0.458    0.164   86.300  200.967
  379.090    9.722    0.454    0.160   86.321  201.414
  379.340    9.885    0.456    0.153   86.522  201.857
  379.590   10.181    0.460    0.145   86.904  202.096
  379.840   10.604    0.462    0.136   87.166  202.033
  380.090   11.289    0.457    0.127   86.118  201.512
  380.340   11.918    0.433    0.118   83.167  200.712
  380.590   12.097    0.407    0.134   81.754  199.939
  380.840   11.877    0.408    0.174   83.206  199.164
  381.090   11.115    0.433    0.188   83.444  195.439
  381.340   10.120    0.460    0.174   81.890  190.853
  381.590    9.302    0.448    0.174   82.172  192.804
  381.840    9.035    0.447    0.176   85.667  194.157
  382.090    9.043    0.466    0.178   88.546  194.250
  382.340    9.102    0.466    0.181   87.358  194.043
  382.590    9.179    0.456    0.183   84.344  193.926
  382.840    9.273    0.445    0.182   81.921  194.007
  383.090    9.491    0.447    0.178   82.934  194.126
  383.340    9.873    0.452    0.184   84.219  194.212
  383.590   10.099    0.450    0.178   82.629  194.314
  383.840   10.221    0.454    0.180   82.445  194.402
  384.090   10.196    0.460    0.179   83.558  194.893
  384.340   10.097    0.463    0.169   85.322  195.689
  384.590   10.124    0.458    0.148   86.222  196.272
  384.840   10.212    0.446    0.149   84.554  196.774
  385.090   10.223    0.454    0.176   85.316  197.266
  385.340   10.066    0.452    0.191   85.724  197.458
  385.590    9.822    0.449    0.190   84.718  196.552
  385.840    9.567    0.447    0.183   82.529  194.843
  386.090    9.329    0.445    0.188   80.207  193.574
  386.340    9.131    0.443    0.191   77.807  192.848
  386.590    9.006    0.453    0.178   77.631  192.940
  386.840    8.886    0.447    0.162   78.327  193.033
  387.090    8.863    0.437    0.146   79.909  193.325
  387.340    8.984    0.431    0.140   82.619  193.814
  387.590    9.320    0.433    0.160   86.939  194.480
  387.840    9.619    0.436    0.161   86.990  195.398
  388.090    9.985    0.448    0.171   83.502  195.899
  388.340   10.478    0.441    0.181   81.960  196.379
  388.590   11.038    0.430    0.185   82.129  196.072
  388.840   11.589    0.427    0.179   82.598  195.176
  389.090   12.163    0.438    0.165   80.093  194.951
  389.340   12.844    0.445    0.172   76.700  195.453
  389.590   13.722    0.438    0.180   75.103  195.945
