~VERSION INFORMATION
 VERS.                 2.0:   CWLS LOG ASCII STANDARD -VERSION 2.0
 WRAP.                  NO:   ONE LINE PER DEPTH STEP
~WELL INFORMATION BLOCK
#MNEM.UNIT           DATA                    DESCRIPTION OF MNEMONIC
#---------    -------------------            -------------------------------
# Generated from Intellog Unique Number	CW_76_78/WELL/554
WELL.         AMOCO ROCK 07-06               : Well_name    - WELL
LOC .         00/07-06-077-23W4/0            : Location     - LOCATION
UWI .         00/07-06-077-23W4/0            : Uwi          - UNIQUE WELL ID
ENTR.         jj                             : Entered      - ENTERED BY
SRVC.         WESTERN ATLAS                  : Scn          - SERVICE COMPANY
DATE.         12 MAR 78                      : Date         - LOG DATE
STRT.M        524.256                        : top_depth    - START DEPTH
STOP.M        765.006                        : bot_depth    - STOP DEPTH
STEP.M        0.25                           : increment    - STEP LENGTH
 NULL. -999.2500:NULL Value
~CURVE INFORMATION BLOCK
#MNEM UNIT       ERCB CURVE CODE    CURVE DESCRIPTION
#-----------   ------------------   ----------------------------------
DEPT.M        00 001 00 00         : DEPTH        - DEPTH
ILD .OHMM     00 120 00 00         : RESD         - DEEP RESISTIVITY (DIL)
DPHI.V/V      00 890 00 00         : PHID         - DENSITY POROSITY (SANDSTONE)
NPHI.V/V      00 330 00 00         : PHIN         - NEUTRON POROSITY (SANDSTONE)
GR  .API      00 310 00 00         : GR           - GAMMA RAY
CALI.MM       00 280 01 00         : CAL          - CALIPER
~PARAMETER INFORMATION
#MNEM.UNIT           DATA             DESCRIPTION OF MNEMONIC
#---------         -----------     ------------------------------
GL  .M        828.294              : gl           - GROUND LEVEL ELEVATION
EREF.M        832.104              : kb           - ELEVATION OF DEPTH REFERENCE
DATM.M        828.294              : datum        - DATUM ELEVATION
TDD .M        789.432              : tdd          - TOTAL DEPTH DRILLER
RUN .         ONE                  : Run          - RUN NUMBER
ENG .         BURLET               : Engineer     - RECORDING ENGINEER
WIT .         MCDONALD             : Witness      - WITNESSED BY
BASE.         EDMONTON             : Branch       - HOME BASE OF LOGGING UNIT
MUD .         GEL BENDEX           : Mud_type     - MUD TYPE
MATR.         SANDSTONE            : Logunit      - NEUTRON MATRIX
TMAX.C        32.7778              : BHT          - MAXIMUM RECORDED TEMPERATURE
BHTD.M        788.213              : BHTDEP       - MAXIMUM RECORDED TEMPERATURE
RMT .C        20.5556              : MDTP         - TEMPERATURE OF MUD
MUDD.KG/M     1080                 : MWT          - MUD DENSITY
NEUT.         1                    : NEUTRON      - NEUTRON TYPE
RESI.         0                    : RESIST       - RESISTIVITY TYPE
RM  .OHMM     2.43                 : RM           - RESISTIVITY OF MUD
RMC .OHMM     3.7                  : RMC          - RESISTIVITY OF MUD CAKE
RMF .OHMM     2.9                  : RMF          - RESISTIVITY OF MUD FILTRATE
SUFT.C        4.5                  : SUFT         - SURFACE TEMPERATURE
~A  DEPTH     RESD     PHID     PHIN       GR      CAL
# ...
  706.756    6.518    0.149    0.383   76.697  251.810
  707.006    6.419    0.147    0.390   79.758  252.856
  707.256    6.297    0.133    0.394   80.375  253.901
  707.506    6.188    0.123    0.397   79.112  254.840
  707.756    6.128    0.135    0.401   79.103  255.249
  708.006    6.080    0.143    0.400   80.032  255.656
  708.256    6.043    0.138    0.399   79.834  254.366
  708.506    6.042    0.130    0.398   79.262  252.971
  708.756    6.017    0.137    0.405   78.499  249.133
  709.006    6.026    0.148    0.413   81.499  244.127
  709.256    6.058    0.164    0.413   80.046  244.321
  709.506    6.125    0.145    0.411   79.096  244.836
  709.756    6.251    0.095    0.410   80.966  245.666
  710.006    6.368    0.091    0.415   83.214  245.759
  710.256    6.330    0.098    0.421   85.899  245.426
  710.506    6.186    0.127    0.425   88.648  244.982
  710.756    5.855    0.133    0.428   90.769  244.753
  711.006    5.479    0.143    0.429   91.699  245.057
  711.256    5.070    0.126    0.426   89.433  245.356
  711.506    4.647    0.111    0.422   88.044  245.237
  711.756    3.869    0.149    0.417   89.100  245.112
  712.006    3.533    0.159    0.414   89.904  244.566
  712.256    3.331    0.174    0.417   89.394  244.761
  712.506    2.930    0.234    0.436   87.567  244.534
  712.756    2.499    0.253    0.430   53.836  244.624
  713.006    2.546    0.271    0.411   44.361  244.608
  713.256    2.618    0.279    0.386   44.913  244.483
  713.506    2.855    0.267    0.385   46.598  244.361
  713.756    6.678    0.245    0.389   47.780  244.450
  714.006    6.958    0.240    0.393   47.895  244.540
  714.256    7.115    0.254    0.401   48.889  244.100
  714.506    7.207    0.256    0.407   49.694  244.080
  714.756    7.191    0.247    0.407   49.621  244.066
  715.006    7.001    0.244    0.402   49.046  244.264
  715.256    6.626    0.239    0.401   50.973  244.140
  715.506    6.166    0.231    0.403   51.786  244.442
  715.756    5.630    0.100    0.404   68.950  244.638
  716.006    5.329    0.118    0.401   80.285  243.665
  716.256    5.159    0.135    0.396   82.720  242.799
  716.506    5.119    0.149    0.389   82.084  242.890
  716.756    5.136    0.161    0.379   68.849  243.936
  717.006    5.262    0.172    0.368   50.035  245.617
  717.256    5.524    0.194    0.364   43.444  244.857
  717.506    6.325    0.241    0.366   38.733  245.160
  717.756    7.311    0.252    0.368   36.529  244.612
  718.006    8.061    0.261    0.370   35.642  244.383
  718.256    8.258    0.270    0.370   36.071  243.836
  718.506    8.224    0.270    0.370   37.001  241.591
  718.756    8.206    0.253    0.369   38.496  239.982
  719.006    8.218    0.243    0.368   41.370  240.390
  719.256    8.231    0.237    0.365   44.305  240.798
  719.506    8.384    0.231    0.364   46.177  240.250
  719.756    8.820    0.225    0.363   49.803  239.491
  720.006    9.260    0.148    0.365   53.742  238.413
  720.256    9.256    0.120    0.369   57.305  238.716
  720.506    8.961    0.132    0.374   65.506  238.594
  720.756    8.790    0.156    0.387   74.084  238.152
  721.006    8.755    0.160    0.392   82.912  237.816
  721.256    8.884    0.184    0.395   73.375  237.164
  721.506    9.559    0.218    0.398   61.581  236.191
  721.756   10.560    0.282    0.397   51.417  235.858
  722.006   14.490    0.256    0.396   48.775  235.522
  722.256   16.007    0.249    0.395   48.701  235.612
  722.506   16.152    0.255    0.391   48.693  236.020
  722.756   16.026    0.260    0.386   48.871  236.214
  723.006   15.929    0.262    0.380   49.111  236.192
  723.256   15.924    0.279    0.373   49.351  236.498
  723.506   17.492    0.264    0.364   49.091  236.377
  723.756   18.573    0.244    0.358   47.954  235.513
  724.006   18.707    0.222    0.351   47.694  234.754
  724.256   18.110    0.094    0.348   48.186  235.372
  724.506   17.239    0.153    0.364   48.802  235.887
  724.756   15.246    0.237    0.368   49.921  236.508
  725.006   14.267    0.228    0.363   52.857  237.023
  725.256   13.734    0.217    0.356   52.033  237.113
  725.506   13.371    0.216    0.362   52.524  237.521
  725.756   13.068    0.227    0.375   54.332  237.717
  726.006   12.699    0.230    0.383   57.269  238.120
  726.256   12.364    0.239    0.389   59.265  238.212
  726.506   11.947    0.229    0.395   57.186  237.243
  726.756   11.545    0.231    0.398   57.050  236.695
  727.006   11.114    0.226    0.399   58.797  235.934
  727.256   10.862    0.202    0.392   62.172  236.343
  727.506   10.736    0.172    0.383   68.806  236.113
  727.756   10.752    0.143    0.373   76.130  236.306
  728.006   10.850    0.134    0.362   79.129  235.868
  728.256   11.136    0.193    0.346   69.404  236.064
  728.506   11.538    0.154    0.330   58.112  236.471
  728.756   12.091    0.133    0.324   55.656  236.668
  729.006   12.387    0.112    0.325   55.207  237.077
  729.256   12.383    0.132    0.333   55.763  237.062
  729.506   12.285    0.157    0.333   56.255  236.301
  729.756   12.585    0.183    0.322   56.747  234.906
  730.006   13.515    0.186    0.314   56.799  234.146
  730.256   15.417    0.145    0.306   53.217  234.342
  730.506   17.586    0.044    0.134   45.247  234.431
  730.756   21.187    0.023    0.160   23.738  234.094
  731.006   23.405    0.034    0.266   16.332  233.867
  731.256   23.707    0.107    0.315   21.274  233.743
  731.506   23.833    0.124    0.357   28.723  233.832
  731.756   34.528    0.146    0.382   30.218  233.710
  732.006   35.146    0.282    0.403   22.702  233.626
  732.256   33.463    0.285    0.420   20.821  232.970
  732.506   21.202    0.287    0.439   20.557  232.948
  732.756   15.329    0.301    0.486   21.042  233.554
  733.006   10.560    0.321    0.506   22.457  233.634
  733.256    8.777    0.363    0.527   24.063  234.349
  733.506    5.793    0.409    0.565   26.538  235.799
  733.756    5.007    0.570    0.560   29.263  236.941
  734.006    4.593    0.548    0.545   35.037  238.286
  734.256    4.598    0.508    0.525   64.150  239.422
  734.506    4.840    0.281    0.503   86.166  240.344
  734.756    4.854    0.278    0.485   82.604  240.113
  735.006    4.978    0.287    0.477   76.678  239.455
  735.256    5.469    0.312    0.471   72.309  239.853
  735.506    5.920    0.369    0.454   81.630  240.672
  735.756    6.301    0.402    0.438   77.445  241.489
  736.006    6.439    0.163    0.415   72.701  242.207
  736.256    6.269    0.235    0.407   70.820  242.394
  736.506    5.687    0.239    0.415   71.802  241.315
  736.756    5.139    0.222    0.421   77.576  240.240
  737.006    5.050    0.198    0.427   85.156  239.370
  737.256    5.228    0.160    0.428   90.930  238.925
  737.506    5.775    0.170    0.424   94.649  238.165
  737.756    6.549    0.172    0.414   90.838  237.402
  738.006    7.566    0.175    0.403   83.296  237.592
  738.256    9.121    0.187    0.400   66.788  238.095
  738.506   10.998    0.273    0.401   56.631  238.177
  738.756   12.610    0.281    0.407   47.717  238.048
  739.006   13.499    0.284    0.411   51.064  237.601
  739.256   14.448    0.289    0.414   49.679  238.212
  739.506   15.012    0.295    0.411   49.791  239.980
  739.756   15.397    0.299    0.406   53.823  242.063
  740.006   15.328    0.291    0.401   56.484  242.884
  740.256   14.431    0.278    0.395   55.911  242.544
  740.506   13.287    0.274    0.388   54.713  241.467
  740.756   12.486    0.271    0.381   52.523  239.964
  741.006   11.800    0.264    0.375   50.017  238.569
  741.256   11.087    0.262    0.366   49.694  237.809
  741.506   10.735    0.265    0.356   49.554  237.363
  741.756   10.490    0.260    0.347   53.398  237.027
  742.006   10.679    0.257    0.333   58.924  237.317
  742.256   11.034    0.245    0.314   63.951  237.716
  742.506   11.253    0.236    0.283   67.547  238.007
  742.756   11.371    0.087    0.238   68.156  238.089
  743.006   11.320    0.040    0.203   60.985  238.277
