~VERSION INFORMATION
 VERS.                 2.0:   CWLS LOG ASCII STANDARD -VERSION 2.0
 WRAP.                  NO:   ONE LINE PER DEPTH STEP
~WELL INFORMATION BLOCK
#MNEM.UNIT           DATA                    DESCRIPTION OF MNEMONIC
#---------    -------------------            -------------------------------
# Generated from Intellog Unique Number	CS_73_76/WELL/1999
WELL.         HOME OIL COMPANY LIMITED       : Well_name    - WELL
LOC .         00/06-36-075-06W4/0            : Location     - LOCATION
UWI .         00/06-36-075-06W4/0            : Uwi          - UNIQUE WELL ID
ENTR.         SP                             : Entered      - ENTERED BY
SRVC.         SCHLUMBERGER                   : Scn          - SERVICE COMPANY
STRT.M        195                            : top_depth    - START DEPTH
STOP.M        425                            : bot_depth    - STOP DEPTH
STEP.M        0.25                           : increment    - STEP LENGTH
 NULL. -999.2500:NULL Value
~CURVE INFORMATION BLOCK
#MNEM UNIT       ERCB CURVE CODE    CURVE DESCRIPTION
#-----------   ------------------   ----------------------------------
DEPT.M        00 001 00 00         : DEPTH        - DEPTH
ILD .OHMM     00 120 00 00         : RESD         - DEEP RESISTIVITY (DIL)
DPHI.V/V      00 890 00 00         : PHID         - DENSITY POROSITY (LIMESTONE)
NPHI.V/V      00 330 00 00         : PHIN         - NEUTRON POROSITY (LIMESTONE)
GR  .API      00 310 00 00         : GR           - GAMMA RAY
~PARAMETER INFORMATION
#MNEM.UNIT           DATA             DESCRIPTION OF MNEMONIC
#---------         -----------     ------------------------------
GL  .M        608.8                : gl           - GROUND LEVEL ELEVATION
EREF.M        612.3                : kb           - ELEVATION OF DEPTH REFERENCE
DATM.M        608.8                : datum        - DATUM ELEVATION
TDD .M        440                  : tdd          - TOTAL DEPTH DRILLER
RUN .         ONE                  : Run          - RUN NUMBER
ENG .         BILL                 : Engineer     - RECORDING ENGINEER
WIT .         JIM                  : Witness      - WITNESSED BY
MUD .         GEL                  : Mud_type     - MUD TYPE
MATR.         LIMESTONE            : Logunit      - NEUTRON MATRIX
TMAX.C        18                   : BHT          - MAXIMUM RECORDED TEMPERATURE
BHTD.M        440                  : BHTDEP       - MAXIMUM RECORDED TEMPERATURE
MATR.         1                    : LOGUNIT      - NEUTRON MATRIX
RMT .C        25                   : MDTP         - TEMPERATURE OF MUD
NEUT.         1                    : NEUTRON      - NEUTRON TYPE
RESI.         0                    : RESIST       - RESISTIVITY TYPE
RMC .OHMM     0.25                 : RMC          - RESISTIVITY OF MUD CAKE
RMF .OHMM     0.25                 : RMF          - RESISTIVITY OF MUD FILTRATE
SUFT.C        15                   : SUFT         - SURFACE TEMPERATURE
~A  DEPTH     RESD     PHID     PHIN       GR
  195.000    2.821    0.249    0.562  100.604
  195.250    2.821    0.275    0.566   98.196
  195.500    2.821    0.256    0.560   96.993
  195.750    2.928    0.267    0.553   94.587
  196.000    2.874    0.274    0.560   94.588
  196.250    2.874    0.266    0.554   95.192
  196.500    2.875    0.250    0.537  101.219
  196.750    2.875    0.244    0.536  102.426
  197.000    2.929    0.254    0.534  100.019
  197.250    3.039    0.264    0.530   99.418
  197.500    3.154    0.249    0.537   97.011
  197.750    3.273    0.254    0.531   98.821
  198.000    3.460    0.266    0.541  104.244
  198.250    3.525    0.248    0.542  107.258
  198.500    3.658    0.227    0.534  104.851
  198.750    3.797    0.219    0.513  103.649
  199.000    3.592    0.234    0.522  104.253
  199.250    3.398    0.240    0.536  105.460
  199.500    3.097    0.233    0.543  105.463
  199.750    3.041    0.228    0.535  104.260
  200.000    3.398    0.220    0.506  101.852
  200.250    3.592    0.204    0.475   98.843
  200.500    3.660    0.204    0.475   93.423
  200.750    3.728    0.193    0.495   88.003
  201.000    3.869    0.156    0.500   78.367
  201.250    4.405    0.130    0.486   65.719
  201.500    5.301    0.113    0.305   50.660
  201.750    6.999    0.181    0.346   35.602
  202.000    8.741    0.214    0.368   32.592
  202.250   12.428    0.291    0.388   36.209
  202.500   14.683    0.270    0.403   40.429
  202.750   14.684    0.308    0.394   43.442
  203.000   10.139    0.204    0.409   54.890
  203.250    7.265    0.230    0.424   72.965
  203.500    5.206    0.243    0.457   83.810
  203.750    4.326    0.251    0.486   95.861
  204.000    3.944    0.243    0.509  101.887
  204.250    4.093    0.232    0.482   95.866
  204.500    4.574    0.242    0.474   88.639
  204.750    6.266    0.254    0.417   83.220
  205.000    8.428    0.278    0.414   79.607
  205.250   11.763    0.291    0.414   80.814
  205.500   14.691    0.299    0.421   85.033
  205.750   17.038    0.300    0.423   88.650
  206.000   18.012    0.281    0.438   90.459
  206.250   18.013    0.252    0.429   92.871
  206.500   16.421    0.228    0.416   98.296
  206.750   14.969    0.214    0.412  101.912
  207.000   14.425    0.211    0.407  106.734
  207.250   14.161    0.203    0.404  108.543
  207.500   13.902    0.219    0.411  100.111
  207.750   13.903    0.259    0.422   97.101
  208.000   14.164    0.267    0.412   92.886
  208.250   14.164    0.253    0.404   85.660
  208.500   14.429    0.252    0.397   79.036
  208.750   14.700    0.267    0.387   76.026
  209.000   15.255    0.274    0.379   76.630
  209.250   15.831    0.246    0.399   75.427
  209.500   17.050    0.261    0.411   70.611
  209.750   17.369    0.291    0.417   68.805
  210.000   17.694    0.305    0.416   74.832
  210.250   17.052    0.288    0.407   83.871
  210.500   16.433    0.279    0.405   88.090
  210.750   16.132    0.258    0.406   91.104
  211.000   16.434    0.238    0.412   91.105
  211.250   16.742    0.257    0.416   86.289
  211.500   17.055    0.280    0.421   80.870
  211.750   15.548    0.294    0.429   77.859
  212.000   13.161    0.276    0.417   77.862
  212.250   10.937    0.246    0.409   86.900
  212.500    9.431    0.229    0.424  100.155
  212.750    8.133    0.221    0.445  110.398
  213.000    7.414    0.214    0.468  109.798
  213.250    7.014    0.206    0.465  104.981
  213.500    7.985    0.216    0.458   96.549
  213.750    8.760    0.265    0.436   82.094
  214.000   10.543    0.305    0.409   69.445
  214.250   13.919    0.334    0.395   53.182
  214.500   19.790    0.332    0.397   44.148
  214.750   22.951    0.317    0.398   51.982
  215.000   25.179    0.298    0.389   54.996
  215.250   24.718    0.297    0.382   61.626
  215.500   22.534    0.283    0.377   67.049
  215.750   19.075    0.256    0.386   73.677
  216.000   15.851    0.234    0.398   84.523
  216.250   13.418    0.209    0.400   94.766
  216.500   11.787    0.192    0.411   90.552
  216.750   10.946    0.205    0.419   79.109
  217.000   11.572    0.226    0.404   71.279
  217.250   12.462    0.249    0.395   65.257
  217.500   14.723    0.265    0.394   64.054
  217.750   15.565    0.251    0.386   63.454
  218.000   14.189    0.217    0.382   71.891
  218.250   11.362    0.200    0.392   82.735
  218.500    9.981    0.168    0.418   95.388
  218.750    8.294    0.150    0.443  107.439
  219.000    7.422    0.168    0.479  114.067
  219.250    6.766    0.149    0.502  117.082
  219.500    6.520    0.188    0.493  117.084
  219.750    6.168    0.211    0.475  120.701
  220.000    5.835    0.198    0.489  119.499
  220.250    5.419    0.199    0.499  118.296
  220.500    5.032    0.203    0.502  118.901
  220.750    4.760    0.223    0.504  119.505
  221.000    4.339    0.214    0.524  117.098
  221.250    3.956    0.227    0.538  117.702
  221.500    3.674    0.226    0.532  114.692
  221.750    3.606    0.248    0.528  100.237
  222.000    4.106    0.259    0.531   91.202
  222.250    4.761    0.280    0.523   79.157
  222.500    6.404    0.258    0.437   74.339
  222.750    7.851    0.235    0.394   77.353
  223.000    9.449    0.251    0.399   77.958
  223.250   10.959    0.265    0.401   80.973
  223.500   12.476    0.235    0.402   89.409
  223.750   10.759    0.201    0.407   94.230
  224.000    9.807    0.210    0.457   97.244
  224.250    8.776    0.230    0.452   90.620
  224.500    8.777    0.244    0.429   80.382
  224.750   10.179    0.259    0.405   76.768
  225.000   11.167    0.274    0.378   66.530
  225.250   12.713    0.266    0.386   74.966
  225.500   13.691    0.260    0.375   77.981
  225.750   14.474    0.233    0.366   74.368
  226.000   14.745    0.212    0.375   72.563
  226.250   15.303    0.221    0.381   68.348
  226.500   15.303    0.272    0.381   62.326
  226.750   15.882    0.298    0.381   54.497
  227.000   15.882    0.275    0.402   58.716
  227.250   15.591    0.268    0.411   68.960
  227.500   14.749    0.286    0.402   62.937
  227.750   14.480    0.292    0.389   56.915
  228.000   14.214    0.252    0.400   66.557
  228.250   14.215    0.218    0.419   71.378
  228.500   14.216    0.231    0.428   74.995
  228.750   14.482    0.254    0.440   68.371
  229.000   15.029    0.284    0.401   59.940
  229.250   15.889    0.317    0.393   54.519
  229.500   16.489    0.283    0.395   64.160
  229.750   16.489    0.277    0.395   72.596
  230.000   15.891    0.257    0.396   77.417
  230.250   15.313    0.249    0.405   81.035
  230.500   14.487    0.236    0.418   82.241
  230.750   13.704    0.240    0.438   83.448
  231.000   13.207    0.234    0.430   85.860
  231.250   12.965    0.229    0.411   87.669
  231.500   12.728    0.225    0.402   86.467
  231.750   12.728    0.241    0.395   84.060
  232.000   12.967    0.259    0.394   81.049
  232.250   13.210    0.266    0.396   74.425
  232.500   15.320    0.277    0.401   70.211
  232.750   16.196    0.281    0.402   70.815
  233.000   18.100    0.277    0.396   69.010
  233.250   18.784    0.278    0.387   71.422
  233.500   19.494    0.271    0.372   74.436
  233.750   19.495    0.253    0.365   73.234
  234.000   19.860    0.255    0.376   72.633
  234.250   19.861    0.270    0.384   72.636
  234.500   19.861    0.276    0.387   73.240
  234.750   19.498    0.290    0.377   73.243
  235.000   19.141    0.289    0.383   72.642
  235.250   19.142    0.290    0.385   77.464
  235.500   18.791    0.275    0.387   79.273
  235.750   18.448    0.258    0.389   82.288
  236.000   17.451    0.245    0.401   83.495
  236.250   16.509    0.229    0.413   84.099
  236.500   15.909    0.227    0.406   87.716
  236.750   15.050    0.240    0.410   87.718
  237.000   15.332    0.258    0.416   85.311
  237.250   16.512    0.251    0.410   84.710
  237.500   17.136    0.231    0.401   85.316
  237.750   17.457    0.265    0.396   85.318
  238.000   17.784    0.269    0.405   85.922
  238.250   17.459    0.260    0.412   86.526
