~VERSION INFORMATION
 VERS.                 2.0:   CWLS LOG ASCII STANDARD -VERSION 2.0
 WRAP.                  NO:   ONE LINE PER DEPTH STEP
~WELL INFORMATION BLOCK
#MNEM.UNIT           DATA                    DESCRIPTION OF MNEMONIC
#---------    -------------------            -------------------------------
# Generated from Intellog Unique Number	CS_77_79/WELL/858
WELL.         DOME COWPAR                    : Well_name    - WELL
LOC .         00/05-19-079-02W4/0            : Location     - LOCATION
UWI .         00/05-19-079-02W4/0            : Uwi          - UNIQUE WELL ID
ENTR.         JHS                            : Entered      - ENTERED BY
SRVC.         SCHLUMBERGER                   : Scn          - SERVICE COMPANY
STRT.M        105                            : top_depth    - START DEPTH
STOP.M        335                            : bot_depth    - STOP DEPTH
STEP.M        0.25                           : increment    - STEP LENGTH
 NULL. -999.2500:NULL Value
~CURVE INFORMATION BLOCK
#MNEM UNIT       ERCB CURVE CODE    CURVE DESCRIPTION
#-----------   ------------------   ----------------------------------
DEPT.M        00 001 00 00         : DEPTH        - DEPTH
DPHI.V/V      00 890 00 00         : PHID         - DENSITY POROSITY (LIMESTONE)
NPHI.V/V      00 330 00 00         : PHIN         - NEUTRON POROSITY (LIMESTONE)
GR  .API      00 310 00 00         : GR           - GAMMA RAY
ILD .OHMM     00 120 00 00         : RESD         - DEEP RESISTIVITY (DIL)
RHOB.KG/M3    00 350 00 00         : DENS         - BULK DENSITY
~PARAMETER INFORMATION
#MNEM.UNIT           DATA             DESCRIPTION OF MNEMONIC
#---------         -----------     ------------------------------
GL  .M        522.7                : gl           - GROUND LEVEL ELEVATION
EREF.M        526.2                : kb           - ELEVATION OF DEPTH REFERENCE
DATM.M        526.2                : datum        - DATUM ELEVATION
TDD .M        338.8                : tdd          - TOTAL DEPTH DRILLER
RUN .         ONE                  : Run          - RUN NUMBER
ENG .         BILL                 : Engineer     - RECORDING ENGINEER
WIT .         JIM                  : Witness      - WITNESSED BY
MUD .         GEL                  : Mud_type     - MUD TYPE
MATR.         LIMESTONE            : Logunit      - NEUTRON MATRIX
TMAX.C        22                   : BHT          - MAXIMUM RECORDED TEMPERATURE
BHTD.M        338.8                : BHTDEP       - MAXIMUM RECORDED TEMPERATURE
MATR.         1                    : LOGUNIT      - NEUTRON MATRIX
RMT .C        25                   : MDTP         - TEMPERATURE OF MUD
NEUT.         1                    : NEUTRON      - NEUTRON TYPE
RESI.         0                    : RESIST       - RESISTIVITY TYPE
RMC .OHMM     0.25                 : RMC          - RESISTIVITY OF MUD CAKE
RMF .OHMM     0.25                 : RMF          - RESISTIVITY OF MUD FILTRATE
SUFT.C        15                   : SUFT         - SURFACE TEMPERATURE
~A  DEPTH     PHID     PHIN       GR     RESD     DENS
# ...
  251.000    0.251    0.428   85.378    3.296 2281.280
  251.250    0.236    0.426   89.637    3.620 2306.220
  251.500    0.230    0.443   89.048    3.903 2316.660
  251.750    0.232    0.471   81.210    4.132 2312.600
  252.000    0.234    0.436   78.203    4.212 2310.600
  252.250    0.181    0.394   78.832    4.295 2399.790
  252.500    0.141    0.386   77.043    4.300 2468.270
  252.750    0.176    0.455   77.663    4.226 2408.240
  253.000    0.270    0.464   88.572    4.150 2248.700
  253.250    0.258    0.466   95.248    4.004 2269.510
  253.500    0.238    0.477   97.083    3.791 2302.740
  253.750    0.247    0.500  103.155    3.589 2288.300
  254.000    0.256    0.506  101.358    3.525 2271.790
  254.250    0.249    0.489   95.338    3.338 2284.300
  254.500    0.228    0.489   97.171    3.220 2319.610
  254.750    0.242    0.496  101.421    3.163 2296.880
  255.000    0.255    0.495   98.420    3.051 2274.150
  255.250    0.262    0.497   96.020    2.998 2261.790
  255.500    0.254    0.500   93.624    3.002 2276.370
  255.750    0.245    0.489   93.647    3.003 2290.960
  256.000    0.239    0.474   95.481    3.063 2301.390
  256.250    0.229    0.470   94.291    3.066 2318.040
  256.500    0.245    0.483   93.102    3.013 2291.180
  256.750    0.262    0.473   93.728    3.073 2262.220
  257.000    0.241    0.474   96.173    3.132 2297.550
  257.250    0.248    0.465   93.774    3.377 2285.180
  257.500    0.261    0.454   88.952    3.851 2264.520
  257.750    0.251    0.448   86.555    4.075 2281.170
  258.000    0.259    0.435   89.606    4.234 2266.740
  258.250    0.245    0.439   92.651    4.317 2291.680
  258.500    0.234    0.446   93.880    4.321 2310.420
  258.750    0.217    0.437   90.272    4.406 2339.510
  259.000    0.229    0.424   86.059    4.662 2318.850
  259.250    0.270    0.413   82.452    4.935 2248.450
  259.500    0.237    0.397   80.656    5.223 2304.480
  259.750    0.248    0.381   78.866    5.633 2285.900
  260.000    0.255    0.352   76.464    5.742 2273.540
  260.250    0.270    0.341   77.093    6.077 2248.740
  260.500    0.254    0.355   76.505    6.197 2275.770
  260.750    0.247    0.355   74.108    6.557 2288.270
  261.000    0.234    0.311   68.082    7.206 2309.080
  261.250    0.211    0.283   62.051    7.483 2348.520
  261.500    0.217    0.283   63.285    7.776 2338.230
  261.750    0.330    0.326   62.095    7.500 2145.520
  262.000    0.314    0.336   57.277    7.100 2172.550
  262.250    0.315    0.336   54.881    6.356 2170.550
  262.500    0.306    0.340   57.923    5.484 2187.210
  262.750    0.295    0.365   61.573    4.731 2205.930
  263.000    0.318    0.390   63.413    4.007 2166.620
  263.250    0.293    0.400   69.482    3.394    0.000
  263.500    0.312    0.417   74.955    3.039 2177.130
  263.750    0.297    0.457   75.572    2.824 2202.080
  264.000    0.299    0.479   74.990    2.724 2198.010
  264.250    0.285    0.450   68.961    2.579 2222.950
  264.500    0.304    0.405   54.465    2.535 2189.850
  264.750    0.310    0.342   42.995    2.490 2179.560
  265.000    0.320    0.354   44.831    2.493 2163.050
  265.250    0.306    0.370   49.689    2.541 2185.950
  265.500    0.300    0.378   55.154    2.690 2196.370
  265.750    0.270    0.382   58.206    2.794 2248.270
  266.000    0.281    0.385   60.035    2.903 2229.690
  266.250    0.308    0.389   66.715    3.015 2184.150
  266.500    0.290    0.381   69.159    3.132 2213.250
  266.750    0.273    0.366   68.569    3.194 2242.350
  267.000    0.284    0.341   61.331    3.258 2223.760
  267.250    0.271    0.333   69.821    3.385 2246.630
  267.500    0.241    0.359   68.639    3.387 2298.530
  267.750    0.249    0.368   65.631    3.455 2284.100
  268.000    0.266    0.363   62.023    3.458 2255.130
  268.250    0.284    0.364   63.861    3.461 2224.110
  268.500    0.265    0.370   74.162    3.530 2257.350
  268.750    0.267    0.362   78.417    3.600 2253.290
  269.000    0.274    0.349   76.019    3.740 2240.920
  269.250    0.269    0.346   72.410    3.743 2249.280
  269.500    0.258    0.357   72.431    3.747 2268.010
  269.750    0.260    0.364   68.826    3.614 2266.020
  270.000    0.261    0.365   65.214    3.486 2264.010
  270.250    0.292    0.371   68.869    3.361 2210.180
  270.500    0.273    0.375   64.047    3.241 2243.430
  270.750    0.262    0.361   65.886    3.185 2262.150
  271.000    0.280    0.348   70.747    3.130 2231.130
  271.250    0.255    0.347   68.957    3.191 2274.730
  271.500    0.267    0.365   67.160    3.255 2254.080
  271.750    0.270    0.355   72.020    3.319 2247.960
  272.000    0.270    0.349   78.091    3.384 2248.000
  272.250    0.263    0.348   80.535    3.452 2260.530
  272.500    0.256    0.342   81.157    3.454 2273.030
  272.750    0.257    0.343   77.547    3.332 2271.030
  273.000    0.270    0.365   72.732    3.274 2248.300
  273.250    0.263    0.368   70.335    3.099 2260.810
  273.500    0.252    0.371   67.327    2.989 2279.540
  273.750    0.257    0.373   67.953    2.937 2271.320
  274.000    0.281    0.352   76.443    2.941 2229.930
  274.250    0.241    0.344   81.304    2.999 2298.430
  274.500    0.244    0.362   75.882    3.001 2292.270
  274.750    0.261    0.362   69.247    2.948 2263.320
  275.000    0.281    0.353   65.639    2.792 2230.220
  275.250    0.293    0.346   64.451    2.794 2209.570
  275.500    0.299    0.341   68.706    2.849 2199.270
  275.750    0.274    0.331   67.526    2.960 2240.800
  276.000    0.248    0.334   66.337    3.132 2286.500
  276.250    0.254    0.351   67.566    3.195 2276.190
  276.500    0.273    0.352   68.791    3.198 2243.090
  276.750    0.267    0.340   68.209    3.028 2253.550
  277.000    0.261    0.336   62.786    2.920 2263.970
  277.250    0.272    0.341   59.176    2.816 2245.390
  277.500    0.283    0.342   61.626    2.717 2226.820
  277.750    0.283    0.342   61.644    2.719 2226.880
  278.000    0.290    0.353   59.847    2.623 2214.510
  278.250    0.293    0.347   61.681    2.626 2208.380
  278.500    0.304    0.342   58.076    2.579 2189.810
  278.750    0.293    0.349   53.257    2.534 2208.520
  279.000    0.279    0.351   54.492    2.491 2233.470
  279.250    0.293    0.348   58.136    2.447 2208.670
  279.500    0.286    0.345   65.423    2.404 2221.170
  279.750    0.286    0.343   65.440    2.406 2221.250
  280.000    0.282    0.337   61.834    2.409 2227.530
  280.250    0.298    0.339   54.592    2.411 2200.670
  280.500    0.304    0.349   51.591    2.370 2190.390
  280.750    0.310    0.357   49.800    2.328 2180.080
  281.000    0.307    0.360   49.212    2.245 2184.300
  281.250    0.317    0.367   44.396    2.205 2167.780
  281.500    0.306    0.370   31.107    2.089 2186.530
  281.750    0.323    0.365   20.845    2.014 2157.580
  282.000    0.319    0.359   17.239    1.943 2163.870
  282.250    0.327    0.342   31.777    1.945 2151.500
  282.500    0.316    0.344   43.294    1.983 2170.220
  282.750    0.335    0.354   49.361    2.061 2137.130
  283.000    0.328    0.366   59.063    2.140 2149.640
  283.250    0.322    0.371   65.736    2.182 2160.080
  283.500    0.330    0.376   64.547    2.185 2145.650
  283.750    0.303    0.374   55.497    2.146 2191.330
  284.000    0.302    0.358   46.446    2.070 2193.470
  284.250    0.324    0.351   44.053    1.997 2156.230
  284.500    0.319    0.360   43.464    1.926 2164.580
  284.750    0.307    0.367   44.695    1.927 2185.390
  285.000    0.316    0.355   48.345    1.965 2168.870
  285.250    0.302    0.345   48.974    2.005 2193.840
  285.500    0.297    0.359   48.990    2.045 2202.190
  285.750    0.290    0.376   53.249    2.084 2214.710
  286.000    0.301    0.382   47.829    2.048 2196.120
  286.250    0.330    0.372   40.591    2.012 2146.440
  286.500    0.349    0.357   41.822    1.905 2113.340
  286.750    0.336    0.354   43.658    1.804 2136.230
  287.000    0.322    0.359   43.072    1.772 2159.090
  287.250    0.311    0.352   40.670    1.741 2177.840
