~VERSION INFORMATION
 VERS.                 2.0:   CWLS LOG ASCII STANDARD -VERSION 2.0
 WRAP.                  NO:   ONE LINE PER DEPTH STEP
~WELL INFORMATION BLOCK
#MNEM.UNIT           DATA                    DESCRIPTION OF MNEMONIC
#---------    -------------------            -------------------------------
# Generated from Intellog Unique Number	CN_91_93/WELL/3138
WELL.         07-12-092-18W4                 : Well_name    - WELL
LOC .         00/07-12-092-18W4/0            : Location     - LOCATION
UWI .         00/07-12-092-18W400            : Uwi          - UNIQUE WELL ID
ENTR.         JOETTE                         : Entered      - ENTERED BY
SRVC.         SCHLUMBERGER                   : Scn          - SERVICE COMPANY
DATE.         04\12\92                       : Date         - LOG DATE
STRT.M        115                            : top_depth    - START DEPTH
STOP.M        265                            : bot_depth    - STOP DEPTH
STEP.M        0.25                           : increment    - STEP LENGTH
 NULL. -999.2500:NULL Value
~CURVE INFORMATION BLOCK
#MNEM UNIT       ERCB CURVE CODE    CURVE DESCRIPTION
#-----------   ------------------   ----------------------------------
DEPT.M        00 001 00 00         : DEPTH        - DEPTH
CALI.MM       00 280 01 00         : CAL          - CALIPER
GR  .API      00 310 00 00         : GR           - GAMMA RAY
NPHI.V/V      00 330 00 00         : PHIN         - NEUTRON POROSITY (SANDSTONE)
DPHI.V/V      00 890 00 00         : PHID         - DENSITY POROSITY (SANDSTONE)
ILD .OHMM     00 120 00 00         : RESD         - DEEP RESISTIVITY (DIL)
~PARAMETER INFORMATION
#MNEM.UNIT           DATA             DESCRIPTION OF MNEMONIC
#---------         -----------     ------------------------------
GL  .M        517.74               : gl           - GROUND LEVEL ELEVATION
EREF.M        520.74               : kb           - ELEVATION OF DEPTH REFERENCE
DATM.M        520.74               : datum        - DATUM ELEVATION
TDD .M        267.5                : tdd          - TOTAL DEPTH DRILLER
RUN .         ONE                  : Run          - RUN NUMBER
ENG .         JO                   : Engineer     - RECORDING ENGINEER
WIT .         TIM                  : Witness      - WITNESSED BY
MUD .         GEL                  : Mud_type     - MUD TYPE
MATR.         SANDSTONE            : Logunit      - NEUTRON MATRIX
TMAX.C        20                   : BHT          - MAXIMUM RECORDED TEMPERATURE
BHTD.M        267.5                : BHTDEP       - MAXIMUM RECORDED TEMPERATURE
RMT .C        16                   : MDTP         - TEMPERATURE OF MUD
MUDD.KG/M     1120                 : MWT          - MUD DENSITY
NEUT.         1                    : NEUTRON      - NEUTRON TYPE
RESI.         0                    : RESIST       - RESISTIVITY TYPE
RM  .OHMM     6.99                 : RM           - RESISTIVITY OF MUD
RMC .OHMM     6.99                 : RMC          - RESISTIVITY OF MUD CAKE
RMF .OHMM     6.55                 : RMF          - RESISTIVITY OF MUD FILTRATE
SUFT.C        4                    : SUFT         - SURFACE TEMPERATURE
~A  DEPTH      CAL       GR     PHIN     PHID     RESD
# ...
  188.000  160.177   65.235    0.296    0.088   52.540
  188.250  161.192   74.423    0.249    0.084   50.499
  188.500  162.202   82.384    0.302    0.110   67.160
  188.750  163.217   77.477    0.327    0.143   67.039
  189.000  163.209   60.311    0.351    0.054   47.483
  189.250  165.240   62.758    0.270    0.082   42.285
  189.500  165.234   69.494    0.272    0.142   35.561
  189.750  166.247   75.618    0.328    0.205   31.070
  190.000  168.281   82.354    0.372    0.278   24.658
  190.250  169.293   84.186    0.381    0.245   22.382
  190.500  169.285   83.568    0.401    0.226   19.932
  190.750  169.276   84.788    0.419    0.226   18.092
  191.000  170.288   87.849    0.419    0.224   17.067
  191.250  170.273   92.745    0.417    0.214   16.404
  191.500  170.269   90.903    0.431    0.188   15.767
  191.750  170.258   84.769    0.454    0.157   15.144
  192.000  171.270   84.149    0.439    0.092   14.836
  192.250  171.261   93.336    0.401    0.124   14.534
  192.500  171.253   93.943    0.437    0.150   14.519
  192.750  172.265   93.938    0.444    0.203   14.492
  193.000  172.257   96.386    0.455    0.207   14.193
  193.250  172.248  101.896    0.453    0.198   14.456
  193.500  172.239  106.180    0.427    0.194   14.713
  193.750  172.228  100.047    0.417    0.194   15.551
  194.000  172.224   92.687    0.421    0.192   16.450
  194.250  172.213   90.230    0.441    0.176   17.387
  194.500  172.206   93.902    0.428    0.151   17.697
  194.750  172.191   96.349    0.415    0.179   17.665
  195.000  173.205   97.569    0.438    0.197   17.318
  195.250  173.199   96.338    0.454    0.182   16.645
  195.500  173.188   88.978    0.464    0.078   15.389
  195.750  174.200   95.102    0.428    0.134   15.372
  196.000  175.215  101.838    0.386    0.157   15.646
  196.250  179.292  101.219    0.416    0.179   15.930
  196.500  187.455   97.535    0.431    0.197   15.901
  196.750  189.487   95.079    0.454    0.203   14.700
  197.000  184.373   91.395    0.462    0.045   14.412
  197.250  180.279   93.843    0.428    0.103   13.847
  197.500  178.227   98.128    0.439    0.165   13.827
  197.750  186.390   99.348    0.454    0.170   14.073
  198.000  192.510  101.793    0.469    0.171   14.324
  198.250  195.563  104.241    0.464    0.207   14.865
  198.500  191.471  105.461    0.452    0.229   15.706
  198.750  182.267  104.230    0.437    0.218   15.992
  199.000  173.062  105.451    0.417    0.194   16.282
  199.250  172.032  104.833    0.411    0.192   16.565
  199.500  167.937   97.473    0.416    0.193   16.860
  199.750  166.907   87.047    0.405    0.142   16.836
  200.000  169.965   92.558    0.390    0.047   15.876
  200.250  179.149  107.262    0.361    0.095   14.405
  200.500  186.291  106.031    0.385    0.126   13.856
  200.750  189.344  102.961    0.408    0.187   13.066
  201.000  185.250  109.085    0.421    0.183   13.816
  201.250  184.221  113.981    0.416    0.182   14.062
  201.500  188.299  111.524    0.420    0.187   13.000
  201.750  194.419  110.294    0.442    0.188   12.259
  202.000  196.453  111.515    0.460    0.196   11.783
  202.250  190.315  105.381    0.480    0.201   11.766
  202.500  178.046   97.408    0.506    0.175   11.966
  202.750  169.866   99.241    0.490    0.107   11.953
  203.000  166.793  107.204    0.468    0.138   11.941
  203.250  178.020  109.037    0.447    0.183   11.928
  203.500  182.097  106.579    0.441    0.176   11.248
  203.750  182.088   96.767    0.449    0.155   10.811
  204.000  181.058   83.891    0.464    0.181   10.591
  204.250  175.942   76.532    0.459    0.234   19.107
  204.500  167.761   61.817    0.446    0.263   29.602
  204.750  162.643   54.457    0.427    0.302   35.097
  205.000  160.591   31.162    0.279    0.310   40.826
  205.250  159.559   21.963    0.206    0.301   46.575
  205.500  159.554   16.442    0.209    0.303   43.937
  205.750  159.545   15.211    0.224    0.313   38.388
  206.000  159.536   14.593    0.263    0.311   27.703
  206.250  158.506   15.201    0.291    0.302   24.204
  206.500  157.472   18.257    0.307    0.300   22.393
  206.750  157.463   17.639    0.322    0.292   21.524
  207.000  156.435   16.408    0.328    0.296   21.477
  207.250  155.402   14.564    0.324    0.307   22.288
  207.500  155.396   14.560    0.315    0.308   23.122
  207.750  154.361   17.005    0.308    0.282   24.448
  208.000  154.356   18.225    0.313    0.284   26.340
  208.250  154.343   17.606    0.326    0.291   27.334
  208.500  154.339   17.603    0.329    0.294   28.913
  208.750  155.349   18.211    0.329    0.295   31.762
  209.000  155.343   20.044    0.337    0.295   35.550
  209.250  156.355   21.265    0.339    0.292   40.586
  209.500  157.366   20.647    0.345    0.294   48.120
  209.750  158.379   19.416    0.352    0.301   57.052
  210.000  158.372   17.572    0.339    0.302   62.672
  210.250  160.404   18.177    0.329    0.303   64.993
  210.500  160.395   18.785    0.341    0.306   67.423
  210.750  161.406   19.393    0.349    0.307   71.240
  211.000  162.420   20.001    0.355    0.310   71.240
  211.250  164.455   19.994    0.349    0.311   76.696
  211.500  167.506   19.376    0.338    0.311   84.312
  211.750  169.544   19.983    0.328    0.312   98.074
  212.000  172.598   20.591    0.331    0.315  114.124
  212.250  176.675   20.586    0.334    0.317  154.588
  212.500  178.711   19.968    0.343    0.307  169.878
  212.750  182.788   18.124    0.352    0.307  205.219
  213.000  185.844   19.346    0.364    0.315  225.517
  213.250  187.878   21.792    0.373    0.320  243.051
  213.500  189.910   23.625    0.380    0.313  238.112
  213.750  190.925   24.233    0.383    0.305  237.681
  214.000  192.957   26.065    0.373    0.310  241.909
  214.250  193.970   29.124    0.377    0.311  251.046
  214.500  194.980   27.893    0.383    0.302  265.355
  214.750  195.990   25.436    0.368    0.294  280.581
  215.000  197.005   23.592    0.348    0.287  285.676
  215.250  196.997   22.973    0.357    0.294  290.652
  215.500  198.009   23.582    0.375    0.308  290.336
  215.750  200.043   25.415    0.383    0.318  295.501
  216.000  202.075   26.023    0.386    0.308  306.440
  216.250  202.071   25.404    0.396    0.305  300.213
  216.500  203.079   24.172    0.405    0.312  283.101
  216.750  203.075   24.165    0.401    0.307  256.781
  217.000  201.021   24.776    0.383    0.305  246.898
  217.250  198.969   27.222    0.346    0.305  237.396
  217.500  194.874   30.893    0.373    0.310  228.011
  217.750  191.803   32.114    0.388    0.316  227.763
  218.000  189.749   29.656    0.398    0.320  223.135
  218.250  187.698   28.425    0.411    0.325  222.893
  218.500  185.646   30.259    0.419    0.325  222.570
  218.750  183.594   32.704    0.414    0.325  226.365
  219.000  181.540   32.700    0.405    0.320  226.119
  219.250  179.486   31.467    0.400    0.312  225.874
  219.500  179.480   28.398    0.396    0.306  225.547
  219.750  178.449   25.942    0.391    0.309  220.964
  220.000  176.397   30.840    0.401    0.315  212.305
  220.250  174.344   32.673    0.405    0.322  204.134
  220.500  172.294   30.828    0.398    0.327  178.288
  220.750  170.242   29.597    0.390    0.327  149.938
  221.000  167.169   30.817    0.399    0.326   86.093
  221.250  165.117   34.488    0.411    0.317   65.791
  221.500  163.065   36.324    0.409    0.294   41.558
  221.750  161.011   40.609    0.387    0.262   23.403
  222.000  161.005   49.796    0.344    0.255   18.587
  222.250  159.970   58.371    0.364    0.236   16.865
  222.500  158.942   67.559    0.389    0.217   20.003
  222.750  158.933   70.005    0.406    0.236   23.268
  223.000  158.927   59.581    0.419    0.260   26.544
  223.250  158.913   52.832    0.430    0.284   30.294
  223.500  158.909   52.828    0.413    0.293   33.290
  223.750  158.896   58.339    0.410    0.290   40.230
  224.000  158.889   62.011    0.418    0.293   34.485
  224.250  158.880   63.232    0.426    0.288   20.960
