~VERSION INFORMATION
 VERS.                 2.0:   CWLS LOG ASCII STANDARD -VERSION 2.0
 WRAP.                  NO:   ONE LINE PER DEPTH STEP
~WELL INFORMATION BLOCK
#MNEM.UNIT           DATA                    DESCRIPTION OF MNEMONIC
#---------    -------------------            -------------------------------
# Generated from Intellog Unique Number	CC_80_83/WELL/1179
NULL.         -999.25                        : NULL_VALUE
WELL.         CHEVRON ALGAR                  : Well_name    - WELL
LOC .         07-08-081-17W4                 : Location     - LOCATION          
UWI .         00/07-08-081-17W400            : Uwi          - UNIQUE WELL ID    
ENTR.         DW                             : Entered      - ENTERED BY        
SRVC.         SCHLUMBERGER                   : Scn          - SERVICE COMPANY   
DATE.         24 FEB 74                      : Date         - LOG DATE
STRT.M        88.392                         : top_depth    - START DEPTH       
STOP.M        256.03                         : bot_depth    - STOP DEPTH        
STEP.M        0.3048                         : increment    - STEP LENGTH       
~CURVE INFORMATION BLOCK
#MNEM UNIT       ERCB CURVE CODE    CURVE DESCRIPTION
#-----------   ------------------   ----------------------------------
DEPT.M        00 001 00 00         : DEPTH        - DEPTH                       
DPHI.V/V      00 890 00 00         : PHID         - DENSITY POROSITY (LIMESTONE)
NPHI.V/V      00 330 00 00         : PHIN         - NEUTRON POROSITY (LIMESTONE)
GR  .API      00 310 00 00         : GR           - GAMMA RAY                   
ILD .OHMM     00 120 00 00         : RESD         - DEEP RESISTIVITY (DIL)      
~PARAMETER INFORMATION       
#MNEM.UNIT           DATA             DESCRIPTION OF MNEMONIC
#---------         -----------     ------------------------------
GL  .M        482.498              : gl           - GROUND LEVEL ELEVATION      
EREF.M        485.851              : kb           - ELEVATION OF DEPTH REFERENCE
DATM.M        485.851              : datum        - DATUM ELEVATION             
TDD .M        257.251              : tdd          - TOTAL DEPTH DRILLER         
RUN .         ONE                  : Run          - RUN NUMBER                  
ENG .         BILL                 : Engineer     - RECORDING ENGINEER          
WIT .         JIM                  : Witness      - WITNESSED BY                
MUD .         GEL                  : Mud_type     - MUD TYPE                    
MATR.         LIMESTONE            : Logunit      - NEUTRON MATRIX              
TMAX.C        22.7778              : BHT          - MAXIMUM RECORDED TEMPERATURE
BHTD.M        257.251              : BHTDEP       - MAXIMUM RECORDED TEMPERATURE
MATR.         1                    : LOGUNIT      - NEUTRON MATRIX              
RMT .C        25                   : MDTP         - TEMPERATURE OF MUD          
NEUT.         1                    : NEUTRON      - NEUTRON TYPE                
RESI.         0                    : RESIST       - RESISTIVITY TYPE            
RMC .OHMM     0.25                 : RMC          - RESISTIVITY OF MUD CAKE     
RMF .OHMM     0.25                 : RMF          - RESISTIVITY OF MUD FILTRATE 
SUFT.C        15                   : SUFT         - SURFACE TEMPERATURE         
~A  DEPTH     PHID     PHIN       GR     RESD
# ...
  194.461    0.235    0.484  102.953    9.808
  194.766    0.270    0.493  114.629   10.964
  195.071    0.280    0.501  115.239   12.961
  195.376    0.262    0.515  101.710   13.703
  195.681    0.217    0.488   69.121   14.475
  195.985    0.190    0.462   67.887   13.672
  196.290    0.252    0.485   70.341   12.442
  196.595    0.318    0.498   69.722   11.320
  196.900    0.333    0.500   65.414   10.896
  197.205    0.308    0.487   61.105   11.515
  197.509    0.295    0.476   62.946   13.113
  197.814    0.263    0.437   59.252   15.796
  198.119    0.005    0.344   53.100   17.992
  198.424    0.063    0.198   53.095   20.108
  198.729    0.058    0.197   54.320   21.250
  199.033    0.039    0.186   54.930   22.045
  199.338    0.038    0.192   54.925   22.438
  199.643    0.066    0.218   56.764   22.421
  199.948    0.088    0.229   57.992   21.988
  200.253    0.066    0.244   62.906   22.379
  200.557    0.095    0.266   62.899   21.943
  200.862    0.099    0.247   61.667   20.344
  201.167    0.096    0.289   61.047   16.855
  201.472    0.157    0.343   62.888   13.453
  201.776    0.222    0.399   73.334   11.146
  202.081    0.268    0.456   74.559   10.138
  202.386    0.297    0.488   73.938    9.757
  202.691    0.284    0.494   73.936    9.934
  202.996    0.286    0.497   73.317   10.114
  203.300    0.256    0.481   69.623   10.689
  203.605    0.234    0.426   66.545   11.297
  203.910    0.199    0.352   64.696   11.713
  204.215    0.164    0.371   76.987   11.707
  204.520    0.297    0.418   76.983   11.053
  204.824    0.284    0.500   72.674   10.842
  205.129    0.261    0.506   73.284   10.044
  205.434    0.263    0.502   75.126   10.037
  205.739    0.255    0.510   76.963   10.028
  206.044    0.233    0.521   77.574   10.209
  206.348    0.260    0.522   78.184   10.396
  206.653    0.277    0.521   79.410    9.636
  206.958    0.252    0.511   82.481    8.768
  207.263    0.229    0.505   88.624    7.682
  207.568    0.216    0.503   92.923    7.395
  207.872    0.234    0.518   91.073    7.113
  208.177    0.241    0.526   90.455    7.378
  208.482    0.238    0.515   92.294    7.511
  208.787    0.238    0.508   95.978    7.792
  209.092    0.239    0.526   99.662    8.084
  209.396    0.234    0.518  101.504    8.228
  209.701    0.211    0.503   98.426    8.374
  210.006    0.190    0.496   94.117    8.368
  210.311    0.206    0.488   97.187    8.207
  210.616    0.228    0.486  101.484    7.895
  210.920    0.231    0.494  101.481    7.890
  211.225    0.213    0.507   97.787    8.029
  211.530    0.205    0.518   97.168    8.176
  211.835    0.202    0.520   95.318    8.322
  212.139    0.201    0.519   93.470    8.314
  212.444    0.201    0.493   95.926    8.305
  212.749    0.212    0.498  103.299    8.301
  213.054    0.217    0.508  110.057    7.410
  213.359    0.220    0.499  111.282    7.406
  213.663    0.214    0.508  111.278    7.826
  213.968    0.194    0.507  107.585    9.080
  214.273    0.185    0.469  101.432    9.962
  214.578    0.172    0.447   87.902   10.928
  214.883    0.134    0.429   83.594   11.332
  215.187    0.179    0.451   95.886   11.117
  215.492    0.200    0.463  100.184    9.208
  215.797    0.192    0.464  100.795    8.224
  216.102    0.189    0.468  105.708    6.942
  216.407    0.184    0.491  105.704    7.067
  216.711    0.187    0.498  103.241    7.610
  217.016    0.184    0.502   93.399    8.998
  217.321    0.175    0.486   88.476   10.441
  217.626    0.190    0.456   82.938   11.454
  217.931    0.216    0.438   78.016   11.883
  218.235    0.254    0.463   77.397   12.092
  218.540    0.265    0.478   81.696   11.424
  218.845    0.265    0.456   86.610   10.589
  219.150    0.234    0.469   89.063   10.193
  219.455    0.230    0.484   89.674    9.446
  219.759    0.241    0.492   88.440    9.094
  220.064    0.208    0.475   87.820    8.586
  220.369    0.200    0.450   89.046    8.581
  220.674    0.208    0.459   90.270    8.573
  220.979    0.238    0.483   92.110    8.892
  221.283    0.226    0.500   91.493    9.222
  221.588    0.194    0.511   83.495   10.308
  221.893    0.210    0.473   78.571   11.097
  222.198    0.220    0.445   83.487   11.297
  222.502    0.222    0.457   90.859   11.291
  222.807    0.221    0.473   89.624   11.070
  223.112    0.211    0.459   88.392   10.260
  223.417    0.213    0.451   90.845   10.063
  223.722    0.211    0.463   93.300   10.435
  224.026    0.203    0.469   93.297   10.827
  224.331    0.189    0.461   82.225   10.617
  224.636    0.198    0.452   82.836   10.411
  224.941    0.248    0.473   88.365   10.018
  225.246    0.246    0.469   89.590   10.587
  225.550    0.197    0.456   80.363   13.241
  225.855    0.115    0.345   68.063   15.952
  226.160    0.110    0.298   70.516   16.855
  226.465    0.194    0.392   75.431   15.625
  226.770    0.221    0.461   80.960   13.191
  227.074    0.202    0.461   82.800   11.348
  227.379    0.196    0.433   80.335    9.575
  227.684    0.199    0.433   79.717    9.218
  227.989    0.232    0.460   83.400    8.868
  228.294    0.247    0.466   87.085    8.863
  228.598    0.237    0.478   90.770    8.855
  228.903    0.229    0.477   96.299    9.358
  229.208    0.223    0.457  105.517    9.703
  229.513    0.212    0.471  116.579    9.699
  229.818    0.218    0.491  123.952    9.509
  230.122    0.258    0.511  127.021    9.152
  230.427    0.256    0.510  125.173    8.484
  230.732    0.226    0.482  113.487    7.719
  231.037    0.203    0.492   87.660    7.022
  231.342    0.214    0.496   85.197    6.632
  231.646    0.204    0.485   90.111    6.629
  231.951    0.206    0.478   96.254    6.620
  232.256    0.213    0.481  106.702    6.491
  232.561    0.219    0.483  121.453    5.691
  232.865    0.215    0.483  128.211    4.628
  233.170    0.209    0.506  123.288    4.537
  233.475    0.211    0.514  110.988    4.706
  233.780    0.207    0.506  105.449    5.261
  234.085    0.198    0.509   98.067    5.881
  234.389    0.182    0.482   88.226    7.218
  234.694    0.151    0.467   91.294    9.198
  234.999    0.152    0.421   96.823   10.476
  235.304    0.205    0.427   98.662   11.071
  235.609    0.201    0.432   97.428   11.269
  235.913    0.216    0.459   96.196   11.260
  236.218    0.211    0.457   94.963   10.830
  236.523    0.197    0.445   95.572   10.622
  236.828    0.197    0.449   97.412   10.816
  237.133    0.197    0.471   94.948   11.012
  237.437    0.184    0.481   92.485   12.076
  237.742    0.159    0.456   93.095   12.524
  238.047    0.195    0.436   94.935   12.516
  238.352    0.205    0.470   95.545   12.506
  238.657    0.195    0.473   94.311   13.463
  238.961    0.173    0.472   91.233   14.228
  239.266    0.140    0.455   88.769   15.317
  239.571    0.115    0.421   88.149   15.894
  239.876    0.112    0.382   90.605   16.786
  240.181    0.177    0.372  106.585   16.465
  240.485    0.201    0.410  112.113   16.150
  240.790    0.205    0.444  113.954   14.419
  241.095    0.197    0.455  112.104   11.086
  241.400    0.197    0.469  107.797    7.908
  241.705    0.212    0.481  102.258    6.080
  242.009    0.224    0.497   96.106    4.338
  242.314    0.240    0.581   85.036    3.801
  242.619    0.255    0.553   70.890    3.797
  242.924    0.239    0.480   64.737    4.490
  243.229    0.222    0.420   67.192    5.941
  243.533    0.223    0.424   70.261    8.959
  243.838    0.232    0.431   70.872   12.073
  244.143    0.241    0.454   73.328   12.522
  244.448    0.237    0.453   77.627   12.510
  244.752    0.233    0.447   84.384   11.173
  245.057    0.222    0.449   89.298    8.917
  245.362    0.196    0.474   91.754    6.603
  245.667    0.212    0.490   93.593    5.575
  245.972    0.215    0.475   95.434    4.366
  246.276    0.209    0.460   97.888    4.124
  246.581    0.204    0.473   97.268    4.198
  246.886    0.206    0.486   97.264    4.355
  247.191    0.193    0.480   97.875    5.052
