~VERSION INFORMATION
 VERS.                 2.0:   CWLS LOG ASCII STANDARD -VERSION 2.0
 WRAP.                  NO:   ONE LINE PER DEPTH STEP
~WELL INFORMATION BLOCK
#MNEM.UNIT           DATA                    DESCRIPTION OF MNEMONIC
#---------    -------------------            -------------------------------
# Generated from Intellog Unique Number	CX_WELLS/WELL/3268
WELL.         DA/OIL ET AL GRANOR            : Well_name    - WELL
LOC .         00/06-27-083-18W4/0            : Location     - LOCATION
UWI .         00/06-27-083-18W400            : Uwi          - UNIQUE WELL ID
ENTR.         T                              : Entered      - ENTERED BY
SRVC.         SCHLUMBERGER                   : Scn          - SERVICE COMPANY
DATE.         03/04/92                       : Date         - LOG DATE
STRT.F        600                            : top_depth    - START DEPTH
STOP.F        1029.79                        : bot_depth    - STOP DEPTH
STEP.F        0.82                           : increment    - STEP LENGTH
 NULL. -999.2500:NULL Value
~CURVE INFORMATION BLOCK
#MNEM UNIT       ERCB CURVE CODE    CURVE DESCRIPTION
#-----------   ------------------   ----------------------------------
DEPT.F        00 001 00 00         : DEPTH        - DEPTH
GR  .API      00 310 00 00         : GR           - GAMMA RAY
NPHI.V/V      00 330 00 00         : PHIN         - NEUTRON POROSITY (SANDSTONE)
DPHI.V/V      00 890 00 00         : PHID         - DENSITY POROSITY (SANDSTONE)
ILD .OHMM     00 120 00 00         : RESD         - DEEP RESISTIVITY (DIL)
~PARAMETER INFORMATION
#MNEM.UNIT           DATA             DESCRIPTION OF MNEMONIC
#---------         -----------     ------------------------------
GL  .F        1831                 : gl           - GROUND LEVEL ELEVATION
EREF.F        1838                 : kb           - ELEVATION OF DEPTH REFERENCE
DATM.F        1838                 : datum        - DATUM ELEVATION
TDD .F        1058                 : tdd          - TOTAL DEPTH DRILLER
RUN .         ONE                  : Run          - RUN NUMBER
ENG .         JO                   : Engineer     - RECORDING ENGINEER
WIT .         TIM                  : Witness      - WITNESSED BY
MUD .         GEL                  : Mud_type     - MUD TYPE
MATR.         SANDSTONE            : Logunit      - NEUTRON MATRIX
TMAX.F        72                   : BHT          - MAXIMUM RECORDED TEMPERATURE
BHTD.F        1058                 : BHTDEP       - MAXIMUM RECORDED TEMPERATURE
RMT .F        72                   : MDTP         - TEMPERATURE OF MUD
MUDD.LB/G     1                    : MWT          - MUD DENSITY
NEUT.         1                    : NEUTRON      - NEUTRON TYPE
RESI.         4.4                  : RESIST       - RESISTIVITY TYPE
RM  .OHMM     4.4                  : RM           - RESISTIVITY OF MUD
RMC .OHMM     4.4                  : RMC          - RESISTIVITY OF MUD CAKE
RMF .OHMM     4.4                  : RMF          - RESISTIVITY OF MUD FILTRATE
SUFT.F        32                   : SUFT         - SURFACE TEMPERATURE
~A  DEPTH       GR     PHIN     PHID     RESD
# ...
  742.717   71.302    0.480    0.274   11.540
  743.537   71.899    0.470    0.277   11.459
  744.357   72.494    0.475    0.277   11.456
  745.177   72.491    0.501    0.279   11.373
  745.997   73.088    0.506    0.280   11.209
  746.818   73.684    0.507    0.284   11.045
  747.638   74.282    0.496    0.285   10.801
  748.458   75.477    0.487    0.285   10.637
  749.278   76.077    0.481    0.280   10.393
  750.098   76.676    0.485    0.277   10.150
  750.919   77.273    0.487    0.274    9.906
  751.739   77.870    0.489    0.269    9.582
  752.559   78.466    0.489    0.264    9.257
  753.379   79.063    0.496    0.255    9.013
  754.199   80.262    0.501    0.249    8.850
  755.020   80.860    0.500    0.243    8.687
  755.840   81.454    0.493    0.234    8.682
  756.660   82.054    0.495    0.232    8.680
  757.480   83.856    0.502    0.232    8.677
  758.301   86.865    0.504    0.231    8.594
  759.121   89.269    0.495    0.226    8.430
  759.941   90.470    0.475    0.222    8.348
  760.761   92.269    0.477    0.216    8.183
  761.581   92.868    0.483    0.214    8.181
  762.402   93.462    0.488    0.216    8.258
  763.222   94.060    0.488    0.218    8.417
  764.042   94.054    0.485    0.220    8.896
  764.862   94.048    0.485    0.217    9.375
  765.682   94.044    0.485    0.214   10.094
  766.503   94.036    0.483    0.209   10.494
  767.323   94.031    0.480    0.204   10.973
  768.143   93.422    0.474    0.200   11.210
  768.963   93.417    0.472    0.200   11.448
  769.783   93.410    0.463    0.205   11.607
  770.604   93.404    0.456    0.214   12.006
  771.424   92.795    0.455    0.226   12.645
  772.244   89.172    0.460    0.235   13.125
  773.064   84.345    0.462    0.237   13.764
  773.885   84.339    0.466    0.245   15.047
  774.705   85.539    0.466    0.252   16.651
  775.525   83.723    0.461    0.257   17.692
  776.345   80.702    0.462    0.229   18.250
  777.165   78.890    0.467    0.184   18.329
  777.986   77.076    0.437    0.122   18.326
  778.806   77.070    0.382    0.126   18.242
  779.626   76.460    0.321    0.174   18.400
  780.446   75.248    0.373    0.179   18.798
  781.266   76.448    0.403    0.200   19.117
  782.087   78.250    0.439    0.195   19.517
  782.907   80.657    0.452    0.137   19.835
  783.727   85.472    0.443    0.134   18.306
  784.547   84.259    0.413    0.156   16.536
  785.367   84.256    0.393    0.158   15.166
  786.188   84.251    0.385    0.196   14.440
  787.008   84.243    0.407    0.199   14.035
  787.828   84.841    0.413    0.207   13.792
  788.648   86.041    0.439    0.210   13.467
  789.469   87.240    0.461    0.213   13.142
  790.289   87.836    0.466    0.217   12.899
  791.109   88.435    0.474    0.220   12.736
  791.929   89.633    0.481    0.219   12.492
  792.749   90.231    0.480    0.229   12.167
  793.570   90.828    0.469    0.228   12.003
  794.390   91.424    0.468    0.217   11.921
  795.210   91.419    0.468    0.207   11.838
  796.030   92.013    0.468    0.198   11.835
  796.850   92.010    0.469    0.191   11.751
  797.671   92.607    0.469    0.183   11.748
  798.491   92.600    0.466    0.176   11.744
  799.311   92.594    0.466    0.175   11.742
  800.131   92.587    0.468    0.181   11.739
  800.951   91.373    0.470    0.217   11.736
  801.772   90.768    0.474    0.233   11.732
  802.592   90.759    0.475    0.243   11.730
  803.412   90.754    0.487    0.235   11.728
  804.232   90.750    0.506    0.208   11.644
  805.052   90.741    0.500    0.201   11.561
  805.873   91.338    0.490    0.199   11.398
  806.693   91.334    0.485    0.196   11.233
  807.513   91.329    0.476    0.196   10.989
  808.333   91.926    0.479    0.199   10.825
  809.154   92.518    0.505    0.200   10.743
  809.974   93.117    0.507    0.199   10.579
  810.794   93.114    0.502    0.192   10.496
  811.614   93.711    0.483    0.191   10.493
  812.434   94.909    0.477    0.210   10.651
  813.255   96.107    0.469    0.223   11.130
  814.075   94.296    0.461    0.226   11.610
  814.895   90.070    0.451    0.226   12.651
  815.715   85.240    0.443    0.225   12.809
  816.535   80.413    0.437    0.231   12.564
  817.356   75.584    0.435    0.247   12.482
  818.176   74.974    0.435    0.249   12.317
  818.996   76.175    0.438    0.251   12.233
  819.816   78.578    0.463    0.252   12.231
  820.636   79.178    0.490    0.247   12.629
  821.457   80.376    0.498    0.250   12.789
  822.277   80.370    0.502    0.256   13.348
  823.097   80.363    0.469    0.258   13.666
  823.917   80.360    0.456    0.264   13.502
  824.738   79.751    0.455    0.271   13.339
  825.558   79.743    0.453    0.271   12.933
  826.378   79.135    0.453    0.266   12.770
  827.198   79.127    0.452    0.245   12.928
  828.018   79.124    0.449    0.219   13.326
  828.839   79.118    0.442    0.213   13.725
  829.659   77.907    0.431    0.188   14.205
  830.479   77.298    0.399    0.173   16.854
  831.299   74.879    0.242    0.015   19.663
  832.119   72.462    0.225    0.058   18.937
  832.940   69.442    0.270    0.111   17.407
  833.760   64.011    0.314    0.145   15.797
  834.580   57.976    0.339    0.167   15.071
  835.400   54.956    0.344    0.210   14.185
  836.220   71.225    0.366    0.249   13.378
  837.041   76.645    0.383    0.257   12.652
  837.861   77.846    0.431    0.261   12.087
  838.681   79.046    0.444    0.229   11.281
  839.501   82.656    0.448    0.214   10.555
  840.322   86.871    0.453    0.203   10.150
  841.142   91.688    0.469    0.202    9.824
  841.962   97.106    0.487    0.198    9.822
  842.782  100.115    0.482    0.192   10.221
  843.602   98.902    0.477    0.188   11.504
  844.423   95.884    0.470    0.183   12.385
  845.243   93.466    0.464    0.172   12.783
  846.063   92.253    0.458    0.172   12.700
  846.883   91.645    0.455    0.202   12.376
  847.703   91.640    0.456    0.209   12.052
  848.524   92.234    0.459    0.201   11.646
  849.344   92.832    0.460    0.196   11.484
  850.164   93.431    0.461    0.193   11.078
  850.984   95.232    0.461    0.197   10.834
  851.804   96.432    0.461    0.205   10.590
  852.625   97.633    0.465    0.202   10.428
  853.445   99.434    0.470    0.196   10.182
  854.265  100.030    0.476    0.187   10.181
  855.085  100.027    0.480    0.181   10.337
  855.906  100.021    0.486    0.171   10.416
  856.726  100.013    0.488    0.169   10.493
  857.546  100.609    0.488    0.170   10.329
  858.366  100.606    0.485    0.176   10.246
  859.186  100.598    0.476    0.182   10.163
  860.007  101.197    0.464    0.185    9.999
  860.827  101.191    0.455    0.175    9.916
  861.647  101.785    0.456    0.170    9.752
  862.467  102.383    0.462    0.163    9.588
  863.287  103.580    0.470    0.147    9.506
  864.108  104.178    0.477    0.153    9.260
  864.928  105.379    0.479    0.158    9.178
  865.748  105.975    0.480    0.162    9.095
  866.568  106.573    0.484    0.164    9.011
  867.388  106.569    0.484    0.164    9.008
  868.209  107.166    0.477    0.165    9.086
  869.029  108.364    0.468    0.167    9.325
  869.849  108.962    0.462    0.169    9.884
  870.669  109.559    0.456    0.167   11.327
  871.490  107.745    0.457    0.158   13.252
  872.310  104.723    0.458    0.152   14.375
  873.130  101.705    0.453    0.156   17.826
  873.950   95.668    0.430    0.158   16.056
  874.770   92.045    0.401    0.158   14.285
  875.591   89.026    0.387    0.164   13.639
  876.411   87.814    0.410    0.169   12.752
  877.231   92.631    0.416    0.179   12.107
  878.051  100.462    0.427    0.185   11.702
  878.871  104.073    0.439    0.194   13.387
  879.692  101.053    0.441    0.198   14.991
  880.512   99.237    0.439    0.200   16.755
  881.332   98.026    0.436    0.206   17.154
  882.152   97.418    0.431    0.215   17.794
  882.972   96.808    0.428    0.216   17.470
  883.793   96.199    0.425    0.208   17.065
  884.613   94.988    0.420    0.202   16.579
