~VERSION INFORMATION
 VERS.                 2.0:   CWLS LOG ASCII STANDARD -VERSION 2.0
 WRAP.                  NO:   ONE LINE PER DEPTH STEP
~WELL INFORMATION BLOCK
#MNEM.UNIT           DATA                    DESCRIPTION OF MNEMONIC
#---------    -------------------            -------------------------------
# Generated from Intellog Unique Number	CW_79_81/WELL/554
WELL.         07-21-079-22W4                 : Well_name    - WELL
LOC .         00/07-21-079-22W4/0            : Location     - LOCATION
UWI .         00/07-21-079-22W4/0            : Uwi          - UNIQUE WELL ID
ENTR.         MAX                            : Entered      - ENTERED BY
SRVC.         SCHLUMBERGER                   : Scn          - SERVICE COMPANY
STRT.M        210.312                        : top_depth    - START DEPTH
STOP.M        435.812                        : bot_depth    - STOP DEPTH
STEP.M        0.25                           : increment    - STEP LENGTH
 NULL. -999.2500:NULL Value
~CURVE INFORMATION BLOCK
#MNEM UNIT       ERCB CURVE CODE    CURVE DESCRIPTION
#-----------   ------------------   ----------------------------------
DEPT.M        00 001 00 00         : DEPTH        - DEPTH
ILD .OHMM     00 120 00 00         : RESD         - DEEP RESISTIVITY (DIL)
NPHI.V/V      00 330 00 00         : PHIN         - NEUTRON POROSITY (SANDSTONE)
DPHI.V/V      00 890 00 00         : PHID         - DENSITY POROSITY (SANDSTONE)
CALI.MM       00 280 01 00         : CAL          - CALIPER
GR  .API      00 310 00 00         : GR           - GAMMA RAY
~PARAMETER INFORMATION
#MNEM.UNIT           DATA             DESCRIPTION OF MNEMONIC
#---------         -----------     ------------------------------
GL  .M        560.222              : gl           - GROUND LEVEL ELEVATION
EREF.M        562.966              : kb           - ELEVATION OF DEPTH REFERENCE
DATM.M        560.222              : datum        - DATUM ELEVATION
TDD .M        439.826              : tdd          - TOTAL DEPTH DRILLER
RUN .         ONE                  : Run          - RUN NUMBER
ENG .         BILL                 : Engineer     - RECORDING ENGINEER
WIT .         JIM                  : Witness      - WITNESSED BY
MUD .         GEL                  : Mud_type     - MUD TYPE
MATR.         SANDSTONE            : Logunit      - NEUTRON MATRIX
TMAX.C        22.2222              : BHT          - MAXIMUM RECORDED TEMPERATURE
BHTD.M        492081               : BHTDEP       - MAXIMUM RECORDED TEMPERATURE
RMT .C        18.3333              : MDTP         - TEMPERATURE OF MUD
MUDD.KG/M     9300                 : MWT          - MUD DENSITY
NEUT.         1                    : NEUTRON      - NEUTRON TYPE
RESI.         0                    : RESIST       - RESISTIVITY TYPE
RM  .OHMM     6.1                  : RM           - RESISTIVITY OF MUD
RMC .OHMM     0.25                 : RMC          - RESISTIVITY OF MUD CAKE
RMF .OHMM     6.02                 : RMF          - RESISTIVITY OF MUD FILTRATE
SUFT.C        -12.2222             : SUFT         - SURFACE TEMPERATURE
~A  DEPTH     RESD     PHIN     PHID      CAL       GR
# ...
  356.312    8.991    0.442    0.154  201.682  102.544
  356.562    8.993    0.428    0.151  203.703  105.818
  356.812    9.076    0.428    0.176  206.232  109.092
  357.062    9.329    0.435    0.179  207.747  111.472
  357.312    9.764    0.434    0.185  207.745  108.193
  357.562   10.694    0.430    0.184  208.248  101.340
  357.812   12.828    0.440    0.174  206.727   97.466
  358.062   14.570    0.458    0.177  203.180   95.379
  358.312   18.288    0.471    0.201  203.178   92.994
  358.562   19.142    0.455    0.209  204.694   90.311
  358.812   20.035    0.437    0.221  203.678   89.116
  359.062   19.679    0.437    0.220  201.651   85.837
  359.312   19.152    0.455    0.213  200.636   87.324
  359.562   17.493    0.450    0.209  200.633   91.194
  359.812   15.689    0.426    0.201  200.630   95.659
  360.062   14.200    0.426    0.172  200.122   98.337
  360.312   13.450    0.449    0.147  200.118   95.654
  360.562   13.210    0.447    0.133  200.622   92.970
  360.812   13.093    0.414    0.131  201.125   94.457
  361.062   13.095    0.415    0.159  201.123   97.731
  361.312   13.098    0.429    0.184  200.614  102.196
  361.562   12.982    0.437    0.215  200.104  101.896
  361.812   12.635    0.445    0.226  200.102   98.022
  362.062   12.298    0.456    0.226  200.099   89.977
  362.312   12.300    0.468    0.227  200.097   86.699
  362.562   12.415    0.465    0.247  198.575   81.633
  362.812   13.113    0.457    0.211  197.560   74.780
  363.062   15.872    0.439    0.164  197.051   66.736
  363.312   19.386    0.368    0.138  197.048   62.564
  363.562   28.141    0.276    0.077  198.057   60.477
  363.812   41.596    0.220    0.050  198.561   58.687
  364.062   48.995    0.217    0.060  198.558   58.089
  364.312   45.985    0.237    0.080  198.049   58.086
  364.562   35.992    0.260    0.092  198.047   60.764
  364.812   30.291    0.319    0.108  197.537   64.634
  365.062   28.173    0.378    0.195  197.535   69.099
  365.312   23.496    0.416    0.195  196.519   73.564
  365.562   21.461    0.426    0.169  196.011   71.774
  365.812   19.074    0.396    0.173  196.008   70.878
  366.062   18.065    0.439    0.197  196.005   71.174
  366.312   18.069    0.431    0.176  196.509   69.980
  366.562   19.434    0.399    0.147  196.506   69.381
  366.812   20.903    0.375    0.135  196.503   69.975
  367.062   19.620    0.369    0.149  195.994   72.355
  367.312   17.280    0.421    0.194  195.991   75.629
  367.562   15.782    0.457    0.210  197.001   82.477
  367.812   15.782    0.472    0.224  198.010   82.474
  368.062   15.089    0.474    0.237  196.995   80.089
  368.312   14.953    0.451    0.225  196.486   78.597
  368.562   15.093    0.448    0.210  196.483   79.786
  368.812   15.234    0.450    0.204  196.481   78.593
  369.062   15.376    0.450    0.184  196.477   80.972
  369.312   15.240    0.442    0.184  196.475   86.331
  369.562   14.699    0.436    0.197  196.472   88.710
  369.812   14.049    0.429    0.181  196.470   90.793
  370.062   13.306    0.446    0.191  196.467   93.472
  370.312   12.489    0.450    0.221  195.957   95.256
  370.562   12.489    0.454    0.221  195.449   96.445
  370.812   12.048    0.460    0.208  194.939   97.038
  371.062   12.048    0.464    0.184  194.937   94.951
  371.312   11.518    0.449    0.167  194.428   94.650
  371.562   11.210    0.436    0.162  194.425   96.138
  371.812   11.011    0.423    0.123  194.928   99.411
  372.062   10.716    0.438    0.160  195.432  104.770
  372.312   10.335    0.451    0.172  195.936  103.873
  372.562   10.244    0.441    0.108  196.945  101.488
  372.812   10.246    0.429    0.109  197.449  102.677
  373.062   10.248    0.420    0.134  197.951  100.292
  373.312   10.249    0.430    0.151  198.455   98.205
  373.562   10.249    0.431    0.143  198.959   97.308
  373.812   10.161    0.433    0.129  198.956   97.902
  374.062    9.890    0.440    0.099  198.953  100.580
  374.312    9.804    0.455    0.115  198.950  101.470
  374.562    9.627    0.474    0.141  198.948   99.085
  374.812    9.456    0.478    0.145  198.945  100.274
  375.062    9.287    0.467    0.120  199.448  102.953
  375.312    9.289    0.447    0.103  199.951   99.674
  375.562    9.461    0.444    0.126  200.455  100.565
  375.812    9.549    0.453    0.153  200.958  101.754
  376.062    9.815    0.450    0.166  200.956  100.262
  376.312   10.273    0.443    0.172  200.953  100.260
  376.562   10.655    0.426    0.177  200.950  102.342
  376.812   10.853    0.423    0.171  201.960  104.722
  377.062   10.855    0.421    0.165  202.463  105.911
  377.312   10.469    0.422    0.162  203.472  106.802
  377.562    9.827    0.425    0.162  204.482  107.693
  377.812    9.477    0.431    0.160  206.504  106.499
  378.062    9.566    0.433    0.154  208.526  100.838
  378.312    9.743    0.408    0.129  207.511   97.261
  378.562   10.867    0.369    0.100  202.447   99.939
  378.812   12.121    0.377    0.116  201.432  108.872
  379.062   12.572    0.392    0.149  201.935  109.763
  379.312   11.693    0.395    0.147  203.450  109.165
  379.562   10.875    0.402    0.133  204.460  107.970
  379.812   11.178    0.401    0.106  204.458  104.096
  380.062   11.807    0.388    0.044  205.467   95.159
  380.312   11.807    0.327    0.016  204.451   86.817
  380.562   12.027    0.303    0.075  201.412   82.645
  380.812   15.097    0.312    0.126  199.384   85.323
  381.062   16.838    0.317    0.149  199.381   88.894
  381.312   18.782    0.398    0.135  200.897   89.190
  381.562   20.386    0.400    0.101  199.882   86.805
  381.812   21.729    0.364    0.060  199.373   83.824
  382.062   22.537    0.319    0.089  198.864   91.267
  382.312   22.746    0.345    0.126  199.367   94.838
  382.562   21.157    0.382    0.151  200.377   97.516
  382.812   18.133    0.413    0.196  201.893   98.110
  383.062   16.865    0.425    0.185  203.915   98.404
  383.312   15.403    0.415    0.192  205.430   98.105
  383.562   15.403    0.415    0.200  205.428   96.911
  383.812   14.201    0.413    0.194  203.907   98.695
  384.062   13.448    0.411    0.182  204.410   98.395
  384.312   12.508    0.414    0.176  204.914   95.414
  384.562   12.064    0.409    0.169  203.898   90.348
  384.812   12.513    0.420    0.179  201.364   85.581
  385.062   13.582    0.418    0.188  200.856   75.451
  385.312   16.143    0.402    0.197  201.865   67.407
  385.562   21.989    0.387    0.224  199.838   62.639
  385.812   27.104    0.395    0.239  195.785   59.658
  386.062   32.509    0.411    0.255  194.264   57.273
  386.312   35.286    0.417    0.258  194.261   54.888
  386.562   42.324    0.403    0.266  197.801   51.907
  386.812   52.647    0.389    0.273  200.330   47.139
  387.062   52.647    0.378    0.279  199.315   41.477
  387.312   60.907    0.374    0.275  196.275   40.880
  387.562   75.068    0.382    0.274  196.272   39.388
  387.812   83.729    0.390    0.270  195.763   37.896
  388.062   90.881    0.394    0.264  195.254   38.489
  388.312   95.124    0.396    0.263  195.758   39.083
  388.562   96.008    0.390    0.261  195.755   38.484
  388.812   92.600    0.381    0.257  195.245   38.482
  389.062   84.577    0.372    0.253  194.736   39.075
  389.312   77.950    0.373    0.257  194.734   39.966
  389.562   70.554    0.383    0.258  194.225   41.750
  389.812   65.621    0.391    0.257  194.729   42.642
  390.062   63.290    0.398    0.256  196.751   45.618
  390.312   59.944    0.395    0.258  196.242   49.487
  390.562   57.815    0.383    0.256  195.733   51.569
  390.812   56.785    0.384    0.256  195.730   54.545
  391.062   56.283    0.399    0.260  195.727   56.628
  391.312   55.279    0.403    0.265  195.218   58.710
  391.562   52.356    0.407    0.271  195.215   60.197
  391.812   47.820    0.411    0.277  194.706   62.577
  392.062   44.074    0.420    0.272  193.691   64.064
  392.312   39.891    0.431    0.272  193.182   66.741
  392.562   33.882    0.432    0.267  193.179   69.718
