~VERSION INFORMATION
 VERS.                 2.0:   CWLS LOG ASCII STANDARD -VERSION 2.0
 WRAP.                  NO:   ONE LINE PER DEPTH STEP
~WELL INFORMATION BLOCK
#MNEM.UNIT           DATA                    DESCRIPTION OF MNEMONIC
#---------    -------------------            -------------------------------
# Generated from Intellog Unique Number	CX_WELLS/WELL/3386
WELL.         ANDERSON ET AL NEWBY           : Well_name    - WELL
LOC .         00/06-20-084-05W4/0            : Location     - LOCATION
UWI .         00/06-20-084-05W400            : Uwi          - UNIQUE WELL ID
ENTR.         T                              : Entered      - ENTERED BY
SRVC.         SCHLUMBERGER                   : Scn          - SERVICE COMPANY
DATE.         03/04/92                       : Date         - LOG DATE
STRT.M        80                             : top_depth    - START DEPTH
STOP.M        275                            : bot_depth    - STOP DEPTH
STEP.M        0.25                           : increment    - STEP LENGTH
 NULL. -999.2500:NULL Value
~CURVE INFORMATION BLOCK
#MNEM UNIT       ERCB CURVE CODE    CURVE DESCRIPTION
#-----------   ------------------   ----------------------------------
DEPT.M        00 001 00 00         : DEPTH        - DEPTH
GR  .API      00 310 00 00         : GR           - GAMMA RAY
NPHI.V/V      00 330 00 00         : PHIN         - NEUTRON POROSITY (SANDSTONE)
DPHI.V/V      00 890 00 00         : PHID         - DENSITY POROSITY (SANDSTONE)
ILD .OHMM     00 120 00 00         : RESD         - DEEP RESISTIVITY (DIL)
~PARAMETER INFORMATION
#MNEM.UNIT           DATA             DESCRIPTION OF MNEMONIC
#---------         -----------     ------------------------------
GL  .M        471                  : gl           - GROUND LEVEL ELEVATION
EREF.M        474.6                : kb           - ELEVATION OF DEPTH REFERENCE
DATM.M        474.6                : datum        - DATUM ELEVATION
TDD .M        275                  : tdd          - TOTAL DEPTH DRILLER
RUN .         ONE                  : Run          - RUN NUMBER
ENG .         JO                   : Engineer     - RECORDING ENGINEER
WIT .         TIM                  : Witness      - WITNESSED BY
MUD .         GEL                  : Mud_type     - MUD TYPE
MATR.         SANDSTONE            : Logunit      - NEUTRON MATRIX
TMAX.C        31                   : BHT          - MAXIMUM RECORDED TEMPERATURE
BHTD.M        275                  : BHTDEP       - MAXIMUM RECORDED TEMPERATURE
RMT .C        14.4                 : MDTP         - TEMPERATURE OF MUD
MUDD.KG/M     1                    : MWT          - MUD DENSITY
NEUT.         1                    : NEUTRON      - NEUTRON TYPE
RESI.         3.5                  : RESIST       - RESISTIVITY TYPE
RM  .OHMM     2.4                  : RM           - RESISTIVITY OF MUD
RMC .OHMM     2.4                  : RMC          - RESISTIVITY OF MUD CAKE
RMF .OHMM     2.4                  : RMF          - RESISTIVITY OF MUD FILTRATE
SUFT.C        4                    : SUFT         - SURFACE TEMPERATURE
~A  DEPTH       GR     PHIN     PHID     RESD
# ...
  210.500   59.297    0.371    0.275    1.671
  210.750   59.976    0.370    0.270    1.675
  211.000   60.056    0.372    0.266    1.678
  211.250   60.755    0.378    0.261    1.714
  211.500   62.629    0.390    0.253    1.750
  211.750   65.698    0.396    0.248    1.822
  212.000   68.748    0.401    0.250    1.932
  212.250   74.228    0.404    0.253    1.972
  212.500   68.332    0.407    0.273    1.979
  212.750   57.633    0.403    0.309    1.983
  213.000   51.737    0.398    0.318    1.913
  213.250   47.036    0.372    0.308    1.849
  213.500   44.746    0.364    0.285    1.785
  213.750   48.393    0.367    0.267    1.722
  214.000   53.853    0.371    0.274    1.694
  214.250   56.943    0.365    0.288    1.667
  214.500   55.251    0.360    0.287    1.641
  214.750   54.714    0.358    0.278    1.645
  215.000   55.392    0.358    0.271    1.681
  215.250   56.071    0.360    0.263    1.685
  215.500   56.769    0.365    0.262    1.720
  215.750   56.850    0.364    0.268    1.724
  216.000   54.520    0.359    0.277    1.760
  216.250   50.416    0.355    0.289    1.799
  216.500   45.118    0.332    0.281    1.804
  216.750   36.831    0.327    0.276    1.776
  217.000   41.713    0.340    0.275    1.745
  217.250   44.762    0.346    0.264    1.717
  217.500   47.852    0.332    0.254    1.690
  217.750   49.108    0.329    0.248    1.662
  218.000   53.991    0.339    0.254    1.665
  218.250   58.853    0.355    0.261    1.670
  218.500   57.141    0.364    0.270    1.673
  218.750   53.058    0.369    0.267    1.742
  219.000   53.139    0.370    0.262    1.778
  219.250   53.817    0.375    0.263    1.817
  219.500   55.711    0.383    0.263    1.856
  219.750   56.947    0.385    0.265    1.860
  220.000   56.450    0.379    0.296    1.865
  220.250   51.729    0.370    0.314    1.767
  220.500   45.235    0.370    0.328    1.644
  220.750   41.132    0.377    0.337    1.446
  221.000   40.635    0.390    0.340    1.344
  221.250   40.138    0.388    0.340    1.274
  221.500   39.581    0.370    0.335    1.253
  221.750   37.271    0.369    0.327    1.256
  222.000   37.970    0.369    0.323    1.259
  222.250   41.637    0.369    0.326    1.263
  222.500   44.726    0.367    0.326    1.266
  222.750   42.436    0.367    0.322    1.268
  223.000   41.302    0.366    0.320    1.272
  223.250   41.362    0.366    0.323    1.274
  223.500   42.638    0.367    0.324    1.302
  223.750   43.915    0.371    0.331    1.305
  224.000   43.995    0.374    0.336    1.308
  224.250   41.088    0.377    0.347    1.312
  224.500   38.200    0.377    0.340    1.314
  224.750   38.261    0.377    0.333    1.318
  225.000   38.341    0.376    0.328    1.320
  225.250   39.040    0.364    0.328    1.299
  225.500   39.698    0.353    0.330    1.255
  225.750   39.779    0.349    0.337    1.234
  226.000   38.067    0.355    0.342    1.191
  226.250   35.777    0.362    0.340    1.151
  226.500   35.280    0.374    0.339    1.153
  226.750   35.381    0.380    0.335    1.135
  227.000   35.442    0.381    0.323    1.139
  227.250   36.100    0.369    0.288    1.140
  227.500   36.779    0.360    0.261    1.187
  227.750   40.446    0.370    0.254    1.235
  228.000   56.685    0.382    0.282    1.311
  228.250   68.143    0.374    0.298    1.363
  228.500   80.816    0.357    0.294    1.418
  228.750   75.497    0.346    0.285    1.450
  229.000   65.994    0.351    0.294    1.399
  229.250   52.905    0.359    0.306    1.326
  229.500   63.167    0.366    0.320    1.257
  229.750   80.004    0.371    0.329    1.236
  230.000   83.074    0.373    0.338    1.172
  230.250   64.605    0.373    0.342    1.153
  230.500   46.136    0.373    0.348    1.133
  230.750   40.240    0.368    0.351    1.115
  231.000   38.568    0.361    0.347    1.077
  231.250   37.433    0.354    0.334    1.060
  231.500   36.896    0.349    0.322    1.042
  231.750   35.204    0.342    0.316    1.045
  232.000   35.264    0.338    0.314    1.047
  232.250   34.150    0.325    0.313    1.050
  232.500   32.457    0.321    0.315    1.052
  232.750   31.920    0.325    0.319    1.055
  233.000   31.444    0.331    0.321    1.058
  233.250   31.524    0.338    0.321    1.060
  233.500   31.585    0.342    0.318    1.062
  233.750   33.499    0.340    0.311    1.066
  234.000   34.158    0.332    0.303    1.067
  234.250   34.836    0.330    0.296    1.070
  234.500   35.495    0.331    0.292    1.052
  234.750   35.575    0.335    0.303    1.056
  235.000   35.656    0.341    0.317    1.038
  235.250   35.737    0.352    0.323    1.041
  235.500   38.249    0.346    0.325    1.025
  235.750   37.712    0.341    0.328    1.007
  236.000   32.433    0.343    0.333    1.007
  236.250   30.123    0.349    0.336    1.013
  236.500   30.802    0.356    0.337    0.996
  236.750   31.480    0.357    0.336    0.980
  237.000   31.581    0.357    0.334    0.982
  237.250   30.466    0.354    0.330    0.967
  237.500   30.547    0.351    0.325    0.968
  237.750   31.206    0.349    0.321    0.971
  238.000   31.266    0.343    0.316    0.973
  238.250   31.347    0.341    0.311    0.958
  238.500   30.253    0.344    0.309    0.960
  238.750   29.756    0.350    0.308    0.962
  239.000   29.796    0.352    0.311    0.983
  239.250   30.515    0.353    0.313    0.985
  239.500   31.173    0.353    0.313    1.006
  239.750   33.047    0.350    0.313    1.027
  240.000   34.941    0.340    0.311    1.069
  240.250   37.413    0.334    0.304    1.113
  240.500   39.267    0.340    0.288    1.180
  240.750   44.150    0.342    0.278    1.251
  241.000   47.817    0.349    0.270    1.327
  241.250   52.679    0.356    0.270    1.434
  241.500   53.976    0.362    0.275    1.521
  241.750   50.490    0.367    0.278    1.552
  242.000   51.189    0.373    0.281    1.647
  242.250   52.425    0.375    0.284    1.684
  242.500   54.897    0.376    0.284    1.718
  242.750   57.986    0.370    0.278    1.722
  243.000   59.262    0.359    0.273    1.696
  243.250   58.168    0.357    0.274    1.667
  243.500   57.631    0.357    0.277    1.639
  243.750   57.134    0.358    0.284    1.583
  244.000   52.990    0.358    0.289    1.528
  244.250   49.525    0.359    0.285    1.475
  244.500   50.781    0.356    0.286    1.399
  244.750   52.057    0.354    0.291    1.351
  245.000   50.943    0.354    0.294    1.328
  245.250   49.230    0.356    0.298    1.282
  245.500   48.136    0.359    0.302    1.216
  245.750   47.599    0.348    0.308    1.174
  246.000   47.082    0.335    0.317    1.134
  246.250   42.381    0.341    0.321    1.115
  246.500   39.473    0.344    0.314    1.077
  246.750   41.945    0.348    0.311    1.059
  247.000   42.623    0.350    0.306    1.063
  247.250   42.704    0.350    0.301    1.085
  247.500   44.001    0.348    0.279    1.107
  247.750   45.277    0.348    0.256    1.152
  248.000   48.346    0.345    0.246    1.246
  248.250   54.404    0.343    0.275    1.296
  248.500   61.657    0.345    0.308    1.324
  248.750   70.126    0.349    0.327    1.353
  249.000   58.831    0.351    0.337    1.382
  249.250   50.543    0.353    0.337    1.333
  249.500   41.678    0.355    0.336    1.241
  249.750   36.339    0.355    0.336    1.153
  250.000   40.047    0.354    0.334    1.072
  250.250   37.737    0.354    0.333    0.999
  250.500   36.024    0.353    0.333    0.982
  250.750   33.694    0.351    0.331    0.982
  251.000   31.384    0.349    0.329    0.951
  251.250   28.476    0.348    0.327    0.970
  251.500   27.959    0.347    0.326    0.938
  251.750   29.276    0.343    0.326    0.939
  252.000   30.532    0.343    0.326    0.924
  252.250   31.788    0.345    0.325    0.927
  252.500   33.702    0.348    0.324    0.911
  252.750   34.340    0.352    0.321    0.914
  253.000   35.657    0.354    0.322    0.915
  253.250   37.551    0.354    0.327    0.901
  253.500   38.827    0.351    0.329    0.903
  253.750   40.083    0.345    0.330    0.906
