~VERSION INFORMATION
 VERS.                 2.0:   CWLS LOG ASCII STANDARD -VERSION 2.0
 WRAP.                  NO:   ONE LINE PER DEPTH STEP
~WELL INFORMATION BLOCK
#MNEM.UNIT           DATA                    DESCRIPTION OF MNEMONIC
#---------    -------------------            -------------------------------
# Generated from Intellog Unique Number	CN_91_93/WELL/2991
WELL.         GULF OIL CANADA LTD.           : Well_name    - WELL
LOC .         00/05-12-093-20W4/0            : Location     - LOCATION
UWI .         00/05-12-093-20W4/0            : Uwi          - UNIQUE WELL ID
ENTR.         JOETTE                         : Entered      - ENTERED BY
SRVC.         SCHLUMBERGER                   : Scn          - SERVICE COMPANY
DATE.         04/07/92                       : Date         - LOG DATE
STRT.F        350                            : top_depth    - START DEPTH
STOP.F        810.138                        : bot_depth    - STOP DEPTH
STEP.F        0.82                           : increment    - STEP LENGTH
 NULL. -999.2500:NULL Value
~CURVE INFORMATION BLOCK
#MNEM UNIT       ERCB CURVE CODE    CURVE DESCRIPTION
#-----------   ------------------   ----------------------------------
DEPT.F        00 001 00 00         : DEPTH        - DEPTH
CALI.IN       00 280 01 00         : CAL          - CALIPER
GR  .API      00 310 00 00         : GR           - GAMMA RAY
NPHI.V/V      00 330 00 00         : PHIN         - NEUTRON POROSITY (SANDSTONE)
DPHI.V/V      00 890 00 00         : PHID         - DENSITY POROSITY (SANDSTONE)
ILD .OHMM     00 120 00 00         : RESD         - DEEP RESISTIVITY (DIL)
~PARAMETER INFORMATION
#MNEM.UNIT           DATA             DESCRIPTION OF MNEMONIC
#---------         -----------     ------------------------------
GL  .F        1762                 : gl           - GROUND LEVEL ELEVATION
EREF.F        1767                 : kb           - ELEVATION OF DEPTH REFERENCE
DATM.F        1767                 : datum        - DATUM ELEVATION
TDD .F        840                  : tdd          - TOTAL DEPTH DRILLER
RUN .         ONE                  : Run          - RUN NUMBER
ENG .         BILL                 : Engineer     - RECORDING ENGINEER
WIT .         JIM                  : Witness      - WITNESSED BY
MUD .         GEL                  : Mud_type     - MUD TYPE
MATR.         SANDSTONE            : Logunit      - NEUTRON MATRIX
TMAX.F        85                   : BHT          - MAXIMUM RECORDED TEMPERATURE
BHTD.F        840                  : BHTDEP       - MAXIMUM RECORDED TEMPERATURE
RMT .F        54                   : MDTP         - TEMPERATURE OF MUD
MUDD.LB/G     9.5                  : MWT          - MUD DENSITY
NEUT.         1                    : NEUTRON      - NEUTRON TYPE
RESI.         0                    : RESIST       - RESISTIVITY TYPE
RM  .OHMM     2.01                 : RM           - RESISTIVITY OF MUD
RMC .OHMM     2.01                 : RMC          - RESISTIVITY OF MUD CAKE
RMF .OHMM     2.01                 : RMF          - RESISTIVITY OF MUD FILTRATE
SUFT.F        -4                   : SUFT         - SURFACE TEMPERATURE
~A  DEPTH      CAL       GR     PHIN     PHID     RESD
# ...
  469.751    7.335   91.759    0.564    0.266    5.327
  470.571    7.202   90.049    0.573    0.265    5.287
  471.391    7.184   90.666    0.571    0.277    5.336
  472.211    7.323   90.411    0.556    0.272    5.487
  473.031    7.286   87.829    0.561    0.274    5.490
  473.852    7.017   88.746    0.552    0.287    5.492
  474.672    6.768   85.582    0.555    0.313    5.495
  475.492    6.693   85.327    0.559    0.294    5.650
  476.312    6.675   83.326    0.567    0.249    5.650
  477.133    6.872   77.539    0.542    0.242    5.759
  477.953    6.972   71.466    0.508    0.256    6.367
  478.773    6.722   70.634    0.495    0.268    6.725
  479.593    6.511   78.523    0.509    0.258    7.170
  480.413    6.339   82.631    0.542    0.245    7.439
  481.234    6.360   86.744    0.550    0.245    7.375
  482.054    6.557   89.106    0.536    0.242    6.989
  482.874    6.540   90.019    0.549    0.210    6.743
  483.694    6.620   88.600    0.569    0.229    6.163
  484.514    6.583   87.186    0.580    0.283    5.840
  485.335    6.955   87.799    0.584    0.265    5.635
  486.155    6.899   91.034    0.592    0.266    5.587
  486.975    6.843   92.524    0.573    0.268    5.539
  487.795    6.671   91.110    0.553    0.269    5.593
  488.615    6.596   92.318    0.561    0.269    5.647
  489.436    6.637   94.676    0.573    0.253    5.499
  490.256    6.659   97.325    0.578    0.259    5.305
  491.076    6.700   97.365    0.568    0.261    5.120
  491.896    6.877   93.915    0.564    0.265    5.120
  492.717    7.073   87.551    0.569    0.255    5.034
  493.537    7.037   84.382    0.566    0.254    5.036
  494.357    6.845   80.054    0.522    0.247    5.224
  495.177    6.712   74.854    0.494    0.242    6.737
  495.997    6.715   71.985    0.482    0.230    8.303
  496.818    6.679   73.184    0.511    0.267    8.536
  497.638    6.565   76.124    0.524    0.281    8.089
  498.458    6.470   79.655    0.524    0.252    7.947
  499.278    6.433   82.604    0.538    0.226    7.669
  500.098    6.591   84.967    0.555    0.215    6.518
  500.919    6.769   89.656    0.589    0.177    5.850
  501.739    6.926   89.406    0.586    0.189    5.645
  502.559    7.258   83.619    0.545    0.217    5.803
  503.379    7.028   78.419    0.481    0.173    6.243
  504.199    6.836   80.490    0.438    0.144    6.419
  505.020    6.974   90.716    0.486    0.193    6.367
  505.840    7.364   98.024    0.529    0.208    6.311
  506.660    7.153  100.682    0.556    0.222    6.144
  507.480    7.021  101.881    0.588    0.195    5.770
  508.301    7.178   99.299    0.604    0.180    5.617
  509.121    7.103   96.425    0.619    0.188    5.520
  509.941    6.717   93.556    0.631    0.187    5.473
  510.761    6.526   92.138    0.640    0.187    5.281
  511.581    6.741   93.332    0.630    0.215    5.004
  512.402    6.996   92.790    0.637    0.249    4.102
  513.222    7.270   91.376    0.601    0.256    3.715
  514.042    7.195   91.412    0.608    0.280    3.364
  514.862    7.217   90.866    0.594    0.284    3.188
  515.682    6.870   88.570    0.540    0.275    3.858
  516.503    6.776   83.369    0.507    0.261    5.301
  517.323    6.759   73.224    0.477    0.253    6.300
  518.143    6.761   67.147    0.442    0.267    7.694
  518.963    6.667   65.446    0.397    0.270    9.396
  519.783    6.553   65.486    0.380    0.256   13.267
  520.604    6.555   66.389    0.450    0.241   14.015
  521.424    6.732   65.839    0.411    0.234   14.151
  522.244    6.541   62.675    0.380    0.267   14.287
  523.064    6.524   61.260    0.395    0.235   15.231
  523.885    6.701   60.423    0.343    0.187   18.771
  524.705    6.664   56.100    0.353    0.191   20.194
  525.525    6.647   58.754    0.345    0.248   20.573
  526.345    6.688   61.698    0.326    0.222   20.033
  527.165    6.672   63.770    0.345    0.178   15.980
  527.986    6.674   70.791    0.394    0.196   13.338
  528.806    6.793   81.303    0.455    0.222   10.835
  529.626    6.737   83.952    0.476    0.232    8.801
  530.446    6.856   83.415    0.440    0.235    7.757
  531.266    6.936   79.087    0.413    0.239    7.621
  532.087    6.958   78.246    0.410    0.237    8.124
  532.907    6.979   81.190    0.412    0.251    7.358
  533.727    6.943   87.921    0.449    0.235    6.911
  534.547    6.830   93.197    0.499    0.254    7.041
  535.367    6.735   83.919    0.444    0.254    7.505
  536.188    6.699   75.228    0.415    0.262    8.919
  537.008    6.662   68.574    0.417    0.256   12.256
  537.828    6.587   62.787    0.426    0.233   12.831
  538.648    6.609   57.882    0.427    0.204   14.974
  539.469    6.689   54.718    0.401    0.192   15.964
  540.289    6.653   55.044    0.371    0.190   17.175
  541.109    6.538   55.080    0.347    0.226   20.973
  541.929    6.522   51.920    0.334    0.211   25.153
  542.749    6.563   51.960    0.326    0.154   27.555
  543.570    6.352   53.450    0.362    0.174   21.391
  544.390    6.393   56.686    0.436    0.176   19.373
  545.210    6.395   59.335    0.414    0.163   18.191
  546.030    6.456   60.829    0.409    0.131   13.869
  546.850    6.827   64.356    0.457    0.138    6.969
  547.671    7.314   72.249    0.501    0.221    5.171
  548.491    7.220   80.721    0.558    0.265    4.725
  549.311    7.300   86.001    0.562    0.277    4.437
  550.131    7.322   87.196    0.535    0.264    4.480
  550.951    7.344   85.486    0.522    0.264    4.820
  551.772    7.443   85.813    0.505    0.254    5.676
  552.592    7.193   87.316    0.520    0.218    6.808
  553.412    7.060   88.224    0.506    0.211    7.525
  554.232    7.082   88.542    0.502    0.230    8.395
  555.052    7.084   84.796    0.483    0.224    9.113
  555.873    7.203   82.800    0.468    0.218    9.627
  556.693    7.303   80.808    0.460    0.238   11.759
  557.513    7.208   78.803    0.442    0.221   13.723
  558.333    7.171   75.634    0.441    0.210   14.498
  559.154    6.902   71.893    0.394    0.189   15.041
  559.974    6.866   69.892    0.378    0.147   14.914
  560.794    6.888   68.469    0.391    0.146   13.628
  561.614    6.832   70.541    0.432    0.241   12.798
  562.434    6.873   79.307    0.469    0.213   12.923
  563.255    6.973   85.456    0.507    0.215   15.358
  564.075    6.879   76.765    0.468    0.199   16.372
  564.895    6.862   73.015    0.402    0.155   16.832
  565.715    6.961   67.233    0.353    0.113   16.389
  566.535    6.983   67.850    0.355    0.078   15.392
  567.356    6.907   71.385    0.377    0.132   15.392
  568.176    6.813   74.043    0.434    0.179   15.131
  568.996    6.738   73.197    0.413    0.215   14.467
  569.816    6.799   69.160    0.384    0.237   14.345
  570.636    6.840   63.378    0.362    0.228   14.615
  571.457    6.726   60.218    0.355    0.218   15.302
  572.277    6.728   59.672    0.366    0.171   15.730
  573.097    6.692   62.908    0.432    0.229   15.456
  573.917    6.791   70.220    0.459    0.228   13.998
  574.738    6.910   76.073    0.460    0.248   11.370
  575.558    6.738   83.094    0.451    0.256    8.827
  576.378    6.857   87.207    0.469    0.239    7.922
  577.198    7.034   85.493    0.499    0.254    7.110
  578.018    6.978   83.206    0.514    0.268    6.616
  578.839    7.116   84.700    0.544    0.258    5.884
  579.659    7.177   88.226    0.540    0.262    5.426
  580.479    7.199   90.303    0.565    0.269    5.049
  581.299    7.007   89.761    0.558    0.259    6.001
  582.119    6.913   86.006    0.562    0.254    7.197
  582.940    6.915   74.115    0.573    0.251    9.799
  583.760    6.898   66.002    0.520    0.215   11.967
  584.580    6.842   56.438    0.378    0.111   19.713
  585.400    6.748   52.406    0.271    0.154   21.203
  586.220    6.479   55.637    0.330    0.333   21.603
  587.041    6.423   58.295    0.365    0.342   17.553
  587.861    6.425   60.657    0.386    0.326   17.553
  588.681    6.505   63.311    0.398    0.287   17.098
