~VERSION INFORMATION
 VERS.                 2.0:   CWLS LOG ASCII STANDARD -VERSION 2.0
 WRAP.                  NO:   ONE LINE PER DEPTH STEP
~WELL INFORMATION BLOCK
#MNEM.UNIT           DATA                    DESCRIPTION OF MNEMONIC
#---------    -------------------            -------------------------------
# Generated from Intellog Unique Number	CS_77_79/WELL/843
WELL.         CANADIAN WORLDWIDE ENERGY      : Well_name    - WELL
LOC .         00/03-01-077-05W4/0            : Location     - LOCATION
UWI .         00/03-01-077-05W4/0            : Uwi          - UNIQUE WELL ID
ENTR.         SP                             : Entered      - ENTERED BY
SRVC.         SCHLUMBERGER                   : Scn          - SERVICE COMPANY
STRT.M        150                            : top_depth    - START DEPTH
STOP.M        405                            : bot_depth    - STOP DEPTH
STEP.M        0.25                           : increment    - STEP LENGTH
 NULL. -999.2500:NULL Value
~CURVE INFORMATION BLOCK
#MNEM UNIT       ERCB CURVE CODE    CURVE DESCRIPTION
#-----------   ------------------   ----------------------------------
DEPT.M        00 001 00 00         : DEPTH        - DEPTH
ILD .OHMM     00 120 00 00         : RESD         - DEEP RESISTIVITY (DIL)
DPHI.V/V      00 890 00 00         : PHID         - DENSITY POROSITY (SANDSTONE)
NPHI.V/V      00 330 00 00         : PHIN         - NEUTRON POROSITY (SANDSTONE)
GR  .API      00 310 00 00         : GR           - GAMMA RAY
~PARAMETER INFORMATION
#MNEM.UNIT           DATA             DESCRIPTION OF MNEMONIC
#---------         -----------     ------------------------------
GL  .M        571.1                : gl           - GROUND LEVEL ELEVATION
EREF.M        574.9                : kb           - ELEVATION OF DEPTH REFERENCE
DATM.M        571.1                : datum        - DATUM ELEVATION
TDD .M        405.5                : tdd          - TOTAL DEPTH DRILLER
RUN .         ONE                  : Run          - RUN NUMBER
ENG .         BILL                 : Engineer     - RECORDING ENGINEER
WIT .         JIM                  : Witness      - WITNESSED BY
MUD .         GEL                  : Mud_type     - MUD TYPE
MATR.         SANDSTONE            : Logunit      - NEUTRON MATRIX
TMAX.C        21                   : BHT          - MAXIMUM RECORDED TEMPERATURE
BHTD.M        431                  : BHTDEP       - MAXIMUM RECORDED TEMPERATURE
MATR.         1                    : LOGUNIT      - NEUTRON MATRIX
RMT .C        25                   : MDTP         - TEMPERATURE OF MUD
NEUT.         1                    : NEUTRON      - NEUTRON TYPE
RESI.         0                    : RESIST       - RESISTIVITY TYPE
RMC .OHMM     0.25                 : RMC          - RESISTIVITY OF MUD CAKE
RMF .OHMM     0.25                 : RMF          - RESISTIVITY OF MUD FILTRATE
SUFT.C        15                   : SUFT         - SURFACE TEMPERATURE
~A  DEPTH     RESD     PHID     PHIN       GR
  150.000    3.172    0.283    0.552  100.831
  150.250    3.175    0.285    0.559  103.956
  150.500    3.238    0.288    0.534  107.086
  150.750    3.302    0.289    0.512  103.989
  151.000    3.304    0.292    0.520  102.134
  151.250    3.308    0.297    0.526  108.374
  151.500    3.248    0.292    0.513  109.634
  151.750    3.251    0.287    0.500  109.025
  152.000    3.192    0.282    0.527  109.043
  152.250    3.194    0.292    0.539  107.187
  152.500    3.136    0.301    0.534  105.341
  152.750    3.080    0.306    0.546  105.972
  153.000    3.083    0.302    0.577  108.485
  153.250    3.026    0.307    0.564  107.870
  153.500    3.028    0.315    0.546  105.397
  153.750    3.032    0.309    0.536  103.541
  154.000    3.033    0.301    0.513  111.649
  154.250    3.035    0.291    0.487  108.554
  154.500    3.038    0.291    0.473  104.210
  154.750    3.039    0.294    0.463  101.734
  155.000    3.041    0.295    0.478  106.729
  155.250    3.044    0.293    0.493  109.234
  155.500    2.990    0.290    0.503  109.247
  155.750    2.991    0.290    0.512  108.647
  156.000    2.993    0.295    0.522  108.032
  156.250    2.995    0.294    0.540  103.690
  156.500    2.998    0.290    0.547   99.971
  156.750    3.117    0.286    0.551  101.230
  157.000    3.178    0.268    0.474  101.875
  157.250    3.241    0.238    0.459   99.394
  157.500    3.244    0.200    0.480   96.299
  157.750    3.307    0.189    0.507   95.063
  158.000    3.374    0.210    0.527  106.283
  158.250    3.376    0.222    0.536  105.674
  158.500    3.316    0.248    0.492  103.825
  158.750    3.380    0.268    0.471  103.216
  159.000    3.383    0.272    0.481  101.986
  159.250    3.386    0.272    0.490  109.468
  159.500    3.453    0.271    0.497  108.859
  159.750    3.455    0.265    0.477  107.013
  160.000    3.524    0.257    0.460  107.023
  160.250    3.594    0.262    0.459  107.040
  160.500    3.665    0.270    0.483  106.429
  160.750    3.738    0.276    0.503  105.201
  161.000    3.742    0.263    0.521  102.727
  161.250    3.743    0.252    0.488  100.252
  161.500    3.746    0.242    0.460  105.865
  161.750    3.679    0.239    0.462  107.125
  162.000    3.681    0.239    0.484  104.656
  162.250    3.756    0.240    0.509  103.424
  162.500    3.829    0.238    0.529  109.039
  162.750    4.292    0.236    0.494  110.919
  163.000    5.191    0.231    0.461  104.710
  163.250    7.302    0.223    0.406   82.941
  163.500   12.415    0.210    0.358   60.548
  163.750   17.138    0.155    0.285   40.025
  164.000   25.040    0.047    0.212   25.102
  164.250   31.449    0.194    0.183   20.761
  164.500   33.943    0.250    0.164   21.399
  164.750   28.654    0.289    0.149   28.880
  165.000   21.584    0.323    0.282   57.527
  165.250   10.724    0.319    0.374   82.437
  165.500    6.815    0.334    0.414   95.522
  165.750    5.539    0.361    0.445  105.496
  166.000    4.855    0.304    0.460  108.003
  166.250    4.505    0.262    0.456  108.022
  166.500    4.423    0.239    0.448  107.408
  166.750    4.598    0.249    0.444  108.666
  167.000    4.778    0.256    0.454  107.435
  167.250    5.357    0.257    0.440  101.227
  167.500    6.236    0.257    0.426   96.262
  167.750    7.685    0.263    0.414   95.033
  168.000   10.023    0.276    0.418   91.312
  168.250   12.590    0.287    0.402   85.108
  168.500   13.846    0.281    0.383   80.768
  168.750   15.526    0.264    0.373   78.908
  169.000   15.831    0.269    0.389   78.304
  169.250   16.150    0.280    0.401   80.811
  169.500   16.164    0.290    0.411   84.558
  169.750   16.172    0.294    0.396   87.682
  170.000   16.811    0.288    0.384   87.697
  170.250   17.143    0.278    0.396   86.469
  170.500   17.153    0.291    0.404   86.485
  170.750   17.831    0.299    0.390   92.098
  171.000   17.839    0.300    0.386   98.337
  171.250   18.193    0.287    0.390   98.355
  171.500   18.556    0.295    0.376   97.120
  171.750   18.226    0.296    0.377   93.405
  172.000   17.893    0.290    0.384   95.910
  172.250   17.247    0.275    0.380   99.656
  172.500   16.932    0.253    0.358  103.407
  172.750   16.628    0.228    0.350  105.908
  173.000   16.328    0.217    0.362  105.929
  173.250   16.345    0.228    0.367  105.947
  173.500   16.353    0.238    0.359  105.961
  173.750   16.672    0.235    0.354  107.216
  174.000   17.660    0.230    0.371  109.094
  174.250   19.803    0.235    0.387  100.397
  174.500   20.576    0.257    0.404   80.496
  174.750   22.217    0.311    0.402   54.370
  175.000   23.083    0.341    0.395   46.292
  175.250   23.546    0.353    0.378   41.328
  175.500   23.562    0.366    0.374   40.718
  175.750   22.705    0.356    0.384   41.977
  176.000   22.291    0.350    0.387   50.713
  176.250   20.297    0.335    0.377   59.440
  176.500   17.792    0.314    0.362   68.165
  176.750   15.017    0.291    0.367   80.627
  177.000   12.435    0.264    0.364   91.223
  177.250   10.299    0.236    0.389  100.575
  177.500    8.860    0.218    0.433  109.301
  177.750    8.219    0.229    0.444  109.325
  178.000    7.918    0.238    0.459  106.844
  178.250    8.077    0.240    0.413  103.745
  178.500    8.554    0.244    0.387   86.953
  178.750   10.543    0.264    0.381   71.409
  179.000   12.279    0.248    0.380   64.577
  179.250   13.252    0.239    0.356   83.885
  179.500   14.032    0.267    0.346   83.279
  179.750   15.438    0.302    0.361   74.581
  180.000   16.983    0.323    0.370   65.260
  180.250   18.684    0.319    0.378   72.742
  180.500   19.420    0.312    0.362   83.337
  180.750   19.799    0.298    0.350   93.935
  181.000   20.193    0.299    0.354  102.038
  181.250   19.093    0.304    0.362   90.852
  181.500   17.387    0.294    0.365   78.418
  181.750   16.749    0.295    0.364   70.341
  182.000   15.248    0.290    0.367   64.753
  182.250   13.623    0.276    0.366   92.156
  182.500   12.878    0.254    0.361   99.016
  182.750   11.949    0.241    0.372   94.052
  183.000   11.087    0.233    0.368   95.935
  183.250   10.480    0.120    0.361   98.438
  183.500    8.846    0.119    0.367  108.412
  183.750    7.754    0.165    0.393  122.120
  184.000    7.059    0.186    0.444  119.648
  184.250    6.308    0.199    0.450  117.171
  184.500    5.852    0.200    0.433  119.050
  184.750    5.430    0.203    0.412  126.536
  185.000    5.231    0.202    0.419  127.795
  185.250    4.854    0.211    0.434  127.188
  185.500    4.590    0.212    0.449  127.823
  185.750    4.421    0.211    0.460  128.464
  186.000    4.180    0.197    0.476  130.964
  186.250    3.953    0.188    0.502  135.959
  186.500    3.882    0.209    0.528  132.863
  186.750    3.885    0.238    0.524  128.524
  187.000    3.961    0.254    0.513  125.422
  187.250    4.358    0.255    0.501  120.461
  187.500    4.794    0.244    0.491  117.982
  187.750    5.477    0.218    0.467  123.599
  188.000    7.010    0.231    0.430  113.036
  188.250    8.160    0.255    0.415   98.109
  188.500   10.248    0.314    0.408   80.074
  188.750   14.149    0.345    0.387   58.928
  189.000   18.805    0.347    0.377   47.118
  189.250   24.999    0.340    0.388   41.531
  189.500   28.024    0.340    0.391   50.263
  189.750   30.256    0.340    0.391   51.518
  190.000   30.860    0.337    0.389   54.026
  190.250   30.874    0.333    0.395   56.528
  190.500   30.323    0.343    0.404   59.500
  190.750   30.928    0.348    0.416   62.163
  191.000   30.943    0.357    0.433   64.043
  191.250   31.563    0.358    0.416   71.526
  191.500   31.578    0.353    0.382   79.631
  191.750   31.609    0.350    0.380   79.025
  192.000   31.637    0.350    0.381   72.820
  192.250   31.056    0.339    0.375   69.718
  192.500   29.931    0.333    0.365   64.752
  192.750   28.835    0.323    0.360   61.654
  193.000   27.789    0.318    0.349   62.291
  193.250   26.771    0.320    0.341   80.356
