~VERSION INFORMATION
 VERS.                 2.0:   CWLS LOG ASCII STANDARD -VERSION 2.0
 WRAP.                  NO:   ONE LINE PER DEPTH STEP
~WELL INFORMATION BLOCK
#MNEM.UNIT           DATA                    DESCRIPTION OF MNEMONIC
#---------    -------------------            -------------------------------
# Generated from Intellog Unique Number	CW_70_72/WELL/3303
NULL.         -999.25                        : NULL_VALUE
WELL.         BVX ET AL SMITH                : Well_name    - WELL              
LOC .         07-16-072-26W4                 : Location     - LOCATION          
UWI .         00/07-16-072-26W4/0            : Uwi          - UNIQUE WELL ID    
ENTR.         CAMPBELL                       : Entered      - ENTERED BY        
SRVC.         WESTERN ATLAS                  : Scn          - SERVICE COMPANY   
DATE.         15 NOV 73                      : Date         - LOG DATE          
STRT.M        557.784                        : top_depth    - START DEPTH       
STOP.M        701.034                        : bot_depth    - STOP DEPTH        
STEP.M        0.25                           : increment    - STEP LENGTH       
~CURVE INFORMATION BLOCK
#MNEM UNIT       ERCB CURVE CODE    CURVE DESCRIPTION
#-----------   ------------------   ----------------------------------
DEPT.M        00 001 00 00         : DEPTH        - DEPTH                       
ILD .OHMM     00 120 00 00         : RESD         - DEEP RESISTIVITY (DIL)      
CALI.MM       00 280 01 00         : CAL          - CALIPER                     
DELT.US/F     00 520 00 00         : DELT         - SONIC TRAVEL TIME           
GR  .API      00 310 00 00         : GR           - GAMMA RAY                   
~PARAMETER INFORMATION       
#MNEM.UNIT           DATA             DESCRIPTION OF MNEMONIC
#---------         -----------     ------------------------------
GL  .M        627.888              : gl           - GROUND LEVEL ELEVATION      
EREF.M        630.936              : kb           - ELEVATION OF DEPTH REFERENCE
DATM.M        630.936              : datum        - DATUM ELEVATION             
TDD .M        880.872              : tdd          - TOTAL DEPTH DRILLER         
RUN .         ONE                  : Run          - RUN NUMBER                  
ENG .         KAWOLSKI             : Engineer     - RECORDING ENGINEER          
WIT .         BROWN                : Witness      - WITNESSED BY                
MUD .         GEL                  : Mud_type     - MUD TYPE                    
MATR.         SANDSTONE            : Logunit      - NEUTRON MATRIX              
TMAX.C        34.4444              : BHT          - MAXIMUM RECORDED TEMPERATURE
BHTD.M        880.872              : BHTDEP       - MAXIMUM RECORDED TEMPERATURE
RMT .C        22.2222              : MDTP         - TEMPERATURE OF MUD          
MUDD.KG/M     9600                 : MWT          - MUD DENSITY                 
NEUT.         1                    : NEUTRON      - NEUTRON TYPE                
RESI.         0                    : RESIST       - RESISTIVITY TYPE            
RM  .OHMM     3.25                 : RM           - RESISTIVITY OF MUD          
RMC .OHMM     0.25                 : RMC          - RESISTIVITY OF MUD CAKE     
RMF .OHMM     0.25                 : RMF          - RESISTIVITY OF MUD FILTRATE 
SUFT.C        0                    : SUFT         - SURFACE TEMPERATURE         
~A  DEPTH     RESD      CAL     DELT       GR
# ...
  644.784    3.238  168.408  328.179   46.598
  645.034    3.251  168.441  326.860   48.967
  645.284    3.364  168.466  327.486   53.396
  645.534    3.384  168.512  325.839   51.941
  645.784    3.398  169.038  324.844   50.194
  646.034    3.415  169.067  326.766   51.683
  646.284    3.530  169.601  328.686   50.814
  646.534    3.546  170.132  330.932   51.712
  646.784    3.563  170.165  331.233   54.085
  647.034    3.579  170.207  329.908   55.865
  647.284    3.696  170.240  327.940   57.940
  647.534    3.810  170.277  326.945   58.548
  647.784    3.826  170.277  327.249   57.677
  648.034    3.941  170.348  329.817   56.813
  648.284    3.960  170.381  328.173   58.887
  648.534    4.071  170.418  320.043   56.550
  648.784    4.089  170.418  311.267   54.213
  649.034    4.105  170.489  313.190   57.466
  649.284    4.120  170.518  326.459   58.952
  649.534    4.041  170.518  330.323   59.854
  649.784    3.960  171.098  328.677   60.752
  650.034    3.974  171.620  327.681   62.533
  650.284    3.990  171.645  327.656   64.019
  650.534    4.008  171.683  328.279   65.800
  650.784    4.120  171.724  327.937   64.347
  651.034    4.237  171.753  326.936   62.598
  651.284    4.450  171.787  326.268   60.849
  651.534    4.663  171.327  324.619   64.688
  651.784    4.976  171.356  322.651   66.177
  652.034    5.388  171.423  320.034   67.369
  652.284    6.001  171.435  310.934   63.561
  652.534    6.609  171.435  283.353   61.520
  652.784    7.415  171.510  282.357   66.830
  653.034    8.320  171.531  291.088   73.024
  653.284    8.636  171.572  305.329   74.510
  653.534    8.057  172.107  303.358   76.587
  653.784    6.984  172.132  293.934   79.249
  654.034    6.508  172.169  283.535   86.618
  654.284    6.429  172.206  296.479   94.577
  654.534    6.540  172.733  305.858   99.593
  654.784    7.051  173.263  317.182   97.549
  655.034    8.156  173.801  333.690   91.979
  655.284    8.863  173.831  338.209   89.348
  655.534    8.977  172.870  336.562   85.250
  655.784    8.598  171.917  312.871   83.497
  656.034    8.517  170.463  302.147   79.103
  656.284    8.630  169.494  299.855   76.472
  656.534    8.254  168.049  311.503   78.546
  656.784    7.085  168.078  316.991   68.856
  657.034    6.016  168.107  311.457   63.874
  657.284    5.341  168.144  275.444   52.419
  657.534    4.764  168.675  286.119   39.202
  657.784    4.185  168.720  305.227   39.804
  658.034    3.610  168.745  318.820   45.410
  658.284    3.328  169.284  329.816   50.426
  658.534    3.247  169.342  333.681   53.677
  658.784    3.361  169.350  330.743   57.518
  659.034    3.476  169.384  322.937   60.475
  659.284    3.689  169.421  321.618   64.022
  659.534    4.199  169.458  328.727   66.098
  659.784    5.500  169.483  333.243   67.583
  660.034    7.691  169.529  326.734   67.308
  660.284   11.166  169.562  310.499   69.675
  660.534   17.505  169.596  244.336   65.573
  660.784   24.044  169.629  256.956   49.707
  661.034   35.918  169.169  222.243   32.370
  661.284   42.356  169.198  201.469   19.739
  661.534   36.937  169.198  225.760   15.935
  661.784   25.492  168.772  228.979   16.833
  662.034   19.779  168.308  249.056   19.790
  662.284   17.027  167.848  274.323   27.160
  662.534   16.750  167.848  242.524   30.410
  662.784   18.246  167.915  240.556   37.780
  663.034   18.955  167.455  247.666   48.090
  663.284   16.600  167.488  252.181   55.755
  663.534   14.441  167.526  238.216   61.653
  663.784   13.370  167.559  248.567   69.907
  664.034   12.697  167.592  279.342   72.274
  664.284   14.194  167.626  296.504   76.409
  664.534   20.337  167.684  260.491   65.249
  664.784   26.578  167.696  254.309   58.500
  665.034   36.674  167.730  262.390   52.045
  665.284   34.318  167.767  208.544   42.650
  665.534   27.121  167.804  214.359   37.371
  665.784   18.739  167.838  238.002   38.859
  666.034   14.506  167.867  247.705   50.051
  666.284   12.548  168.401  238.275   57.128
  666.534   11.574  168.931  239.552   63.320
  666.784   10.703  168.965  240.826   72.749
  667.034   10.028  169.499  249.232   82.177
  667.284    9.451  169.537  298.489   93.371
  667.534    8.874  169.566  289.062   95.151
  667.784    7.704  169.599  288.715   95.463
  668.034    7.128  169.645  302.954   98.420
  668.284    7.839  169.670  309.090  103.144
  668.534    9.235  169.707  315.876  108.159
  668.784   10.537  170.237  323.957  108.175
  669.034   12.034  170.275  320.044   92.015
  669.284   13.731  170.801  257.448   86.150
  669.534   13.846  171.344  226.297   56.752
  669.784   11.096  171.866  251.240   55.594
  670.034    9.038  172.400  262.239   75.021
  670.284    7.572  172.437  271.294   90.333
  670.534    6.798  174.463  287.805   99.762
  670.784    6.517  179.960  314.689  113.013
  671.034    6.833  187.453  368.485  117.150
  671.284    7.244  180.026  361.330  116.578
  671.534    7.655  182.052  351.903  114.535
  671.784    8.066  179.604  324.970  104.255
  672.034    8.380  176.162  306.141   96.623
  672.284    8.496  174.704  295.420   88.994
  672.534    8.214  174.236  323.602   79.010
  672.784    7.542  173.284  322.931   65.496
  673.034    6.961  172.323  309.935   67.279
  673.284    5.989  171.366  306.670   67.589
  673.534    4.824  171.391  315.079   71.428
  673.784    4.346  170.935  332.238   78.797
  674.034    4.261  170.476  335.773   84.697
  674.284    4.279  170.501  333.162   86.183
  674.534    4.397  170.542  327.952   89.438
  674.784    4.310  171.073  321.443   93.275
  675.034    4.032  171.599  314.937   98.587
  675.284    3.751  172.133  319.774   99.779
  675.534    3.571  172.668  330.125   98.030
  675.784    3.488  173.198  340.800   81.576
  676.034    3.307  173.732  345.316   67.768
  676.284    3.320  173.766  339.452   71.905
  676.534    3.342  173.766  338.133   75.156
  676.784    3.453  173.840  337.135   76.935
  677.034    3.569  173.865  336.464   79.013
  677.284    3.783  173.865  336.117   79.615
  677.534    4.099  174.437  334.149   81.988
  677.784    4.407  174.968  332.505   84.945
  678.034    4.822  174.997  328.268   88.782
  678.284    5.132  175.051  318.517   95.859
  678.534    5.345  175.569  313.631  102.639
  678.784    5.464  175.602  311.336   95.892
  679.034    5.479  175.639  350.543   99.731
  679.284    5.497  176.165  357.652  109.747
  679.534    5.511  176.224  329.422  113.002
  679.784    5.527  176.737  322.262  113.898
  680.034    5.444  176.737  321.593  115.092
  680.284    5.365  176.820  325.461  114.816
  680.534    5.282  177.338  328.350  108.653
  680.784    5.100  177.371  317.956   95.728
  681.034    5.116  177.409  303.666   83.391
  681.284    4.934  177.438  287.431   76.350
  681.534    4.952  177.496  307.511   81.366
  681.784    5.064  177.513  318.184   86.969
  682.034    5.282  177.049  318.158   88.754
  682.284    5.495  176.589  313.924   90.829
  682.534    5.706  176.623  310.656   92.607
  682.784    6.022  176.656  311.606   90.568
  683.034    6.433  176.689  311.577   92.348
  683.284    6.645  176.726  311.233   94.717
  683.534    6.467  176.785  314.452   97.676
  683.784    6.382  176.793  328.046  100.925
  684.034    6.301  177.323  361.417  108.003
  684.284    6.516  177.356  413.916  102.723
  684.534    6.828  177.390  335.431   98.329
  684.784    7.138  177.390  309.470   99.521
  685.034    7.555  177.460  342.842   99.831
  685.284    7.966  177.494  331.794   84.553
  685.534    8.377  177.539  263.361   78.981
  685.784    8.786  177.564  282.141   74.585
  686.034    8.802  178.095  292.817   72.838
  686.284    8.225  178.136  300.250   75.795
  686.534    7.553  178.165  313.519   81.695
  686.784    7.271  178.700  336.190   90.534
  687.034    6.891  180.224  363.078   93.493
  687.284    6.615  185.228  427.571  103.214
  687.534    6.433  189.242  413.605  108.528
  687.784    6.447  191.764  405.154  101.483
  688.034    6.464  193.289  332.180   94.736
