~VERSION INFORMATION
 VERS.                 2.0:   CWLS LOG ASCII STANDARD -VERSION 2.0
 WRAP.                  NO:   ONE LINE PER DEPTH STEP
~WELL INFORMATION BLOCK
#MNEM.UNIT           DATA                    DESCRIPTION OF MNEMONIC
#---------    -------------------            -------------------------------
# Generated from Intellog Unique Number	CS_77_79/WELL/862
WELL.         ICGR CHARD                     : Well_name    - WELL
LOC .         00/05-21-078-05W4/0            : Location     - LOCATION
UWI .         00/05-21-078-05W4/0            : Uwi          - UNIQUE WELL ID
ENTR.         JHS                            : Entered      - ENTERED BY
SRVC.         SCHLUMBERGER                   : Scn          - SERVICE COMPANY
STRT.M        155                            : top_depth    - START DEPTH
STOP.M        415                            : bot_depth    - STOP DEPTH
STEP.M        0.25                           : increment    - STEP LENGTH
 NULL. -999.2500:NULL Value
~CURVE INFORMATION BLOCK
#MNEM UNIT       ERCB CURVE CODE    CURVE DESCRIPTION
#-----------   ------------------   ----------------------------------
DEPT.M        00 001 00 00         : DEPTH        - DEPTH
DPHI.V/V      00 890 00 00         : PHID         - DENSITY POROSITY (LIMESTONE)
NPHI.V/V      00 330 00 00         : PHIN         - NEUTRON POROSITY (LIMESTONE)
GR  .API      00 310 00 00         : GR           - GAMMA RAY
ILD .OHMM     00 120 00 00         : RESD         - DEEP RESISTIVITY (DIL)
RHOB.KG/M3    00 350 00 00         : DENS         - BULK DENSITY
~PARAMETER INFORMATION
#MNEM.UNIT           DATA             DESCRIPTION OF MNEMONIC
#---------         -----------     ------------------------------
GL  .M        575.9                : gl           - GROUND LEVEL ELEVATION
EREF.M        579.5                : kb           - ELEVATION OF DEPTH REFERENCE
DATM.M        579.5                : datum        - DATUM ELEVATION
TDD .M        425                  : tdd          - TOTAL DEPTH DRILLER
RUN .         ONE                  : Run          - RUN NUMBER
ENG .         BILL                 : Engineer     - RECORDING ENGINEER
WIT .         JIM                  : Witness      - WITNESSED BY
MUD .         GEL                  : Mud_type     - MUD TYPE
MATR.         LIMESTONE            : Logunit      - NEUTRON MATRIX
TMAX.C        21                   : BHT          - MAXIMUM RECORDED TEMPERATURE
BHTD.M        425                  : BHTDEP       - MAXIMUM RECORDED TEMPERATURE
MATR.         1                    : LOGUNIT      - NEUTRON MATRIX
RMT .C        25                   : MDTP         - TEMPERATURE OF MUD
NEUT.         1                    : NEUTRON      - NEUTRON TYPE
RESI.         0                    : RESIST       - RESISTIVITY TYPE
RMC .OHMM     0.25                 : RMC          - RESISTIVITY OF MUD CAKE
RMF .OHMM     0.25                 : RMF          - RESISTIVITY OF MUD FILTRATE
SUFT.C        15                   : SUFT         - SURFACE TEMPERATURE
~A  DEPTH     PHID     PHIN       GR     RESD     DENS
# ...
  374.000    0.291    0.362   72.231    5.447 2212.070
  374.250    0.306    0.383   66.092    5.453 2186.780
  374.500    0.308    0.411   67.332    5.353 2182.580
  374.750    0.301    0.406   75.333    5.256 2195.280
  375.000    0.289    0.396   80.874    5.065 2216.440
  375.250    0.290    0.391   78.426    4.974 2214.360
  375.500    0.308    0.402   72.286    4.885 2182.730
  375.750    0.324    0.411   69.221    4.796 2155.320
  376.000    0.327    0.414   64.927    4.709 2151.150
  376.250    0.328    0.413   58.790    4.804 2149.060
  376.500    0.328    0.406   59.414    4.899 2149.090
  376.750    0.313    0.396   66.185    4.995 2174.470
  377.000    0.305    0.400   68.040    4.999 2189.280
  377.250    0.313    0.418   60.671    4.910 2174.540
  377.500    0.329    0.401   52.688    4.914 2147.130
  377.750    0.338    0.386   53.312    4.824 2132.400
  378.000    0.328    0.399   61.928    4.738 2149.310
  378.250    0.311    0.398   69.930    4.742 2178.910
  378.500    0.317    0.397   72.399    4.569 2168.390
  378.750    0.322    0.403   68.104    4.573 2159.980
  379.000    0.314    0.393   71.187    4.489 2172.690
  379.250    0.318    0.381   64.435    4.493 2166.390
  379.500    0.328    0.373   55.222    4.582 2149.530
  379.750    0.318    0.385   60.148    4.673 2166.470
  380.000    0.312    0.404   67.537    4.676 2177.060
  380.250    0.309    0.426   66.316    4.680 2181.310
  380.500    0.314    0.419   62.636    4.595 2172.900
  380.750    0.329    0.417   60.188    4.513 2147.610
  381.000    0.331    0.413   60.810    4.432 2143.420
  381.250    0.329    0.393   60.820    4.435 2147.680
  381.500    0.330    0.387   56.526    4.437 2145.610
  381.750    0.339    0.393   49.159    4.358 2130.860
  382.000    0.340    0.388   48.552    4.444 2128.790
  382.250    0.326    0.387   51.020    4.364 2152.050
  382.500    0.315    0.390   52.874    4.367 2171.090
  382.750    0.316    0.400   51.039    4.289 2169.010
  383.000    0.330    0.393   46.131    4.212 2145.820
  383.250    0.335    0.398   41.221    4.215 2137.420
  383.500    0.340    0.397   35.698    4.298 2129.010
  383.750    0.345    0.387   35.093    4.384 2120.600
  384.000    0.341    0.377   43.093    4.387 2126.970
  384.250    0.332    0.373   48.636    4.390 2141.790
  384.500    0.334    0.375   48.031    4.393 2139.710
  384.750    0.341    0.367   46.198    4.315 2127.080
  385.000    0.350    0.370   44.360    4.317 2112.340
  385.250    0.346    0.401   40.681    4.239 2118.710
  385.500    0.332    0.406   38.232    4.163 2141.960
  385.750    0.328    0.395   38.858    4.166 2148.340
  386.000    0.333    0.388   38.253    4.091 2139.930
  386.250    0.349    0.393   37.645    4.017 2112.520
  386.500    0.353    0.401   38.269    4.020 2106.220
  386.750    0.347    0.388   34.589    3.948 2116.810
  387.000    0.342    0.381   37.060    3.951 2125.300
  387.250    0.347    0.381   37.068    4.030 2116.900
  387.500    0.353    0.381   37.079    4.109 2106.380
  387.750    0.346    0.411   40.162    4.352 2119.080
  388.000    0.336    0.430   48.162    4.524 2136.010
  388.250    0.333    0.437   54.934    4.791 2140.260
  388.500    0.332    0.400   53.098    5.172 2142.410
  388.750    0.301    0.363   51.263    5.479 2195.220
  389.000    0.274    0.343   66.642    5.588 2241.700
  389.250    0.253    0.370   86.938    5.486 2277.630
  389.500    0.247    0.426   97.399    5.090 2288.220
  389.750    0.264    0.440   56.218    4.634 2258.700
  390.000    0.339    0.439   43.317    4.220 2129.960
  390.250    0.355    0.422   32.261    4.066 2102.550
  390.500    0.344    0.400   24.278    3.918 2121.590
  390.750    0.342    0.381   21.215    3.847 2125.850
  391.000    0.349    0.377   21.223    3.637 2113.220
  391.250    0.354    0.397   22.461    3.710 2104.810
  391.500    0.353    0.409   22.472    3.783 2106.960
  391.750    0.351    0.400   22.480    3.931 2109.100
  392.000    0.355    0.398   24.949    3.934 2102.820
  392.250    0.358    0.392   26.188    3.938 2098.620
  392.500    0.358    0.383   25.583    4.093 2098.660
  392.750    0.349    0.377   24.976    4.096 2113.480
  393.000    0.349    0.375   20.683    4.021 2113.510
  393.250    0.354    0.371   21.923    3.875 2105.110
  393.500    0.355    0.369   24.392    3.878 2103.030
  393.750    0.348    0.383   25.015    3.881 2115.730
  394.000    0.346    0.386   23.180    3.958 2117.880
  394.250    0.347    0.375   21.345    4.037 2115.800
  394.500    0.338    0.372   23.813    4.040 2132.730
  394.750    0.333    0.383   26.285    4.120 2141.210
  395.000    0.344    0.389   26.907    4.201 2122.250
  395.250    0.349    0.383   26.916    4.284 2113.840
  395.500    0.334    0.371   28.770    4.538 2139.210
  395.750    0.320    0.361   29.393    4.717 2162.470
  396.000    0.308    0.362   31.248    4.996 2183.620
  396.250    0.299    0.366   34.329    5.294 2198.430
  396.500    0.307    0.353   41.101    5.396 2185.810
  396.750    0.300    0.346   51.561    5.300 2196.390
  397.000    0.297    0.389   56.489    5.107 2202.770
  397.250    0.316    0.446   57.115    4.921 2169.020
  397.500    0.323    0.429   57.739    4.742 2158.500
  397.750    0.302    0.404   55.289    4.483 2194.430
  398.000    0.288    0.385   49.149    4.240 2217.690
  398.250    0.297    0.372   38.707    4.162 2202.940
  398.500    0.317    0.373   28.879    4.010 2167.090
  398.750    0.329    0.366   31.348    3.938 2148.140
  399.000    0.316    0.362   39.351    3.868 2169.280
  399.250    0.308    0.385   44.277    3.871 2184.100
  399.500    0.309    0.375   42.443    3.801 2182.020
  399.750    0.319    0.361   36.304    3.805 2165.170
  400.000    0.328    0.358   32.010    3.806 2148.320
  400.250    0.333    0.372   27.718    3.883 2139.910
  400.500    0.341    0.377   27.110    3.884 2127.270
  400.750    0.340    0.363   27.120    3.888 2129.420
  401.000    0.339    0.360   30.817    3.891 2129.460
  401.250    0.337    0.380   35.130    3.968 2133.730
  401.500    0.336    0.383   33.910    4.046 2135.870
  401.750    0.337    0.368   31.461    4.049 2133.790
  402.000    0.341    0.372   31.471    4.131 2127.490
  402.250    0.342    0.413   34.555    4.133 2125.410
  402.500    0.334    0.394   32.719    4.136 2138.120
  402.750    0.331    0.375   28.424    4.139 2144.490
  403.000    0.326    0.366   23.515    4.142 2152.980
  403.250    0.318    0.358   17.991    4.146 2165.680
  403.500    0.318    0.354   18.619    4.149 2165.720
  403.750    0.321    0.355   18.013    4.152 2161.530
  404.000    0.315    0.363   17.407    4.156 2172.120
  404.250    0.310    0.381   16.800    4.158 2180.600
  404.500    0.308    0.369   16.194    4.161 2182.750
  404.750    0.314    0.376   15.590    4.085 2172.230
  405.000    0.327    0.414   14.982    4.089 2151.150
  405.250    0.334    0.412   17.451    4.170 2138.530
  405.500    0.334    0.388   18.691    4.095 2138.560
  405.750    0.332    0.384   17.473    4.098 2142.820
  406.000    0.330    0.395   16.251    4.101 2144.970
  406.250    0.327    0.379   15.029    4.104 2151.350
  406.500    0.324    0.359   15.039    4.267 2155.600
  406.750    0.322    0.365   19.967    4.350 2159.870
  407.000    0.322    0.354   19.980    4.521 2159.890
  407.250    0.334    0.349   21.214    4.789 2138.820
  407.500    0.346    0.472   23.683    5.170 2117.740
  407.750    0.354    0.456   24.923    5.372 2105.110
  408.000    0.296    0.372   24.933    5.802 2204.370
  408.250    0.254    0.346   32.318    6.029 2276.190
  408.500    0.247    0.366   63.066    6.264 2286.780
  408.750    0.319    0.565   79.059    6.762 2164.370
  409.000    0.338    0.605   84.606    7.162 2132.730
  409.250    0.238    0.575   85.841    7.881    0.000
  409.500    0.182    0.404   93.227    8.348    0.000
  409.750    0.147    0.392   97.540    8.674    0.000
  410.000    0.142    0.407   96.938    9.362    0.000
  410.250    0.113    0.371   92.641   10.696    0.000
