~VERSION INFORMATION
 VERS.                 2.0:   CWLS LOG ASCII STANDARD -VERSION 2.0
 WRAP.                  NO:   ONE LINE PER DEPTH STEP
~WELL INFORMATION BLOCK
#MNEM.UNIT           DATA                    DESCRIPTION OF MNEMONIC
#---------    -------------------            -------------------------------
# Generated from Intellog Unique Number	CW_82_90/WELL/3420
WELL.         TEXACO CORN LAKE               : Well_name    - WELL
LOC .         00/06-11-089-25W4/0            : Location     - LOCATION
UWI .         00/06-11-089-25W4/0            : Uwi          - UNIQUE WELL ID
ENTR.         MAX                            : Entered      - ENTERED BY
SRVC.         COMPUTALOG                     : Scn          - SERVICE COMPANY
STRT.M        200                            : top_depth    - START DEPTH
STOP.M        413                            : bot_depth    - STOP DEPTH
STEP.M        0.25                           : increment    - STEP LENGTH
 NULL. -999.2500:NULL Value
~CURVE INFORMATION BLOCK
#MNEM UNIT       ERCB CURVE CODE    CURVE DESCRIPTION
#-----------   ------------------   ----------------------------------
DEPT.M        00 001 00 00         : DEPTH        - DEPTH
GR  .API      00 310 00 00         : GR           - GAMMA RAY
CALI.MM       00 280 01 00         : CAL          - CALIPER
DPHI.V/V      00 890 00 00         : PHID         - DENSITY POROSITY (SANDSTONE)
NPHI.V/V      00 330 00 00         : PHIN         - NEUTRON POROSITY (SANDSTONE)
ILD .OHMM     00 120 00 00         : RESD         - DEEP RESISTIVITY (DIL)
~PARAMETER INFORMATION
#MNEM.UNIT           DATA             DESCRIPTION OF MNEMONIC
#---------         -----------     ------------------------------
GL  .M        617.98               : gl           - GROUND LEVEL ELEVATION
EREF.M        621.5                : kb           - ELEVATION OF DEPTH REFERENCE
DATM.M        617.98               : datum        - DATUM ELEVATION
TDD .M        415                  : tdd          - TOTAL DEPTH DRILLER
RUN .         ONE                  : Run          - RUN NUMBER
ENG .         BILL                 : Engineer     - RECORDING ENGINEER
WIT .         JIM                  : Witness      - WITNESSED BY
MUD .         GEL                  : Mud_type     - MUD TYPE
MATR.         SANDSTONE            : Logunit      - NEUTRON MATRIX
TMAX.C        16.6                 : BHT          - MAXIMUM RECORDED TEMPERATURE
BHTD.M        415                  : BHTDEP       - MAXIMUM RECORDED TEMPERATURE
MATR.         1                    : LOGUNIT      - NEUTRON MATRIX
RMT .C        15.6                 : MDTP         - TEMPERATURE OF MUD
NEUT.         1                    : NEUTRON      - NEUTRON TYPE
RESI.         0                    : RESIST       - RESISTIVITY TYPE
RMC .OHMM     4                    : RMC          - RESISTIVITY OF MUD CAKE
RMF .OHMM     5.5                  : RMF          - RESISTIVITY OF MUD FILTRATE
SUFT.C        -13.7                : SUFT         - SURFACE TEMPERATURE
~A  DEPTH       GR      CAL     PHID     PHIN     RESD
# ...
  236.500   52.333  213.756    0.312    0.379   14.061
  236.750   50.212  213.781    0.313    0.359   14.204
  237.000   49.616  213.800    0.309    0.344   14.215
  237.250   51.463  214.335    0.296    0.331   14.225
  237.500   55.449  214.367    0.265    0.318   14.237
  237.750   59.436  213.880    0.261    0.314   14.120
  238.000   62.506  212.888    0.315    0.330   13.998
  238.250   66.799  212.913    0.327    0.350   14.009
  238.500   70.480  212.936    0.323    0.373   13.637
  238.750   72.328  215.510    0.306    0.369   12.671
  239.000   76.011  219.609    0.274    0.374   10.439
  239.250   79.080  223.705    0.249    0.391    9.174
  239.500   80.015  220.678    0.226    0.367    8.214
  239.750   80.943  227.320    0.229    0.339    7.564
  240.000   86.152  237.022    0.234    0.386    7.160
  240.250   87.695  234.502    0.237    0.400    6.778
  240.500   87.101  230.451    0.219    0.392    6.721
  240.750   84.978  219.276    0.210    0.367    6.852
  241.000   84.686  219.304    0.213    0.343    7.116
  241.250   88.367  219.327    0.223    0.355    7.743
  241.500   85.939  218.843    0.222    0.384    8.191
  241.750   80.763  217.341    0.221    0.370    8.509
  242.000   80.472  215.327    0.212    0.336    8.755
  242.250   81.101  215.353    0.214    0.324    9.009
  242.500   81.420  215.381    0.214    0.374    9.271
  242.750   83.571  215.404    0.214    0.379    9.365
  243.000   85.116  215.429    0.215    0.375    9.459
  243.250   85.130  215.455    0.210    0.361    9.469
  243.500   84.534  215.990    0.202    0.348    9.476
  243.750   83.024  217.040    0.197    0.336    9.483
  244.000   82.730  216.550    0.200    0.325    9.145
  244.250   83.662  217.085    0.206    0.330    8.739
  244.500   82.455  217.619    0.212    0.331    8.664
  244.750   80.637  218.157    0.214    0.344    8.510
  245.000   80.347  218.183    0.213    0.364    8.284
  245.250   80.364  218.208    0.215    0.345    8.063
  245.500   80.074  212.630    0.217    0.303    7.996
  245.750   80.395  217.241    0.236    0.315    7.710
  246.000   81.938  214.721    0.246    0.332    6.715
  246.250   81.648  222.381    0.234    0.360    5.902
  246.500   80.443  235.135    0.232    0.399    5.384
  246.750   80.149  229.054    0.236    0.398    4.957
  247.000   83.221  228.058    0.239    0.402    4.649
  247.250   85.988  230.633    0.240    0.433    3.901
  247.500   86.307  231.673    0.248    0.449    3.335
  247.750   83.265  229.153    0.258    0.471    3.276
  248.000   80.533  224.593    0.249    0.485    3.665
  248.250   76.270  220.039    0.213    0.421    4.374
  248.500   74.147  217.522    0.210    0.381    5.221
  248.750   76.300  215.511    0.224    0.348    6.231
  249.000   78.760  214.515    0.252    0.337    7.370
  249.250   78.472  214.029    0.263    0.358    7.944
  249.500   81.845  214.057    0.263    0.358    8.100
  249.750   84.918  213.571    0.265    0.358    8.181
  250.000   84.322  213.090    0.267    0.358    8.188
  250.250   82.808  212.603    0.267    0.364    8.044
  250.500   82.821  212.629    0.265    0.386    7.757
  250.750   81.309  213.164    0.259    0.388    7.141
  251.000   78.882  215.738    0.243    0.388    6.698
  251.250   78.287  219.328    0.229    0.408    6.519
  251.500   77.386  221.896    0.230    0.412    6.346
  251.750   77.401  217.848    0.241    0.377    6.351
  252.000   81.386  215.328    0.235    0.389    6.356
  252.250   84.153  214.845    0.228    0.397    6.362
  252.500   84.471  214.873    0.228    0.408    6.546
  252.750   81.432  214.902    0.220    0.399    6.799
  253.000   79.309  214.925    0.155    0.332    7.062
  253.250   81.157  214.435    0.135    0.294    7.471
  253.500   87.893  214.460    0.164    0.295    7.688
  253.750   89.742  214.492    0.194    0.358    7.623
  254.000   87.007  214.511    0.257    0.404    7.489
  254.250   82.440  214.543    0.253    0.393    7.426
  254.500   78.486  214.562    0.253    0.377    7.501
  254.750   76.056  215.097    0.261    0.356    7.578
  255.000   72.711  215.129    0.272    0.401    7.654
  255.250   69.365  215.148    0.281    0.393    7.803
  255.500   67.852  215.177    0.285    0.370    7.882
  255.750   68.785  214.184    0.282    0.380    7.963
  256.000   68.801  214.210    0.281    0.428    8.043
  256.250   68.814  216.272    0.283    0.424    8.124
  256.500   71.579  216.294    0.281    0.409    8.282
  256.750   69.458  216.829    0.279    0.385    8.445
  257.000   70.084  218.385    0.281    0.357    8.531
  257.250   71.629  217.396    0.284    0.391    8.861
  257.500   70.113  216.906    0.279    0.454    9.638
  257.750   66.464  216.425    0.233    0.457   10.984
  258.000   62.200  215.430    0.056    0.391   12.989
  258.250   53.968  213.928    0.023    0.145   17.654
  258.500   52.763  219.048    0.010    0.134   20.875
  258.750   56.444  218.055    0.045    0.135   17.196
  259.000   63.789  218.587    0.091    0.156   12.212
  259.250   69.609  218.103    0.152    0.262   10.439
  259.500   77.567  217.110    0.252    0.350    8.679
  259.750   82.165  216.627    0.291    0.417    7.351
  260.000   79.125  215.122    0.291    0.405    6.705
  260.250   73.947  213.114    0.277    0.392    6.650
  260.500   69.991  212.627    0.278    0.384    6.906
  260.750   72.756  212.147    0.274    0.367    7.106
  261.000   74.301  212.172    0.265    0.361    7.112
  261.250   73.096  212.704    0.264    0.389    7.052
  261.500   74.026  212.733    0.260    0.392    6.992
  261.750   74.652  212.249    0.238    0.374    6.998
  262.000   71.916  212.275    0.211    0.384    7.068
  262.250   67.657  213.318    0.194    0.397    7.207
  262.500   67.978  214.359    0.213    0.394    7.280
  262.750   69.211  214.897    0.238    0.392    7.285
  263.000   68.615  215.432    0.253    0.394    7.091
  263.250   67.411  215.963    0.274    0.441    6.062
  263.500   69.257  217.516    0.276    0.408    5.231
  263.750   74.466  219.579    0.262    0.361    4.229
  264.000   79.674  221.641    0.247    0.367    3.060
  264.250   84.272  221.157    0.237    0.406    2.616
  264.500   84.593  221.183    0.237    0.436    2.476
  264.750   83.692  220.699    0.238    0.463    2.478
  265.000   83.709  220.725    0.232    0.501    2.480
  265.250   83.421  220.750    0.236    0.465    2.482
  265.500   84.351  220.779    0.239    0.445    2.508
  265.750   84.672  220.295    0.239    0.423    2.533
  266.000   83.772  220.321    0.235    0.440    2.558
  266.250   82.257  221.365    0.228    0.452    2.608
  266.500   80.443  227.500    0.231    0.410    2.811
  266.750   79.843  224.474    0.232    0.378    3.204
  267.000   79.555  223.984    0.252    0.440    3.824
  267.250   78.348  220.446    0.260    0.458    4.915
  267.500   78.669  217.922    0.260    0.405    5.867
  267.750   79.601  217.445    0.262    0.321    5.872
  268.000   76.865  217.464    0.277    0.340    5.307
  268.250   76.269  216.981    0.272    0.351    4.752
  268.500   76.900  217.016    0.262    0.384    4.139
  268.750   77.831  217.541    0.261    0.443    3.705
  269.000   78.148  219.094    0.270    0.462    3.380
  269.250   78.166  220.650    0.273    0.435    3.112
  269.500   75.430  221.182    0.272    0.394    2.892
  269.750   73.917  221.716    0.263    0.361    2.764
  270.000   75.766  221.236    0.253    0.407    2.714
  270.250   78.223  220.753    0.254    0.450    2.767
  270.500   77.627  220.269    0.246    0.439    2.928
  270.750   79.170  220.291    0.241    0.417    3.014
  271.000   83.770  219.808    0.235    0.437    3.016
  271.250   88.060  219.327    0.225    0.449    3.018
  271.500   89.909  219.356    0.221    0.498    3.020
  271.750   87.482  219.375    0.221    0.527    3.109
  272.000   85.053  219.404    0.221    0.490    3.199
  272.250   84.456  219.433    0.223    0.451    3.291
  272.500   84.168  218.946    0.227    0.415    3.418
  272.750   84.488  218.972    0.231    0.402    3.650
