~VERSION INFORMATION
 VERS.                 2.0:   CWLS LOG ASCII STANDARD -VERSION 2.0
 WRAP.                  NO:   ONE LINE PER DEPTH STEP
~WELL INFORMATION BLOCK
#MNEM.UNIT           DATA                    DESCRIPTION OF MNEMONIC
#---------    -------------------            -------------------------------
# Generated from Intellog Unique Number	CS_67_68/WELL/2175
WELL.         MURPHY ET AL SANDHILL          : Well_name    - WELL
LOC .         00/07-07-067-16W4/0            : Location     - LOCATION
UWI .         00/07-07-067-16W4/0            : Uwi          - UNIQUE WELL ID
ENTR.         SP                             : Entered      - ENTERED BY
SRVC.         SCHLUMBERGER                   : Scn          - SERVICE COMPANY
STRT.M        384.048                        : top_depth    - START DEPTH
STOP.M        550.298                        : bot_depth    - STOP DEPTH
STEP.M        0.25                           : increment    - STEP LENGTH
 NULL. -999.2500:NULL Value
~CURVE INFORMATION BLOCK
#MNEM UNIT       ERCB CURVE CODE    CURVE DESCRIPTION
#-----------   ------------------   ----------------------------------
DEPT.M        00 001 00 00         : DEPTH        - DEPTH
CALI.MM       00 280 01 00         : CAL          - CALIPER
GR  .API      00 310 00 00         : GR           - GAMMA RAY
DPHI.V/V      00 890 00 00         : PHID         - DENSITY POROSITY (SANDSTONE)
NPHI.V/V      00 330 00 00         : PHIN         - NEUTRON POROSITY (SANDSTONE)
ILD .OHMM     00 120 00 00         : RESD         - DEEP RESISTIVITY (DIL)
~PARAMETER INFORMATION
#MNEM.UNIT           DATA             DESCRIPTION OF MNEMONIC
#---------         -----------     ------------------------------
GL  .M        609.905              : gl           - GROUND LEVEL ELEVATION
EREF.M        612.953              : kb           - ELEVATION OF DEPTH REFERENCE
DATM.M        612.953              : datum        - DATUM ELEVATION
TDD .M        574.853              : tdd          - TOTAL DEPTH DRILLER
RUN .         ONE                  : Run          - RUN NUMBER
ENG .         BILL                 : Engineer     - RECORDING ENGINEER
WIT .         JIM                  : Witness      - WITNESSED BY
MUD .         GEL                  : Mud_type     - MUD TYPE
MATR.         SANDSTONE            : Logunit      - NEUTRON MATRIX
TMAX.C        14.4444              : BHT          - MAXIMUM RECORDED TEMPERATURE
BHTD.M        574.853              : BHTDEP       - MAXIMUM RECORDED TEMPERATURE
MATR.         1                    : LOGUNIT      - NEUTRON MATRIX
RMT .C        25                   : MDTP         - TEMPERATURE OF MUD
NEUT.         1                    : NEUTRON      - NEUTRON TYPE
RESI.         0                    : RESIST       - RESISTIVITY TYPE
RMC .OHMM     0.25                 : RMC          - RESISTIVITY OF MUD CAKE
RMF .OHMM     0.25                 : RMF          - RESISTIVITY OF MUD FILTRATE
SUFT.C        15                   : SUFT         - SURFACE TEMPERATURE
~A  DEPTH      CAL       GR     PHID     PHIN     RESD
# ...
  420.548  164.584  103.179    0.159    0.428    2.891
  420.798  162.466   99.669    0.149    0.431    2.899
  421.048  161.151   95.177    0.166    0.431    2.866
  421.298  160.170   92.439    0.163    0.428    2.818
  421.548  160.309   91.059    0.165    0.441    2.803
  421.798  160.316   91.435    0.152    0.448    2.778
  422.048  160.324   91.718    0.177    0.436    2.743
  422.298  160.218   90.972    0.214    0.424    2.698
  422.548  160.561   89.365    0.223    0.409    2.668
  422.798  161.070   86.377    0.234    0.437    2.641
  423.048  160.614   83.034    0.256    0.478    2.655
  423.298  158.737   80.973    0.324    0.515    3.015
  423.548  157.173   79.662    0.355    0.556    3.495
  423.798  155.828   79.238    0.294    0.512    3.435
  424.048  154.458   79.950    0.253    0.471    3.077
  424.298  152.828   79.885    0.215    0.450    2.778
  424.548  151.383   77.404    0.209    0.439    2.600
  424.798  150.398   74.983    0.221    0.429    2.465
  425.048  149.969   74.087    0.225    0.422    2.423
  425.298  149.503   73.392    0.221    0.406    2.477
  425.548  149.614   73.180    0.206    0.375    2.554
  425.798  150.256   72.686    0.190    0.326    2.712
  426.048  151.345   71.160    0.149    0.269    3.399
  426.298  155.166   69.059    0.064    0.249    4.256
  426.548  158.877   67.244    0.034    0.198    5.735
  426.798  161.215   67.958    0.011    0.174    7.840
  427.048  161.931   68.210   -0.000    0.167   11.117
  427.298  162.144   69.501    0.002    0.186   14.144
  427.548  161.201   72.730    0.026    0.223    8.927
  427.798  160.324   75.123    0.061    0.266    5.821
  428.048  158.364   76.529    0.099    0.339    3.975
  428.298  155.305   74.170    0.152    0.377    3.375
  428.548  152.268   74.570    0.217    0.402    2.940
  428.798  150.569   78.439    0.194    0.401    2.693
  429.048  149.081   81.074    0.177    0.397    2.563
  429.298  148.931   83.497    0.174    0.415    2.498
  429.548  150.896   84.790    0.199    0.421    2.448
  429.798  152.957   84.969    0.220    0.419    2.440
  430.048  153.866   84.656    0.215    0.424    2.467
  430.298  153.906   84.405    0.202    0.429    2.492
  430.548  153.679   84.065    0.196    0.433    2.485
  430.798  154.113   83.188    0.192    0.436    2.451
  431.048  155.844   82.406    0.201    0.436    2.425
  431.298  157.387   82.042    0.213    0.433    2.441
  431.548  158.872   83.049    0.207    0.430    2.490
  431.798  160.453   88.569    0.209    0.434    2.592
  432.048  161.600   93.957    0.213    0.447    2.694
  432.298  162.396   99.114    0.205    0.459    2.844
  432.548  162.918  102.847    0.179    0.477    2.996
  432.798  163.545  103.553    0.201    0.471    3.133
  433.048  163.434  105.079    0.215    0.442    3.228
  433.298  163.382  106.009    0.194    0.428    3.352
  433.548  161.567  103.477    0.191    0.453    3.439
  433.798  160.216   99.437    0.218    0.438    3.467
  434.048  159.593   97.139    0.203    0.430    3.462
  434.298  159.174   98.461    0.175    0.436    3.376
  434.548  158.896   98.994    0.156    0.439    3.339
  434.798  159.115   98.896    0.164    0.453    3.265
  435.048  161.268   96.799    0.168    0.462    3.249
  435.298  164.418   94.315    0.163    0.455    3.218
  435.548  166.808   93.581    0.173    0.459    3.188
  435.798  169.023   96.630    0.188    0.472    3.168
  436.048  170.620  102.161    0.178    0.488    3.142
  436.298  172.488  106.168    0.187    0.495    3.128
  436.548  177.193  109.196    0.197    0.507    3.129
  436.798  181.656  110.464    0.229    0.488    3.191
  437.048  181.120  111.502    0.215    0.466    3.310
  437.298  175.014  111.960    0.207    0.452    3.562
  437.548  168.683  109.049    0.181    0.438    3.820
  437.798  164.608  105.209    0.169    0.426    4.089
  438.048  163.353  103.677    0.158    0.419    4.341
  438.298  162.627  105.737    0.151    0.424    4.429
  438.548  162.360  107.455    0.147    0.434    4.436
  438.798  161.686  108.177    0.150    0.422    4.316
  439.048  161.826  107.977    0.137    0.408    3.835
  439.298  161.637  106.967    0.143    0.411    3.842
  439.548  161.720  106.584    0.156    0.422    3.824
  439.798  161.187  105.208    0.166    0.426    3.802
  440.048  161.046  102.671    0.168    0.422    3.745
  440.298  161.741  100.234    0.161    0.415    3.693
  440.548  161.352   98.478    0.156    0.423    3.616
  440.798  159.277   96.670    0.161    0.441    3.500
  441.048  156.114   95.317    0.170    0.452    3.375
  441.298  153.121   93.862    0.182    0.434    3.293
  441.548  151.652   92.529    0.197    0.433    3.167
  441.798  150.893   90.899    0.204    0.436    3.102
  442.048  150.324   89.740    0.200    0.439    3.019
  442.298  150.013   89.648    0.204    0.438    2.964
  442.548  149.395   91.129    0.212    0.421    2.871
  442.798  149.250   92.667    0.209    0.412    2.823
  443.048  149.003   87.164    0.199    0.422    2.768
  443.298  148.697   82.943    0.190    0.433    2.602
  443.548  148.877   77.956    0.198    0.440    2.426
  443.798  144.988   73.462    0.231    0.429    2.230
  444.048  145.800   69.436    0.260    0.421    2.071
  444.298  145.860   67.631    0.250    0.413    1.939
  444.548  145.898   69.796    0.240    0.414    1.863
  444.798  146.673   71.528    0.253    0.420    1.846
  445.048  148.210   71.270    0.260    0.425    1.843
  445.298  149.164   70.214    0.257    0.431    1.852
  445.548  150.958   70.688    0.247    0.434    1.881
  445.798  152.867   72.271    0.242    0.435    1.909
  446.048  156.111   73.136    0.245    0.431    1.903
  446.298  158.555   73.443    0.250    0.425    1.894
  446.548  160.074   72.269    0.250    0.418    1.914
  446.798  162.459   72.479    0.254    0.413    1.962
  447.048  163.428   74.180    0.257    0.409    2.027
  447.298  163.918   77.004    0.241    0.412    2.113
  447.548  163.015   78.942    0.231    0.416    2.213
  447.798  161.620   80.385    0.233    0.418    2.310
  448.048  160.609   80.764    0.217    0.414    2.384
  448.298  160.158   81.189    0.224    0.408    2.444
  448.548  159.851   81.735    0.232    0.405    2.483
  448.798  159.326   82.643    0.225    0.406    2.532
  449.048  159.406   84.461    0.217    0.403    2.595
  449.298  161.822   87.182    0.196    0.398    2.667
  449.548  165.230   92.608    0.164    0.394    2.793
  449.798  169.135   98.404    0.161    0.395    2.977
  450.048  170.628  105.041    0.162    0.400    3.176
  450.298  168.489  110.402    0.160    0.415    3.330
  450.548  167.997  108.254    0.155    0.426    3.376
  450.798  169.621  104.414    0.178    0.436    3.400
  451.048  171.721  105.576    0.158    0.451    3.432
  451.298  172.931  107.625    0.165    0.399    3.492
  451.548  173.217  109.485    0.165    0.373    3.596
  451.798  172.938  113.156    0.143    0.366    3.670
  452.048  172.926  115.528    0.123    0.381    3.733
  452.298  173.094  118.002    0.106    0.397    3.709
  452.548  173.380  115.393    0.124    0.411    3.521
  452.798  172.893  111.337    0.132    0.422    3.293
  453.048  172.311  104.002    0.151    0.431    3.086
  453.298  170.111   95.733    0.173    0.425    2.934
  453.548  166.483   88.840    0.201    0.423    2.782
  453.798  163.978   92.111    0.222    0.410    2.705
  454.048  163.105   96.369    0.206    0.398    2.681
  454.298  163.593  102.676    0.189    0.403    2.706
  454.548  166.666  106.944    0.183    0.422    2.756
  454.798  169.856  110.585    0.181    0.451    2.813
  455.048  174.056  109.071    0.213    0.480    2.856
  455.298  180.235  105.027    0.242    0.508    2.860
  455.548  184.719  103.532    0.264    0.479    2.840
  455.798  177.280  102.595    0.198    0.467    2.759
  456.048  168.710   96.009    0.182    0.454    2.637
  456.298  165.327   89.174    0.204    0.443    2.434
  456.548  163.639   82.928    0.222    0.429    2.316
  456.798  162.215   84.285    0.240    0.422    2.233
