~VERSION INFORMATION
 VERS.                 2.0:   CWLS LOG ASCII STANDARD -VERSION 2.0
 WRAP.                  NO:   ONE LINE PER DEPTH STEP
~WELL INFORMATION BLOCK
#MNEM.UNIT           DATA                    DESCRIPTION OF MNEMONIC
#---------    -------------------            -------------------------------
# Generated from Intellog Unique Number	CS_69_70/WELL/820
WELL.         GENERAL AMERICAN OILS          : Well_name    - WELL
LOC .         00/07-15-069-14W4/0            : Location     - LOCATION
UWI .         00/07-15-069-14W4/0            : Uwi          - UNIQUE WELL ID
ENTR.         SP                             : Entered      - ENTERED BY
SRVC.         SCHLUMBERGER                   : Scn          - SERVICE COMPANY
STRT.M        265.176                        : top_depth    - START DEPTH
STOP.M        453.926                        : bot_depth    - STOP DEPTH
STEP.M        0.25                           : increment    - STEP LENGTH
 NULL. -999.2500:NULL Value
~CURVE INFORMATION BLOCK
#MNEM UNIT       ERCB CURVE CODE    CURVE DESCRIPTION
#-----------   ------------------   ----------------------------------
DEPT.M        00 001 00 00         : DEPTH        - DEPTH
GR  .API      00 310 00 00         : GR           - GAMMA RAY
DPHI.V/V      00 890 00 00         : PHID         - DENSITY POROSITY (SANDSTONE)
NPHI.V/V      00 330 00 00         : PHIN         - NEUTRON POROSITY (SANDSTONE)
ILD .OHMM     00 120 00 00         : RESD         - DEEP RESISTIVITY (DIL)
~PARAMETER INFORMATION
#MNEM.UNIT           DATA             DESCRIPTION OF MNEMONIC
#---------         -----------     ------------------------------
GL  .M        561.899              : gl           - GROUND LEVEL ELEVATION
EREF.M        565.191              : kb           - ELEVATION OF DEPTH REFERENCE
DATM.M        561.899              : datum        - DATUM ELEVATION
TDD .M        457.2                : tdd          - TOTAL DEPTH DRILLER
RUN .         ONE                  : Run          - RUN NUMBER
ENG .         BILL                 : Engineer     - RECORDING ENGINEER
WIT .         JIM                  : Witness      - WITNESSED BY
MUD .         GEL                  : Mud_type     - MUD TYPE
MATR.         SANDSTONE            : Logunit      - NEUTRON MATRIX
TMAX.C        12.2222              : BHT          - MAXIMUM RECORDED TEMPERATURE
BHTD.M        457.2                : BHTDEP       - MAXIMUM RECORDED TEMPERATURE
MATR.         1                    : LOGUNIT      - NEUTRON MATRIX
RMT .C        25                   : MDTP         - TEMPERATURE OF MUD
NEUT.         1                    : NEUTRON      - NEUTRON TYPE
RESI.         0                    : RESIST       - RESISTIVITY TYPE
RMC .OHMM     0.25                 : RMC          - RESISTIVITY OF MUD CAKE
RMF .OHMM     0.25                 : RMF          - RESISTIVITY OF MUD FILTRATE
SUFT.C        15                   : SUFT         - SURFACE TEMPERATURE
~A  DEPTH       GR     PHID     PHIN     RESD
  265.176   87.660    0.226    0.519    2.099
  265.426   88.403    0.217    0.530    2.090
  265.676   90.947    0.283    0.538    2.086
  265.926   93.809    0.302    0.529    2.082
  266.176   95.455    0.292    0.526    2.078
  266.426   96.259    0.301    0.533    2.070
  266.676   96.521    0.308    0.537    2.088
  266.926   96.972    0.315    0.533    2.151
  267.176   97.902    0.308    0.531    2.199
  267.426   95.925    0.299    0.538    2.226
  267.676   92.999    0.295    0.528    2.267
  267.926   91.344    0.312    0.522    2.296
  268.176   90.140    0.302    0.538    2.308
  268.426   89.363    0.282    0.549    2.297
  268.676   89.247    0.252    0.549    2.274
  268.926   91.158    0.231    0.552    2.243
  269.176   94.525    0.215    0.561    2.228
  269.426   98.810    0.259    0.545    2.214
  269.676   99.036    0.291    0.530    2.210
  269.926   98.293    0.316    0.519    2.226
  270.176   98.621    0.320    0.521    2.255
  270.426   99.970    0.301    0.525    2.313
  270.676  100.606    0.292    0.521    2.354
  270.926   99.517    0.295    0.513    2.404
  271.176   99.413    0.287    0.504    2.470
  271.426  101.179    0.290    0.498    2.601
  271.676  100.612    0.302    0.493    2.731
  271.926   97.595    0.310    0.496    2.855
  272.176   96.005    0.318    0.476    2.985
  272.426   95.197    0.312    0.460    3.111
  272.676   94.908    0.296    0.470    3.172
  272.926   96.380    0.284    0.484    3.004
  273.176   97.735    0.270    0.491    2.840
  273.426   97.931    0.259    0.496    2.720
  273.676   97.569    0.250    0.504    2.618
  273.926   97.839    0.273    0.516    2.563
  274.176   98.538    0.292    0.525    2.527
  274.426   99.070    0.298    0.536    2.504
  274.676   99.179    0.290    0.544    2.503
  274.926   98.531    0.280    0.531    2.494
  275.176   97.478    0.287    0.520    2.496
  275.426   95.907    0.290    0.515    2.497
  275.676   94.068    0.282    0.511    2.488
  275.926   92.037    0.275    0.520    2.504
  276.176   90.552    0.269    0.523    2.531
  276.426   89.146    0.278    0.516    2.544
  276.676   88.331    0.280    0.506    2.413
  276.926   88.032    0.269    0.493    2.314
  277.176   86.277    0.270    0.481    2.378
  277.426   80.124    0.275    0.458    2.651
  277.676   76.182    0.266    0.421    3.040
  277.926   71.461    0.272    0.311    3.626
  278.176   66.998    0.248    0.262    4.442
  278.426   65.988    0.255    0.268    5.410
  278.676   72.340    0.280    0.300    6.208
  278.926   73.904    0.274    0.318    6.190
  279.176   73.280    0.284    0.336    5.246
  279.426   77.354    0.287    0.357    4.527
  279.676   85.652    0.268    0.388    3.948
  279.926   91.545    0.253    0.413    3.509
  280.176   96.390    0.240    0.436    3.286
  280.426  100.110    0.230    0.452    3.286
  280.676  104.123    0.220    0.467    3.371
  280.926  105.528    0.277    0.479    3.472
  281.176  101.153    0.307    0.492    3.655
  281.426   94.213    0.339    0.507    3.861
  281.676   86.696    0.367    0.520    4.235
  281.926   79.310    0.393    0.538    4.634
  282.176   73.704    0.409    0.429    5.032
  282.426   67.762    0.389    0.347    5.340
  282.676   63.413    0.371    0.350    5.433
  282.926   66.913    0.359    0.368    4.960
  283.176   69.583    0.348    0.388    4.105
  283.426   71.913    0.340    0.404    3.627
  283.676   75.791    0.334    0.421    3.365
  283.926   79.259    0.312    0.430    3.063
  284.176   83.428    0.290    0.441    2.934
  284.426   86.933    0.270    0.443    2.908
  284.676   89.341    0.250    0.431    2.924
  284.926   88.824    0.251    0.420    2.963
  285.176   87.798    0.231    0.416    3.032
  285.426   87.230    0.215    0.407    3.087
  285.676   87.689    0.199    0.400    3.178
  285.926   88.404    0.189    0.394    3.264
  286.176   89.983    0.200    0.390    3.362
  286.426   90.987    0.210    0.388    3.472
  286.676   92.442    0.217    0.391    3.562
  286.926   93.811    0.227    0.394    3.543
  287.176   95.421    0.234    0.400    3.530
  287.426   98.198    0.221    0.406    3.687
  287.676  100.384    0.212    0.412    3.834
  287.926  102.025    0.201    0.419    3.955
  288.176  103.654    0.194    0.433    3.898
  288.426  105.261    0.217    0.453    3.370
  288.676  106.984    0.212    0.483    2.894
  288.926  108.739    0.204    0.508    2.466
  289.176  104.170    0.246    0.531    2.208
  289.426   96.676    0.271    0.543    2.017
  289.676   89.016    0.283    0.524    1.916
  289.926   83.867    0.292    0.509    1.913
  290.176   78.958    0.300    0.494    1.963
  290.426   77.398    0.295    0.479    2.052
  290.676   77.675    0.294    0.465    2.149
  290.926   77.167    0.298    0.457    2.216
  291.176   75.901    0.293    0.461    2.323
  291.426   74.307    0.284    0.464    2.395
  291.676   73.722    0.278    0.464    2.467
  291.926   76.174    0.273    0.459    2.507
  292.176   78.498    0.272    0.454    2.542
  292.426   81.605    0.268    0.453    2.647
  292.676   84.952    0.262    0.459    2.772
  292.926   87.032    0.248    0.447    2.905
  293.176   83.667    0.238    0.434    3.035
  293.426   78.166    0.228    0.421    3.216
  293.676   75.640    0.211    0.408    3.412
  293.926   82.355    0.178    0.395    3.575
  294.176   88.243    0.213    0.380    3.744
  294.426   93.725    0.238    0.419    3.845
  294.676   97.079    0.251    0.447    3.746
  294.926   98.362    0.254    0.465    3.493
  295.176   97.131    0.240    0.477    3.356
  295.426   95.485    0.234    0.482    3.335
  295.676   94.645    0.241    0.487    3.521
  295.926   94.427    0.257    0.490    3.704
  296.176   94.501    0.247    0.493    3.887
  296.426   97.213    0.238    0.498    4.061
  296.676  101.535    0.233    0.504    4.021
  296.926  104.075    0.235    0.504    3.958
  297.176  108.390    0.225    0.502    3.706
  297.426  111.818    0.229    0.509    3.509
  297.676  115.104    0.231    0.513    3.386
  297.926  116.813    0.220    0.513    3.271
  298.176  117.891    0.204    0.509    3.193
  298.426  118.376    0.191    0.500    3.311
  298.676  117.812    0.200    0.486    3.556
  298.926  117.527    0.217    0.465    3.785
  299.176  116.423    0.225    0.452    3.981
  299.426  112.148    0.227    0.444    4.127
  299.676  106.774    0.233    0.442    4.160
  299.926  101.391    0.244    0.441    4.009
  300.176   96.663    0.255    0.439    3.658
  300.426   92.235    0.255    0.435    3.293
  300.676   89.300    0.261    0.429    3.064
  300.926   87.584    0.267    0.424    2.858
  301.176   89.044    0.274    0.424    2.690
  301.426   89.074    0.280    0.433    2.589
  301.676   88.724    0.260    0.441    2.521
  301.926   92.668    0.262    0.448    2.612
  302.176   96.927    0.265    0.457    2.473
  302.426  100.574    0.251    0.462    2.945
  302.676  102.898    0.245    0.461    3.046
  302.926  100.087    0.247    0.449    3.167
  303.176   94.021    0.253    0.442    3.308
  303.426   87.990    0.264    0.436    3.318
  303.676   85.355    0.277    0.438    3.200
  303.926   82.804    0.292    0.447    2.999
  304.176   83.058    0.298    0.451    2.893
  304.426   89.091    0.276    0.452    2.895
  304.676   92.622    0.240    0.448    3.035
  304.926   97.781    0.216    0.445    3.262
  305.176  102.666    0.194    0.443    3.499
  305.426  106.013    0.188    0.441    3.725
  305.676  108.050    0.189    0.440    3.865
  305.926  109.648    0.193    0.443    3.963
  306.176  108.848    0.206    0.449    3.962
  306.426  106.980    0.203    0.451    3.899
  306.676  105.452    0.202    0.450    3.746
  306.926  104.402    0.213    0.451    3.651
  307.176  103.994    0.236    0.455    3.502
  307.426  103.957    0.251    0.469    3.388
  307.676  103.504    0.266    0.491    3.331
  307.926  103.103    0.280    0.481    3.292
  308.176  102.796    0.282    0.475    3.255
  308.426  102.783    0.277    0.479    3.254
