~VERSION INFORMATION
 VERS.                 2.0:   CWLS LOG ASCII STANDARD -VERSION 2.0
 WRAP.                  NO:   ONE LINE PER DEPTH STEP
~WELL INFORMATION BLOCK
#MNEM.UNIT           DATA                    DESCRIPTION OF MNEMONIC
#---------    -------------------            -------------------------------
# Generated from Intellog Unique Number	CS_77_79/WELL/916
WELL.         PCI PCEJ CHARD                 : Well_name    - WELL
LOC .         00/08-04-079-06W4/0            : Location     - LOCATION
UWI .         00/08-04-079-06W4/0            : Uwi          - UNIQUE WELL ID
ENTR.         JHS                            : Entered      - ENTERED BY
SRVC.         SCHLUMBERGER                   : Scn          - SERVICE COMPANY
STRT.M        80                             : top_depth    - START DEPTH
STOP.M        325                            : bot_depth    - STOP DEPTH
STEP.M        0.25                           : increment    - STEP LENGTH
 NULL. -999.2500:NULL Value
~CURVE INFORMATION BLOCK
#MNEM UNIT       ERCB CURVE CODE    CURVE DESCRIPTION
#-----------   ------------------   ----------------------------------
DEPT.M        00 001 00 00         : DEPTH        - DEPTH
DPHI.V/V      00 890 00 00         : PHID         - DENSITY POROSITY (LIMESTONE)
NPHI.V/V      00 330 00 00         : PHIN         - NEUTRON POROSITY (LIMESTONE)
GR  .API      00 310 00 00         : GR           - GAMMA RAY
ILD .OHMM     00 120 00 00         : RESD         - DEEP RESISTIVITY (DIL)
RHOB.KG/M3    00 350 00 00         : DENS         - BULK DENSITY
~PARAMETER INFORMATION
#MNEM.UNIT           DATA             DESCRIPTION OF MNEMONIC
#---------         -----------     ------------------------------
GL  .M        509.4                : gl           - GROUND LEVEL ELEVATION
EREF.M        512.4                : kb           - ELEVATION OF DEPTH REFERENCE
DATM.M        512.4                : datum        - DATUM ELEVATION
TDD .M        331                  : tdd          - TOTAL DEPTH DRILLER
RUN .         ONE                  : Run          - RUN NUMBER
ENG .         BILL                 : Engineer     - RECORDING ENGINEER
WIT .         JIM                  : Witness      - WITNESSED BY
MUD .         GEL                  : Mud_type     - MUD TYPE
MATR.         LIMESTONE            : Logunit      - NEUTRON MATRIX
TMAX.C        22                   : BHT          - MAXIMUM RECORDED TEMPERATURE
BHTD.M        331                  : BHTDEP       - MAXIMUM RECORDED TEMPERATURE
MATR.         1                    : LOGUNIT      - NEUTRON MATRIX
RMT .C        25                   : MDTP         - TEMPERATURE OF MUD
NEUT.         1                    : NEUTRON      - NEUTRON TYPE
RESI.         0                    : RESIST       - RESISTIVITY TYPE
RMC .OHMM     0.25                 : RMC          - RESISTIVITY OF MUD CAKE
RMF .OHMM     0.25                 : RMF          - RESISTIVITY OF MUD FILTRATE
SUFT.C        15                   : SUFT         - SURFACE TEMPERATURE
~A  DEPTH     PHID     PHIN       GR     RESD     DENS
# ...
  262.500    0.250    0.351   72.956    8.058 2282.300
  262.750    0.240    0.363   65.600    7.909 2299.050
  263.000    0.266    0.354   54.571    7.338 2254.960
  263.250    0.327    0.331   51.500    7.068 2150.020
  263.500    0.309    0.327   67.406    6.937 2181.450
  263.750    0.274    0.357   75.356    6.937 2242.270
  264.000    0.242    0.394   82.080    7.620 2296.780
  264.250    0.221    0.399   90.028    7.765 2332.410
  264.500    0.212    0.398   93.692    7.621 2347.060
  264.750    0.261    0.411   85.110    6.683 2263.110
  265.000    0.310    0.416   67.958    5.752 2179.150
  265.250    0.344    0.417   59.990    5.237 2122.470
  265.500    0.355    0.416   66.714    4.950 2103.550
  265.750    0.347    0.398   69.764    4.858 2116.100
  266.000    0.350    0.388   67.918    4.951 2111.880
  266.250    0.358    0.388   64.847    5.045 2097.140
  266.500    0.361    0.404   67.898    5.238 2092.920
  266.750    0.351    0.392   89.315    5.754 2109.670
  267.000    0.308    0.374  102.162    6.203 2183.070
  267.250    0.225    0.384  108.883    6.814 2325.700
  267.500    0.216    0.426  108.263    7.346 2340.350
  267.750    0.216    0.422  106.416    7.346 2340.310
  268.000    0.219    0.409  105.180    7.076 2336.090
  268.250    0.221    0.415  107.619    6.564 2331.860
  268.500    0.220    0.438  111.896    5.977 2333.920
  268.750    0.214    0.465  113.723    5.757 2344.380
  269.000    0.213    0.501  108.203    5.442 2346.440
  269.250    0.221    0.518  105.741    5.242 2331.710
  269.500    0.229    0.521  112.467    5.049 2319.100
  269.750    0.234    0.510  111.845    4.955 2310.670
  270.000    0.234    0.515  103.876    4.864 2310.640
  270.250    0.229    0.532  104.478    4.773 2318.970
  270.500    0.227    0.539  103.242    4.774 2321.050
  270.750    0.229    0.523  102.620    4.685 2318.920
  271.000    0.231    0.518  105.671    4.598 2314.690
  271.250    0.230    0.524  103.214    4.513 2316.750
  271.500    0.229    0.504   99.529    4.599 2318.820
  271.750    0.232    0.497  104.416    4.775 2312.490
  272.000    0.234    0.500  107.468    5.245 2310.350
  272.250    0.228    0.504  105.008    5.655 2320.810
  272.500    0.219    0.462  103.772    6.329 2335.450
  272.750    0.214    0.426  104.377    6.572 2343.820
  273.000    0.212    0.431  100.080    6.953 2347.980
  273.250    0.214    0.452   98.845    6.953 2343.750
  273.500    0.209    0.471   98.835    6.954 2352.110
  273.750    0.203    0.474   96.990    7.086 2362.570
  274.000    0.203    0.465   92.694    7.357 2362.530
  274.250    0.222    0.397   85.949    7.498 2331.020
  274.500    0.235    0.385   87.161    7.498 2307.910
  274.750    0.230    0.400   86.539    7.498 2316.250
  275.000    0.228    0.422   83.469    7.499 2320.430
  275.250    0.227    0.412   78.563    7.223 2322.480
  275.500    0.233    0.392   69.980    7.089 2311.970
  275.750    0.267    0.381   64.461    6.828 2253.190
  276.000    0.281    0.413   58.939    6.455 2230.080
  276.250    0.290    0.407   58.317    5.988 2213.260
  276.500    0.311    0.384   63.818    5.555 2177.560
  276.750    0.318    0.369   70.539    5.252 2167.040
  277.000    0.321    0.363   72.982    5.154 2160.710
  277.250    0.324    0.357   83.991    5.155 2156.470
  277.500    0.302    0.340   93.776    5.352 2194.210
  277.750    0.271    0.340   91.929    5.879 2246.620
  278.000    0.265    0.359   69.880    6.104 2257.060
  278.250    0.288    0.362   63.136    6.105 2217.180
  278.500    0.314    0.357   58.228    5.880 2173.090
  278.750    0.332    0.353   53.320    5.559 2141.570
  279.000    0.330    0.356   51.473    5.354 2145.740
  279.250    0.310    0.361   72.890    5.665 2179.280
  279.500    0.272    0.363   81.450    5.772 2244.270
  279.750    0.271    0.351   78.992    5.882 2246.340
  280.000    0.272    0.345   74.085    5.882 2244.210
  280.250    0.285    0.366   66.726    5.666 2223.190
  280.500    0.295    0.368   61.208    5.561 2206.370
  280.750    0.299    0.357   58.748    5.561 2197.950
  281.000    0.303    0.360   64.858    5.562 2191.620
  281.250    0.292    0.358   66.685    5.667 2210.470
  281.500    0.293    0.352   66.676    5.775 2208.330
  281.750    0.281    0.349   69.116    5.776 2229.270
  282.000    0.277    0.360   74.003    5.776 2235.540
  282.250    0.285    0.390   69.707    5.776 2222.920
  282.500    0.282    0.384   65.410    5.777 2227.070
  282.750    0.284    0.374   62.339    5.777 2224.940
  283.000    0.292    0.370   66.003    5.670 2210.220
  283.250    0.292    0.362   68.443    5.670 2210.180
  283.500    0.290    0.360   64.144    5.565 2214.350
  283.750    0.291    0.365   61.074    5.565 2212.220
  284.000    0.300    0.371   58.616    5.361 2197.500
  284.250    0.312    0.383   56.770    5.261 2176.480
  284.500    0.329    0.371   52.472    5.068 2147.070
  284.750    0.322    0.356   48.789    4.974 2159.630
  285.000    0.313    0.354   45.720    4.974 2174.280
  285.250    0.319    0.361   56.116    5.069 2163.760
  285.500    0.310    0.360   58.556    5.165 2180.510
  285.750    0.289    0.344   56.096    5.263 2216.140
  286.000    0.293    0.338   57.311    5.264 2209.810
  286.250    0.310    0.355   59.750    5.364 2180.390
  286.500    0.297    0.366   62.189    5.466 2201.350
  286.750    0.274    0.377   66.464    5.466 2241.180
  287.000    0.275    0.381   64.617    5.466 2239.040
  287.250    0.290    0.361   59.707    5.467 2213.830
  287.500    0.306    0.374   58.475    5.467 2186.520
  287.750    0.296    0.380   54.790    5.468 2203.270
  288.000    0.278    0.376   59.065    5.468 2234.710
  288.250    0.277    0.369   62.730    5.572 2236.770
  288.500    0.284    0.352   66.393    5.678 2224.150
  288.750    0.288    0.341   70.055    5.572 2217.820
  289.000    0.294    0.342   67.597    5.469 2207.290
  289.250    0.307    0.370   57.791    5.268 2184.180
  289.500    0.325    0.397   53.495    5.074 2154.780
  289.750    0.331    0.363   57.157    5.075 2144.250
  290.000    0.315    0.339   58.985    4.980 2171.490
  290.250    0.293    0.337   55.913    4.981 2209.220
  290.500    0.309    0.360   51.619    4.981 2181.910
  290.750    0.327    0.370   49.160    4.981 2150.410
  291.000    0.324    0.364   52.821    4.889 2156.660
  291.250    0.317    0.359   53.422    4.889 2167.110
  291.500    0.316    0.357   52.803    5.077 2169.180
  291.750    0.304    0.364   49.730    5.077 2190.130
  292.000    0.299    0.372   45.435    4.983 2198.480
  292.250    0.310    0.365   40.528    4.800 2179.570
  292.500    0.332    0.369   36.231    4.623 2141.780
  292.750    0.335    0.381   41.120    4.623 2137.540
  293.000    0.320    0.386   42.946    4.538 2162.680
  293.250    0.318    0.395   38.038    4.538 2166.850
  293.500    0.330    0.399   36.804    4.624 2145.830
  293.750    0.340    0.357   48.425    4.624 2129.010
  294.000    0.326    0.348   43.517    4.372 2152.050
  294.250    0.324    0.353   36.161    4.211 2156.220
  294.500    0.339    0.363   29.416    4.056 2131.010
  294.750    0.352    0.369   28.795    3.981 2107.880
  295.000    0.351    0.372   32.457    4.056 2109.960
  295.250    0.336    0.362   36.732    4.133 2135.100
  295.500    0.320    0.345   43.457    4.292 2162.330
  295.750    0.324    0.346   45.284    4.373 2156.000
  296.000    0.333    0.362   44.662    4.541 2141.280
  296.250    0.334    0.363   44.651    4.715 2139.160
  296.500    0.319    0.352   48.315    4.896 2164.290
  296.750    0.312    0.352   55.037    4.989 2176.850
  297.000    0.290    0.363   60.539    5.084 2214.580
  297.250    0.282    0.373   63.587    5.180 2227.130
  297.500    0.303    0.376   59.294    5.084 2191.430
  297.750    0.323    0.357   57.446    4.990 2157.830
  298.000    0.320    0.349   64.170    5.085 2161.990
  298.250    0.296    0.354   66.608    5.182 2203.910
  298.500    0.282    0.361   67.824    5.380 2226.960
  298.750    0.274    0.372   68.425    5.482 2241.610
