~VERSION INFORMATION
 VERS.                 2.0:   CWLS LOG ASCII STANDARD -VERSION 2.0
 WRAP.                  NO:   ONE LINE PER DEPTH STEP
~WELL INFORMATION BLOCK
#MNEM.UNIT           DATA                    DESCRIPTION OF MNEMONIC
#---------    -------------------            -------------------------------
# Generated from Intellog Unique Number	CC_80_83/WELL/2297
NULL.         -999.25                        : NULL_VALUE
WELL.         CWWE HANGST                    : Well_name    - WELL
LOC .         07-17-082-10W4                 : Location     - LOCATION          
UWI .         00/07-17-082-10W400            : Uwi          - UNIQUE WELL ID    
ENTR.         DW                             : Entered      - ENTERED BY        
SRVC.         SCHLUMBERGER                   : Scn          - SERVICE COMPANY   
DATE.         10 JAN 85                      : Date         - LOG DATE
STRT.M        250                            : top_depth    - START DEPTH       
STOP.M        474.991                        : bot_depth    - STOP DEPTH        
STEP.M        0.3                            : increment    - STEP LENGTH       
~CURVE INFORMATION BLOCK
#MNEM UNIT       ERCB CURVE CODE    CURVE DESCRIPTION
#-----------   ------------------   ----------------------------------
DEPT.M        00 001 00 00         : DEPTH        - DEPTH                       
DPHI.V/V      00 890 00 00         : PHID         - DENSITY POROSITY (LIMESTONE)
NPHI.V/V      00 330 00 00         : PHIN         - NEUTRON POROSITY (LIMESTONE)
GR  .API      00 310 00 00         : GR           - GAMMA RAY                   
ILD .OHMM     00 120 00 00         : RESD         - DEEP RESISTIVITY (DIL)      
~PARAMETER INFORMATION       
#MNEM.UNIT           DATA             DESCRIPTION OF MNEMONIC
#---------         -----------     ------------------------------
GL  .M        701.6                : gl           - GROUND LEVEL ELEVATION      
EREF.M        705.7                : kb           - ELEVATION OF DEPTH REFERENCE
DATM.M        705.7                : datum        - DATUM ELEVATION             
TDD .M        477                  : tdd          - TOTAL DEPTH DRILLER         
RUN .         ONE                  : Run          - RUN NUMBER                  
ENG .         BILL                 : Engineer     - RECORDING ENGINEER          
WIT .         JIM                  : Witness      - WITNESSED BY                
MUD .         GEL                  : Mud_type     - MUD TYPE                    
MATR.         LIMESTONE            : Logunit      - NEUTRON MATRIX              
TMAX.C        19                   : BHT          - MAXIMUM RECORDED TEMPERATURE
BHTD.M        479                  : BHTDEP       - MAXIMUM RECORDED TEMPERATURE
MATR.         1                    : LOGUNIT      - NEUTRON MATRIX              
RMT .C        25                   : MDTP         - TEMPERATURE OF MUD          
NEUT.         1                    : NEUTRON      - NEUTRON TYPE                
RESI.         0                    : RESIST       - RESISTIVITY TYPE            
RMC .OHMM     0.25                 : RMC          - RESISTIVITY OF MUD CAKE     
RMF .OHMM     0.25                 : RMF          - RESISTIVITY OF MUD FILTRATE 
SUFT.C        15                   : SUFT         - SURFACE TEMPERATURE         
~A  DEPTH     PHID     PHIN       GR     RESD
# ...
  354.396    0.267    0.438   70.085    8.346
  354.696    0.269    0.466   71.946    7.876
  354.996    0.316    0.483   71.281    7.578
  355.296    0.320    0.470   68.075    7.432
  355.596    0.303    0.460   66.782    7.577
  355.896    0.277    0.458   66.744    8.028
  356.196    0.284    0.458   66.082    8.840
  356.496    0.330    0.457   66.668    9.925
  356.796    0.341    0.444   67.891   10.720
  357.096    0.323    0.428   67.241   10.515
  357.396    0.304    0.423   59.620   10.514
  357.696    0.304    0.439   62.108   10.719
  357.996    0.330    0.448   65.238   10.718
  358.296    0.338    0.456   67.723   10.512
  358.596    0.337    0.451   68.325   10.311
  358.896    0.335    0.455   67.035   10.113
  359.196    0.334    0.465   61.942   10.310
  359.496    0.335    0.472   58.106   10.715
  359.796    0.335    0.449   55.544   10.509
  360.096    0.338    0.457   56.144   10.308
  360.396    0.340    0.474   58.641   10.111
  360.696    0.336    0.456   59.870   10.307
  360.996    0.342    0.435   59.201   10.712
  361.296    0.352    0.430   61.064   10.920
  361.596    0.349    0.428   61.662   10.711
  361.896    0.344    0.425   62.888   10.710
  362.196    0.338    0.423   67.279   10.709
  362.496    0.342    0.421   66.614   10.504
  362.796    0.339    0.421   58.989   10.503
  363.096    0.338    0.434   61.477   10.503
  363.396    0.342    0.434   63.343   10.503
  363.696    0.351    0.444   63.315   10.707
  363.996    0.352    0.444   59.487   10.706
  364.296    0.350    0.427   62.612   10.914
  364.596    0.351    0.432   63.844   10.913
  364.896    0.353    0.443   58.115   10.912
  365.196    0.355    0.446   56.815   10.912
  365.496    0.343    0.444   60.566   10.911
  365.796    0.338    0.446   61.808   10.911
  366.096    0.348    0.449   61.765   11.339
  366.396    0.355    0.444   61.738   11.785
  366.696    0.358    0.448   61.062   11.559
  366.996    0.357    0.448   61.655   11.121
  367.296    0.348    0.428   62.264   10.908
  367.596    0.349    0.455   60.962   10.494
  367.896    0.351    0.421   60.297   10.493
  368.195    0.353    0.437   55.831   10.697
  368.495    0.353    0.454   56.428   10.905
  368.795    0.353    0.454   57.661   10.696
  369.095    0.351    0.443   61.404   10.491
  369.395    0.355    0.441   62.021   10.491
  369.695    0.356    0.439   61.354   10.490
  369.995    0.356    0.434   54.356   10.489
  370.295    0.345    0.432   56.227   10.489
  370.595    0.320    0.435   58.715   10.488
  370.895    0.321    0.449   59.938   10.287
  371.195    0.336    0.447   60.542    9.897
  371.495    0.345    0.445   58.611    9.707
  371.795    0.348    0.458   59.836    9.707
  372.095    0.347    0.453   62.968    9.896
  372.395    0.345    0.431   60.401   10.088
  372.695    0.346    0.421   58.477   10.484
  372.995    0.344    0.429   60.327   10.483
  373.295    0.338    0.435   62.818   10.483
  373.595    0.332    0.454   64.684   10.281
  373.895    0.334    0.457   65.291   10.085
  374.195    0.351    0.458   58.300    9.891
  374.495    0.365    0.449   58.901    9.517
  374.795    0.373    0.441   62.029    9.334
  375.095    0.341    0.431   66.411    9.155
  375.395    0.287    0.450   84.719    8.640
  375.695    0.324    0.455   89.113    5.033
  375.995    0.312    0.456   93.490    3.229
  376.295    0.312    0.519   94.085    2.612
  376.595    0.319    0.537   94.057    2.714
  376.895    0.300    0.551   93.389    3.167
  377.195    0.287    0.509   87.035    4.396
  377.495    0.260    0.441   81.948    5.759
  377.795    0.271    0.484   77.488    6.720
  378.095    0.287    0.499   76.815    8.150
  378.395    0.295    0.450   83.738    8.470
  378.695    0.256    0.425   90.026    8.149
  378.995    0.233    0.457   91.259    6.850
  379.295    0.226    0.461   92.489    6.100
  379.595    0.234    0.456   82.956    6.100
  379.895    0.271    0.449   82.300    6.717
  380.195    0.285    0.454   89.215    7.117
  380.495    0.287    0.504   91.716    6.848
  380.795    0.292    0.524   89.149    6.588
  381.095    0.297    0.482   88.476    6.217
  381.395    0.263    0.466   90.344    5.867
  381.695    0.302    0.460   97.265    5.645
  381.995    0.310    0.494  105.452    5.225
  382.295    0.301    0.532  102.250    4.478
  382.595    0.297    0.558   95.894    3.103
  382.895    0.295    0.586   90.801    2.818
  383.195    0.297    0.532   90.125    2.872
  383.495    0.300    0.502   92.628    3.417
  383.795    0.280    0.503   96.393    3.620
  384.095    0.270    0.479   92.562    4.743
  384.395    0.255    0.479   90.000    5.428
  384.695    0.242    0.490   89.960    5.642
  384.995    0.252    0.471   89.926    5.977
  385.295    0.258    0.463   86.735    6.212
  385.595    0.272    0.473   90.482    6.456
  385.895    0.270    0.466   93.610    7.110
  386.195    0.238    0.453   94.218    8.296
  386.495    0.230    0.441   91.648    8.961
  386.795    0.191    0.392   90.355   10.060
  387.095    0.189    0.399   88.422   11.514
  387.395    0.214    0.413   87.746   12.680
  387.695    0.229    0.428   90.240   13.178
  387.995    0.236    0.434   95.902   13.434
  388.295    0.244    0.434  100.291   12.435
  388.595    0.262    0.391  102.152   10.452
  388.895    0.247    0.441   96.430    8.618
  389.195    0.248    0.470   90.703    7.529
  389.495    0.250    0.484   90.033    6.577
  389.795    0.242    0.468   92.526    5.972
  390.095    0.226    0.461   93.129    5.858
  390.395    0.234    0.488   84.238    5.745
  390.695    0.265    0.488   84.844    5.971
  390.995    0.277    0.415   87.339    6.703
  391.295    0.277    0.413   82.868    8.953
  391.595    0.270    0.421   80.937   10.247
  391.895    0.267    0.405   83.419   10.649
  392.195    0.263    0.413   84.033   10.856
  392.495    0.263    0.414   86.527   10.648
  392.794    0.276    0.397   94.079   10.444
  393.094    0.238    0.394   99.101   10.048
  393.394    0.249    0.436   98.441    9.483
  393.694    0.256    0.473   88.919    7.522
  393.994    0.262    0.485   86.987    6.963
  394.294    0.271    0.451   88.218    6.699
  394.594    0.240    0.420   90.079    6.699
  394.894    0.257    0.440   82.455    6.962
  395.194    0.254    0.438   83.678    7.097
  395.494    0.242    0.429   85.541    7.666
  395.794    0.241    0.413   84.880    9.297
  396.094    0.263    0.391   86.105    9.851
  396.394    0.273    0.406   89.865   10.237
  396.694    0.244    0.427   89.831    9.849
  396.994    0.274    0.471   84.111    8.943
  397.294    0.296    0.495   71.429    8.440
  397.594    0.291    0.479   71.398    8.278
  397.894    0.281    0.442   76.406    8.771
  398.194    0.287    0.446   77.013    8.941
  398.494    0.295    0.437   78.245    9.292
  398.794    0.291    0.437   79.471    9.473
  399.094    0.299    0.450   80.709    9.114
  399.394    0.307    0.469   81.294    8.600
  399.694    0.291    0.483   81.896    8.275
  399.994    0.286    0.479   82.497    6.955
  400.294    0.282    0.482   83.724    5.960
  400.594    0.312    0.500   85.591    5.734
  400.894    0.337    0.495   89.347    5.411
  401.194    0.355    0.507   91.212    3.608
  401.494    0.299    0.529   82.954    3.214
  401.794    0.208    0.545   70.269    3.471
  402.094    0.234    0.462   68.334    4.913
  402.394    0.182    0.441   67.043    7.087
  402.694    0.013    0.462   52.469    8.431
  402.994    0.094    0.443   48.010    8.933
  403.294    0.132    0.242   50.502   11.044
  403.594    0.195    0.310   59.320   12.641
  403.894    0.247    0.394   65.609   13.393
  404.194    0.282    0.382   75.055   12.885
  404.494    0.290    0.386   82.609   11.476
  404.794    0.237    0.444   80.672    8.930
  405.094    0.228    0.464   83.160    7.652
  405.394    0.270    0.451   86.920    6.948
  405.694    0.262    0.462   79.938    6.685
  405.994    0.233    0.483   74.850    6.557
  406.294    0.238    0.462   77.342    6.556
