~VERSION INFORMATION
 VERS.                 2.0:   CWLS LOG ASCII STANDARD -VERSION 2.0
 WRAP.                  NO:   ONE LINE PER DEPTH STEP
~WELL INFORMATION BLOCK
#MNEM.UNIT           DATA                    DESCRIPTION OF MNEMONIC
#---------    -------------------            -------------------------------
# Generated from Intellog Unique Number	CC_80_83/WELL/2492
WELL.         GULF PONY                      : Well_name    - WELL
LOC .         00/06-25-081-09W4/0            : Location     - LOCATION
UWI .         00/06-25-081-09W4/0            : Uwi          - UNIQUE WELL ID
ENTR.         JHS                            : Entered      - ENTERED BY
SRVC.         SCHLUMBERGER                   : Scn          - SERVICE COMPANY
STRT.M        274.32                         : top_depth    - START DEPTH
STOP.M        477.07                         : bot_depth    - STOP DEPTH
STEP.M        0.25                           : increment    - STEP LENGTH
 NULL. -999.2500:NULL Value
~CURVE INFORMATION BLOCK
#MNEM UNIT       ERCB CURVE CODE    CURVE DESCRIPTION
#-----------   ------------------   ----------------------------------
DEPT.M        00 001 00 00         : DEPTH        - DEPTH
GR  .API      00 310 00 00         : GR           - GAMMA RAY
DPHI.V/V      00 890 00 00         : PHID         - DENSITY POROSITY (SANDSTONE)
NPHI.V/V      00 330 00 00         : PHIN         - NEUTRON POROSITY (SANDSTONE)
ILD .OHMM     00 120 00 00         : RESD         - DEEP RESISTIVITY (DIL)
~PARAMETER INFORMATION
#MNEM.UNIT           DATA             DESCRIPTION OF MNEMONIC
#---------         -----------     ------------------------------
GL  .M        706.344              : gl           - GROUND LEVEL ELEVATION
EREF.M        709.879              : kb           - ELEVATION OF DEPTH REFERENCE
DATM.M        709.879              : datum        - DATUM ELEVATION
TDD .M        484.632              : tdd          - TOTAL DEPTH DRILLER
RUN .         ONE                  : Run          - RUN NUMBER
ENG .         BILL                 : Engineer     - RECORDING ENGINEER
WIT .         JIM                  : Witness      - WITNESSED BY
MUD .         GEL                  : Mud_type     - MUD TYPE
MATR.         SANDSTONE            : Logunit      - NEUTRON MATRIX
TMAX.C        60                   : BHT          - MAXIMUM RECORDED TEMPERATURE
BHTD.M        484.632              : BHTDEP       - MAXIMUM RECORDED TEMPERATURE
MATR.         1                    : LOGUNIT      - NEUTRON MATRIX
RMT .C        25                   : MDTP         - TEMPERATURE OF MUD
NEUT.         1                    : NEUTRON      - NEUTRON TYPE
RESI.         0                    : RESIST       - RESISTIVITY TYPE
RMC .OHMM     0.25                 : RMC          - RESISTIVITY OF MUD CAKE
RMF .OHMM     0.25                 : RMF          - RESISTIVITY OF MUD FILTRATE
SUFT.C        15                   : SUFT         - SURFACE TEMPERATURE
~A  DEPTH       GR     PHID     PHIN     RESD
# ...
  404.820   73.744    0.266    0.458    6.667
  405.070   76.292    0.268    0.470    6.985
  405.320   79.831    0.273    0.470    7.227
  405.570   82.081    0.272    0.483    7.311
  405.820   82.589    0.271    0.522    7.155
  406.070   82.491    0.274    0.540    6.737
  406.320   81.846    0.271    0.503    6.249
  406.570   79.423    0.267    0.473    5.826
  406.820   76.844    0.268    0.468    4.882
  407.070   74.999    0.274    0.456    4.014
  407.320   73.959    0.268    0.448    3.653
  407.570   71.916    0.262    0.455    3.614
  407.820   67.369    0.283    0.453    3.741
  408.070   63.391    0.290    0.442    4.148
  408.320   59.969    0.300    0.429    4.629
  408.570   58.694    0.229    0.419    5.143
  408.820   59.102    0.132    0.383    5.714
  409.070   57.506    0.100    0.325    6.220
  409.320   54.246    0.083    0.321    6.508
  409.570   58.745    0.188    0.339    6.715
  409.820   63.176    0.261    0.406    6.940
  410.070   60.797    0.240    0.414    7.472
  410.320   55.129    0.189    0.336    8.637
  410.570   53.854    0.148    0.302   10.195
  410.820   59.445    0.134    0.300   11.244
  411.070   66.359    0.161    0.312   11.744
  411.320   73.427    0.205    0.390   11.846
  411.570   78.210    0.214    0.467   11.844
  411.820   79.051    0.192    0.470   11.815
  412.070   80.048    0.206    0.481   11.457
  412.320   82.136    0.220    0.485   10.874
  412.570   82.912    0.237    0.473    9.823
  412.820   82.345    0.208    0.469    8.601
  413.070   81.079    0.166    0.474    7.464
  413.320   78.470    0.171    0.460    6.422
  413.570   75.695    0.127    0.445    5.841
  413.820   77.617    0.106    0.464    5.553
  414.070   81.260    0.174    0.483    5.351
  414.320   84.893    0.238    0.477    5.484
  414.570   88.710    0.234    0.458    5.946
  414.820   90.593    0.239    0.433    6.208
  415.070   90.692    0.230    0.422    6.420
  415.320   90.971    0.209    0.413    6.485
  415.570   91.571    0.205    0.403    6.429
  415.820   92.079    0.215    0.406    6.300
  416.070   91.894    0.212    0.429    6.109
  416.320   89.536    0.203    0.448    6.010
  416.570   86.444    0.203    0.455    6.069
  416.820   84.544    0.203    0.490    6.227
  417.070   84.522    0.220    0.535    6.451
  417.320   84.930    0.258    0.564    6.605
  417.570   83.336    0.278    0.582    6.488
  417.820   79.801    0.278    0.554    6.160
  418.070   78.054    0.265    0.534    5.439
  418.320   75.843    0.250    0.530    4.237
  418.570   74.543    0.233    0.502    3.146
  418.820   75.536    0.212    0.452    2.639
  419.070   73.340    0.198    0.427    2.259
  419.320   74.999    0.200    0.413    2.138
  419.570   75.460    0.200    0.416    2.181
  419.820   77.254    0.202    0.419    2.373
  420.070   79.751    0.215    0.419    2.695
  420.320   75.828    0.224    0.428    3.041
  420.570   74.493    0.215    0.420    3.492
  420.820   75.520    0.224    0.429    3.922
  421.070   77.934    0.248    0.454    4.311
  421.320   81.063    0.254    0.477    4.721
  421.570   83.936    0.232    0.490    5.168
  421.820   85.962    0.222    0.499    5.579
  422.070   86.085    0.228    0.508    5.813
  422.320   86.739    0.227    0.503    5.760
  422.570   89.194    0.216    0.502    5.462
  422.820   90.044    0.213    0.517    4.849
  423.070   86.749    0.230    0.529    4.026
  423.320   85.230    0.252    0.531    3.652
  423.570   89.093    0.252    0.520    3.480
  423.820   89.982    0.233    0.500    3.347
  424.070   88.749    0.223    0.493    3.286
  424.320   90.777    0.223    0.508    3.300
  424.570   91.738    0.207    0.517    3.301
  424.820   90.932    0.188    0.498    3.249
  425.070   90.012    0.182    0.473    3.246
  425.320   90.388    0.190    0.449    3.202
  425.570   91.452    0.209    0.427    3.106
  425.820   91.871    0.222    0.419    3.066
  426.070   91.555    0.212    0.432    3.014
  426.320   89.329    0.198    0.451    3.047
  426.570   87.471    0.201    0.453    3.093
  426.820   87.254    0.215    0.444    3.170
  427.070   87.105    0.223    0.447    3.339
  427.320   85.581    0.218    0.469    3.550
  427.570   84.048    0.182    0.468    3.776
  427.820   82.966    0.152    0.454    3.998
  428.070   80.321    0.126    0.425    4.304
  428.320   78.396    0.114    0.416    4.598
  428.570   81.823    0.151    0.446    4.711
  428.820   87.591    0.210    0.445    4.722
  429.070   86.865    0.228    0.427    4.577
  429.320   81.178    0.245    0.437    4.574
  429.570   70.358    0.279    0.447    4.853
  429.820   59.477    0.302    0.428    5.237
  430.070   58.359    0.301    0.406    5.464
  430.320   60.944    0.274    0.390    5.401
  430.570   66.212    0.257    0.374    5.319
  430.820   72.361    0.233    0.369    5.522
  431.070   75.677    0.220    0.378    5.677
  431.320   74.342    0.232    0.385    6.398
  431.570   71.714    0.213    0.381    9.429
  431.820   73.718    0.210    0.375   12.813
  432.070   75.230    0.200    0.380   15.160
  432.320   74.063    0.197    0.383   15.650
  432.570   73.812    0.199    0.381   14.571
  432.820   78.910    0.178    0.395   13.070
  433.070   89.683    0.196    0.414   11.556
  433.320   93.532    0.206    0.403   10.555
  433.570   93.232    0.188    0.383   10.062
  433.820   93.328    0.176    0.389   10.290
  434.070   95.034    0.178    0.413   10.916
  434.320  100.176    0.167    0.412   10.887
  434.570  101.417    0.182    0.401   10.911
  434.820  100.747    0.185    0.401   10.633
  435.070  100.629    0.183    0.415    9.979
  435.320   99.483    0.203    0.430    9.197
  435.570   93.930    0.228    0.418    8.395
  435.820   82.889    0.241    0.366    7.766
  436.070   71.449    0.245    0.344    7.432
  436.320   65.225    0.236    0.343    7.448
  436.570   63.358    0.231    0.356    7.570
  436.820   61.889    0.246    0.370    7.724
  437.070   61.915    0.254    0.357    8.227
  437.320   67.828    0.234    0.370    8.989
  437.570   70.114    0.225    0.369   10.021
  437.820   66.828    0.223    0.361   12.167
  438.070   64.568    0.224    0.366   14.734
  438.320   66.587    0.239    0.384   16.161
  438.570   69.374    0.235    0.412   16.945
  438.820   74.064    0.214    0.404   17.325
  439.070   73.521    0.213    0.386   17.272
  439.320   72.276    0.215    0.383   16.857
  439.570   74.477    0.210    0.391   16.362
  439.820   72.198    0.223    0.399   16.141
  440.070   67.840    0.212    0.395   16.206
  440.320   67.930    0.208    0.401   15.655
  440.570   69.766    0.216    0.417   15.018
  440.820   66.970    0.228    0.423   14.574
  441.070   61.128    0.237    0.408   13.888
  441.320   60.627    0.233    0.396   13.259
  441.570   62.309    0.239    0.396   12.998
  441.820   62.779    0.253    0.396   12.913
  442.070   64.557    0.251    0.402   13.100
  442.320   69.948    0.229    0.417   13.537
  442.570   74.650    0.214    0.422   13.958
  442.820   72.991    0.235    0.414   14.620
  443.070   71.478    0.242    0.404   15.134
  443.320   72.568    0.229    0.415   15.596
  443.570   72.481    0.226    0.439   16.031
  443.820   66.750    0.246    0.445   16.226
  444.070   57.184    0.263    0.420   16.229
  444.320   54.360    0.258    0.392   16.085
  444.570   55.525    0.258    0.385   15.387
  444.820   57.358    0.255    0.387   14.328
  445.070   60.303    0.243    0.384   13.250
  445.320   64.309    0.234    0.382   12.308
  445.570   67.738    0.229    0.377   12.039
  445.820   71.674    0.223    0.377   12.609
  446.070   77.161    0.213    0.379   13.647
  446.320   81.505    0.209    0.370   15.170
  446.570   82.210    0.207    0.357   17.136
  446.820   80.266    0.193    0.359   18.759
  447.070   74.569    0.187    0.374   19.534
  447.320   66.431    0.208    0.380   19.366
  447.570   58.840    0.139    0.332   18.193
  447.820   56.380    0.067    0.319   15.917
  448.070   61.256    0.164    0.411   13.221
