~VERSION INFORMATION
 VERS.                 2.0:   CWLS LOG ASCII STANDARD -VERSION 2.0
 WRAP.                  NO:   ONE LINE PER DEPTH STEP
~WELL INFORMATION BLOCK
#MNEM.UNIT           DATA                    DESCRIPTION OF MNEMONIC
#---------    -------------------            -------------------------------
# Generated from Intellog Unique Number	CC_80_83/WELL/2485
WELL.         UNEX ET AL BOHN                : Well_name    - WELL
LOC .         00/06-30-081-07W4/0            : Location     - LOCATION
UWI .         00/06-30-081-07W4/0            : Uwi          - UNIQUE WELL ID
ENTR.         TIM                            : Entered      - ENTERED BY
SRVC.         SCHLUMBERGER                   : Scn          - SERVICE COMPANY
STRT.M        250                            : top_depth    - START DEPTH
STOP.M        490                            : bot_depth    - STOP DEPTH
STEP.M        0.25                           : increment    - STEP LENGTH
 NULL. -999.2500:NULL Value
~CURVE INFORMATION BLOCK
#MNEM UNIT       ERCB CURVE CODE    CURVE DESCRIPTION
#-----------   ------------------   ----------------------------------
DEPT.M        00 001 00 00         : DEPTH        - DEPTH
NPHI.V/V      00 330 00 00         : PHIN         - NEUTRON POROSITY (SANDSTONE)
DPHI.V/V      00 890 00 00         : PHID         - DENSITY POROSITY (SANDSTONE)
ILD .OHMM     00 120 00 00         : RESD         - DEEP RESISTIVITY (DIL)
GR  .API      00 310 00 00         : GR           - GAMMA RAY
~PARAMETER INFORMATION
#MNEM.UNIT           DATA             DESCRIPTION OF MNEMONIC
#---------         -----------     ------------------------------
GL  .M        704                  : gl           - GROUND LEVEL ELEVATION
EREF.M        707.9                : kb           - ELEVATION OF DEPTH REFERENCE
DATM.M        707.9                : datum        - DATUM ELEVATION
TDD .M        498                  : tdd          - TOTAL DEPTH DRILLER
RUN .         ONE                  : Run          - RUN NUMBER
ENG .         BILL                 : Engineer     - RECORDING ENGINEER
WIT .         JIM                  : Witness      - WITNESSED BY
MUD .         GEL                  : Mud_type     - MUD TYPE
MATR.         SANDSTONE            : Logunit      - NEUTRON MATRIX
TMAX.C        29                   : BHT          - MAXIMUM RECORDED TEMPERATURE
BHTD.M        498                  : BHTDEP       - MAXIMUM RECORDED TEMPERATURE
MATR.         1                    : LOGUNIT      - NEUTRON MATRIX
RMT .C        25                   : MDTP         - TEMPERATURE OF MUD
NEUT.         1                    : NEUTRON      - NEUTRON TYPE
RESI.         4                    : RESIST       - RESISTIVITY TYPE
RMC .OHMM     3.5                  : RMC          - RESISTIVITY OF MUD CAKE
RMF .OHMM     4.4                  : RMF          - RESISTIVITY OF MUD FILTRATE
SUFT.C        15                   : SUFT         - SURFACE TEMPERATURE
~A  DEPTH     PHIN     PHID     RESD       GR
# ...
  337.000    0.404    0.332   19.618   53.547
  337.250    0.398    0.339   19.300   51.255
  337.500    0.394    0.348   19.370   50.104
  337.750    0.392    0.349   19.760   47.812
  338.000    0.391    0.347   19.781   47.260
  338.250    0.393    0.345   20.190   47.308
  338.500    0.399    0.343   20.232   47.956
  338.750    0.403    0.341   19.550   48.580
  339.000    0.405    0.340   18.190   49.228
  339.250    0.401    0.340   15.443   50.475
  339.500    0.400    0.340   13.870   51.087
  339.750    0.396    0.338   13.382   52.323
  340.000    0.392    0.338   12.464   54.147
  340.250    0.390    0.330   12.031   54.771
  340.500    0.392    0.315   10.996   58.347
  340.750    0.398    0.278   10.246   62.511
  341.000    0.400    0.264    9.891   68.438
  341.250    0.401    0.270    9.548   74.954
  341.500    0.399    0.256    9.058   85.597
  341.750    0.396    0.235    8.436   93.288
  342.000    0.402    0.231    8.140   96.876
  342.250    0.409    0.226    7.726   98.688
  342.500    0.415    0.225    7.738   98.148
  342.750    0.415    0.234    8.049   94.656
  343.000    0.417    0.244    8.360   88.824
  343.250    0.424    0.257    9.185   81.229
  343.500    0.424    0.305   10.092   70.106
  343.750    0.396    0.323   11.105   64.286
  344.000    0.380    0.314   11.123   62.570
  344.250    0.381    0.309   10.948   63.194
  344.500    0.404    0.309   10.765   72.650
  344.750    0.407    0.272   10.212   84.469
  345.000    0.412    0.244    9.673   89.220
  345.250    0.416    0.220    9.177   93.996
  345.500    0.415    0.211    9.023   94.020
  345.750    0.408    0.205    9.051   93.504
  346.000    0.398    0.206    9.061   93.528
  346.250    0.399    0.221    9.079   92.424
  346.500    0.400    0.217    9.103   90.720
  346.750    0.411    0.220    9.117   88.980
  347.000    0.413    0.224    9.140   88.440
  347.250    0.387    0.229    9.164   91.440
  347.500    0.385    0.224    9.183   93.828
  347.750    0.387    0.217    9.202   97.991
  348.000    0.387    0.221    9.221   97.451
  348.250    0.383    0.244    9.417   94.560
  348.500    0.382    0.249    9.426   93.432
  348.750    0.389    0.232    9.451   94.668
  349.000    0.413    0.220    9.465   94.728
  349.250    0.415    0.220    9.490   94.188
  349.500    0.420    0.224    9.336   93.072
  349.750    0.416    0.227    9.355   93.108
  350.000    0.398    0.230    9.035   93.756
  350.250    0.388    0.233    7.809   94.368
  350.500    0.417    0.235    6.390   97.379
  350.750    0.422    0.234    4.268   99.167
  351.000    0.426    0.229    2.372  102.743
  351.250    0.421    0.223    1.674  107.506
  351.500    0.416    0.216    1.321  112.258
  351.750    0.413    0.202    1.562  114.658
  352.000    0.443    0.199    1.953  117.658
  352.250    0.458    0.191    2.533  120.657
  352.500    0.476    0.195    3.473  120.105
  352.750    0.461    0.208    4.588  107.794
  353.000    0.443    0.229    5.041  106.102
  353.250    0.455    0.233    4.961  108.490
  353.500    0.471    0.234    4.792  111.490
  353.750    0.484    0.231    4.714  109.774
  354.000    0.465    0.230    4.553  106.282
  354.250    0.449    0.237    4.647  104.567
  354.500    0.478    0.244    4.921  107.554
  354.750    0.483    0.249    5.117  111.142
  355.000    0.475    0.251    5.519  100.007
  355.250    0.449    0.251    5.845   95.351
  355.500    0.438    0.250    5.863   88.344
  355.750    0.429    0.250    5.875   90.743
  356.000    0.435    0.252    5.884  104.926
  356.250    0.437    0.252    5.896  107.890
  356.500    0.438    0.253    5.911   98.543
  356.750    0.438    0.253    5.503   95.051
  357.000    0.442    0.253    5.029   89.232
  357.250    0.467    0.250    4.682   92.807
  357.500    0.476    0.249    4.519   96.383
  357.750    0.495    0.247    4.529  101.735
  358.000    0.497    0.245    4.543  101.183
  358.250    0.470    0.242    4.547   95.963
  358.500    0.460    0.238    4.474   94.835
  358.750    0.452    0.238    4.403   96.047
  359.000    0.458    0.245    4.412   98.435
  359.250    0.474    0.257    4.587  100.847
  359.500    0.485    0.260    4.769  101.483
  359.750    0.481    0.258    5.056  101.542
  360.000    0.475    0.257    5.158  100.979
  360.250    0.467    0.253    5.265   98.687
  360.500    0.457    0.246    5.373   94.019
  360.750    0.454    0.236    5.482   90.539
  361.000    0.449    0.230    5.808   91.175
  361.250    0.445    0.229    6.036   93.011
  361.500    0.437    0.230    6.638   92.459
  361.750    0.431    0.231    6.898   91.343
  362.000    0.418    0.231    7.448   90.203
  362.250    0.405    0.231    7.880   90.275
  362.500    0.413    0.230    8.828   90.311
  362.750    0.423    0.235    9.885   90.935
  363.000    0.435    0.236   10.272   88.631
  363.250    0.429    0.241   11.291   85.740
  363.500    0.418    0.244   11.727   84.636
  363.750    0.414    0.249   12.193   84.672
  364.000    0.416    0.257   12.918   84.708
  364.250    0.416    0.266   13.186   84.755
  364.500    0.414    0.276   13.709   82.476
  364.750    0.397    0.288   14.000   81.348
  365.000    0.383    0.300   14.036   79.620
  365.250    0.373    0.314   14.050   77.328
  365.500    0.365    0.314   14.079   76.776
  365.750    0.348    0.275   14.116   74.484
  366.000    0.333    0.252   13.887   72.192
  366.250    0.358    0.217   13.668   70.465
  366.500    0.382    0.256   13.690   68.749
  366.750    0.414    0.276   13.711   70.573
  367.000    0.433    0.301   13.746   71.196
  367.250    0.430    0.297   13.537   73.596
  367.500    0.424    0.305   13.558   73.644
  367.750    0.419    0.311   13.579   71.916
  368.000    0.417    0.301   13.614   70.201
  368.250    0.418    0.296   13.642   71.424
  368.500    0.417    0.292   13.917   76.188
  368.750    0.417    0.275   13.946   75.072
  369.000    0.418    0.266   13.982   73.344
  369.250    0.420    0.294   14.279   69.276
  369.500    0.418    0.300   14.301   68.172
  369.750    0.415    0.305   14.589   70.548
  370.000    0.417    0.307   15.176   74.712
  370.250    0.418    0.305   15.786   75.360
  370.500    0.413    0.305   16.113   73.044
  370.750    0.409    0.306   16.446   69.576
  371.000    0.410    0.306   16.480   69.036
  371.250    0.404    0.305   17.134   69.684
  371.500    0.393    0.304   17.479   69.708
  371.750    0.382    0.302   18.182   69.792
  372.000    0.379    0.295   18.558   69.228
  372.250    0.376    0.287   18.596   69.288
  372.500    0.340    0.154   18.635   68.748
  372.750    0.217    0.096   18.673   63.493
  373.000    0.328    0.163   18.380   58.237
  373.250    0.379    0.231   17.428   62.425
  373.500    0.407    0.281   16.841   66.001
  373.750    0.407    0.321   16.248   68.976
  374.000    0.405    0.316   15.701   72.564
  374.250    0.399    0.316   15.446   70.260
  374.500    0.396    0.317   15.188   69.120
  374.750    0.394    0.320   15.219   67.416
  375.000    0.390    0.321   14.972   65.701
  375.250    0.387    0.318   14.752   65.172
  375.500    0.385    0.314   14.775   64.632
  375.750    0.378    0.314   14.790   64.081
  376.000    0.375    0.314   14.821   63.565
  376.250    0.372    0.315   14.859   63.600
  376.500    0.388    0.317   14.890   64.237
  376.750    0.398    0.318   15.198   64.872
  377.000    0.403    0.322   15.245   64.908
  377.250    0.401    0.323   15.261   63.193
  377.500    0.395    0.322   15.577   59.725
  377.750    0.396    0.324   15.609   63.312
  378.000    0.399    0.327   15.657   64.512
  378.250    0.413    0.307   15.673   69.276
  378.500    0.419    0.301   15.714   68.160
  378.750    0.392    0.306   15.451   66.432
  379.000    0.384    0.310   15.483   64.728
  379.250    0.395    0.315   15.247   64.176
  379.500    0.411    0.321   15.000   64.836
  379.750    0.413    0.326   15.023   66.048
  380.000    0.402    0.321   14.510   65.508
  380.250    0.397    0.299   14.274   62.616
