~VERSION INFORMATION
 VERS.                 2.0:   CWLS LOG ASCII STANDARD -VERSION 2.0
 WRAP.                  NO:   ONE LINE PER DEPTH STEP
~WELL INFORMATION BLOCK
#MNEM.UNIT           DATA                    DESCRIPTION OF MNEMONIC
#---------    -------------------            -------------------------------
# Generated from Intellog Unique Number	CS_71_72/WELL/781
WELL.         SULPETRO BRENDA IPIATIK        : Well_name    - WELL
LOC .         00/06-28-072-10W4/0            : Location     - LOCATION
UWI .         00/06-28-072-10W4/0            : Uwi          - UNIQUE WELL ID
ENTR.         SP                             : Entered      - ENTERED BY
SRVC.         SCHLUMBERGER                   : Scn          - SERVICE COMPANY
STRT.M        300                            : top_depth    - START DEPTH
STOP.M        520                            : bot_depth    - STOP DEPTH
STEP.M        0.25                           : increment    - STEP LENGTH
 NULL. -999.2500:NULL Value
~CURVE INFORMATION BLOCK
#MNEM UNIT       ERCB CURVE CODE    CURVE DESCRIPTION
#-----------   ------------------   ----------------------------------
DEPT.M        00 001 00 00         : DEPTH        - DEPTH
ILD .OHMM     00 120 00 00         : RESD         - DEEP RESISTIVITY (DIL)
DPHI.V/V      00 890 00 00         : PHID         - DENSITY POROSITY (LIMESTONE)
NPHI.V/V      00 330 00 00         : PHIN         - NEUTRON POROSITY (LIMESTONE)
GR  .API      00 310 00 00         : GR           - GAMMA RAY
~PARAMETER INFORMATION
#MNEM.UNIT           DATA             DESCRIPTION OF MNEMONIC
#---------         -----------     ------------------------------
GL  .M        659.79               : gl           - GROUND LEVEL ELEVATION
EREF.M        662.39               : kb           - ELEVATION OF DEPTH REFERENCE
DATM.M        659.79               : datum        - DATUM ELEVATION
TDD .M        53.2                 : tdd          - TOTAL DEPTH DRILLER
RUN .         ONE                  : Run          - RUN NUMBER
ENG .         BILL                 : Engineer     - RECORDING ENGINEER
WIT .         JIM                  : Witness      - WITNESSED BY
MUD .         GEL                  : Mud_type     - MUD TYPE
MATR.         LIMESTONE            : Logunit      - NEUTRON MATRIX
TMAX.C        0.26                 : BHT          - MAXIMUM RECORDED TEMPERATURE
BHTD.M        532                  : BHTDEP       - MAXIMUM RECORDED TEMPERATURE
MATR.         1                    : LOGUNIT      - NEUTRON MATRIX
RMT .C        25                   : MDTP         - TEMPERATURE OF MUD
NEUT.         1                    : NEUTRON      - NEUTRON TYPE
RESI.         0                    : RESIST       - RESISTIVITY TYPE
RMC .OHMM     0.25                 : RMC          - RESISTIVITY OF MUD CAKE
RMF .OHMM     0.25                 : RMF          - RESISTIVITY OF MUD FILTRATE
SUFT.C        15                   : SUFT         - SURFACE TEMPERATURE
~A  DEPTH     RESD     PHID     PHIN       GR
# ...
  474.000    9.071    0.280    0.338   65.422
  474.250    8.254    0.263    0.322   68.494
  474.500    7.799    0.242    0.323   75.869
  474.750    6.963    0.227    0.306   80.171
  475.000    6.217    0.224    0.292   82.629
  475.250    5.987    0.228    0.299   87.546
  475.500    5.657    0.232    0.323   90.618
  475.750    6.099    0.238    0.343   91.232
  476.000    6.334    0.203    0.342   85.698
  476.250    6.577    0.179    0.312   83.237
  476.500    6.576    0.175    0.276   88.769
  476.750    6.576    0.194    0.264   94.915
  477.000    6.575    0.202    0.296   98.601
  477.250    6.827    0.201    0.308   99.830
  477.500    6.957    0.200    0.308  100.443
  477.750    7.224    0.202    0.320  101.056
  478.000    7.361    0.207    0.303  101.056
  478.250    7.643    0.211    0.313  101.054
  478.500    7.937    0.220    0.322  102.282
  478.750    8.087    0.215    0.331  112.117
  479.000    8.398    0.203    0.320  125.025
  479.250    9.055    0.196    0.327  128.712
  479.500    9.403    0.191    0.339  126.252
  479.750    9.950    0.178    0.320  117.644
  480.000   10.528    0.152    0.313  101.044
  480.250   10.528    0.152    0.299   91.822
  480.500   10.330    0.175    0.294   81.369
  480.750    9.578    0.187    0.280   77.065
  481.000    9.050    0.206    0.270   77.678
  481.250    8.880    0.206    0.263   81.980
  481.500    8.713    0.212    0.282   88.740
  481.750    8.879    0.207    0.311   91.813
  482.000    9.395    0.201    0.318   96.115
  482.250   10.131    0.199    0.327   97.343
  482.500   10.720    0.215    0.331   93.038
  482.750   11.343    0.221    0.322   91.193
  483.000   11.559    0.217    0.315   91.191
  483.250   11.778    0.205    0.292   91.804
  483.500   11.777    0.181    0.268   92.418
  483.750   11.556    0.159    0.260   94.261
  484.000   10.918    0.152    0.273   96.104
  484.250   10.918    0.163    0.323   95.487
  484.500   11.125    0.185    0.326   92.412
  484.750   11.996    0.204    0.308   83.189
  485.000   13.433    0.227    0.297   77.656
  485.250   13.688    0.220    0.310   70.892
  485.500   14.484    0.237    0.343   62.284
  485.750   14.759    0.252    0.341   53.061
  486.000   13.684    0.264    0.322   47.527
  486.250   10.309    0.258    0.312   54.903
  486.500    9.559    0.236    0.284   72.729
  486.750    8.065    0.208    0.254   82.564
  487.000    6.934    0.158    0.237  102.235
  487.250    5.851    0.123    0.270  114.528
  487.500    5.633    0.099    0.318  131.125
  487.750    5.633    0.123    0.575  128.050
  488.000    5.527    0.181    0.527  115.139
  488.250    5.423    0.254    0.439   79.482
  488.500    4.934    0.294    0.347   61.038
  488.750    4.490    0.281    0.322   61.036
  489.000    4.242    0.269    0.317   65.338
  489.250    3.933    0.264    0.315   64.107
  489.500    3.716    0.271    0.326   59.187
  489.750    3.578    0.279    0.329   57.342
  490.000    3.578    0.278    0.320   55.496
  490.250    3.578    0.278    0.332   56.725
  490.500    3.578    0.285    0.353   58.567
  490.750    3.645    0.287    0.354   61.639
  491.000    3.714    0.279    0.353   63.482
  491.250    3.785    0.273    0.353   65.326
  491.500    3.785    0.276    0.350   68.398
  491.750    3.930    0.284    0.347   69.011
  492.000    4.081    0.290    0.347   64.092
  492.250    4.237    0.286    0.322   62.861
  492.500    4.656    0.268    0.192   64.704
  492.750    5.117    0.210    0.107   62.244
  493.000    5.414    0.138    0.079   64.086
  493.250    5.622    0.106    0.075   68.388
  493.500    5.213    0.153    0.179   73.919
  493.750    4.654    0.199    0.283   78.836
  494.000    4.482    0.248    0.310   78.220
  494.250    4.397    0.264    0.317   74.530
  494.500    4.397    0.268    0.307   71.455
  494.750    4.397    0.270    0.313   68.995
  495.000    4.565    0.260    0.318   68.379
  495.250    5.017    0.252    0.317   72.680
  495.500    5.309    0.242    0.313   78.826
  495.750    5.617    0.238    0.313   82.514
  496.000    5.944    0.236    0.309   88.045
  496.250    6.410    0.213    0.284   92.961
  496.500    6.912    0.189    0.268   99.108
  496.750    7.177    0.170    0.259  106.483
  497.000    7.594    0.163    0.276  113.244
  497.250    7.739    0.157    0.291  120.005
  497.500    7.885    0.162    0.297  127.381
  497.750    8.344    0.162    0.300  129.839
  498.000    9.344    0.169    0.348  123.075
  498.250   10.267    0.191    0.409  113.852
  498.500   11.071    0.220    0.400   99.711
  498.750   11.282    0.255    0.353   83.112
  499.000   10.862    0.244    0.311   66.512
  499.250   10.659    0.181    0.275   62.822
  499.500   10.658    0.130    0.253   69.583
  499.750   10.457    0.101    0.274   73.270
  500.000   10.456    0.084    0.297   74.498
  500.250   10.260    0.167    0.297   75.112
  500.500    9.879    0.199    0.289   77.569
  500.750    9.694    0.211    0.285   84.330
  501.000    9.159    0.218    0.280   88.017
  501.250    8.819    0.210    0.275   92.319
  501.500    8.024    0.190    0.268   96.005
  501.750    7.726    0.184    0.290   97.849
  502.000    7.581    0.184    0.300   99.077
  502.250    7.163    0.202    0.291   97.231
  502.500    6.518    0.200    0.297   99.074
  502.750    6.043    0.201    0.327   98.458
  503.000    5.710    0.223    0.352   85.547
  503.250    5.498    0.243    0.302   67.103
  503.500    5.395    0.253    0.269   44.356
  503.750    5.602    0.226    0.265   57.879
  504.000    5.817    0.197    0.349   67.714
  504.250    5.927    0.199    0.358   85.540
  504.500    6.155    0.213    0.326   83.694
  504.750    6.154    0.225    0.295   76.931
  505.000    6.154    0.218    0.294   76.315
  505.250    5.925    0.216    0.313   74.469
  505.500    5.494    0.233    0.305   67.090
  505.750    5.391    0.242    0.281   62.171
  506.000    5.390    0.220    0.283   72.620
  506.250    5.390    0.201    0.302   83.685
  506.500    5.703    0.191    0.312   92.290
  506.750    5.492    0.190    0.325   94.133
  507.000    5.287    0.199    0.314   88.598
  507.250    5.188    0.206    0.293   79.990
  507.500    5.388    0.204    0.274   83.063
  507.750    5.490    0.193    0.291   91.053
  508.000    5.700    0.181    0.307   95.355
  508.250    5.593    0.181    0.338   92.280
  508.500    5.089    0.200    0.373   86.131
  508.750    4.900    0.214    0.328   78.138
  509.000    5.284    0.211    0.288   82.440
  509.250    5.487    0.194    0.264  111.332
  509.500    5.697    0.178    0.289  114.404
  509.750    5.806    0.172    0.309  112.559
  510.000    5.916    0.176    0.311  106.409
  510.250    5.915    0.183    0.293  100.875
  510.500    5.915    0.181    0.281  100.874
  510.750    5.914    0.173    0.293  103.946
  511.000    6.026    0.165    0.301  110.092
  511.250    6.257    0.163    0.285  113.165
  511.500    6.622    0.163    0.280  116.237
  511.750    6.747    0.152    0.281  117.465
  512.000    6.875    0.139    0.299  116.234
  512.250    6.875    0.136    0.309  112.544
  512.500    6.619    0.157    0.321  110.699
  512.750    6.254    0.175    0.332  106.394
  513.000    5.909    0.184    0.330  100.860
  513.250    5.909    0.177    0.311   99.014
  513.500    5.909    0.172    0.284   97.168
  513.750    6.021    0.168    0.275   97.167
  514.000    6.020    0.168    0.278  102.084
  514.250    6.134    0.172    0.279  107.615
  514.500    6.019    0.174    0.279  110.073
  514.750    5.906    0.179    0.295  106.998
  515.000    6.018    0.180    0.315  101.464
  515.250    6.998    0.147    0.331   88.552
  515.500    7.986    0.098    0.270   79.330
  515.750    9.287    0.032    0.191   58.427
  516.000   11.429    0.023    0.165   42.442
  516.250   13.801    0.052    0.142   41.211
  516.500   15.455    0.046    0.163   41.209
  516.750   16.983    0.031    0.163   41.208
  517.000   16.664    0.027    0.163   40.592
  517.250   16.980    0.068    0.167   41.205
