~VERSION INFORMATION
 VERS.                 2.0:   CWLS LOG ASCII STANDARD -VERSION 2.0
 WRAP.                  NO:   ONE LINE PER DEPTH STEP
~WELL INFORMATION BLOCK
#MNEM.UNIT           DATA                    DESCRIPTION OF MNEMONIC
#---------    -------------------            -------------------------------
# Generated from Intellog Unique Number	CW_76_78/WELL/198
WELL.         GAO GERO MCMULLEN 06-24        : Well_name    - WELL
LOC .         00/06-24-077-01W5/0            : Location     - LOCATION
UWI .         00/06-24-077-01W5/0            : Uwi          - UNIQUE WELL ID
ENTR.         JJ                             : Entered      - ENTERED BY
SRVC.         WESTERN ATLAS                  : Scn          - SERVICE COMPANY
DATE.         12 FEB 71                      : Date         - LOG DATE
STRT.M        497.434                        : top_depth    - START DEPTH
STOP.M        624.934                        : bot_depth    - STOP DEPTH
STEP.M        0.25                           : increment    - STEP LENGTH
 NULL. -999.2500:NULL Value
~CURVE INFORMATION BLOCK
#MNEM UNIT       ERCB CURVE CODE    CURVE DESCRIPTION
#-----------   ------------------   ----------------------------------
DEPT.M        00 001 00 00         : DEPTH        - DEPTH
DELT.US/F     00 520 00 00         : DELT         - SONIC TRAVEL TIME
GR  .API      00 310 00 00         : GR           - GAMMA RAY
CALI.MM       00 280 01 00         : CAL          - CALIPER
ILD .OHMM     00 120 00 00         : RESD         - DEEP RESISTIVITY (DIL)
~PARAMETER INFORMATION
#MNEM.UNIT           DATA             DESCRIPTION OF MNEMONIC
#---------         -----------     ------------------------------
GL  .M        680.618              : gl           - GROUND LEVEL ELEVATION
EREF.M        683.362              : kb           - ELEVATION OF DEPTH REFERENCE
DATM.M        680.618              : datum        - DATUM ELEVATION
TDD .M        637.032              : tdd          - TOTAL DEPTH DRILLER
RUN .         ONE                  : Run          - RUN NUMBER
ENG .         GILEY                : Engineer     - RECORDING ENGINEER
WIT .         MCARTHUR             : Witness      - WITNESSED BY
MUD .         GEL                  : Mud_type     - MUD TYPE
MATR.         SANDSTONE            : Logunit      - NEUTRON MATRIX
TMAX.C        22.2222              : BHT          - MAXIMUM RECORDED TEMPERATURE
BHTD.M        636.422              : BHTDEP       - MAXIMUM RECORDED TEMPERATURE
RMT .C        17.7778              : MDTP         - TEMPERATURE OF MUD
MUDD.KG/M     1152                 : MWT          - MUD DENSITY
NEUT.         1                    : NEUTRON      - NEUTRON TYPE
RESI.         0                    : RESIST       - RESISTIVITY TYPE
RM  .OHMM     3                    : RM           - RESISTIVITY OF MUD
RMC .OHMM     0                    : RMC          - RESISTIVITY OF MUD CAKE
RMF .OHMM     2.8                  : RMF          - RESISTIVITY OF MUD FILTRATE
SUFT.C        5                    : SUFT         - SURFACE TEMPERATURE
~A  DEPTH     DELT       GR      CAL     RESD
  497.434  403.379   89.135  213.066    3.552
  497.684  392.259   89.539  214.511    3.428
  497.934  394.978   91.094  216.775    3.332
  498.184  411.988   93.712  219.551    3.290
  498.434  421.463   95.532  219.980    3.243
  498.684  427.170   92.888  218.874    3.265
  498.934  418.387   88.033  217.366    3.500
  499.184  407.789   83.751  215.649    3.773
  499.434  365.288   82.477  213.930    4.183
  499.684  327.467   85.138  211.196    4.717
  499.934  313.034   83.289  210.287    4.810
  500.184  349.470   86.304  208.878    4.652
  500.434  347.055   89.892  208.078    4.260
  500.684  368.875   92.510  207.999    3.962
  500.934  376.595   92.164  207.711    3.703
  501.184  390.747   93.188  207.731    3.670
  501.434  393.529   95.362  208.055    3.740
  501.684  395.598   93.205  208.687    3.897
  501.934  398.447   90.914  209.318    3.939
  502.184  394.668   88.091  209.432    3.920
  502.434  390.175   84.872  209.451    3.803
  502.684  385.097   83.067  209.468    3.665
  502.934  403.081   85.154  209.694    3.595
  503.184  407.618   84.056  209.813    3.539
  503.434  410.077   85.168  208.401    3.615
  503.684  415.329   81.109  205.054    3.849
  503.934  411.158   75.414  204.052    4.326
  504.184  390.816   73.166  204.786    4.517
  504.434  295.497   76.448  206.228    4.988
  504.684  268.135   81.849  208.701    5.481
  504.934  232.327   88.223  209.125    5.593
  505.184  312.422   94.819  208.534    5.199
  505.434  383.941   98.673  208.144    4.536
  505.684  369.118  101.953  208.977    4.407
  505.934  378.720   98.911  210.018    4.367
  506.184  377.216   92.906  210.544    4.661
  506.434  364.474   87.786  211.173    5.351
  506.684  349.975   84.078  211.604    5.689
  506.934  329.825   83.600  211.317    5.666
  507.184  314.417   84.271  210.824    5.470
  507.434  348.774   84.589  210.230    5.327
  507.684  369.488   88.886  210.349    5.131
  507.934  366.357   89.248  210.470    4.918
  508.184  351.016   89.787  210.182    4.910
  508.434  343.793   91.076  209.387    4.931
  508.684  342.289   90.466  207.768    4.988
  508.934  350.270   87.201  205.235    5.104
  509.184  359.744   84.734  203.619    5.396
  509.434  351.157   84.565  202.824    5.871
  509.684  354.591   82.140  202.635    6.049
  509.934  292.471   80.072  203.265    6.059
  510.184  275.829   80.123  203.800    5.941
  510.434  354.623   82.518  203.515    5.644
  510.684  371.700   87.832  203.429    5.170
  510.934  387.282   83.994  203.141    4.777
  511.184  357.191   83.825  203.050    4.913
  511.434  378.620   85.115  202.056    5.188
  511.684  377.115   84.901  201.257    5.481
  511.934  367.100   83.494  200.862    5.537
  512.184  392.880   84.786  200.777    5.443
  512.434  382.736   88.596  201.105    5.202
  512.684  373.759   93.422  205.510    4.770
  512.934  404.867   97.630  210.532    4.494
  513.184  423.374   96.533  210.959    4.548
  513.434  425.053   86.240  204.339    5.315
  513.684  360.464   80.059  203.337    6.616
  513.934  297.434   75.690  205.809    7.597
  514.184  236.614   71.585  208.171    8.698
  514.434  236.474   71.018  207.275    9.661
  514.684  295.584   73.812  205.556   10.209
  514.934  355.149   70.991  203.025   10.739
  515.184  374.563   67.814  203.754   11.505
  515.434  331.479   64.861  207.349   13.102
  515.684  198.025   64.691  210.021   15.144
  515.934  205.226   70.051  211.468   18.804
  516.184  233.280   74.082  212.512   15.714
  516.434  376.329   75.945  212.626   12.719
  516.684  389.637   77.945  212.648    9.986
  516.934  366.888   78.306  212.770    8.741
  517.184  348.426   78.091  212.689    8.054
  517.434  339.385   77.703  212.698    7.873
  517.684  329.304   75.808  212.616   10.077
  517.934  305.322   71.395  212.534   14.859
  518.184  262.172   66.716  212.250   18.538
  518.434  283.861   61.862  211.659   28.614
  518.684  264.685   61.868  211.062   33.179
  518.934  246.353   68.289  210.261   27.548
  519.184  239.066   74.662  209.561   20.185
  519.434  249.840   79.356  208.255   11.642
  519.684  282.443   83.079  208.170    9.062
  519.934  350.585   86.446  208.189    7.563
  520.184  350.899   86.145  208.309    7.032
  520.434  365.831   82.483  209.045    6.935
  520.684  380.308   83.465  209.168    7.253
  520.934  390.952   86.964  209.384    7.486
  521.184  401.012   91.837  209.821    7.363
  521.434  411.265   91.313  210.136    6.873
  521.684  413.659   88.668  210.361    6.709
  521.934  409.036   88.103  209.970    6.888
  522.184  408.830   88.773  209.783    7.320
  522.434  419.344   86.394  209.600    7.985
  522.684  409.067   85.915  209.313    8.950
  522.934  413.087   91.008  209.428    9.359
  523.184  401.186   92.432  210.571    9.141
  523.434  371.160   90.980  210.592    8.336
  523.684  387.652   86.347  210.304    7.569
  523.934  402.582   85.513  210.323    7.526
  524.184  402.962   89.279  210.652    8.098
  524.434  279.059   83.539  210.968    8.765
  524.684  259.819   80.542  210.996    9.667
  524.934  236.160   81.081  211.006   10.456
  525.184  264.085   82.193  211.437   10.568
  525.434  341.581   84.500  211.357    9.472
  525.684  342.025   87.603  211.265    8.487
  525.934  396.653   92.518  211.079    7.870
  526.184  411.260   87.928  210.796    7.042
  526.434  388.511   89.793  210.509    6.299
  526.684  385.057   91.879  209.807    6.173
  526.934  403.368   92.377  208.193    5.840
  527.184  411.608   91.985  206.987    5.697
  527.434  419.069   89.958  206.084    5.519
  527.684  410.936   87.401  205.593    5.421
  527.934  405.728   88.072  205.102    5.323
  528.184  402.145   85.118  204.916    5.343
  528.434  395.768   82.782  204.426    5.459
  528.684  338.975   78.856  204.748    5.715
  528.934  291.993   74.663  205.890    6.398
  529.184  273.662   75.202  206.621    8.543
  529.434  289.763   80.648  204.808    9.565
  529.684  369.338   85.829  204.008    9.445
  529.934  391.092   88.314  203.921    8.203
  530.184  389.262   89.161  203.838    6.354
  530.434  384.183   86.695  204.166    5.585
  530.684  394.438   86.790  204.496    5.231
  530.934  398.065   86.355  204.506    5.038
  531.184  392.012   84.506  204.325    5.050
  531.434  391.547   84.249  204.449    5.152
  531.684  397.514   87.574  204.356    5.202
  531.934  391.982   89.438  204.073    5.438
  532.184  378.198   89.534  204.699    5.636
  532.434  368.312   92.284  205.840    5.916
  532.684  371.354   94.724  207.598    5.986
  532.934  356.987   91.459  206.081    6.146
  533.184  357.104   87.444  203.857    6.355
  533.434  366.189   86.126  203.364    6.869
  533.684  363.321   86.444  203.485    7.198
  533.934  344.274   84.684  203.808    7.689
  534.184  328.738   86.018  204.033    8.677
  534.434  304.625   88.369  204.666    9.066
  534.684  283.954   91.736  206.726    7.786
  534.934  321.690   97.403  208.987    6.407
  535.184  368.390  103.557  210.335    5.458
  535.434  380.464  108.605  209.432    4.731
  535.684  394.291  101.807  207.817    4.655
  535.934  393.891   98.497  205.792    4.829
  536.184  380.042   93.906  204.282    5.119
  536.434  373.921   91.394  203.685    5.672
  536.684  374.173   90.166  202.995    6.061
  536.934  367.407   89.069  202.907    6.631
  537.184  363.044   88.105  202.825    7.304
  537.434  366.477   87.670  201.723    7.795
  537.684  338.725   87.808  199.900    8.303
  537.934  386.140   86.180  196.042    9.027
  538.184  392.431   82.253  193.816   10.879
  538.434  394.046   83.501  193.523   13.159
  538.684  376.364   84.834  195.686   17.882
  538.934  358.422   84.400  198.254   23.628
  539.184  358.735   79.722  200.418   30.775
  539.434  338.391   75.042  201.762   33.645
  539.684  233.651   71.912  203.619   28.329
  539.934  223.636   76.297  206.195   20.357
  540.184  334.201   82.053  207.943   15.197
  540.434  364.595   83.784  209.187   12.600
  540.684  348.343   77.647  209.820   11.200
