~VERSION INFORMATION
 VERS.                 2.0:   CWLS LOG ASCII STANDARD -VERSION 2.0
 WRAP.                  NO:   ONE LINE PER DEPTH STEP
~WELL INFORMATION BLOCK
#MNEM.UNIT           DATA                    DESCRIPTION OF MNEMONIC
#---------    -------------------            -------------------------------
# Generated from Intellog Unique Number	CX_WELLS/WELL/2588
NULL.         -999.25                        : NULL_VALUE
WELL.         SIEBENS PONY                   : Well_name    - WELL              
LOC .         06-08-080-09W4                 : Location     - LOCATION          
UWI .         00/06-08-080-09W400            : Uwi          - UNIQUE WELL ID    
ENTR.         T                              : Entered      - ENTERED BY        
SRVC.         SCHLUMBERGER                   : Scn          - SERVICE COMPANY   
STRT.F        800                            : top_depth    - START DEPTH       
STOP.F        1620.21                        : bot_depth    - STOP DEPTH        
STEP.F        0.82                           : increment    - STEP LENGTH       
~CURVE INFORMATION BLOCK
#MNEM UNIT       ERCB CURVE CODE    CURVE DESCRIPTION
#-----------   ------------------   ----------------------------------
DEPT.F        00 001 00 00         : DEPTH        - DEPTH                       
GR  .API      00 310 00 00         : GR           - GAMMA RAY                   
NPHI.V/V      00 330 00 00         : PHIN         - NEUTRON POROSITY (SANDSTONE)
DPHI.V/V      00 890 00 00         : PHID         - DENSITY POROSITY (SANDSTONE)
ILD .OHMM     00 120 00 00         : RESD         - DEEP RESISTIVITY (DIL)      
~PARAMETER INFORMATION       
#MNEM.UNIT           DATA             DESCRIPTION OF MNEMONIC
#---------         -----------     ------------------------------
GL  .F        2298                 : gl           - GROUND LEVEL ELEVATION      
EREF.F        2310                 : kb           - ELEVATION OF DEPTH REFERENCE
DATM.F        2310                 : datum        - DATUM ELEVATION             
TDD .F        1654                 : tdd          - TOTAL DEPTH DRILLER         
RUN .         ONE                  : Run          - RUN NUMBER                  
ENG .         BILL                 : Engineer     - RECORDING ENGINEER          
WIT .         JIM                  : Witness      - WITNESSED BY                
MUD .         GEL                  : Mud_type     - MUD TYPE                    
MATR.         SANDSTONE            : Logunit      - NEUTRON MATRIX              
TMAX.F        73                   : BHT          - MAXIMUM RECORDED TEMPERATURE
BHTD.F        1653                 : BHTDEP       - MAXIMUM RECORDED TEMPERATURE
MATR.         1                    : LOGUNIT      - NEUTRON MATRIX              
RMT .F        68                   : MDTP         - TEMPERATURE OF MUD          
NEUT.         1                    : NEUTRON      - NEUTRON TYPE                
RESI.         4.78                 : RESIST       - RESISTIVITY TYPE            
RMC .OHMM     4.8                  : RMC          - RESISTIVITY OF MUD CAKE     
RMF .OHMM     4.8                  : RMF          - RESISTIVITY OF MUD FILTRATE 
SUFT.F        37.4                 : SUFT         - SURFACE TEMPERATURE         
~A  DEPTH       GR     PHIN     PHID     RESD
# ...
 1370.870   87.867    0.462    0.207    2.983
 1371.690   86.712    0.448    0.201    3.338
 1372.510   86.775    0.441    0.196    3.597
 1373.330   87.416    0.425    0.190    3.743
 1374.150   88.045    0.427    0.180    3.494
 1374.970   87.505    0.437    0.168    3.265
 1375.790   85.130    0.450    0.175    3.048
 1376.610   83.358    0.458    0.186    2.848
 1377.430   85.810    0.464    0.195    2.707
 1378.250   89.493    0.468    0.205    2.531
 1379.070   91.957    0.476    0.209    2.447
 1379.890   92.586    0.488    0.208    2.328
 1380.710   93.253    0.496    0.206    2.215
 1381.530   93.291    0.488    0.206    2.179
 1382.350   93.932    0.478    0.206    2.113
 1383.170   94.586    0.478    0.207    2.079
 1383.990   95.253    0.481    0.207    2.016
 1384.810   95.279    0.507    0.209    2.020
 1385.630   95.933    0.513    0.212    1.992
 1386.450   95.996    0.521    0.213    2.074
 1387.270   96.022    0.524    0.213    2.118
 1388.090   96.060    0.524    0.213    2.165
 1388.910   96.123    0.524    0.212    2.255
 1389.730   96.174    0.522    0.212    2.300
 1390.550   96.212    0.518    0.211    2.351
 1391.370   96.276    0.512    0.211    2.400
 1392.190   96.301    0.506    0.207    2.500
 1393.010   96.955    0.497    0.207    2.550
 1393.830   96.993    0.490    0.208    2.659
 1394.650   97.647    0.497    0.211    2.761
 1395.470   97.095    0.499    0.212    2.871
 1396.290   96.542    0.485    0.212    3.099
 1397.110   95.964    0.468    0.210    3.283
 1397.930   94.808    0.473    0.208    3.410
 1398.750   94.256    0.477    0.203    3.485
 1399.570   93.678    0.485    0.199    3.498
 1400.390   91.919    0.492    0.197    3.572
 1401.210   91.379    0.487    0.182    3.651
 1402.030   91.404    0.476    0.117    3.871
 1402.850   89.042    0.419    0.080    4.097
 1403.670   84.869    0.409    0.142    4.336
 1404.490   82.519    0.411    0.175    4.848
 1405.310   83.739    0.403    0.197    5.518
 1406.140   86.216    0.396    0.203    6.509
 1406.960   85.034    0.378    0.225    7.826
 1407.780   81.465    0.355    0.232    8.585
 1408.600   77.280    0.337    0.257    9.948
 1409.420   70.091    0.325    0.264   11.960
 1410.240   62.902    0.324    0.274   13.133
 1411.060   65.366    0.332    0.283   13.423
 1411.880   67.805    0.335    0.295   13.000
 1412.700   74.492    0.358    0.263   12.591
 1413.520   79.973    0.382    0.257   12.183
 1414.340   82.437    0.391    0.247   12.001
 1415.160   83.078    0.400    0.236   11.834
 1415.980   84.336    0.401    0.242   11.857
 1416.800   83.180    0.400    0.248   12.118
 1417.620   82.011    0.397    0.239   12.851
 1418.440   79.649    0.394    0.225   13.860
 1419.260   76.683    0.392    0.224   14.394
 1420.080   74.911    0.387    0.225   15.525
 1420.900   73.742    0.387    0.227   15.585
 1421.720   73.806    0.392    0.224   14.290
 1422.540   74.435    0.394    0.217   12.882
 1423.360   78.105    0.394    0.213   11.613
 1424.180   81.789    0.396    0.217   11.026
 1425.000   83.637    0.401    0.218    9.763
 1425.820   85.485    0.407    0.212    9.279
 1426.640   89.759    0.413    0.202    8.208
 1427.460   92.210    0.418    0.194    7.526
 1428.280   97.088    0.427    0.185    6.670
 1429.100  103.775    0.435    0.183    6.333
 1429.920  106.843    0.439    0.179    5.813
 1430.740  106.278    0.435    0.180    5.624
 1431.560  105.738    0.426    0.180    5.447
 1432.380  105.776    0.424    0.181    5.376
 1433.200  105.814    0.427    0.181    5.387
 1434.020  105.877    0.431    0.183    5.600
 1434.840  105.299    0.432    0.186    6.149
 1435.660   95.710    0.425    0.189    6.514
 1436.480   94.541    0.423    0.194    7.026
 1437.300   92.153    0.401    0.195    7.862
 1438.120   85.567    0.396    0.195    8.173
 1438.940   80.175    0.387    0.189    8.815
 1439.760   72.986    0.373    0.180    9.689
 1440.580   68.801    0.375    0.179   10.430
 1441.400   65.219    0.381    0.187   11.453
 1442.220   61.047    0.385    0.200   12.576
 1443.040   58.068    0.391    0.209   13.336
 1443.860   58.722    0.393    0.217   13.362
 1444.690   61.186    0.395    0.219   13.414
 1445.510   63.638    0.396    0.225   13.214
 1446.330   63.085    0.393    0.231   13.265
 1447.150   59.516    0.389    0.255   13.317
 1447.970   57.744    0.386    0.259   13.597
 1448.790   58.386    0.386    0.264   15.216
 1449.610   60.862    0.386    0.254   16.411
 1450.430   64.533    0.386    0.242   15.894
 1451.250   67.588    0.384    0.231   15.379
 1452.070   71.849    0.377    0.225   14.356
 1452.890   76.740    0.374    0.216   13.415
 1453.710   79.807    0.375    0.212   12.737
 1454.530   81.642    0.380    0.214   11.901
 1455.350   84.106    0.383    0.213   11.724
 1456.170   86.570    0.390    0.209   11.571
 1456.990   85.415    0.394    0.206   11.594
 1457.810   81.845    0.405    0.202   11.650
 1458.630   78.854    0.407    0.212   11.896
 1459.450   73.475    0.407    0.238   12.855
 1460.270   68.096    0.404    0.243   13.838
 1461.090   63.307    0.401    0.251   14.646
 1461.910   59.738    0.403    0.248   16.373
 1462.730   57.350    0.406    0.239   17.659
 1463.550   59.814    0.410    0.237   17.120
 1464.370   64.692    0.413    0.233   16.270
 1465.190   70.172    0.425    0.223   15.728
 1466.010   73.227    0.431    0.223   14.449
 1466.830   70.865    0.428    0.225   13.967
 1467.650   68.490    0.423    0.231   13.051
 1468.470   69.144    0.414    0.232   12.183
 1469.290   72.224    0.413    0.231   11.589
 1470.110   73.456    0.414    0.224   11.417
 1470.930   77.139    0.411    0.215   10.861
 1471.750   80.797    0.407    0.213   10.699
 1472.570   82.645    0.403    0.212   10.178
 1473.390   84.506    0.396    0.209    9.867
 1474.210   83.363    0.394    0.204    9.369
 1475.030   83.388    0.398    0.200    8.746
 1475.850   83.439    0.406    0.194    8.027
 1476.670   84.081    0.414    0.191    7.374
 1477.490   85.954    0.423    0.192    7.135
 1478.310   87.815    0.426    0.192    6.787
 1479.130   87.840    0.421    0.190    6.561
 1479.950   85.503    0.415    0.189    6.236
 1480.770   84.925    0.409    0.187    5.932
 1481.590   83.179    0.405    0.184    5.734
 1482.410   82.601    0.401    0.183    5.559
 1483.230   83.255    0.409    0.179    5.379
 1484.060   85.103    0.420    0.177    5.112
 1484.880   87.554    0.426    0.172    4.951
 1485.700   91.829    0.430    0.168    4.790
 1486.520   94.896    0.433    0.175    4.724
 1487.340   94.356    0.431    0.179    4.653
 1488.160   93.778    0.432    0.186    4.584
 1488.980   93.226    0.437    0.192    4.444
 1489.800   91.466    0.444    0.198    4.382
 1490.620   90.914    0.453    0.199    4.390
 1491.440   92.159    0.463    0.191    4.333
 1492.260   93.403    0.469    0.191    4.342
 1493.080   96.484    0.470    0.192    4.285
 1493.900   97.112    0.464    0.190    4.302
 1494.720   97.766    0.456    0.183    4.310
 1495.540   98.421    0.447    0.178    4.490
 1496.360   99.062    0.448    0.184    4.667
 1497.180   99.716    0.453    0.186    5.034
 1498.000   98.560    0.454    0.207    5.328
 1498.820   97.392    0.449    0.228    5.746
 1499.640   94.413    0.443    0.231    6.310
 1500.460   86.017    0.439    0.255    7.318
 1501.280   72.204    0.432    0.266    8.174
 1502.100   70.407    0.422    0.273    9.303
 1502.920   65.631    0.413    0.273   11.174
 1503.740   60.239    0.415    0.272   14.162
 1504.560   54.860    0.416    0.267   16.724
 1505.380   54.911    0.415    0.258   19.035
 1506.200   54.346    0.414    0.258   21.280
 1507.020   53.793    0.412    0.259   23.344
 1507.840   53.831    0.413    0.259   25.658
 1508.660   54.485    0.414    0.259   27.182
 1509.480   59.350    0.414    0.259   28.284
 1510.300   64.831    0.417    0.255   27.341
 1511.120   64.882    0.417    0.266   25.522
 1511.940   61.300    0.386    0.277   22.197
 1512.760   56.511    0.382    0.273   17.969
