~VERSION INFORMATION
 VERS.                 2.0:   CWLS LOG ASCII STANDARD -VERSION 2.0
 WRAP.                  NO:   ONE LINE PER DEPTH STEP
~WELL INFORMATION BLOCK
#MNEM.UNIT           DATA                    DESCRIPTION OF MNEMONIC
#---------    -------------------            -------------------------------
# Generated from Intellog Unique Number	CS_69_70/WELL/834
WELL.         ET AL TWEEDIE                  : Well_name    - WELL
LOC .         00/07-18-069-12W4/0            : Location     - LOCATION
UWI .         00/07-18-069-12W4/0            : Uwi          - UNIQUE WELL ID
ENTR.         SP                             : Entered      - ENTERED BY
SRVC.         SCHLUMBERGER                   : Scn          - SERVICE COMPANY
STRT.M        290                            : top_depth    - START DEPTH
STOP.M        495                            : bot_depth    - STOP DEPTH
STEP.M        0.25                           : increment    - STEP LENGTH
 NULL. -999.2500:NULL Value
~CURVE INFORMATION BLOCK
#MNEM UNIT       ERCB CURVE CODE    CURVE DESCRIPTION
#-----------   ------------------   ----------------------------------
DEPT.M        00 001 00 00         : DEPTH        - DEPTH
GR  .API      00 310 00 00         : GR           - GAMMA RAY
NPHI.V/V      00 330 00 00         : PHIN         - NEUTRON POROSITY (LIMESTONE)
DPHI.V/V      00 890 00 00         : PHID         - DENSITY POROSITY (LIMESTONE)
ILD .OHMM     00 120 00 00         : RESD         - DEEP RESISTIVITY (DIL)
~PARAMETER INFORMATION
#MNEM.UNIT           DATA             DESCRIPTION OF MNEMONIC
#---------         -----------     ------------------------------
GL  .M        595.57               : gl           - GROUND LEVEL ELEVATION
EREF.M        598.5                : kb           - ELEVATION OF DEPTH REFERENCE
DATM.M        597.57               : datum        - DATUM ELEVATION
TDD .M        495                  : tdd          - TOTAL DEPTH DRILLER
RUN .         ONE                  : Run          - RUN NUMBER
ENG .         BILL                 : Engineer     - RECORDING ENGINEER
WIT .         JIM                  : Witness      - WITNESSED BY
MUD .         GEL                  : Mud_type     - MUD TYPE
MATR.         LIMESTONE            : Logunit      - NEUTRON MATRIX
TMAX.C        26                   : BHT          - MAXIMUM RECORDED TEMPERATURE
BHTD.M        495                  : BHTDEP       - MAXIMUM RECORDED TEMPERATURE
MATR.         1                    : LOGUNIT      - NEUTRON MATRIX
RMT .C        25                   : MDTP         - TEMPERATURE OF MUD
NEUT.         1                    : NEUTRON      - NEUTRON TYPE
RESI.         0                    : RESIST       - RESISTIVITY TYPE
RMC .OHMM     0.25                 : RMC          - RESISTIVITY OF MUD CAKE
RMF .OHMM     0.25                 : RMF          - RESISTIVITY OF MUD FILTRATE
SUFT.C        15                   : SUFT         - SURFACE TEMPERATURE
~A  DEPTH       GR     PHIN     PHID     RESD
# ...
  464.000   94.164    0.328    0.152    6.551
  464.250   96.056    0.350    0.177    6.484
  464.500   97.096    0.355    0.150    6.464
  464.750   94.546    0.351    0.148    6.468
  465.000   91.082    0.370    0.164    6.509
  465.250   87.620    0.379    0.177    6.561
  465.500   84.522    0.347    0.188    6.590
  465.750   82.580    0.321    0.186    6.656
  466.000   85.385    0.318    0.192    6.722
  466.250   88.920    0.329    0.201    6.727
  466.500   90.021    0.323    0.195    6.744
  466.750   89.236    0.330    0.184    6.837
  467.000   85.894    0.336    0.176    6.930
  467.250   77.016    0.342    0.186    6.745
  467.500   71.787    0.325    0.192    6.589
  467.750   66.924    0.310    0.190    6.415
  468.000   62.671    0.296    0.178    6.324
  468.250   66.084    0.315    0.190    6.178
  468.500   79.356    0.335    0.206    6.025
  468.750   87.029    0.351    0.235    5.569
  469.000   84.661    0.365    0.258    4.598
  469.250   78.338    0.379    0.276    4.050
  469.500   74.449    0.382    0.295    3.601
  469.750   71.412    0.388    0.289    3.160
  470.000   68.740    0.378    0.272    3.122
  470.250   66.555    0.339    0.265    3.358
  470.500   71.672    0.324    0.252    3.506
  470.750   78.860    0.320    0.236    3.820
  471.000   82.394    0.323    0.214    4.101
  471.250   85.929    0.322    0.199    4.330
  471.500   90.316    0.318    0.206    4.462
  471.750   99.876    0.322    0.215    4.582
  472.000  110.713    0.333    0.178    4.577
  472.250  120.151    0.341    0.147    4.504
  472.500  127.946    0.371    0.117    4.376
  472.750  131.177    0.410    0.129    4.331
  473.000  128.079    0.473    0.150    4.334
  473.250  122.182    0.428    0.145    4.393
  473.500  107.522    0.394    0.165    4.453
  473.750   97.243    0.362    0.179    4.319
  474.000   89.277    0.350    0.175    3.984
  474.250   84.293    0.361    0.201    3.655
  474.500   83.021    0.377    0.246    3.385
  474.750   82.357    0.387    0.276    3.252
  475.000   80.171    0.376    0.269    3.142
  475.250   78.838    0.365    0.255    3.132
  475.500   82.496    0.355    0.250    3.135
  475.750   84.935    0.351    0.252    3.172
  476.000   87.558    0.356    0.256    3.293
  476.250   89.815    0.353    0.247    3.490
  476.500   93.471    0.348    0.247    3.803
  476.750   98.284    0.346    0.246    4.067
  477.000  103.037    0.343    0.237    4.463
  477.250  106.693    0.355    0.224    4.898
  477.500  110.046    0.363    0.189    5.249
  477.750  112.790    0.353    0.169    5.409
  478.000  116.934    0.346    0.176    5.494
  478.250  120.530    0.341    0.179    5.417
  478.500  124.612    0.349    0.180    5.214
  478.750  122.124    0.366    0.191    5.028
  479.000  108.741    0.377    0.216    4.806
  479.250   85.500    0.366    0.201    4.677
  479.500   77.109    0.353    0.240    4.518
  479.750   72.854    0.348    0.258    4.488
  480.000   75.112    0.342    0.269    4.601
  480.250   79.864    0.338    0.267    4.412
  480.500   84.129    0.334    0.259    4.565
  480.750   88.821    0.341    0.251    4.551
  481.000   90.774    0.338    0.220    4.091
  481.250   90.596    0.337    0.201    3.316
  481.500   62.122    0.352    0.252    2.784
  481.750   53.243    0.358    0.293    2.381
  482.000   50.998    0.347    0.292    2.234
  482.250   56.664    0.342    0.283    2.235
  482.500   63.302    0.338    0.290    2.356
  482.750   80.772    0.350    0.301    2.600
  483.000   93.617    0.358    0.300    2.972
  483.250  115.104    0.364    0.229    3.505
  483.500  125.759    0.365    0.214    4.044
  483.750  133.494    0.360    0.210    4.572
  484.000  135.994    0.393    0.216    5.047
  484.250  130.219    0.429    0.175    5.368
  484.500  126.451    0.410    0.134    5.552
  484.750  126.518    0.384    0.130    5.787
  485.000  127.071    0.381    0.160    6.009
  485.250  122.574    0.378    0.191    6.079
  485.500  112.964    0.365    0.201    6.173
  485.750  103.538    0.353    0.205    6.200
  486.000   93.259    0.343    0.195    6.148
  486.250   84.076    0.358    0.197    6.279
  486.500   79.700    0.363    0.214    6.353
  486.750  100.943    0.345    0.224    6.369
  487.000  120.666    0.333    0.242    6.154
  487.250  133.086    0.352    0.164    5.645
  487.500  140.150    0.379    0.118    4.955
  487.750  138.757    0.404    0.100    4.504
  488.000  138.944    0.417    0.113    4.368
  488.250  140.289    0.425    0.124    4.428
  488.500  140.721    0.418    0.110    4.464
  488.750  139.387    0.409    0.132    4.500
  489.000  134.646    0.401    0.132    4.511
  489.250  124.611    0.399    0.110    4.482
  489.500   75.751    0.398    0.121    4.468
  489.750   68.820    0.401    0.138    4.430
  490.000   77.405    0.416    0.128    4.400
  490.250   84.896    0.411    0.119    4.372
  490.500   89.283    0.410    0.119    4.374
  490.750   90.628    0.418    0.131    4.377
  491.000   90.572    0.424    0.137    4.253
  491.250   90.335    0.416    0.132    4.231
  491.500   90.340    0.415    0.130    4.172
  491.750   90.163    0.418    0.131    4.083
  492.000   90.047    0.414    0.130    4.019
  492.250   90.238    0.411    0.130    3.970
  492.500   90.365    0.410    0.129    3.893
  492.750   90.310    0.410    0.132    3.845
  493.000   90.254    0.408    0.137    3.792
  493.250   90.442    0.407    0.154    3.753
  493.500   90.446    0.407    0.154    3.728
  493.750   90.391    0.411    0.142    3.709
  494.000   90.336    0.408    0.142    3.678
  494.250   90.829    0.386    0.144    3.646
  494.500   92.477    0.310    0.148    3.615
  494.750   94.186    0.276    0.155    3.571
  495.000   94.983    0.196    0.139    3.541
