~VERSION INFORMATION
 VERS.                 2.0:   CWLS LOG ASCII STANDARD -VERSION 2.0
 WRAP.                  NO:   ONE LINE PER DEPTH STEP
~WELL INFORMATION BLOCK
#MNEM.UNIT           DATA                    DESCRIPTION OF MNEMONIC
#---------    -------------------            -------------------------------
# Generated from Intellog Unique Number	CS_71_72/WELL/820
WELL.         MAYNARD ET AL BEHAN            : Well_name    - WELL
LOC .         00/07-28-072-11W4/0            : Location     - LOCATION
UWI .         00/07-28-072-11W4/0            : Uwi          - UNIQUE WELL ID
ENTR.         SP                             : Entered      - ENTERED BY
SRVC.         SCHLUMBERGER                   : Scn          - SERVICE COMPANY
STRT.M        305                            : top_depth    - START DEPTH
STOP.M        536.25                         : bot_depth    - STOP DEPTH
STEP.M        0.25                           : increment    - STEP LENGTH
 NULL. -999.2500:NULL Value
~CURVE INFORMATION BLOCK
#MNEM UNIT       ERCB CURVE CODE    CURVE DESCRIPTION
#-----------   ------------------   ----------------------------------
DEPT.M        00 001 00 00         : DEPTH        - DEPTH
ILD .OHMM     00 120 00 00         : RESD         - DEEP RESISTIVITY (DIL)
DPHI.V/V      00 890 00 00         : PHID         - DENSITY POROSITY (LIMESTONE)
NPHI.V/V      00 330 00 00         : PHIN         - NEUTRON POROSITY (LIMESTONE)
GR  .API      00 310 00 00         : GR           - GAMMA RAY
~PARAMETER INFORMATION
#MNEM.UNIT           DATA             DESCRIPTION OF MNEMONIC
#---------         -----------     ------------------------------
GL  .M        657.48               : gl           - GROUND LEVEL ELEVATION
EREF.M        660.68               : kb           - ELEVATION OF DEPTH REFERENCE
DATM.M        657.48               : datum        - DATUM ELEVATION
TDD .M        545                  : tdd          - TOTAL DEPTH DRILLER
RUN .         ONE                  : Run          - RUN NUMBER
ENG .         BILL                 : Engineer     - RECORDING ENGINEER
WIT .         JIM                  : Witness      - WITNESSED BY
MUD .         GEL                  : Mud_type     - MUD TYPE
MATR.         LIMESTONE            : Logunit      - NEUTRON MATRIX
TMAX.C        23                   : BHT          - MAXIMUM RECORDED TEMPERATURE
BHTD.M        545                  : BHTDEP       - MAXIMUM RECORDED TEMPERATURE
MATR.         1                    : LOGUNIT      - NEUTRON MATRIX
RMT .C        25                   : MDTP         - TEMPERATURE OF MUD
NEUT.         1                    : NEUTRON      - NEUTRON TYPE
RESI.         0                    : RESIST       - RESISTIVITY TYPE
RMC .OHMM     0.25                 : RMC          - RESISTIVITY OF MUD CAKE
RMF .OHMM     0.25                 : RMF          - RESISTIVITY OF MUD FILTRATE
SUFT.C        15                   : SUFT         - SURFACE TEMPERATURE
~A  DEPTH     RESD     PHID     PHIN       GR
# ...
  348.500   11.621    0.264    0.388   67.513
  348.750   11.622    0.263    0.393   67.509
  349.000   11.462    0.257    0.395   69.329
  349.250   11.139    0.253    0.395   71.148
  349.500   10.978    0.253    0.394   70.537
  349.750   10.898    0.264    0.399   69.320
  350.000   10.575    0.278    0.400   67.495
  350.250   10.334    0.285    0.400   66.886
  350.500   10.253    0.292    0.400   65.060
  350.750   10.093    0.292    0.381   62.021
  351.000   10.013    0.316    0.373   62.625
  351.250   10.015    0.304    0.372   65.052
  351.500   10.017    0.299    0.379   68.086
  351.750   10.344    0.296    0.384   74.761
  352.000   10.671    0.289    0.392   77.188
  352.250   10.916    0.275    0.399   80.221
  352.500   11.162    0.253    0.411   82.648
  352.750   11.409    0.229    0.425   86.288
  353.000   11.572    0.213    0.431   87.501
  353.250   11.656    0.207    0.442   88.105
  353.500   11.658    0.204    0.444   88.101
  353.750   11.578    0.202    0.426   88.099
  354.000   11.417    0.207    0.421   88.703
  354.250   11.257    0.214    0.426   89.308
  354.500   11.014    0.229    0.431   91.127
  354.750   10.447    0.235    0.442   93.554
  355.000    9.799    0.241    0.449   96.587
  355.250    9.150    0.252    0.452   97.192
  355.500    8.420    0.272    0.458   94.760
  355.750    7.934    0.277    0.457   92.327
  356.000    7.530    0.279    0.453   94.146
  356.250    7.287    0.278    0.451   94.751
  356.500    7.290    0.271    0.448   92.319
  356.750    7.291    0.261    0.446   95.351
  357.000    7.293    0.266    0.430   97.171
  357.250    7.214    0.266    0.424   98.990
  357.500    7.215    0.263    0.436  100.810
  357.750    7.379    0.264    0.442  102.628
  358.000    8.276    0.269    0.440  103.840
  358.250    9.091    0.282    0.431   97.763
  358.500    9.743    0.290    0.426   94.117
  358.750   10.720    0.316    0.422   90.471
  359.000   11.698    0.328    0.420   86.825
  359.250   12.919    0.333    0.416   83.178
  359.500   14.059    0.329    0.420   80.139
  359.750   14.711    0.320    0.430   77.707
  360.000   15.445    0.314    0.421   78.919
  360.250   16.666    0.295    0.415   79.523
  360.500   18.050    0.280    0.414   77.090
  360.750   18.540    0.274    0.419   75.873
  361.000   18.785    0.269    0.419   73.441
  361.250   17.974    0.263    0.420   72.223
  361.500   17.000    0.254    0.412   71.006
  361.750   15.864    0.239    0.397   69.182
  362.000   13.590    0.223    0.389   66.749
  362.250   10.746    0.209    0.378   65.532
  362.500    8.146    0.217    0.344   69.173
  362.750    7.254    0.228    0.359   88.602
  363.000    6.524    0.257    0.414   97.102
  363.250    5.957    0.270    0.462  100.743
  363.500    6.040    0.262    0.467  105.599
  363.750    6.611    0.270    0.457   96.486
  364.000    7.670    0.282    0.440   91.624
  364.250    8.322    0.283    0.432   89.800
  364.500    9.055    0.279    0.429   87.368
  364.750    9.789    0.274    0.434   84.937
  365.000   10.360    0.273    0.420   78.253
  365.250   10.768    0.274    0.399   81.285
  365.500   10.770    0.267    0.397   77.641
  365.750   10.934    0.256    0.403   80.067
  366.000   11.261    0.251    0.403   82.493
  366.250   11.588    0.256    0.403   80.061
  366.500   12.079    0.267    0.403   78.236
  366.750   12.406    0.286    0.407   84.913
  367.000   12.732    0.276    0.424   83.695
  367.250   12.896    0.271    0.445   77.620
  367.500   13.387    0.276    0.430   74.581
  367.750   13.632    0.282    0.421   71.542
  368.000   13.959    0.309    0.410   73.361
  368.250   14.124    0.336    0.418   79.429
  368.500   14.125    0.325    0.425   81.248
  368.750   14.046    0.321    0.430   82.461
  369.000   13.886    0.316    0.424   86.102
  369.250   13.724    0.309    0.418   83.062
  369.500   13.564    0.300    0.412   80.023
  369.750   13.241    0.290    0.406   81.234
  370.000   12.917    0.281    0.398   84.268
  370.250   12.756    0.259    0.392   86.695
  370.500   12.352    0.250    0.396   90.336
  370.750   12.028    0.259    0.408   90.939
  371.000   11.787    0.262    0.422   90.938
  371.250   11.706    0.261    0.433   92.149
  371.500   11.627    0.261    0.436   92.753
  371.750   11.547    0.265    0.435   88.498
  372.000   11.387    0.266    0.426   86.675
  372.250   10.820    0.264    0.425   83.635
  372.500   10.171    0.280    0.433   78.774
  372.750    9.360    0.288    0.422   79.986
  373.000    8.874    0.265    0.417   84.841
  373.250    8.144    0.245    0.408   83.623
  373.500    7.414    0.243    0.406   82.407
  373.750    7.497    0.243    0.409   86.046
  374.000    8.231    0.249    0.439   87.259
  374.250    9.615    0.251    0.466   80.576
  374.500   10.755    0.259    0.444   74.500
  374.750   12.139    0.266    0.404   70.853
  375.000   13.116    0.275    0.393   66.599
  375.250   13.850    0.284    0.416   69.024
  375.500   14.095    0.289    0.427   72.059
  375.750   14.097    0.286    0.433   74.486
  376.000   13.937    0.308    0.427   76.304
  376.250   13.775    0.324    0.423   67.192
  376.500   13.372    0.332    0.420   64.760
  376.750   13.129    0.336    0.419   67.186
  377.000   12.806    0.324    0.418   70.827
  377.250   12.482    0.315    0.418   72.646
  377.500   11.915    0.310    0.417   73.857
  377.750   11.348    0.319    0.417   74.462
  378.000   10.618    0.313    0.425   75.067
  378.250   10.214    0.302    0.436   80.530
  378.500    9.890    0.292    0.447   84.170
  378.750   10.054    0.288    0.447   88.417
  379.000   10.544    0.282    0.429   90.236
  379.250   11.440    0.271    0.443   91.449
  379.500   12.499    0.256    0.457   92.661
  379.750   14.533    0.254    0.477   84.156
  380.000   16.324    0.265    0.455   73.222
  380.250   17.464    0.290    0.423   64.110
  380.500   18.278    0.319    0.384   59.856
  380.750   19.012    0.337    0.396   56.209
  381.000   19.420    0.343    0.405   56.206
  381.250   19.422    0.343    0.392   58.632
  381.500   19.017    0.346    0.396   59.843
  381.750   19.019    0.339    0.410   61.055
  382.000   19.997    0.328    0.414   61.660
  382.250   20.811    0.314    0.414   60.443
  382.500   21.301    0.307    0.405   57.404
  382.750   21.547    0.304    0.397   54.971
  383.000   21.793    0.303    0.401   54.362
  383.250   21.957    0.298    0.395   53.751
  383.500   21.959    0.298    0.381   52.533
  383.750   22.043    0.309    0.375   51.923
  384.000   22.044    0.314    0.363   51.314
  384.250   22.047    0.308    0.370   50.095
  384.500   22.048    0.319    0.372   50.700
  384.750   22.050    0.328    0.381   51.913
  385.000   22.051    0.320    0.374   50.088
  385.250   22.054    0.313    0.359   48.870
  385.500   22.055    0.308    0.358   49.474
  385.750   22.057    0.312    0.359   51.293
  386.000   21.978    0.320    0.357   54.326
  386.250   21.898    0.328    0.363   55.538
  386.500   21.737    0.334    0.368   54.929
  386.750   21.576    0.321    0.388   53.103
  387.000   21.334    0.330    0.385   53.708
  387.250   20.686    0.334    0.378   56.134
  387.500   19.793    0.335    0.384   57.346
  387.750   19.064    0.337    0.404   57.343
  388.000   18.821    0.345    0.422   56.733
  388.250   18.660    0.322    0.402   60.372
  388.500   18.663    0.319    0.394   61.585
  388.750   18.502    0.328    0.385   64.010
  389.000   18.341    0.333    0.404   64.009
  389.250   18.343    0.346    0.422   62.791
  389.500   18.345    0.351    0.433   59.751
  389.750   18.428    0.347    0.426   58.535
  390.000   18.430    0.344    0.418   56.101
  390.250   18.269    0.340    0.418   54.278
  390.500   18.189    0.335    0.415   53.668
  390.750   18.272    0.338    0.410   55.486
  391.000   18.599    0.339    0.406   58.520
  391.250   18.764    0.338    0.401   59.125
  391.500   18.847    0.335    0.410   55.478
  391.750   18.687    0.336    0.421   55.475
