~VERSION INFORMATION
 VERS.                 2.0:   CWLS LOG ASCII STANDARD -VERSION 2.0
 WRAP.                  NO:   ONE LINE PER DEPTH STEP
~WELL INFORMATION BLOCK
#MNEM.UNIT           DATA                    DESCRIPTION OF MNEMONIC
#---------    -------------------            -------------------------------
# Generated from Intellog Unique Number	CS_73_76/WELL/2105
WELL.         PEX KIRBY                      : Well_name    - WELL
LOC .         00/07-09-075-06W4/0            : Location     - LOCATION
UWI .         00/07-09-075-06W4/0            : Uwi          - UNIQUE WELL ID
ENTR.         SP                             : Entered      - ENTERED BY
SRVC.         SCHLUMBERGER                   : Scn          - SERVICE COMPANY
STRT.M        250                            : top_depth    - START DEPTH
STOP.M        490                            : bot_depth    - STOP DEPTH
STEP.M        0.25                           : increment    - STEP LENGTH
 NULL. -999.2500:NULL Value
~CURVE INFORMATION BLOCK
#MNEM UNIT       ERCB CURVE CODE    CURVE DESCRIPTION
#-----------   ------------------   ----------------------------------
DEPT.M        00 001 00 00         : DEPTH        - DEPTH
ILD .OHMM     00 120 00 00         : RESD         - DEEP RESISTIVITY (DIL)
DPHI.V/V      00 890 00 00         : PHID         - DENSITY POROSITY (LIMESTONE)
NPHI.V/V      00 330 00 00         : PHIN         - NEUTRON POROSITY (LIMESTONE)
GR  .API      00 310 00 00         : GR           - GAMMA RAY
~PARAMETER INFORMATION
#MNEM.UNIT           DATA             DESCRIPTION OF MNEMONIC
#---------         -----------     ------------------------------
GL  .M        648.36               : gl           - GROUND LEVEL ELEVATION
EREF.M        651.64               : kb           - ELEVATION OF DEPTH REFERENCE
DATM.M        648.36               : datum        - DATUM ELEVATION
TDD .M        497                  : tdd          - TOTAL DEPTH DRILLER
RUN .         ONE                  : Run          - RUN NUMBER
ENG .         BILL                 : Engineer     - RECORDING ENGINEER
WIT .         JIM                  : Witness      - WITNESSED BY
MUD .         GEL                  : Mud_type     - MUD TYPE
MATR.         LIMESTONE            : Logunit      - NEUTRON MATRIX
TMAX.C        21                   : BHT          - MAXIMUM RECORDED TEMPERATURE
BHTD.M        497                  : BHTDEP       - MAXIMUM RECORDED TEMPERATURE
MATR.         1                    : LOGUNIT      - NEUTRON MATRIX
RMT .C        25                   : MDTP         - TEMPERATURE OF MUD
NEUT.         1                    : NEUTRON      - NEUTRON TYPE
RESI.         0                    : RESIST       - RESISTIVITY TYPE
RMC .OHMM     0.25                 : RMC          - RESISTIVITY OF MUD CAKE
RMF .OHMM     0.25                 : RMF          - RESISTIVITY OF MUD FILTRATE
SUFT.C        15                   : SUFT         - SURFACE TEMPERATURE
~A  DEPTH     RESD     PHID     PHIN       GR
# ...
  424.000   29.002    0.277    0.326   61.877
  424.250   27.407    0.298    0.319   55.763
  424.500   24.944    0.308    0.320   54.543
  424.750   20.282    0.289    0.318   63.733
  425.000   15.011    0.250    0.316   72.312
  425.250   13.663    0.234    0.315   71.096
  425.500   12.672    0.199    0.324   74.775
  425.750   12.203    0.183    0.326   84.578
  426.000   11.532    0.175    0.313   83.362
  426.250   11.748    0.163    0.311   79.080
  426.500   11.970    0.314    0.335   71.740
  426.750   13.146    0.338    0.355   65.624
  427.000   13.907    0.336    0.363   66.244
  427.250   14.712    0.289    0.374   72.985
  427.500   16.465    0.260    0.386   77.278
  427.750   18.084    0.262    0.392   66.877
  428.000   19.131    0.278    0.372   59.538
  428.250   20.622    0.274    0.366   64.442
  428.500   22.229    0.293    0.370   68.121
  428.750   24.878    0.273    0.380   68.127
  429.000   26.818    0.254    0.389   66.299
  429.250   30.015    0.288    0.399   59.570
  429.500   35.540    0.313    0.402   52.229
  429.750   42.085    0.329    0.397   41.216
  430.000   49.835    0.332    0.388   39.386
  430.250   57.912    0.337    0.377   44.903
  430.500   64.815    0.321    0.361   40.014
  430.750   71.190    0.307    0.365   43.082
  431.000   78.189    0.300    0.365   41.861
  431.250   81.174    0.286    0.359   36.971
  431.500   84.268    0.283    0.362   35.141
  431.750   85.857    0.293    0.372   40.658
  432.000   87.475    0.308    0.373   44.338
  432.250   92.532    0.322    0.358   51.080
  432.500   96.066    0.323    0.355   53.535
  432.750   99.719    0.310    0.356   44.971
  433.000   99.706    0.302    0.362   40.080
  433.250   99.698    0.297    0.354   37.025
  433.500   82.602    0.310    0.346   33.972
  433.750   54.618    0.321    0.342   43.774
  434.000   40.424    0.316    0.350   51.127
  434.250   31.066    0.312    0.353   56.033
  434.500   27.232    0.297    0.359   58.488
  434.750   23.427    0.279    0.359   70.128
  435.000   22.987    0.257    0.357   75.033
  435.250   25.726    0.254    0.360   69.530
  435.500   28.258    0.183    0.349   63.413
  435.750   31.625    0.076    0.345   65.258
  436.000   33.456    0.220    0.365   64.651
  436.250   35.392    0.272    0.381   62.209
  436.500   29.321    0.301    0.366   67.727
  436.750   25.703    0.322    0.368   68.345
  437.000   19.753    0.291    0.352   70.188
  437.250   16.676    0.268    0.349   69.583
  437.500   14.346    0.259    0.363   73.875
  437.750   12.341    0.246    0.358   76.332
  438.000   10.616    0.229    0.358   91.646
  438.250    9.662    0.213    0.349   96.549
  438.500    9.131    0.196    0.358   95.944
  438.750    8.468    0.182    0.357   98.400
  439.000    8.310    0.176    0.360  102.080
  439.250    8.002    0.185    0.355  102.086
  439.500    8.152    0.203    0.349  103.932
  439.750    8.306    0.215    0.344   95.365
  440.000    8.623    0.251    0.338   78.229
  440.250    8.952    0.258    0.336   81.909
  440.500    9.648    0.197    0.338   85.589
  440.750   10.017    0.165    0.355   83.149
  441.000   10.797    0.176    0.344   76.420
  441.250   11.422    0.184    0.351   64.794
  441.500   12.312    0.205    0.352   57.456
  441.750   13.779    0.220    0.341   57.460
  442.000   14.577    0.213    0.345   62.977
  442.250   15.421    0.090    0.350   56.252
  442.500   15.711    0.204    0.341   53.807
  442.750   15.128    0.265    0.336   48.303
  443.000   13.768    0.260    0.328   48.922
  443.250   13.012    0.238    0.318   61.176
  443.500   12.297    0.217    0.314   69.140
  443.750   11.621    0.186    0.314   75.884
  444.000   11.619    0.151    0.324   78.340
  444.250   12.761    0.154    0.332   79.569
  444.500   14.017    0.163    0.357   71.616
  444.750   15.986    0.211    0.369   60.603
  445.000   17.892    0.249    0.360   52.650
  445.250   19.652    0.275    0.365   50.207
  445.500   18.924    0.293    0.374   53.888
  445.750   15.101    0.298    0.380   64.915
  446.000   12.278    0.245    0.368   80.841
  446.250   10.172    0.182    0.386   90.033
  446.500    9.086    0.161    0.395   97.997
  446.750    8.270    0.145    0.387  110.249
  447.000    7.815    0.135    0.376  110.869
  447.250    7.814    0.113    0.371  102.305
  447.500    8.582    0.096    0.360   92.516
  447.750    9.079    0.079    0.354   89.460
  448.000   10.954    0.319    0.349   75.385
  448.250   11.808    0.354    0.358   47.841
  448.500   13.467    0.363    0.359   39.275
  448.750   14.516    0.347    0.349   45.404
  449.000   16.246    0.320    0.340   53.372
  449.250   18.527    0.307    0.337   59.501
  449.500   18.877    0.299    0.352   62.571
  449.750   18.522    0.302    0.360   61.353
  450.000   16.545    0.302    0.365   60.134
  450.250   15.635    0.292    0.364   58.306
  450.500   14.500    0.277    0.363   57.698
  450.750   13.447    0.273    0.360   60.767
  451.000   12.471    0.266    0.341   70.568
  451.250   11.786    0.255    0.338   80.372
  451.500   11.138    0.248    0.344   79.767
  451.750   10.329    0.259    0.338   76.098
  452.000    9.947    0.208    0.333   82.228
  452.250    9.760    0.193    0.331   88.971
  452.500    9.759    0.174    0.337   94.487
  452.750   10.132    0.150    0.328   93.882
  453.000   11.339    0.131    0.334   88.991
  453.250   13.426    0.102    0.350   79.813
  453.500   15.027    0.039    0.349   66.963
  453.750   16.198    0.011    0.358   55.950
  454.000   17.792    0.037    0.362   50.445
  454.250   18.471    0.312    0.355   45.554
  454.500   17.130    0.312    0.347   43.112
  454.750   14.736    0.276    0.343   59.039
  455.000   12.209    0.237    0.337   66.392
  455.250    9.927    0.194    0.353   81.093
  455.500    8.867    0.157    0.367   88.445
  455.750    8.380    0.142    0.368   95.189
  456.000    7.771    0.151    0.373   99.481
  456.250    7.625    0.169    0.370  100.711
  456.500    7.624    0.185    0.365  100.106
  456.750    7.768    0.159    0.368  100.112
  457.000    8.694    0.137    0.361  100.733
  457.250   10.490    0.138    0.365   97.064
  457.500   12.421    0.164    0.356   75.031
  457.750   14.166    0.214    0.355   55.444
  458.000   17.748    0.250    0.371   45.044
  458.250   28.389    0.287    0.368   39.540
  458.500   34.904    0.301    0.363   47.506
  458.750   34.248    0.303    0.370   58.533
  459.000   27.847    0.283    0.363   68.948
  459.250   21.806    0.265    0.359   67.732
  459.500   18.067    0.261    0.360   70.798
  459.750   16.444    0.225    0.356   80.604
  460.000   13.883    0.179    0.340   83.057
  460.250   12.876    0.187    0.333   83.065
  460.500   13.118    0.191    0.328   78.787
  460.750   14.681    0.185    0.324   75.118
  461.000   18.393    0.219    0.349   66.553
  461.250   23.926    0.258    0.362   59.825
  461.500   29.974    0.277    0.345   50.649
  461.750   38.267    0.282    0.336   43.309
  462.000   53.664    0.283    0.335   58.622
  462.250   45.303    0.308    0.340   62.301
  462.500   34.815    0.332    0.352   72.105
  462.750   32.291    0.296    0.364   78.233
  463.000   27.260    0.300    0.367   78.856
  463.250   25.282    0.310    0.367   77.636
  463.500   25.756    0.313    0.381   75.806
  463.750   27.247    0.311    0.396   78.874
  464.000   28.288    0.322    0.390   79.493
  464.250   31.068    0.330    0.383   72.764
  464.500   32.255    0.333    0.384   66.648
  464.750   36.783    0.322    0.394   63.595
  465.000   39.650    0.317    0.388   61.154
  465.250   41.946    0.330    0.395   59.936
  465.500   45.213    0.344    0.381   60.554
  465.750   49.658    0.349    0.372   62.397
  466.000   50.594    0.355    0.367   59.956
  466.250   51.547    0.338    0.372   56.290
  466.500   49.637    0.325    0.375   55.682
  466.750   47.796    0.332    0.389   63.036
  467.000   46.902    0.318    0.380   83.859
  467.250   46.020    0.310    0.374   98.560
