~VERSION INFORMATION
 VERS.                 2.0:   CWLS LOG ASCII STANDARD -VERSION 2.0
 WRAP.                  NO:   ONE LINE PER DEPTH STEP
~WELL INFORMATION BLOCK
#MNEM.UNIT           DATA                    DESCRIPTION OF MNEMONIC
#---------    -------------------            -------------------------------
# Generated from Intellog Unique Number	CW_76_78/WELL/2573
WELL.         SCURRY ET AL MCMULLEN          : Well_name    - WELL
LOC .         00/07-11-078-02W5/0            : Location     - LOCATION
UWI .         00/07-11-078-02W5/0            : Uwi          - UNIQUE WELL ID
ENTR.         MAX                            : Entered      - ENTERED BY
SRVC.         SCHLUMBERGER                   : Scn          - SERVICE COMPANY
STRT.M        332.232                        : top_depth    - START DEPTH
STOP.M        582.232                        : bot_depth    - STOP DEPTH
STEP.M        0.25                           : increment    - STEP LENGTH
 NULL. -999.2500:NULL Value
~CURVE INFORMATION BLOCK
#MNEM UNIT       ERCB CURVE CODE    CURVE DESCRIPTION
#-----------   ------------------   ----------------------------------
DEPT.M        00 001 00 00         : DEPTH        - DEPTH
ILD .OHMM     00 120 00 00         : RESD         - DEEP RESISTIVITY (DIL)
NPHI.V/V      00 330 00 00         : PHIN         - NEUTRON POROSITY (SANDSTONE)
DPHI.V/V      00 890 00 00         : PHID         - DENSITY POROSITY (SANDSTONE)
CALI.MM       00 280 01 00         : CAL          - CALIPER
GR  .API      00 310 00 00         : GR           - GAMMA RAY
~PARAMETER INFORMATION
#MNEM.UNIT           DATA             DESCRIPTION OF MNEMONIC
#---------         -----------     ------------------------------
GL  .M        630.601              : gl           - GROUND LEVEL ELEVATION
EREF.M        634.289              : kb           - ELEVATION OF DEPTH REFERENCE
DATM.M        630.601              : datum        - DATUM ELEVATION
TDD .M        556.26               : tdd          - TOTAL DEPTH DRILLER
RUN .         ONE                  : Run          - RUN NUMBER
ENG .         BILL                 : Engineer     - RECORDING ENGINEER
WIT .         JIM                  : Witness      - WITNESSED BY
MUD .         GEL                  : Mud_type     - MUD TYPE
MATR.         SANDSTONE            : Logunit      - NEUTRON MATRIX
TMAX.C        31.1111              : BHT          - MAXIMUM RECORDED TEMPERATURE
BHTD.M        556.26               : BHTDEP       - MAXIMUM RECORDED TEMPERATURE
RMT .C        15.5556              : MDTP         - TEMPERATURE OF MUD
MUDD.KG/M     9700                 : MWT          - MUD DENSITY
NEUT.         1                    : NEUTRON      - NEUTRON TYPE
RESI.         0                    : RESIST       - RESISTIVITY TYPE
RM  .OHMM     3.75                 : RM           - RESISTIVITY OF MUD
RMC .OHMM     5.24                 : RMC          - RESISTIVITY OF MUD CAKE
RMF .OHMM     5.21                 : RMF          - RESISTIVITY OF MUD FILTRATE
SUFT.C        -12.2222             : SUFT         - SURFACE TEMPERATURE
~A  DEPTH     RESD     PHIN     PHID      CAL       GR
# ...
  478.232    6.625    0.509    0.222  230.268   77.249
  478.482    7.450    0.494    0.208  231.282   76.664
  478.732    9.725    0.448    0.165  231.295   75.490
  478.982   11.764    0.386    0.136  229.807   72.837
  479.232   13.138    0.376    0.124  229.319   68.112
  479.482   14.551    0.397    0.150  228.833   64.868
  479.732   14.475    0.406    0.179  229.846   63.694
  479.982   14.087    0.393    0.194  233.367   63.702
  480.232   13.032    0.386    0.201  234.381   64.595
  480.482   11.977    0.378    0.215  235.397   67.560
  480.732   10.611    0.399    0.222  235.406   69.343
  480.982   10.299    0.409    0.210  233.416   70.830
  481.232    9.440    0.432    0.211  230.927   72.020
  481.482    7.877    0.442    0.222  229.941   71.732
  481.732    7.253    0.455    0.229  229.450   73.220
  481.982    6.394    0.466    0.238  229.463   75.000
  482.232    5.614    0.479    0.241  230.479   76.191
  482.482    5.068    0.486    0.228  230.992   76.790
  482.732    4.719    0.480    0.224  231.508   77.980
  482.982    4.565    0.485    0.216  231.522   79.763
  483.232    4.529    0.493    0.193  231.535   80.954
  483.482    4.571    0.468    0.184  231.547   80.667
  483.732    4.534    0.445    0.199  231.559   79.787
  483.982    4.498    0.454    0.205  231.074   83.047
  484.232    4.501    0.446    0.210  231.087   84.534
  484.482    4.621    0.459    0.203  231.098   86.611
  484.732    4.977    0.489    0.195  231.114   88.985
  484.982    5.137    0.474    0.198  231.125   87.514
  485.232    4.943    0.463    0.210  231.138   85.749
  485.482    4.555    0.474    0.209  231.138   83.686
  485.732    4.361    0.468    0.209  231.170   82.510
  485.982    4.130    0.452    0.208  231.179   82.519
  486.232    4.016    0.460    0.203  231.192   86.075
  486.482    4.018    0.488    0.188  231.207   90.519
  486.732    4.099    0.475    0.180  231.219   89.935
  486.982    4.298    0.452    0.188  231.232   88.464
  487.232    4.497    0.451    0.187  231.245   87.880
  487.482    4.734    0.474    0.187  232.259   88.775
  487.732    5.090    0.449    0.188  232.272   89.967
  487.982    5.249    0.428    0.185  231.789   87.313
  488.232    5.213    0.431    0.173  231.298   86.434
  488.482    4.942    0.430    0.169  231.312   86.442
  488.732    4.514    0.432    0.170  230.826   86.744
  488.982    4.008    0.399    0.167  231.341   88.230
  489.232    3.697    0.387    0.160  231.352   90.604
  489.482    3.465    0.399    0.160  232.365   94.752
  489.732    3.465    0.444    0.171  233.382   98.310
  489.982    3.355    0.430    0.176  234.897  100.387
  490.232    3.317    0.416    0.173  235.411  101.283
  490.482    3.437    0.446    0.172  235.926   98.923
  490.732    3.753    0.434    0.156  235.438   92.425
  490.982    4.304    0.413    0.135  233.947   87.112
  491.232    5.639    0.388    0.119  231.960   82.683
  491.482    6.973    0.361    0.113  230.971   74.410
  491.732   10.853    0.306    0.066  229.984   69.391
  491.982   14.146    0.265    0.081  229.995   62.303
  492.232   16.185    0.314    0.136  230.008   62.014
  492.482   16.972    0.421    0.258  231.022   64.092
  492.732   15.995    0.399    0.260  231.037   67.945
  492.982   15.019    0.414    0.245  230.048   67.658
  493.232   14.200    0.438    0.244  227.560   66.481
  493.482   13.576    0.439    0.218  226.568   65.602
  493.732   12.756    0.429    0.187  226.082   66.497
  493.982   12.015    0.411    0.166  225.594   67.096
  494.232   11.783    0.399    0.162  227.111   67.695
  494.482   11.982    0.430    0.175  230.129   69.479
  494.732   12.415    0.431    0.213  231.643   72.148
  494.982   12.144    0.407    0.225  231.657   73.635
  495.232   11.128    0.408    0.225  231.680   73.641
  495.482    9.761    0.431    0.201  231.184   73.649
  495.732    7.884    0.399    0.194  231.184   74.544
  495.982    7.103    0.395    0.156  231.214   77.805
  496.232    6.793    0.390    0.116  230.721   76.926
  496.482    6.600    0.394    0.106  230.736   77.524
  496.732    6.368    0.399    0.168  230.750   83.743
  496.982    6.175    0.383    0.184  230.750   85.525
  497.232    6.139    0.369    0.159  230.782   83.167
  497.482    6.063    0.393    0.154  231.288   81.400
  497.732    5.635    0.411    0.192  231.288   80.817
  497.982    5.129    0.416    0.194  231.321   82.008
  498.232    4.505    0.415    0.183  231.329   83.789
  498.482    4.234    0.406    0.177  231.843   85.573
  498.732    4.041    0.422    0.160  232.358   84.692
  498.982    4.005    0.448    0.164  232.873   81.449
  499.232    4.047    0.465    0.192  232.873   80.866
  499.482    4.128    0.459    0.186  233.398   82.944
  499.732    4.209    0.448    0.184  234.415   83.836
  499.982    4.409    0.424    0.187  234.426   83.844
  500.232    4.529    0.411    0.192  233.938   84.445
  500.482    4.727    0.413    0.193  233.450   84.157
  500.732    4.769    0.426    0.208  233.450   83.868
  500.982    4.733    0.425    0.196  233.477   82.397
  501.232    4.618    0.425    0.191  233.492   79.745
  501.482    4.503    0.418    0.186  233.506   80.047
  501.732    4.311    0.411    0.181  233.516   81.534
  501.982    4.311    0.426    0.183  233.516   83.612
  502.232    4.200    0.450    0.191  233.042   85.098
  502.482    4.123    0.450    0.179  233.057   84.516
  502.732    4.048    0.448    0.176  232.570   84.226
  502.982    4.012    0.434    0.172  232.593   84.529
  503.232    3.936    0.434    0.161  232.597   86.313
  503.482    3.900    0.476    0.167  232.109   87.207
  503.732    3.864    0.474    0.168  232.109   87.510
  503.982    3.867    0.452    0.168  232.133   86.631
  504.232    3.869    0.439    0.159  231.646   85.160
  504.482    3.872    0.434    0.157  231.660   85.759
  504.732    3.914    0.428    0.172  232.175   87.837
  504.982    4.035    0.419    0.182  232.689   89.621
  505.232    4.194    0.425    0.176  232.705   89.332
  505.482    4.432    0.458    0.174  233.215   86.973
  505.732    4.944    0.434    0.190  232.730   82.844
  505.982    6.082    0.410    0.198  231.741   79.892
  506.232    7.495    0.396    0.206  231.252   75.169
  506.482    8.399    0.362    0.219  230.263   70.149
  506.732    9.694    0.402    0.193  229.775   67.497
  506.982    9.384    0.395    0.167  229.289   66.912
  507.232    9.034    0.361    0.148  229.302   68.103
  507.482    8.645    0.348    0.136  229.314   74.617
  507.732    8.178    0.384    0.194  230.332   76.106
  507.982    8.259    0.420    0.219  231.845   73.746
  508.232    9.946    0.427    0.202  233.861   68.430
  508.482   11.477    0.376    0.155  234.376   65.778
  508.732   12.498    0.335    0.112  233.891   62.532
  508.982   14.067    0.260    0.046  234.402   58.104
  509.232   12.739    0.267    0.163  235.418   58.999
  509.482   10.352    0.291    0.191  235.430   63.147
  509.732    8.750    0.376    0.211  234.443   72.026
  509.982    6.990    0.430    0.222  232.952   74.400
  510.232    5.818    0.452    0.209  231.965   76.181
  510.482    5.195    0.415    0.192  231.981   78.555
  510.732    5.001    0.417    0.191  232.493   80.930
  510.982    4.848    0.436    0.206  234.510   81.528
  511.232    4.772    0.432    0.200  236.526   81.240
  511.482    4.737    0.434    0.193  236.539   80.656
  511.732    4.739    0.451    0.181  235.049   80.665
  511.982    4.781    0.459    0.178  233.562   80.967
  512.232    4.784    0.450    0.178  232.573   81.862
  512.482    4.787    0.445    0.183  231.586   83.053
  512.732    4.750    0.440    0.184  231.096   83.653
  512.982    4.675    0.432    0.178  230.610   84.547
  513.232    4.521    0.441    0.173  230.132   86.330
  513.482    4.328    0.426    0.173  230.135   87.817
  513.732    4.057    0.413    0.170  229.647   87.528
  513.982    3.747    0.409    0.161  230.664   85.171
  514.232    3.632    0.403    0.149  231.679   83.995
  514.482    3.596    0.410    0.165  233.192   86.665
