~VERSION INFORMATION
 VERS.                 2.0:   CWLS LOG ASCII STANDARD -VERSION 2.0
 WRAP.                  NO:   ONE LINE PER DEPTH STEP
~WELL INFORMATION BLOCK
#MNEM.UNIT           DATA                    DESCRIPTION OF MNEMONIC
#---------    -------------------            -------------------------------
# Generated from Intellog Unique Number	CS_77_79/WELL/900
WELL.         DOME PETROLEUM LIMITED         : Well_name    - WELL
LOC .         00/07-19-077-16W4/0            : Location     - LOCATION
UWI .         00/07-19-077-16W4/0            : Uwi          - UNIQUE WELL ID
ENTR.         SP                             : Entered      - ENTERED BY
SRVC.         SCHLUMBERGER                   : Scn          - SERVICE COMPANY
STRT.M        240                            : top_depth    - START DEPTH
STOP.M        460                            : bot_depth    - STOP DEPTH
STEP.M        0.25                           : increment    - STEP LENGTH
 NULL. -999.2500:NULL Value
~CURVE INFORMATION BLOCK
#MNEM UNIT       ERCB CURVE CODE    CURVE DESCRIPTION
#-----------   ------------------   ----------------------------------
DEPT.M        00 001 00 00         : DEPTH        - DEPTH
ILD .OHMM     00 120 00 00         : RESD         - DEEP RESISTIVITY (DIL)
DPHI.V/V      00 890 00 00         : PHID         - DENSITY POROSITY (LIMESTONE)
NPHI.V/V      00 330 00 00         : PHIN         - NEUTRON POROSITY (LIMESTONE)
GR  .API      00 310 00 00         : GR           - GAMMA RAY
~PARAMETER INFORMATION
#MNEM.UNIT           DATA             DESCRIPTION OF MNEMONIC
#---------         -----------     ------------------------------
GL  .M        624.8                : gl           - GROUND LEVEL ELEVATION
EREF.M        628.94               : kb           - ELEVATION OF DEPTH REFERENCE
DATM.M        624.8                : datum        - DATUM ELEVATION
TDD .M        467                  : tdd          - TOTAL DEPTH DRILLER
RUN .         ONE                  : Run          - RUN NUMBER
ENG .         BILL                 : Engineer     - RECORDING ENGINEER
WIT .         JIM                  : Witness      - WITNESSED BY
MUD .         GEL                  : Mud_type     - MUD TYPE
MATR.         LIMESTONE            : Logunit      - NEUTRON MATRIX
TMAX.C        21                   : BHT          - MAXIMUM RECORDED TEMPERATURE
BHTD.M        467                  : BHTDEP       - MAXIMUM RECORDED TEMPERATURE
MATR.         1                    : LOGUNIT      - NEUTRON MATRIX
RMT .C        25                   : MDTP         - TEMPERATURE OF MUD
NEUT.         1                    : NEUTRON      - NEUTRON TYPE
RESI.         0                    : RESIST       - RESISTIVITY TYPE
RMC .OHMM     0.25                 : RMC          - RESISTIVITY OF MUD CAKE
RMF .OHMM     0.25                 : RMF          - RESISTIVITY OF MUD FILTRATE
SUFT.C        15                   : SUFT         - SURFACE TEMPERATURE
~A  DEPTH     RESD     PHID     PHIN       GR
  240.000    2.697    0.279    0.560  101.224
  240.250    2.599    0.286    0.562  103.070
  240.500    2.602    0.293    0.572  104.917
  240.750    2.602    0.309    0.580  105.537
  241.000    2.604    0.328    0.590  101.893
  241.250    2.605    0.344    0.582   98.857
  241.500    2.656    0.353    0.574   96.437
  241.750    2.657    0.367    0.594   95.228
  242.000    2.709    0.375    0.599   98.293
  242.250    2.762    0.382    0.594  101.964
  242.500    2.764    0.377    0.577  106.248
  242.750    2.817    0.360    0.563  110.532
  243.000    2.818    0.305    0.579  111.155
  243.250    2.820    0.264    0.584  111.170
  243.500    2.875    0.244    0.579  108.745
  243.750    2.931    0.238    0.564  104.490
  244.000    2.933    0.240    0.572  103.293
  244.250    2.989    0.249    0.559  102.691
  244.500    2.991    0.254    0.547  108.804
  244.750    3.107    0.255    0.535  110.039
  245.000    3.168    0.253    0.526  107.613
  245.250    3.290    0.244    0.525  103.969
  245.500    3.354    0.237    0.537  103.983
  245.750    3.355    0.250    0.547  104.611
  246.000    3.420    0.235    0.558  105.237
  246.250    3.487    0.221    0.564  105.855
  246.500    3.623    0.228    0.555  104.040
  246.750    3.624    0.238    0.549  102.228
  247.000    3.559    0.228    0.552  101.020
  247.250    3.560    0.246    0.555  100.429
  247.500    3.496    0.263    0.554  100.447
  247.750    3.369    0.275    0.546  100.455
  248.000    3.247    0.284    0.535  101.081
  248.250    3.249    0.264    0.525  103.534
  248.500    3.312    0.268    0.525  104.768
  248.750    3.315    0.268    0.533  106.002
  249.000    3.378    0.240    0.534  107.846
  249.250    3.444    0.248    0.536  111.518
  249.500    3.511    0.254    0.549  112.752
  249.750    3.579    0.257    0.561  110.327
  250.000    3.581    0.252    0.577  106.686
  250.250    3.517    0.267    0.600  107.917
  250.500    3.453    0.276    0.585  107.324
  250.750    3.391    0.287    0.576  108.556
  251.000    3.330    0.286    0.562  110.403
  251.250    3.270    0.287    0.549  107.977
  251.500    3.271    0.283    0.539  104.332
  251.750    3.335    0.292    0.527  104.347
  252.000    3.464    0.297    0.517  104.362
  252.250    3.878    0.286    0.517  103.768
  252.500    4.341    0.283    0.521  103.782
  252.750    5.045    0.297    0.535  103.794
  253.000    6.439    0.321    0.538   98.931
  253.250    8.217    0.340    0.508   95.285
  253.500   10.292    0.354    0.426   89.205
  253.750   12.187    0.364    0.410   84.339
  254.000   13.146    0.372    0.398   79.476
  254.250   13.151    0.344    0.399   77.051
  254.500   13.405    0.332    0.394   80.118
  254.750   13.412    0.322    0.412   80.132
  255.000   12.928    0.316    0.423   77.704
  255.250   12.458    0.309    0.456   75.892
  255.500   12.006    0.310    0.474   76.514
  255.750   11.356    0.288    0.475   82.016
  256.000    9.968    0.276    0.470   88.135
  256.250    9.083    0.261    0.462   91.806
  256.500    8.431    0.254    0.463   94.256
  256.750    7.539    0.256    0.474   92.444
  257.000    6.617    0.274    0.478   91.239
  257.250    5.917    0.294    0.485   91.251
  257.500    5.391    0.310    0.490   95.535
  257.750    4.912    0.320    0.494   96.766
  258.000    4.560    0.329    0.505   95.567
  258.250    4.078    0.319    0.514   96.188
  258.500    3.930    0.301    0.530  102.914
  258.750    3.648    0.268    0.542  111.461
  259.000    3.582    0.272    0.561  117.573
  259.250    3.792    0.280    0.590  121.246
  259.500    4.166    0.290    0.587  118.823
  259.750    4.933    0.298    0.573  115.788
  260.000    5.732    0.302    0.553  112.756
  260.250    7.738    0.302    0.466  108.499
  260.500   11.258    0.306    0.422   99.366
  260.750   13.840    0.312    0.385   89.624
  261.000   14.378    0.314    0.354   80.493
  261.250   14.657    0.305    0.332   76.849
  261.500   14.392    0.287    0.346   76.252
  261.750   13.871    0.276    0.364   77.490
  262.000   13.367    0.264    0.376   81.159
  262.250   13.126    0.251    0.386   86.053
  262.500   12.651    0.232    0.378   84.849
  262.750   11.745    0.235    0.370   83.033
  263.000   10.903    0.242    0.361   78.783
  263.250    9.570    0.233    0.372   76.355
  263.500    8.243    0.220    0.393   76.369
  263.750    7.651    0.226    0.411   84.921
  264.000    7.514    0.233    0.427   97.132
  264.250    8.412    0.239    0.445  104.462
  264.500   10.151    0.260    0.440  108.139
  264.750   10.741    0.276    0.424  101.443
  265.000   11.584    0.288    0.410   84.385
  265.250   12.029    0.290    0.396   77.080
  265.500   11.814    0.262    0.406   72.218
  265.750   11.174    0.205    0.421   72.236
  266.000    9.994    0.181    0.417   72.856
  266.250    9.277    0.167    0.403   69.821
  266.500    9.108    0.171    0.392   77.155
  266.750    8.945    0.198    0.406   82.656
  267.000    9.121    0.222    0.411   90.603
  267.250    9.471    0.239    0.419   94.271
  267.500   10.023    0.254    0.422   92.463
  267.750   10.811    0.271    0.422   91.251
  268.000   11.228    0.280    0.425   92.489
  268.250   11.446    0.295    0.428   94.942
  268.500   11.892    0.302    0.428   98.006
  268.750   11.895    0.294    0.425  101.071
  269.000   12.357    0.286    0.421  102.301
  269.250   12.595    0.284    0.424  102.319
  269.500   13.084    0.294    0.427  102.943
  269.750   13.341    0.295    0.432  104.173
  270.000   13.345    0.295    0.433  104.799
  270.250   13.604    0.302    0.444  101.762
  270.500   13.610    0.314    0.437   92.023
  270.750   13.621    0.306    0.420   85.327
  271.000   13.374    0.301    0.387   75.589
  271.250   13.135    0.309    0.370   67.673
  271.500   13.139    0.315    0.378   57.936
  271.750   12.902    0.321    0.370   54.288
  272.000   12.668    0.324    0.370   54.303
  272.250   12.441    0.333    0.366   54.927
  272.500   11.991    0.320    0.371   56.775
  272.750   11.555    0.313    0.389   58.004
  273.000   10.933    0.303    0.400   61.068
  273.250   10.734    0.297    0.411   68.402
  273.500    9.967    0.288    0.409   74.515
  273.750    9.785    0.294    0.407   76.964
  274.000    9.083    0.292    0.405   70.883
  274.250    8.123    0.288    0.392   70.290
  274.500    6.997    0.278    0.389   70.912
  274.750    6.140    0.254    0.405   75.196
  275.000    5.389    0.242    0.424   75.209
  275.250    4.820    0.232    0.443   75.836
  275.500    4.474    0.216    0.464   89.875
  275.750    4.233    0.202    0.507   96.593
  276.000    4.156    0.200    0.537  105.759
  276.250    4.005    0.210    0.526  110.651
  276.500    3.860    0.198    0.519  111.881
  276.750    3.790    0.200    0.520  117.385
  277.000    3.722    0.201    0.546  120.450
  277.250    3.656    0.218    0.554  122.907
  277.500    3.657    0.215    0.537  124.745
  277.750    3.591    0.207    0.538  118.663
  278.000    3.593    0.213    0.527  119.902
  278.250    3.595    0.218    0.536  120.522
  278.500    3.665    0.223    0.532  121.149
  278.750    4.027    0.228    0.541  122.995
  279.000    4.262    0.233    0.558  124.227
  279.250    4.595    0.230    0.550  126.071
  279.500    5.340    0.240    0.521  128.525
  279.750    6.207    0.240    0.492  128.542
  280.000    7.080    0.229    0.477  127.940
  280.250    7.633    0.248    0.457  118.201
  280.500    7.929    0.259    0.459  113.944
  280.750    7.935    0.253    0.461  110.908
  281.000    7.790    0.254    0.464  110.924
  281.250    7.233    0.267    0.466  117.651
  281.500    6.715    0.260    0.469  119.494
  281.750    6.592    0.251    0.471  112.801
  282.000    6.473    0.240    0.492  109.154
  282.250    7.524    0.240    0.510  105.508
  282.500    8.267    0.256    0.524  115.894
  282.750    9.084    0.271    0.518  118.955
  283.000    9.435    0.281    0.496  114.701
  283.250    9.619    0.294    0.453  107.399
