~VERSION INFORMATION
 VERS.                 2.0:   CWLS LOG ASCII STANDARD -VERSION 2.0
 WRAP.                  NO:   ONE LINE PER DEPTH STEP
~WELL INFORMATION BLOCK
#MNEM.UNIT           DATA                    DESCRIPTION OF MNEMONIC
#---------    -------------------            -------------------------------
# Generated from Intellog Unique Number	CC_80_83/WELL/1050
LOC .         00/04-30-083-06W4/0            : Location     - LOCATION
UWI .         00/04-30-083-06W4/0            : Uwi          - UNIQUE WELL ID
ENTR.         DW                             : Entered      - ENTERED BY
SRVC.         SCHLUMBERGER                   : Scn          - SERVICE COMPANY
STRT.M        110                            : top_depth    - START DEPTH
STOP.M        364.75                         : bot_depth    - STOP DEPTH
STEP.M        0.25                           : increment    - STEP LENGTH
 NULL. -999.2500:NULL Value
~CURVE INFORMATION BLOCK
#MNEM UNIT       ERCB CURVE CODE    CURVE DESCRIPTION
#-----------   ------------------   ----------------------------------
DEPT.M        00 001 00 00         : DEPTH        - DEPTH
GR  .API      00 310 00 00         : GR           - GAMMA RAY
DPHI.V/V      00 890 00 00         : PHID         - DENSITY POROSITY (SANDSTONE)
NPHI.V/V      00 330 00 00         : PHIN         - NEUTRON POROSITY (SANDSTONE)
ILD .OHMM     00 120 00 00         : RESD         - DEEP RESISTIVITY (DIL)
~PARAMETER INFORMATION
#MNEM.UNIT           DATA             DESCRIPTION OF MNEMONIC
#---------         -----------     ------------------------------
GL  .M        561.95               : gl           - GROUND LEVEL ELEVATION
EREF.M        566.5                : kb           - ELEVATION OF DEPTH REFERENCE
DATM.M        566.5                : datum        - DATUM ELEVATION
TDD .M        408                  : tdd          - TOTAL DEPTH DRILLER
RUN .         ONE                  : Run          - RUN NUMBER
ENG .         BILL                 : Engineer     - RECORDING ENGINEER
WIT .         JIM                  : Witness      - WITNESSED BY
MUD .         GEL                  : Mud_type     - MUD TYPE
MATR.         SANDSTONE            : Logunit      - NEUTRON MATRIX
TMAX.C        20                   : BHT          - MAXIMUM RECORDED TEMPERATURE
BHTD.M        407                  : BHTDEP       - MAXIMUM RECORDED TEMPERATURE
MATR.         1                    : LOGUNIT      - NEUTRON MATRIX
RMT .C        25                   : MDTP         - TEMPERATURE OF MUD
NEUT.         1                    : NEUTRON      - NEUTRON TYPE
RESI.         0                    : RESIST       - RESISTIVITY TYPE
RMC .OHMM     0.25                 : RMC          - RESISTIVITY OF MUD CAKE
RMF .OHMM     0.25                 : RMF          - RESISTIVITY OF MUD FILTRATE
SUFT.C        15                   : SUFT         - SURFACE TEMPERATURE
~A  DEPTH       GR     PHID     PHIN     RESD
# ...
  153.500   60.106    0.336    0.420   20.520
  153.750   60.059    0.333    0.422   21.597
  154.000   60.695    0.329    0.416   22.053
  154.250   63.121    0.325    0.419   22.145
  154.500   67.707    0.309    0.412   22.151
  154.750   73.679    0.279    0.400   20.789
  155.000   79.162    0.255    0.427   17.377
  155.250   80.268    0.265    0.445   16.201
  155.500   76.156    0.287    0.438   15.851
  155.750   72.848    0.308    0.440   16.144
  156.000   74.215    0.318    0.447   17.296
  156.250   80.195    0.313    0.433   19.233
  156.500   94.547    0.309    0.418   21.802
  156.750  120.538    0.321    0.428   23.693
  157.000  129.580    0.348    0.433   24.785
  157.250  116.125    0.352    0.442   26.589
  157.500   90.272    0.324    0.455   28.402
  157.750   69.409    0.312    0.451   28.968
  158.000   66.517    0.334    0.429   28.393
  158.250   69.385    0.321    0.410   25.939
  158.500   73.739    0.303    0.405   23.502
  158.750   76.226    0.288    0.429   21.625
  159.000   77.763    0.282    0.451   20.137
  159.250   80.684    0.289    0.457   19.000
  159.500   83.730    0.297    0.469   18.163
  159.750   85.448    0.298    0.463   17.422
  160.000   85.477    0.295    0.446   15.890
  160.250   84.106    0.286    0.429   15.082
  160.500   85.967    0.269    0.437   15.047
  160.750   91.489    0.264    0.448   15.185
  161.000   93.021    0.278    0.414   15.967
  161.250   87.917    0.274    0.401   16.482
  161.500   79.717    0.301    0.401   17.149
  161.750   75.382    0.302    0.412   18.254
  162.000   75.756    0.283    0.417   19.241
  162.250   76.630    0.289    0.410   19.736
  162.500   75.997    0.294    0.412   20.035
  162.750   75.014    0.291    0.413   20.071
  163.000   74.115    0.283    0.411   19.824
  163.250   75.163    0.252    0.414   19.430
  163.500   77.603    0.246    0.431   18.465
  163.750   78.413    0.264    0.451   17.024
  164.000   76.107    0.249    0.456   16.043
  164.250   73.558    0.277    0.454   15.496
  164.500   77.051    0.299    0.453   15.581
  164.750   83.963    0.280    0.442   16.038
  165.000   89.840    0.261    0.429   15.802
  165.250   94.065    0.265    0.426   14.693
  165.500   96.980    0.262    0.428   13.589
  165.750   96.769    0.257    0.425   12.325
  166.000   95.297    0.240    0.416   11.914
  166.250  101.427    0.228    0.407   11.930
  166.500  111.701    0.223    0.422   11.932
  166.750  117.368    0.210    0.460   10.542
  167.000  119.102    0.191    0.480    7.351
  167.250  118.149    0.187    0.470    6.875
  167.500  111.848    0.206    0.454    7.036
  167.750  107.728    0.220    0.448    7.312
  168.000  107.506    0.225    0.449    8.209
  168.250  106.678    0.234    0.444    9.721
  168.500  103.928    0.234    0.424   11.315
  168.750   99.563    0.225    0.406   11.919
  169.000   99.139    0.220    0.418   12.245
  169.250   99.837    0.237    0.420   12.769
  169.500   96.614    0.251    0.409   12.793
  169.750   96.613    0.240    0.396   12.074
  170.000  107.033    0.225    0.391   11.345
  170.250  110.732    0.220    0.455   10.480
  170.500  110.390    0.244    0.449   10.003
  170.750  109.821    0.248    0.419    9.992
  171.000  106.241    0.222    0.436    9.849
  171.250   99.994    0.232    0.466   10.188
  171.500   95.568    0.289    0.465   12.016
  171.750   90.910    0.291    0.464   13.460
  172.000   93.365    0.286    0.460   14.678
  172.250   98.029    0.279    0.448   15.425
  172.500   97.842    0.272    0.442   15.785
  172.750   93.496    0.270    0.441   15.939
  173.000   90.151    0.265    0.436   15.661
  173.250   90.065    0.260    0.448   15.221
  173.500   90.060    0.245    0.460   14.416
  173.750   88.213    0.236    0.456   13.391
  174.000   83.877    0.238    0.448   12.370
  174.250   77.143    0.247    0.451   11.822
  174.500   69.480    0.267    0.455   12.302
  174.750   62.802    0.277    0.430   13.635
  175.000   56.950    0.273    0.414   15.943
  175.250   54.763    0.270    0.411   18.182
  175.500   56.266    0.271    0.400   20.030
  175.750   58.179    0.272    0.389   21.383
  176.000   58.547    0.273    0.399   21.622
  176.250   57.662    0.274    0.396   21.312
  176.500   55.800    0.278    0.390   20.953
  176.750   53.653    0.284    0.395   20.762
  177.000   51.849    0.285    0.404   21.056
  177.250   51.384    0.279    0.409   21.816
  177.500   53.134    0.280    0.408   22.495
  177.750   55.768    0.298    0.395   22.887
  178.000   57.304    0.306    0.381   23.005
  178.250   57.297    0.301    0.393   22.724
  178.500   56.580    0.298    0.413   22.494
  178.750   56.312    0.302    0.417   22.535
  179.000   56.303    0.305    0.417   22.544
  179.250   54.418    0.301    0.414   22.919
  179.500   51.728    0.302    0.421   23.043
  179.750   49.995    0.299    0.438   22.924
  180.000   49.611    0.298    0.441   23.215
  180.250   50.612    0.303    0.427   24.068
  180.500   53.933    0.307    0.424   24.811
  180.750   59.257    0.318    0.427   24.918
  181.000   61.265    0.318    0.429   24.200
  181.250   59.008    0.314    0.426   23.802
  181.500   57.771    0.311    0.419   24.098
  181.750   59.053    0.307    0.422   25.182
  182.000   57.733    0.302    0.436   26.804
  182.250   53.398    0.299    0.438   26.829
  182.500   48.380    0.316    0.424   27.168
  182.750   52.889    0.333    0.416   27.233
  183.000   58.882    0.322    0.411   26.515
  183.250   56.520    0.305    0.399   25.731
  183.500   53.556    0.316    0.386   25.393
  183.750   52.350    0.313    0.380   25.778
  184.000   52.978    0.314    0.388   26.245
  184.250   54.600    0.322    0.396   26.588
  184.500   55.722    0.327    0.407   27.190
  184.750   56.200    0.328    0.421   27.281
  185.000   56.700    0.325    0.427   25.942
  185.250   56.096    0.324    0.430   25.136
  185.500   57.172    0.331    0.435   24.196
  185.750   58.990    0.334    0.432   22.639
  186.000   60.286    0.330    0.425   20.832
  186.250   61.215    0.320    0.423   19.393
  186.500   61.694    0.305    0.423   18.566
  186.750   61.332    0.317    0.437   17.988
  187.000   59.861    0.327    0.452   17.596
  187.250   58.855    0.332    0.454   17.692
  187.500   58.609    0.331    0.448   18.008
  187.750   58.858    0.326    0.438   18.342
  188.000   59.955    0.323    0.416   19.303
  188.250   60.597    0.315    0.406   21.913
  188.500   60.747    0.291    0.435   26.443
  188.750   65.311    0.298    0.476   18.899
  189.000   69.153    0.329    0.485    8.920
  189.250   65.701    0.330    0.456    8.682
  189.500   62.496    0.304    0.436    8.035
  189.750   68.688    0.318    0.463    7.884
  190.000   70.438    0.328    0.476    7.890
  190.250   64.452    0.332    0.461    8.582
  190.500   58.171    0.343    0.444    9.433
  190.750   56.398    0.353    0.442   11.959
  191.000   56.496    0.354    0.448   18.655
  191.250   55.388    0.350    0.451   24.506
  191.500   55.973    0.355    0.460   26.218
  191.750   57.120    0.353    0.462   26.196
  192.000   58.429    0.347    0.451   26.125
  192.250   59.734    0.352    0.436   25.587
  192.500   58.434    0.354    0.424   24.796
  192.750   54.041    0.344    0.404   24.378
  193.000   48.854    0.327    0.385   24.486
  193.250   46.823    0.322    0.392   25.693
  193.500   48.292    0.337    0.417   27.373
  193.750   50.210    0.352    0.431   28.480
  194.000   50.572    0.351    0.433   28.864
  194.250   49.776    0.345    0.424   28.459
  194.500   46.980    0.341    0.417   27.954
  194.750   44.418    0.330    0.414   27.757
  195.000   44.058    0.326    0.414   27.988
  195.250   45.510    0.332    0.415   28.472
  195.500   47.006    0.324    0.410   28.929
  195.750   47.062    0.329    0.400   29.417
  196.000   47.084    0.346    0.402   29.566
  196.250   46.740    0.343    0.413   29.286
  196.500   46.459    0.327    0.416   28.739
  196.750   46.369    0.317    0.405   28.449
