~VERSION INFORMATION
 VERS.                 2.0:   CWLS LOG ASCII STANDARD -VERSION 2.0
 WRAP.                  NO:   ONE LINE PER DEPTH STEP
~WELL INFORMATION BLOCK
#MNEM.UNIT           DATA                    DESCRIPTION OF MNEMONIC
#---------    -------------------            -------------------------------
# Generated from Intellog Unique Number	CC_80_83/WELL/1171
NULL.         -999.25                        : NULL_VALUE
WELL.         PARA ET AL CHARD               : Well_name
LOC .         07-01-080-06W4                 : Location     - LOCATION          
UWI .         00/07-01-080-06W400            : Uwi          - UNIQUE WELL ID    
ENTR.         DW                             : Entered      - ENTERED BY        
SRVC.         SCHLUMBERGER                   : Scn          - SERVICE COMPANY   
DATE.         11 JAN 82                      : Date         - LOG DATE
STRT.M        104                            : top_depth    - START DEPTH       
STOP.M        280.101                        : bot_depth    - STOP DEPTH        
STEP.M        0.3                            : increment    - STEP LENGTH       
~CURVE INFORMATION BLOCK
#MNEM UNIT       ERCB CURVE CODE    CURVE DESCRIPTION
#-----------   ------------------   ----------------------------------
DEPT.M        00 001 00 00         : DEPTH        - DEPTH                       
DPHI.V/V      00 890 00 00         : PHID         - DENSITY POROSITY (LIMESTONE)
NPHI.V/V      00 330 00 00         : PHIN         - NEUTRON POROSITY (LIMESTONE)
GR  .API      00 310 00 00         : GR           - GAMMA RAY                   
ILD .OHMM     00 120 00 00         : RESD         - DEEP RESISTIVITY (DIL)      
~PARAMETER INFORMATION       
#MNEM.UNIT           DATA             DESCRIPTION OF MNEMONIC
#---------         -----------     ------------------------------
GL  .M        463.74               : gl           - GROUND LEVEL ELEVATION      
EREF.M        466.74               : kb           - ELEVATION OF DEPTH REFERENCE
DATM.M        466.74               : datum        - DATUM ELEVATION             
TDD .M        292                  : tdd          - TOTAL DEPTH DRILLER         
RUN .         ONE                  : Run          - RUN NUMBER                  
ENG .         BILL                 : Engineer     - RECORDING ENGINEER          
WIT .         JIM                  : Witness      - WITNESSED BY                
MUD .         GEL                  : Mud_type     - MUD TYPE                    
MATR.         LIMESTONE            : Logunit      - NEUTRON MATRIX              
TMAX.C        21                   : BHT          - MAXIMUM RECORDED TEMPERATURE
BHTD.M        292                  : BHTDEP       - MAXIMUM RECORDED TEMPERATURE
MATR.         1                    : LOGUNIT      - NEUTRON MATRIX              
RMT .C        25                   : MDTP         - TEMPERATURE OF MUD          
NEUT.         1                    : NEUTRON      - NEUTRON TYPE                
RESI.         0                    : RESIST       - RESISTIVITY TYPE            
RMC .OHMM     0.25                 : RMC          - RESISTIVITY OF MUD CAKE     
RMF .OHMM     0.25                 : RMF          - RESISTIVITY OF MUD FILTRATE 
SUFT.C        15                   : SUFT         - SURFACE TEMPERATURE         
~A  DEPTH     PHID     PHIN       GR     RESD
  104.000    0.332    0.470   68.182   25.557
  104.300    0.333    0.463   68.182   26.510
  104.600    0.334    0.440   68.182   26.498
  104.900    0.330    0.429   63.843   26.471
  105.200    0.332    0.435   61.983   25.958
  105.500    0.340    0.423   63.843   25.436
  105.800    0.345    0.396   68.182   24.943
  106.100    0.341    0.411   68.182   23.998
  106.400    0.334    0.430   69.421   23.084
  106.700    0.334    0.427   70.041   23.066
  107.000    0.354    0.405   71.281   22.607
  107.300    0.367    0.398   71.281   22.590
  107.600    0.361    0.403   68.802   22.576
  107.900    0.354    0.432   68.802   22.127
  108.200    0.355    0.450   70.661   21.697
  108.500    0.353    0.447   71.281   21.267
  108.800    0.339    0.432   73.141   20.855
  109.100    0.333    0.416   73.141   21.230
  109.400    0.327    0.401   66.322   21.216
  109.700    0.322    0.433   68.802   21.193
  110.000    0.325    0.450   75.000   21.178
  110.300    0.331    0.432   71.281   20.768
  110.600    0.324    0.444   65.703   21.137
  110.900    0.330    0.444   67.562   21.122
  111.200    0.339    0.448   74.380   21.111
  111.500    0.344    0.451   90.496   21.087
  111.800    0.338    0.453  117.769   21.067
  112.100    0.339    0.476  106.612   21.057
  112.400    0.339    0.511   85.537   20.644
  112.700    0.329    0.442   73.760   20.617
  113.000    0.325    0.443   76.240   20.996
  113.300    0.331    0.424   78.099   21.385
  113.600    0.343    0.409   69.421   23.046
  113.900    0.334    0.435   64.463   25.315
  114.200    0.156    0.351   58.884   26.278
  114.500    0.177    0.308   55.785   27.788
  114.800    0.291    0.357   63.223   28.292
  115.100    0.339    0.424   66.942   28.259
  115.400    0.334    0.481   66.322   28.243
  115.700    0.331    0.427   64.463   28.226
  116.000    0.340    0.408   55.785   27.657
  116.300    0.348    0.396   55.785   27.644
  116.600    0.338    0.398   54.545   26.597
  116.900    0.336    0.448   56.405   25.101
  117.200    0.333    0.432   60.744   23.689
  117.500    0.331    0.359   65.083   23.677
  117.800    0.330    0.390   80.579   25.511
  118.100    0.336    0.408   80.579   26.480
  118.400    0.339    0.461   72.521   25.954
  118.700    0.333    0.442   73.760   25.453
  119.000    0.328    0.390   75.620   24.480
  119.300    0.328    0.401   70.661   24.008
  119.600    0.325    0.427   69.421   23.983
  119.900    0.322    0.469   74.380   25.360
  120.200    0.310    0.454   72.521   26.322
  120.500    0.302    0.469   63.223   26.801
  120.800    0.296    0.480   67.562   27.295
  121.100    0.303    0.485   77.479   27.794
  121.400    0.322    0.476   79.339   28.299
  121.700    0.328    0.401   71.281   28.814
  122.000    0.329    0.418   69.421   28.250
  122.300    0.322    0.451   76.240   24.720
  122.600    0.309    0.423   82.438   19.674
  122.900    0.287    0.425   86.777   15.076
  123.200    0.266    0.467   89.256   12.001
  123.500    0.278    0.484   88.636    9.733
  123.800    0.291    0.399   78.099   12.209
  124.100    0.270    0.380   73.141   15.313
  124.400    0.270    0.402   70.661   16.505
  124.700    0.291    0.432   73.141   14.717
  125.000    0.281    0.424   79.959   11.938
  125.300    0.240    0.449   89.256    8.976
  125.600    0.250    0.501  105.992    7.706
  125.900    0.260    0.508   92.975    7.848
  126.200    0.235    0.451   74.380    9.657
  126.500    0.167    0.365   78.099   10.604
  126.800    0.188    0.381   91.736   10.597
  127.100    0.226    0.408  102.893   10.591
  127.400    0.246    0.419   96.694   10.185
  127.700    0.241    0.485  103.512    9.801
  128.000    0.242    0.506  107.231    8.905
  128.300    0.242    0.507  107.231    8.094
  128.600    0.237    0.453  106.612    7.496
  128.900    0.232    0.403  110.331    7.351
  129.200    0.231    0.441  110.331    6.936
  129.500    0.224    0.455  110.950    6.802
  129.800    0.220    0.456  115.289    6.298
  130.100    0.216    0.429  119.008    6.061
  130.400    0.221    0.415  119.628    5.506
  130.700    0.230    0.456  115.289    5.299
  131.000    0.239    0.485  110.950    4.815
  131.300    0.246    0.458  110.331    4.375
  131.600    0.257    0.420  110.331    4.290
  131.900    0.261    0.418  110.331    4.126
  132.200    0.252    0.469  110.950    4.046
  132.500    0.243    0.481  118.388    3.966
  132.800    0.234    0.414  110.950    4.116
  133.100    0.241    0.408  117.769    4.436
  133.400    0.242    0.397  122.107    4.693
  133.700    0.243    0.423  112.810    5.353
  134.000    0.246    0.464  101.033    5.661
  134.300    0.251    0.505   97.314    5.549
  134.600    0.252    0.524  107.231    5.443
  134.900    0.248    0.470  112.810    4.853
  135.200    0.241    0.464  109.711    4.410
  135.500    0.236    0.486  112.810    4.008
  135.800    0.240    0.581  115.289    3.856
  136.100    0.246    0.608  112.810    3.708
  136.400    0.240    0.584  109.091    3.705
  136.700    0.239    0.448  112.810    3.703
  137.000    0.245    0.417  114.050    3.771
  137.300    0.255    0.410  115.289    3.839
  137.600    0.263    0.408  115.289    3.837
  137.900    0.267    0.441  116.529    3.760
  138.200    0.266    0.511  117.149    3.828
  138.500    0.253    0.549  115.909    3.974
  138.800    0.247    0.517  111.570    4.366
  139.100    0.243    0.427  107.851    5.076
  139.400    0.256    0.413   91.736    5.575
  139.700    0.263    0.427   89.256    6.010
  140.000    0.247    0.526   91.116    6.599
  140.300    0.243    0.530   92.975    6.849
  140.600    0.255    0.488   90.496    7.109
  140.900    0.250    0.471   91.116    7.377
  141.200    0.243    0.480   94.215    7.513
  141.500    0.234    0.461   94.215    7.795
  141.800    0.238    0.362   92.355    8.091
  142.100    0.243    0.368   92.355    8.394
  142.400    0.246    0.377   92.975    8.388
  142.700    0.248    0.377   92.975    8.224
  143.000    0.251    0.402   91.116    8.063
  143.300    0.238    0.430   86.777    7.754
  143.600    0.227    0.446   86.777    7.605
  143.900    0.224    0.402   93.595    7.177
  144.200    0.241    0.401   91.736    7.172
  144.500    0.260    0.455   90.496    7.582
  144.800    0.273    0.459   91.116    7.723
  145.100    0.262    0.448   87.397    8.646
  145.400    0.266    0.445   82.438    9.677
  145.700    0.269    0.412   91.736   10.429
  146.000    0.269    0.441   83.058   10.826
  146.300    0.273    0.488   79.339   11.024
  146.600    0.282    0.475   79.339   11.439
  146.900    0.288    0.459   80.579   11.649
  147.200    0.289    0.435   80.579   11.857
  147.500    0.279    0.443   78.719   11.849
  147.800    0.261    0.445   73.760   12.068
  148.100    0.255    0.407   76.240   12.054
  148.400    0.251    0.346   82.438   12.048
  148.700    0.252    0.378   83.678   11.807
  149.000    0.251    0.482   78.719   11.799
  149.300    0.251    0.496   76.240   11.570
  149.600    0.264    0.470   79.959   11.342
  149.900    0.262    0.405   80.579   11.120
  150.200    0.261    0.412   80.579   11.104
  150.500    0.262    0.415   79.959   10.888
  150.800    0.261    0.412   81.198   10.882
  151.100    0.259    0.404   81.198   10.470
  151.400    0.255    0.402   86.777   10.068
  151.700    0.241    0.383   81.198    8.978
  152.000    0.241    0.358   86.157    8.318
  152.300    0.251    0.373   96.074    7.008
  152.600    0.253    0.422  107.231    5.171
  152.900    0.259    0.509  107.851    3.469
  153.201    0.271    0.549  106.612    3.275
  153.501    0.251    0.559  105.372    3.210
  153.801    0.247    0.496  101.033    3.395
  154.101    0.271    0.494   97.934    3.948
  154.401    0.298    0.503   94.215    4.679
  154.701    0.313    0.496   85.537    7.229
  155.001    0.303    0.410   83.058    8.403
  155.301    0.293    0.433   81.818    8.554
  155.601    0.273    0.462   91.116    8.386
  155.901    0.237    0.490   96.074    8.224
