~VERSION INFORMATION
 VERS.                 2.0:   CWLS LOG ASCII STANDARD -VERSION 2.0
 WRAP.                  NO:   ONE LINE PER DEPTH STEP
~WELL INFORMATION BLOCK
#MNEM.UNIT           DATA                    DESCRIPTION OF MNEMONIC
#---------    -------------------            -------------------------------
# Generated from Intellog Unique Number	CS_73_76/WELL/3219
WELL.         BOW VALLEY INDUSTRIES          : Well_name    - WELL
LOC .         00/08-32-076-16W4/0            : Location     - LOCATION
UWI .         00/08-32-076-16W4/0            : Uwi          - UNIQUE WELL ID
ENTR.         SP                             : Entered      - ENTERED BY
SRVC.         SCHLUMBERGER                   : Scn          - SERVICE COMPANY
STRT.M        305                            : top_depth    - START DEPTH
STOP.M        555                            : bot_depth    - STOP DEPTH
STEP.M        0.25                           : increment    - STEP LENGTH
 NULL. -999.2500:NULL Value
~CURVE INFORMATION BLOCK
#MNEM UNIT       ERCB CURVE CODE    CURVE DESCRIPTION
#-----------   ------------------   ----------------------------------
DEPT.M        00 001 00 00         : DEPTH        - DEPTH
NPHI.V/V      00 330 00 00         : PHIN         - NEUTRON POROSITY (LIMESTONE)
DPHI.V/V      00 890 00 00         : PHID         - DENSITY POROSITY (LIMESTONE)
GR  .API      00 310 00 00         : GR           - GAMMA RAY
ILD .OHMM     00 120 00 00         : RESD         - DEEP RESISTIVITY (DIL)
~PARAMETER INFORMATION
#MNEM.UNIT           DATA             DESCRIPTION OF MNEMONIC
#---------         -----------     ------------------------------
GL  .M        680.5                : gl           - GROUND LEVEL ELEVATION
EREF.M        683.97               : kb           - ELEVATION OF DEPTH REFERENCE
DATM.M        680.5                : datum        - DATUM ELEVATION
TDD .M        642                  : tdd          - TOTAL DEPTH DRILLER
RUN .         ONE                  : Run          - RUN NUMBER
ENG .         BILL                 : Engineer     - RECORDING ENGINEER
WIT .         JIM                  : Witness      - WITNESSED BY
MUD .         GEL                  : Mud_type     - MUD TYPE
MATR.         LIMESTONE            : Logunit      - NEUTRON MATRIX
TMAX.C        17                   : BHT          - MAXIMUM RECORDED TEMPERATURE
BHTD.M        642                  : BHTDEP       - MAXIMUM RECORDED TEMPERATURE
MATR.         1                    : LOGUNIT      - NEUTRON MATRIX
RMT .C        25                   : MDTP         - TEMPERATURE OF MUD
NEUT.         1                    : NEUTRON      - NEUTRON TYPE
RESI.         0                    : RESIST       - RESISTIVITY TYPE
RMC .OHMM     0.25                 : RMC          - RESISTIVITY OF MUD CAKE
RMF .OHMM     0.25                 : RMF          - RESISTIVITY OF MUD FILTRATE
SUFT.C        15                   : SUFT         - SURFACE TEMPERATURE
~A  DEPTH     PHIN     PHID       GR     RESD
# ...
  435.500    0.460    0.274   71.695    4.095
  435.750    0.446    0.269   72.316    4.175
  436.000    0.440    0.261   76.036    4.179
  436.250    0.439    0.258   76.656    4.262
  436.500    0.410    0.261   77.897    4.347
  436.750    0.384    0.264   79.757    4.350
  437.000    0.382    0.269   80.378    4.353
  437.250    0.390    0.259   80.379    4.356
  437.500    0.414    0.250   79.760    4.359
  437.750    0.438    0.244   79.760    4.447
  438.000    0.454    0.236   79.761    4.536
  438.250    0.449    0.234   81.002    4.539
  438.500    0.434    0.240   81.002    4.542
  438.750    0.413    0.241   79.763    4.546
  439.000    0.407    0.239   79.764    4.463
  439.250    0.413    0.239   78.525    4.218
  439.500    0.423    0.239   77.906    3.988
  439.750    0.434    0.244   76.668    3.916
  440.000    0.444    0.255   74.809    3.917
  440.250    0.459    0.261   74.810    3.847
  440.500    0.472    0.262   73.571    3.850
  440.750    0.420    0.259   72.952    4.079
  441.000    0.403    0.269   71.713    4.321
  441.250    0.405    0.280   69.235    4.941
  441.500    0.425    0.296   67.995    5.981
  441.750    0.399    0.300   66.137    6.709
  442.000    0.395    0.301   64.898    7.671
  442.250    0.412    0.305   63.039    8.605
  442.500    0.412    0.321   61.180    9.116
  442.750    0.419    0.331   58.702    9.476
  443.000    0.417    0.343   57.463    9.855
  443.250    0.410    0.351   54.984   10.050
  443.500    0.410    0.356   52.506    9.143
  443.750    0.412    0.359   51.887    8.163
  444.000    0.413    0.361   51.268    7.427
  444.250    0.423    0.359   53.128    6.632
  444.500    0.421    0.358   55.608    6.150
  444.750    0.431    0.353   56.229    5.813
  445.000    0.446    0.344   58.089    5.600
  445.250    0.448    0.338   60.569    5.394
  445.500    0.435    0.327   63.049    5.197
  445.750    0.433    0.321   61.810    5.008
  446.000    0.419    0.328   56.853    4.915
  446.250    0.407    0.336   53.134    4.736
  446.500    0.394    0.343   50.656    4.650
  446.750    0.428    0.348   49.417    4.653
  447.000    0.434    0.347   48.178    4.656
  447.250    0.418    0.347   48.799    4.659
  447.500    0.425    0.353   50.039    4.663
  447.750    0.425    0.361   49.420    4.667
  448.000    0.421    0.364   47.562    4.582
  448.250    0.416    0.366   46.323    4.500
  448.500    0.414    0.367   46.324    4.418
  448.750    0.420    0.359   46.324    4.338
  449.000    0.413    0.357   46.945    4.260
  449.250    0.399    0.353   48.185    4.262
  449.500    0.380    0.358   48.186    4.184
  449.750    0.388    0.359   48.807    4.187
  450.000    0.395    0.357   50.667    4.111
  450.250    0.397    0.357   53.147    4.193
  450.500    0.393    0.361   53.148    4.277
  450.750    0.405    0.364   52.529    4.532
  451.000    0.407    0.359   52.530    4.801
  451.250    0.382    0.352   52.531    5.186
  451.500    0.348    0.327   50.672    5.390
  451.750    0.331    0.285   49.433    5.293
  452.000    0.338    0.271   49.434    5.296
  452.250    0.377    0.328   48.815    4.639
  452.500    0.409    0.343   49.435    4.386
  452.750    0.460    0.346   50.676    4.306
  453.000    0.440    0.346   51.296    4.228
  453.250    0.425    0.346   51.917    4.231
  453.500    0.405    0.344   51.298    4.153
  453.750    0.372    0.344   49.439    4.157
  454.000    0.398    0.346   47.581    4.160
  454.250    0.414    0.353   47.581    4.163
  454.500    0.436    0.352   50.681    4.328
  454.750    0.460    0.351   51.302    4.414
  455.000    0.444    0.351   50.063    4.503
  455.250    0.430    0.353   47.584    4.505
  455.500    0.436    0.353   46.346    4.426
  455.750    0.418    0.354   50.066    4.427
  456.000    0.397    0.356   51.926    4.431
  456.250    0.378    0.356   51.927    4.433
  456.500    0.378    0.349   50.068    4.522
  456.750    0.420    0.348   47.589    4.613
  457.000    0.424    0.353   46.970    4.794
  457.250    0.410    0.358   48.211    5.080
  457.500    0.373    0.349   48.211    5.281
  457.750    0.326    0.306   46.972    5.490
  458.000    0.315    0.270   45.114    5.600
  458.250    0.311    0.261   48.834    5.193
  458.500    0.411    0.283   49.454    4.908
  458.750    0.462    0.324   50.075    4.466
  459.000    0.466    0.379   50.696    4.302
  459.250    0.460    0.377   48.217    4.146
  459.500    0.454    0.362   46.978    4.070
  459.750    0.445    0.348   50.078    4.072
  460.000    0.425    0.352   51.319    4.000
  460.250    0.408    0.357   49.460    4.002
  460.500    0.416    0.362   50.081    4.081
  460.750    0.450    0.368   50.701    4.085
  461.000    0.457    0.367   49.462    4.088
  461.250    0.451    0.354   52.562    4.090
  461.500    0.434    0.341   52.563    4.094
  461.750    0.420    0.341   53.184    4.096
  462.000    0.406    0.343   53.804    4.099
  462.250    0.392    0.348   53.805    4.102
  462.500    0.401    0.357   53.806    4.106
  462.750    0.419    0.370   53.187    4.109
  463.000    0.456    0.369   51.948    4.191
  463.250    0.469    0.362   50.089    4.193
  463.500    0.466    0.362   48.850    4.198
  463.750    0.469    0.369   47.611    4.199
  464.000    0.454    0.372   47.612    4.203
  464.250    0.442    0.365   47.613    4.128
  464.500    0.428    0.357   48.234    4.130
  464.750    0.425    0.338   49.474    4.133
  465.000    0.423    0.327   50.095    4.136
  465.250    0.415    0.321   49.476    4.139
  465.500    0.399    0.323   50.097    4.143
  465.750    0.400    0.332   50.717    4.145
  466.000    0.419    0.331   48.238    4.148
  466.250    0.414    0.326   46.380    4.231
  466.500    0.406    0.318   47.001    4.233
  466.750    0.411    0.321   47.621    4.318
  467.000    0.421    0.331   49.481    4.321
  467.250    0.426    0.344   51.342    4.407
  467.500    0.424    0.343   53.822    4.327
  467.750    0.420    0.339   57.542    4.091
  468.000    0.419    0.331   60.642    4.016
  468.250    0.420    0.321   63.122    3.943
  468.500    0.416    0.310   63.742    3.873
  468.750    0.411    0.303   63.743    3.875
  469.000    0.411    0.291   65.603    3.878
  469.250    0.425    0.280   67.464    3.880
  469.500    0.451    0.271   68.084    3.739
  469.750    0.464    0.266   68.085    3.741
  470.000    0.450    0.276   71.805    3.604
  470.250    0.445    0.276   73.665    3.539
  470.500    0.436    0.270   76.765    3.409
  470.750    0.439    0.261   79.865    3.411
  471.000    0.430    0.250   82.965    3.684
  471.250    0.416    0.245   82.346    4.133
  471.500    0.416    0.237   82.347    4.549
  471.750    0.418    0.234   81.728    4.819
  472.000    0.418    0.242   80.489    4.915
  472.250    0.411    0.255   79.250    5.208
  472.500    0.396    0.260   76.772    5.311
  472.750    0.405    0.259   75.533    5.523
  473.000    0.408    0.254   75.533    5.632
  473.250    0.398    0.237   74.294    5.855
  473.500    0.374    0.182   68.717    5.971
  473.750    0.421    0.200   63.139    5.752
  474.000    0.429    0.213   68.099    5.543
  474.250    0.430    0.231   69.959    5.546
  474.500    0.414    0.244   72.439    5.658
  474.750    0.410    0.245   74.919    5.994
  475.000    0.372    0.242   72.441    6.472
  475.250    0.321    0.229   66.863    7.260
  475.500    0.281    0.205   59.426    7.840
  475.750    0.236    0.090   54.468    7.996
  476.000    0.239    0.055   47.031    7.559
  476.250    0.266    0.160   51.990    6.749
  476.500    0.295    0.219   61.288    6.258
  476.750    0.415    0.232   70.587    5.804
  477.000    0.415    0.236   75.546    5.699
  477.250    0.406    0.236   76.167    5.596
  477.500    0.425    0.237   76.167    5.707
  477.750    0.423    0.237   72.449    5.820
  478.000    0.415    0.232   70.591    5.936
  478.250    0.416    0.219   74.930    6.173
  478.500    0.399    0.211   76.171    6.176
  478.750    0.384    0.209   72.452    6.181
