~VERSION INFORMATION
 VERS.                 2.0:   CWLS LOG ASCII STANDARD -VERSION 2.0
 WRAP.                  NO:   ONE LINE PER DEPTH STEP
~WELL INFORMATION BLOCK
#MNEM.UNIT           DATA                    DESCRIPTION OF MNEMONIC
#---------    -------------------            -------------------------------
# Generated from Intellog Unique Number	CS_77_79/WELL/844
WELL.         HOME OIL COMPANY LIMITED       : Well_name    - WELL
LOC .         00/03-12-077-08W4/0            : Location     - LOCATION
UWI .         00/03-12-077-08W4/0            : Uwi          - UNIQUE WELL ID
ENTR.         SP                             : Entered      - ENTERED BY
SRVC.         SCHLUMBERGER                   : Scn          - SERVICE COMPANY
STRT.M        140.25                         : top_depth    - START DEPTH
STOP.M        370.00                         : bot_depth    - STOP DEPTH
STEP.M        0.25                           : increment    - STEP LENGTH
 NULL. -999.2500:NULL Value
~CURVE INFORMATION BLOCK
#MNEM UNIT       ERCB CURVE CODE    CURVE DESCRIPTION
#-----------   ------------------   ----------------------------------
DEPT.M        00 001 00 00         : DEPTH        - DEPTH
ILD .OHMM     00 120 00 00         : RESD         - DEEP RESISTIVITY (DIL)
DPHI.V/V      00 890 00 00         : PHID         - DENSITY POROSITY (LIMESTONE)
NPHI.V/V      00 330 00 00         : PHIN         - NEUTRON POROSITY (LIMESTONE)
GR  .API      00 310 00 00         : GR           - GAMMA RAY
~PARAMETER INFORMATION
#MNEM.UNIT           DATA             DESCRIPTION OF MNEMONIC
#---------         -----------     ------------------------------
GL  .M        564                  : gl           - GROUND LEVEL ELEVATION
EREF.M        567.5                : kb           - ELEVATION OF DEPTH REFERENCE
DATM.M        564                  : datum        - DATUM ELEVATION
TDD .M        375.1                : tdd          - TOTAL DEPTH DRILLER
RUN .         ONE                  : Run          - RUN NUMBER
ENG .         BILL                 : Engineer     - RECORDING ENGINEER
WIT .         JIM                  : Witness      - WITNESSED BY
MUD .         GEL                  : Mud_type     - MUD TYPE
MATR.         LIMESTONE            : Logunit      - NEUTRON MATRIX
TMAX.C        16.5                 : BHT          - MAXIMUM RECORDED TEMPERATURE
BHTD.M        375.1                : BHTDEP       - MAXIMUM RECORDED TEMPERATURE
MATR.         1                    : LOGUNIT      - NEUTRON MATRIX
RMT .C        25                   : MDTP         - TEMPERATURE OF MUD
NEUT.         1                    : NEUTRON      - NEUTRON TYPE
RESI.         0                    : RESIST       - RESISTIVITY TYPE
RMC .OHMM     0.25                 : RMC          - RESISTIVITY OF MUD CAKE
RMF .OHMM     0.25                 : RMF          - RESISTIVITY OF MUD FILTRATE
SUFT.C        15                   : SUFT         - SURFACE TEMPERATURE
~A  DEPTH     RESD     PHID     PHIN       GR
# ...
  314.250    4.028    0.223    0.478   96.679
  314.500    3.953    0.216    0.467   96.681
  314.750    3.879    0.210    0.486   98.491
  315.000    3.737    0.199    0.494   99.697
  315.250    3.667    0.186    0.501  101.506
  315.500    3.666    0.213    0.504  101.509
  315.750    3.598    0.204    0.492   99.704
  316.000    3.531    0.174    0.492   99.104
  316.250    3.465    0.186    0.514   99.709
  316.500    3.401    0.191    0.526   99.710
  316.750    3.157    0.224    0.537   97.303
  317.000    3.215    0.209    0.543   96.702
  317.250    3.461    0.197    0.527   99.114
  317.500    3.796    0.187    0.518  101.525
  317.750    3.866    0.179    0.514   96.709
  318.000    3.724    0.165    0.514   93.097
  318.250    3.655    0.133    0.508   90.689
  318.500    3.654    0.110    0.484   91.896
  318.750    3.791    0.085    0.482   94.910
  319.000    4.157    0.182    0.498   96.719
  319.250    4.476    0.215    0.506  100.336
  319.500    5.189    0.210    0.518   91.905
  319.750    5.691    0.200    0.501   87.690
  320.000    7.238    0.207    0.454   84.679
  320.250    8.548    0.209    0.412   80.465
  320.500    9.202    0.216    0.408   72.635
  320.750    9.546    0.224    0.413   68.421
  321.000    9.722    0.243    0.408   70.231
  321.250    9.720    0.235    0.405   70.835
  321.500    9.539    0.239    0.400   70.837
  321.750    9.189    0.240    0.397   73.249
  322.000    8.852    0.240    0.391   75.661
  322.250    8.688    0.217    0.395   76.265
  322.500    8.526    0.225    0.404   76.267
  322.750    8.524    0.230    0.426   75.064
  323.000    8.841    0.247    0.459   71.452
  323.250    9.005    0.308    0.477   70.852
  323.500    9.003    0.309    0.467   70.854
  323.750    8.835    0.289    0.444   71.459
  324.000    8.511    0.249    0.409   73.268
  324.250    8.199    0.205    0.377   84.716
  324.500    7.899    0.182    0.388   97.369
  324.750    7.609    0.165    0.412  105.805
  325.000    7.468    0.164    0.420  105.807
  325.250    7.329    0.163    0.420  107.616
  325.500    7.327    0.162    0.418  108.824
  325.750    7.601    0.162    0.402  105.814
  326.000    8.032    0.163    0.395  105.816
  326.250    8.181    0.168    0.379  109.433
  326.500    8.178    0.183    0.379  111.844
  326.750    8.026    0.180    0.383  111.244
  327.000    7.877    0.182    0.366  111.849
  327.250    7.730    0.182    0.371  116.068
  327.500    7.446    0.169    0.391  119.082
  327.750    7.308    0.158    0.428  117.277
  328.000    6.910    0.147    0.444  116.074
  328.250    6.657    0.169    0.438  115.474
  328.500    6.534    0.177    0.445  115.476
  328.750    6.294    0.171    0.449  115.478
  329.000    6.177    0.171    0.448  114.878
  329.250    5.951    0.172    0.452  114.277
  329.500    5.733    0.186    0.479  114.882
  329.750    5.522    0.186    0.508  116.692
  330.000    5.420    0.183    0.496  117.898
  330.250    5.319    0.182    0.480  120.310
  330.500    5.220    0.188    0.470  119.108
  330.750    5.028    0.188    0.480  120.315
  331.000    5.027    0.186    0.493  121.521
  331.250    4.934    0.193    0.496  119.717
  331.500    4.841    0.200    0.492  119.116
  331.750    4.751    0.214    0.509  120.324
  332.000    4.663    0.201    0.522  120.927
  332.250    4.749    0.201    0.507  120.328
  332.500    4.747    0.207    0.504  117.920
  332.750    4.746    0.204    0.519  116.717
  333.000    4.833    0.201    0.522  114.913
  333.250    4.743    0.203    0.519  114.914
  333.500    4.742    0.197    0.520  114.916
  333.750    4.654    0.195    0.528  115.521
  334.000    4.652    0.202    0.551  117.331
  334.250    4.566    0.206    0.565  117.332
  334.500    4.481    0.209    0.567  115.528
  334.750    4.397    0.212    0.532  116.132
  335.000    4.396    0.211    0.508  117.339
  335.250    4.395    0.207    0.492  116.739
  335.500    4.313    0.205    0.498  114.934
  335.750    4.311    0.201    0.494  115.538
  336.000    4.231    0.219    0.504  115.541
  336.250    4.230    0.219    0.511  115.542
  336.500    4.151    0.212    0.528  117.352
  336.750    4.074    0.194    0.535  118.559
  337.000    4.073    0.207    0.528  116.754
  337.250    4.072    0.207    0.522  116.757
  337.500    4.070    0.207    0.530  116.758
  337.750    3.994    0.206    0.535  115.555
  338.000    3.993    0.194    0.527  114.352
  338.250    3.992    0.183    0.536  114.355
  338.500    3.991    0.191    0.550  114.959
  338.750    3.916    0.195    0.547  116.166
  339.000    3.916    0.209    0.535  114.963
  339.250    3.914    0.206    0.520  113.159
  339.500    3.913    0.188    0.534  113.161
  339.750    3.912    0.184    0.535  113.163
  340.000    3.910    0.173    0.534  114.370
  340.250    3.910    0.187    0.540  113.167
  340.500    3.909    0.175    0.542  111.965
  340.750    3.908    0.185    0.544  111.365
  341.000    3.835    0.205    0.558  110.764
  341.250    3.763    0.196    0.553  110.163
  341.500    3.762    0.197    0.542  107.756
  341.750    3.692    0.200    0.545  107.156
  342.000    3.760    0.201    0.547  107.760
  342.250    3.829    0.214    0.535  105.353
  342.500    3.900    0.208    0.534  106.560
  342.750    4.198    0.215    0.533  107.766
  343.000    4.355    0.220    0.527  109.576
  343.250    4.689    0.209    0.521  112.590
  343.500    5.049    0.188    0.505  111.990
  343.750    5.537    0.152    0.485  109.583
  344.000    5.852    0.165    0.469  109.584
  344.250    5.958    0.173    0.468  110.189
  344.500    5.848    0.173    0.463  110.794
  344.750    6.066    0.186    0.463  109.591
  345.000    6.065    0.196    0.474  108.389
  345.250    6.177    0.201    0.489  108.391
  345.500    6.408    0.230    0.483  108.995
  345.750    6.526    0.208    0.462  107.792
  346.000    6.896    0.158    0.453  103.578
  346.250    7.024    0.171    0.438  101.772
  346.500    7.422    0.210    0.403  101.172
  346.750    7.560    0.184    0.409  101.777
  347.000    7.988    0.167    0.417   99.369
  347.250    8.288    0.167    0.426   93.348
  347.500    8.598    0.171    0.429   90.338
  347.750    8.920    0.192    0.432   87.327
  348.000    9.085    0.212    0.409   86.124
  348.250    9.252    0.208    0.399   86.127
  348.500    9.249    0.209    0.394   85.527
  348.750    9.246    0.206    0.392   88.542
  349.000    9.074    0.197    0.391   90.953
  349.250    9.071    0.188    0.390   93.364
  349.500    9.411    0.177    0.406   91.560
  349.750    9.763    0.189    0.408   87.947
  350.000   10.317    0.241    0.428   61.333
  350.250   15.902    0.275    0.431   57.075
  350.500   24.369    0.293    0.423   53.424
  350.750   28.265    0.285    0.414   48.558
  351.000   33.395    0.270    0.414   46.122
  351.250   35.303    0.277    0.425   44.899
  351.500   40.948    0.299    0.428   44.891
  351.750   47.497    0.318    0.416   46.100
  352.000   52.105    0.314    0.413   50.343
  352.250   38.704    0.325    0.423   57.015
  352.500   24.323    0.313    0.442   66.117
  352.750   19.827    0.303    0.453   75.218
  353.000   13.673    0.303    0.395   84.928
  353.250   10.738    0.244    0.395   96.459
  353.500    9.427    0.201    0.400  102.524
  353.750    8.750    0.196    0.399  103.123
  354.000    8.587    0.179    0.399  104.936
  354.250    8.585    0.173    0.393  105.533
  354.500    8.584    0.191    0.385  104.920
  354.750    8.581    0.179    0.395  103.701
  355.000    8.740    0.190    0.390  101.263
  355.250    8.739    0.200    0.379  100.041
  355.500    9.066    0.198    0.368   98.818
  355.750    9.065    0.171    0.371   96.992
  356.000    9.406    0.179    0.371   92.124
  356.250    9.942    0.197    0.389   87.259
  356.500   10.316    0.202    0.395   84.821
  356.750    9.938    0.232    0.408   86.638
  357.000    9.224    0.208    0.404  107.278
  357.250    8.562    0.150    0.380  109.092
  357.500    8.096    0.161    0.372  106.048
