~VERSION INFORMATION
 VERS.                 2.0:   CWLS LOG ASCII STANDARD -VERSION 2.0
 WRAP.                  NO:   ONE LINE PER DEPTH STEP
~WELL INFORMATION BLOCK
#MNEM.UNIT           DATA                    DESCRIPTION OF MNEMONIC
#---------    -------------------            -------------------------------
# Generated from Intellog Unique Number	CC_84_87/WELL/1074
NULL.         -999.25                        : NULL_VALUE
WELL.         PARA ET AL GRANOR              : Well_name    - WELL
LOC .         07-02-084-18W4                 : Location     - LOCATION          
UWI .         00/07-02-084-18W400            : Uwi          - UNIQUE WELL ID    
ENTR.         JHS                            : Entered      - ENTERED BY        
SRVC.         COMPUTALOG                     : Scn          - SERVICE COMPANY   
DATE.         25 FEB 82                      : Date         - LOG DATE
STRT.M        100                            : top_depth    - START DEPTH       
STOP.M        289.9                          : bot_depth    - STOP DEPTH        
STEP.M        0.3                            : increment    - STEP LENGTH       
~CURVE INFORMATION BLOCK
#MNEM UNIT       ERCB CURVE CODE    CURVE DESCRIPTION
#-----------   ------------------   ----------------------------------
DEPT.M        00 001 00 00         : DEPTH        - DEPTH                       
DPHI.V/V      00 890 00 00         : PHID         - DENSITY POROSITY (LIMESTONE)
NPHI.V/V      00 330 00 00         : PHIN         - NEUTRON POROSITY (LIMESTONE)
GR  .API      00 310 00 00         : GR           - GAMMA RAY                   
ILD .OHMM     00 120 00 00         : RESD         - DEEP RESISTIVITY (DIL)      
~PARAMETER INFORMATION       
#MNEM.UNIT           DATA             DESCRIPTION OF MNEMONIC
#---------         -----------     ------------------------------
GL  .M        547.8                : gl           - GROUND LEVEL ELEVATION      
EREF.M        550.3                : kb           - ELEVATION OF DEPTH REFERENCE
DATM.M        550.3                : datum        - DATUM ELEVATION             
TDD .M        293                  : tdd          - TOTAL DEPTH DRILLER         
RUN .         ONE                  : Run          - RUN NUMBER                  
ENG .         BILL                 : Engineer     - RECORDING ENGINEER          
WIT .         JIM                  : Witness      - WITNESSED BY                
MUD .         GEL                  : Mud_type     - MUD TYPE                    
MATR.         LIMESTONE            : Logunit      - NEUTRON MATRIX              
TMAX.C        21                   : BHT          - MAXIMUM RECORDED TEMPERATURE
BHTD.M        293                  : BHTDEP       - MAXIMUM RECORDED TEMPERATURE
MATR.         1                    : LOGUNIT      - NEUTRON MATRIX              
RMT .C        25                   : MDTP         - TEMPERATURE OF MUD          
NEUT.         1                    : NEUTRON      - NEUTRON TYPE                
RESI.         0                    : RESIST       - RESISTIVITY TYPE            
RMC .OHMM     0.25                 : RMC          - RESISTIVITY OF MUD CAKE     
RMF .OHMM     0.25                 : RMF          - RESISTIVITY OF MUD FILTRATE 
SUFT.C        15                   : SUFT         - SURFACE TEMPERATURE         
~A  DEPTH     PHID     PHIN       GR     RESD
# ...
  256.602    0.026    0.175   81.007   17.343
  256.902    0.011    0.180   79.166   20.208
  257.202    0.113    0.275   84.114   20.611
  257.502    0.222    0.343   92.767   16.104
  257.802    0.241    0.374   94.010   12.584
  258.102    0.235    0.372   98.340   11.233
  258.401    0.242    0.364  100.820   10.418
  258.701    0.245    0.365   97.744   10.230
  259.001    0.245    0.370  100.838   10.043
  259.301    0.242    0.423   96.528   10.050
  259.601    0.227    0.408   94.068   10.249
  259.901    0.126    0.315   92.843   10.861
  260.201    0.110    0.291   94.088   11.289
  260.501    0.192    0.333   98.418   11.084
  260.801    0.211    0.345  100.898   10.475
  261.101    0.198    0.435  102.759    9.900
  261.401    0.183    0.436  100.300    9.720
  261.701    0.069    0.251   89.815   10.105
  262.001    0.090    0.228   89.825   10.307
  262.301    0.171    0.383  102.180   10.313
  262.601    0.206    0.375  105.895    9.935
  262.901    0.191    0.363  107.756    9.213
  263.201    0.173    0.371  115.173    7.918
  263.501    0.178    0.404  120.121    7.483
  263.801    0.208    0.399  112.723    7.208
  264.101    0.217    0.384  105.328    7.079
  264.401    0.207    0.391  104.100    7.082
  264.701    0.186    0.416   99.172    7.504
  265.001    0.145    0.425   92.391    7.653
  265.301    0.170    0.405  105.366    7.515
  265.601    0.194    0.394  111.548    7.239
  265.901    0.179    0.336  118.964    6.587
  266.201    0.171    0.349  120.209    6.108
  266.501    0.176    0.437  121.454    5.664
  266.801    0.172    0.446  123.933    5.353
  267.101    0.171    0.412  128.263    4.964
  267.401    0.179    0.357  124.569    4.782
  267.701    0.182    0.365  124.579    4.520
  268.001    0.182    0.366  135.700    4.437
  268.301    0.163    0.312  145.587    4.792
  268.601    0.156    0.329  136.338    5.375
  268.901    0.148    0.383  126.470    6.384
  269.201    0.124    0.302  115.984    8.027
  269.501    0.054    0.244   98.093   10.093
  269.801    0.042    0.240  103.040   12.218
  270.101    0.153    0.316  117.249   14.788
  270.401    0.185    0.358  123.433   16.910
  270.701    0.175    0.385  119.121   16.288
  271.001    0.180    0.401  117.897   15.106
  271.301    0.175    0.398  116.053   14.550
  271.601    0.187    0.345  101.864   15.713
  271.901    0.228    0.312   75.948   16.967
  272.201    0.265    0.277   67.932   18.674
  272.501    0.296    0.196   62.387   20.946
  272.801    0.311    0.225   59.310   23.948
  273.101    0.297    0.267   58.084   25.861
  273.401    0.295    0.321   56.861   25.878
  273.701    0.279    0.357   59.338   24.927
  274.001    0.270    0.345   57.497   22.682
  274.301    0.292    0.326   57.506   19.125
  274.601    0.291    0.321   65.541   14.386
  274.901    0.262    0.330   74.810   13.340
  275.201    0.254    0.367   73.585   12.852
  275.501    0.250    0.388   76.681   12.146
  275.801    0.229    0.351  105.087   10.843
  276.101    0.189    0.313  114.974    9.142
  276.401    0.174    0.311  110.663    7.420
  276.701    0.160    0.323  109.438    5.799
  277.001    0.185    0.327  111.918    5.078
  277.301    0.227    0.394  118.099    4.202
  277.601    0.224    0.448  120.579    3.751
  277.901    0.202    0.412  124.292    3.478
  278.201    0.217    0.374  128.007    3.415
  278.501    0.228    0.359  123.078    3.618
  278.801    0.141    0.333  112.593    3.907
  279.101    0.128    0.332  107.663    4.553
  279.401    0.202    0.405  127.428    4.732
  279.701    0.200    0.440  134.227    4.646
  280.001    0.192    0.440  134.855    4.309
  280.301    0.205    0.443  138.568    3.920
  280.601    0.208    0.434  131.788    3.923
  280.901    0.141    0.415  122.537    4.401
  281.201    0.109    0.335  102.176    5.748
  281.501    0.211    0.323   95.395    8.416
  281.801    0.228    0.352  100.343   10.188
  282.101    0.180    0.381  111.464   11.001
  282.401    0.159    0.391  117.030   12.108
  282.701    0.171    0.276  102.225   13.325
  283.000    0.252    0.178   62.109   15.825
  283.300    0.354    0.193   54.711   19.525
  283.600    0.318    0.249   53.486   22.751
  283.900    0.278    0.299   50.410   23.649
  284.200    0.241    0.336   60.913   22.352
  284.500    0.228    0.425   71.417   21.949
  284.800    0.259    0.406   62.168   23.253
  285.100    0.267    0.381   58.475   22.828
  285.400    0.257    0.400   68.977   18.886
  285.700    0.250    0.437   93.679   14.757
  286.000    0.236    0.405   94.927   12.443
  286.300    0.232    0.379   93.699   11.320
  286.600    0.228    0.410   94.326   11.768
  286.900    0.235    0.418   96.187   14.798
  287.200    0.255    0.394   98.049   18.965
  287.500    0.255    0.410   98.059   25.731
  287.800    0.273    0.425   95.599   34.257
  288.100    0.294    0.418   98.079   41.467
  288.400    0.278    0.371   95.004   39.197
  288.700    0.230    0.332   93.777   33.681
  289.000    0.212    0.273   93.169   29.501
  289.300    0.217    0.274   94.415   26.336
  289.600    0.208    0.285   96.893   23.511
  289.900    0.163    0.286   98.754   20.988
