~VERSION INFORMATION
 VERS.                 2.0:   CWLS LOG ASCII STANDARD -VERSION 2.0
 WRAP.                  NO:   ONE LINE PER DEPTH STEP
~WELL INFORMATION BLOCK
#MNEM.UNIT           DATA                    DESCRIPTION OF MNEMONIC
#---------    -------------------            -------------------------------
# Generated from Intellog Unique Number	CW_79_81/WELL/2448
WELL.         SHELL FINA PASTECHO            : Well_name    - WELL
LOC .         00/05-25-081-03W5/0            : Location     - LOCATION
UWI .         00/05-25-081-03W5/0            : Uwi          - UNIQUE WELL ID
ENTR.         MAX                            : Entered      - ENTERED BY
SRVC.         SCHLUMBERGER                   : Scn          - SERVICE COMPANY
STRT.M        250                            : top_depth    - START DEPTH
STOP.M        479.75                         : bot_depth    - STOP DEPTH
STEP.M        0.25                           : increment    - STEP LENGTH
 NULL. -999.2500:NULL Value
~CURVE INFORMATION BLOCK
#MNEM UNIT       ERCB CURVE CODE    CURVE DESCRIPTION
#-----------   ------------------   ----------------------------------
DEPT.M        00 001 00 00         : DEPTH        - DEPTH
ILD .OHMM     00 120 00 00         : RESD         - DEEP RESISTIVITY (DIL)
NPHI.V/V      00 330 00 00         : PHIN         - NEUTRON POROSITY (SANDSTONE)
DPHI.V/V      00 890 00 00         : PHID         - DENSITY POROSITY (SANDSTONE)
GR  .API      00 310 00 00         : GR           - GAMMA RAY
CALI.MM       00 280 01 00         : CAL          - CALIPER
~PARAMETER INFORMATION
#MNEM.UNIT           DATA             DESCRIPTION OF MNEMONIC
#---------         -----------     ------------------------------
GL  .M        574.37               : gl           - GROUND LEVEL ELEVATION
EREF.M        578.37               : kb           - ELEVATION OF DEPTH REFERENCE
DATM.M        574.37               : datum        - DATUM ELEVATION
TDD .M        455.2                : tdd          - TOTAL DEPTH DRILLER
RUN .         ONE                  : Run          - RUN NUMBER
ENG .         BILL                 : Engineer     - RECORDING ENGINEER
WIT .         JIM                  : Witness      - WITNESSED BY
MUD .         GEL                  : Mud_type     - MUD TYPE
MATR.         SANDSTONE            : Logunit      - NEUTRON MATRIX
TMAX.C        16.7                 : BHT          - MAXIMUM RECORDED TEMPERATURE
BHTD.M        455.2                : BHTDEP       - MAXIMUM RECORDED TEMPERATURE
MATR.         1                    : LOGUNIT      - NEUTRON MATRIX
RMT .C        22.2                 : MDTP         - TEMPERATURE OF MUD
NEUT.         1                    : NEUTRON      - NEUTRON TYPE
RESI.         0                    : RESIST       - RESISTIVITY TYPE
RMC .OHMM     3.58                 : RMC          - RESISTIVITY OF MUD CAKE
RMF .OHMM     2.73                 : RMF          - RESISTIVITY OF MUD FILTRATE
SUFT.C        -20                  : SUFT         - SURFACE TEMPERATURE
~A  DEPTH     RESD     PHIN     PHID       GR      CAL
# ...
  396.000    5.966    0.476    0.217  103.390  215.096
  396.250    5.919    0.475    0.218  103.128  214.658
  396.500    5.871    0.479    0.225  103.344  215.402
  396.750    5.805    0.479    0.226  102.692  216.055
  397.000    5.714    0.481    0.222  101.926  215.604
  397.250    5.627    0.487    0.221  104.735  215.166
  397.500    5.510    0.495    0.220  104.353  215.027
  397.750    5.427    0.499    0.223  104.444  214.985
  398.000    5.374    0.499    0.229  105.956  214.842
  398.250    5.291    0.511    0.228  107.352  214.229
  398.500    5.287    0.519    0.217  108.558  213.354
  398.750    5.322    0.517    0.206  105.932  213.310
  399.000    5.473    0.507    0.205  104.904  213.866
  399.250    5.752    0.496    0.209  102.043  215.599
  399.500    6.170    0.488    0.220   96.227  217.126
  399.750    6.989    0.480    0.244   87.055  214.690
  400.000    8.605    0.470    0.274   79.150  212.597
  400.250   10.633    0.454    0.296   78.651  212.553
  400.500   13.504    0.454    0.299   78.862  213.106
  400.750   16.573    0.467    0.292   78.601  213.854
  401.000   18.091    0.482    0.284   77.984  214.500
  401.250   16.684    0.485    0.285   78.868  214.675
  401.500   16.053    0.474    0.278   81.055  213.804
  401.750   15.581    0.465    0.255   81.029  213.765
  402.000   15.373    0.454    0.224   80.292  214.312
  402.250   15.249    0.446    0.197   80.503  214.069
  402.500   14.958    0.446    0.185   82.076  213.040
  402.750   13.913    0.459    0.216   84.863  212.766
  403.000   12.611    0.466    0.295   88.282  213.545
  403.250    9.616    0.471    0.273   92.745  213.891
  403.500    7.312    0.472    0.260   98.983  213.947
  403.750    6.065    0.473    0.255  102.384  213.702
  404.000    5.425    0.477    0.254  102.593  213.356
  404.250    4.991    0.480    0.253  103.948  213.317
  404.500    4.912    0.481    0.244  106.142  213.276
  404.750    4.872    0.486    0.233  108.003  213.227
  405.000    4.860    0.488    0.226  106.854  212.890
  405.250    4.856    0.485    0.221  105.645  213.632
  405.500    4.853    0.476    0.218  105.738  215.157
  405.750    4.870    0.471    0.222  106.497  215.583
  406.000    4.978    0.487    0.233  104.503  215.943
  406.250    5.271    0.492    0.214  100.459  216.696
  406.500    5.582    0.491    0.218   96.593  216.854
  406.750    6.056    0.483    0.233   92.667  216.618
  407.000    6.943    0.474    0.252   88.978  215.986
  407.250    9.240    0.478    0.266   85.559  214.585
  407.500   11.558    0.492    0.254   81.593  213.710
  407.750   13.512    0.471    0.229   78.965  213.675
  408.000   14.720    0.450    0.206   80.060  213.629
  408.250   14.820    0.438    0.199   83.226  213.585
  408.500   14.122    0.442    0.207   87.693  213.543
  408.750   12.956    0.470    0.212   94.702  213.487
  409.000   11.398    0.484    0.196  100.339  213.445
  409.250    9.456    0.492    0.209  105.747  213.406
  409.500    7.443    0.488    0.216  108.500  213.954
  409.750    6.499    0.477    0.220  107.648  214.503
  410.000    6.275    0.469    0.222  104.903  214.953
  410.250    6.205    0.470    0.229  104.583  215.848
  410.500    6.106    0.466    0.239  104.309  216.627
  410.750    6.058    0.456    0.244  104.519  216.588
  411.000    6.009    0.452    0.240  103.670  216.545
  411.250    5.961    0.456    0.232  101.755  216.102
  411.500    5.924    0.465    0.226  100.843  215.462
  411.750    5.910    0.475    0.232  106.000  215.412
  412.000    5.860    0.493    0.226  110.653  215.362
  412.250    5.899    0.494    0.223  111.571  215.327
  412.500    6.034    0.480    0.213  110.893  215.876
  412.750    6.274    0.471    0.205  108.740  216.029
  413.000    6.576    0.470    0.200  105.702  215.688
  413.250    6.814    0.466    0.196  102.586  215.551
  413.500    6.808    0.455    0.205  101.330  215.109
  413.750    6.657    0.449    0.208  103.669  214.277
  414.000    6.436    0.451    0.214  107.068  214.919
  414.250    6.223    0.460    0.218  108.696  215.859
  414.500    6.063    0.468    0.219  107.431  216.408
  414.750    5.953    0.465    0.219  103.904  216.434
  415.000    5.859    0.463    0.213  104.122  216.803
  415.250    5.811    0.465    0.208  105.750  217.551
  415.500    5.796    0.466    0.208  107.201  217.997
  415.750    5.813    0.462    0.210  106.821  218.147
  416.000    5.872    0.452    0.209  104.670  218.105
  416.250    6.024    0.444    0.198  102.709  218.057
  416.500    6.158    0.443    0.205  103.668  218.015
  416.750    6.520    0.450    0.206  106.947  217.577
  417.000    7.199    0.447    0.207  107.570  216.841
  417.250    8.138    0.452    0.206  104.591  215.808
  417.500    9.340    0.467    0.200   98.364  214.581
  417.750   11.132    0.462    0.173   89.057  213.274
  418.000   11.916    0.417    0.125   81.645  212.822
  418.250   12.435    0.374    0.107   80.437  213.557
  418.500   12.565    0.388    0.182   82.952  214.302
  418.750   12.419    0.442    0.248   86.236  215.052
  419.000   12.050    0.498    0.267   88.276  215.703
  419.250   11.442    0.484    0.260   87.957  216.040
  419.500   11.434    0.449    0.253   87.686  215.999
  419.750   11.934    0.438    0.232   87.426  216.344
  420.000   12.058    0.420    0.212   86.984  216.696
  420.250   11.649    0.398    0.182   87.313  216.460
  420.500   10.841    0.373    0.145   89.651  215.531
  420.750    9.698    0.347    0.109   97.942  214.287
  421.000    8.659    0.340    0.095  109.977  214.241
  421.250    7.980    0.377    0.134  119.877  213.808
  421.500    7.357    0.411    0.151  124.283  213.673
  421.750    6.890    0.426    0.178  129.102  214.222
  422.000    6.568    0.428    0.211  134.040  215.062
  422.250    6.327    0.450    0.214  131.947  215.176
  422.500    6.323    0.466    0.204  128.720  215.946
  422.750    6.458    0.466    0.202  124.915  217.482
  423.000    6.631    0.459    0.201  121.108  217.242
  423.250    6.749    0.457    0.198  117.419  216.609
  423.500    6.731    0.467    0.194  113.434  216.175
  423.750    6.481    0.483    0.199  106.921  215.729
  424.000    6.236    0.471    0.209  100.496  215.687
  424.250    5.875    0.464    0.215  100.940  216.422
  424.500    5.694    0.472    0.197  102.450  216.872
  424.750    5.629    0.484    0.185  104.081  217.226
  425.000    5.645    0.486    0.184  105.178  217.086
  425.250    5.749    0.459    0.186  105.282  215.370
  425.500    5.877    0.455    0.204  104.765  214.914
  425.750    6.002    0.452    0.184  104.502  214.485
  426.000    6.229    0.454    0.185  103.533  213.452
  426.250    6.548    0.458    0.198  101.971  212.421
  426.500    6.876    0.458    0.209   99.759  211.888
  426.750    7.033    0.437    0.197   96.553  212.313
  427.000    7.081    0.420    0.187   96.034  212.686
  427.250    6.973    0.431    0.199   95.773  213.430
  427.500    6.829    0.448    0.204   95.157  214.170
  427.750    6.652    0.463    0.196   95.367  215.111
  428.000    6.445    0.471    0.184   96.817  216.056
  428.250    6.190    0.470    0.189   99.494  216.483
  428.500    6.092    0.475    0.197  101.192  216.847
  428.750    6.177    0.474    0.197  101.168  216.016
  429.000    6.433    0.462    0.202   99.723  215.180
  429.250    6.789    0.448    0.195   96.859  215.136
  429.500    7.091    0.433    0.174   93.348  215.882
  429.750    7.052    0.413    0.151   90.817  216.532
  430.000    6.888    0.387    0.148   91.282  216.085
  430.250    6.684    0.408    0.171   94.094  216.041
  430.500    6.450    0.444    0.176   94.421  215.994
  430.750    6.285    0.471    0.182   94.395  215.755
  431.000    6.223    0.479    0.189   95.493  215.422
  431.250    6.281    0.471    0.181   99.372  215.369
  431.500    6.373    0.467    0.183  103.527  215.323
  431.750    6.462    0.468    0.166  103.503  215.270
  432.000    6.588    0.476    0.152  100.642  214.935
  432.250    6.704    0.474    0.143   98.962  214.307
