~VERSION INFORMATION
 VERS.                 2.0:   CWLS LOG ASCII STANDARD -VERSION 2.0
 WRAP.                  NO:   ONE LINE PER DEPTH STEP
~WELL INFORMATION BLOCK
#MNEM.UNIT           DATA                    DESCRIPTION OF MNEMONIC
#---------    -------------------            -------------------------------
# Generated from Intellog Unique Number	CC_84_87/WELL/1069
NULL.         -999.25                        : NULL_VALUE
WELL.         PARA ET AL SALESKI             : Well_name    - WELL
LOC .         06-19-086-18W4                 : Location     - LOCATION          
UWI .         00/06-19-086-18W400            : Uwi          - UNIQUE WELL ID    
ENTR.         DW                             : Entered      - ENTERED BY        
SRVC.         SCHLUMBERGER                   : Scn          - SERVICE COMPANY   
DATE.         26 JAN 86                      : Date         - LOG DATE
STRT.M        85                             : top_depth    - START DEPTH       
STOP.M        237.102                        : bot_depth    - STOP DEPTH        
STEP.M        0.3                            : increment    - STEP LENGTH       
~CURVE INFORMATION BLOCK
#MNEM UNIT       ERCB CURVE CODE    CURVE DESCRIPTION
#-----------   ------------------   ----------------------------------
DEPT.M        00 001 00 00         : DEPTH        - DEPTH                       
DPHI.V/V      00 890 00 00         : PHID         - DENSITY POROSITY (LIMESTONE)
NPHI.V/V      00 330 00 00         : PHIN         - NEUTRON POROSITY (LIMESTONE)
GR  .API      00 310 00 00         : GR           - GAMMA RAY                   
ILD .OHMM     00 120 00 00         : RESD         - DEEP RESISTIVITY (DIL)      
~PARAMETER INFORMATION       
#MNEM.UNIT           DATA             DESCRIPTION OF MNEMONIC
#---------         -----------     ------------------------------
GL  .M        522.5                : gl           - GROUND LEVEL ELEVATION      
EREF.M        526.2                : kb           - ELEVATION OF DEPTH REFERENCE
DATM.M        526.2                : datum        - DATUM ELEVATION             
TDD .M        239                  : tdd          - TOTAL DEPTH DRILLER         
RUN .         ONE                  : Run          - RUN NUMBER                  
ENG .         BILL                 : Engineer     - RECORDING ENGINEER          
WIT .         JIM                  : Witness      - WITNESSED BY                
MUD .         GEL                  : Mud_type     - MUD TYPE                    
MATR.         LIMESTONE            : Logunit      - NEUTRON MATRIX              
TMAX.C        20                   : BHT          - MAXIMUM RECORDED TEMPERATURE
BHTD.M        239                  : BHTDEP       - MAXIMUM RECORDED TEMPERATURE
MATR.         1                    : LOGUNIT      - NEUTRON MATRIX              
RMT .C        25                   : MDTP         - TEMPERATURE OF MUD          
NEUT.         1                    : NEUTRON      - NEUTRON TYPE                
RESI.         0                    : RESIST       - RESISTIVITY TYPE            
RMC .OHMM     0.25                 : RMC          - RESISTIVITY OF MUD CAKE     
RMF .OHMM     0.25                 : RMF          - RESISTIVITY OF MUD FILTRATE 
SUFT.C        15                   : SUFT         - SURFACE TEMPERATURE         
~A  DEPTH     PHID     PHIN       GR     RESD
# ...
  137.201    0.358    0.399   43.586   16.916
  137.501    0.368    0.404   44.220   17.913
  137.801    0.370    0.406   40.477   18.605
  138.101    0.367    0.416   39.236   18.961
  138.401    0.364    0.416   45.502   18.945
  138.701    0.354    0.415   46.763   18.932
  139.001    0.348    0.426   45.523   18.923
  139.301    0.348    0.424   46.156   18.190
  139.601    0.354    0.424   49.292   17.833
  139.901    0.350    0.433   51.177   16.495
  140.201    0.340    0.450   52.437   15.256
  140.501    0.340    0.463   54.948   13.578
  140.801    0.335    0.452   66.838   10.757
  141.101    0.324    0.441   69.350    9.390
  141.401    0.307    0.459   64.355    8.852
  141.701    0.321    0.481   58.738    9.375
  142.001    0.305    0.462   55.623   10.125
  142.301    0.305    0.446   56.881   10.518
  142.601    0.316    0.425   61.892    9.729
  142.901    0.316    0.413   70.034    6.863
  143.201    0.298    0.445   72.542    5.438
  143.501    0.291    0.465   71.303    5.229
  143.801    0.285    0.469   67.561    6.463
  144.101    0.301    0.464   71.950    8.147
  144.401    0.319    0.451   72.581   10.072
  144.701    0.319    0.441   63.214   11.305
  145.001    0.302    0.421   57.597   12.686
  145.301    0.297    0.418   62.607   12.923
  145.601    0.300    0.418   66.367   13.168
  145.901    0.301    0.399   65.126   13.680
  146.201    0.302    0.386   62.010   14.491
  146.501    0.300    0.385   61.394   15.947
  146.801    0.292    0.399   61.408   15.941
  147.101    0.288    0.399   62.665   15.323
  147.401    0.291    0.379   65.805   14.737
  147.701    0.302    0.373   65.810   13.370
  148.001    0.303    0.379   67.071   11.666
  148.301    0.302    0.389   72.085   11.218
  148.601    0.301    0.416   72.720   10.786
  148.901    0.289    0.462   69.604   10.773
  149.201    0.279    0.428   70.237   11.192
  149.501    0.285    0.407   72.748   11.856
  149.801    0.296    0.402   72.756   12.557
  150.101    0.301    0.406   68.393   13.300
  150.401    0.294    0.414   68.398   14.081
  150.701    0.297    0.403   65.907   14.348
  151.001    0.306    0.409   62.794   14.342
  151.301    0.312    0.424   60.926   14.610
  151.601    0.303    0.447   64.685   16.398
  151.901    0.222    0.424   62.822   19.887
  152.201    0.055    0.255   62.208   22.320
  152.501    0.062    0.235   64.715   22.741
  152.801    0.127    0.263   69.101   21.036
  153.101    0.174    0.336   68.488   18.009
  153.401    0.251    0.369   68.499   15.716
  153.701    0.260    0.409   70.383   14.538
  154.001    0.265    0.419   72.893   13.446
  154.301    0.279    0.425   72.902   12.682
  154.601    0.280    0.434   69.784   11.954
  154.901    0.265    0.403   66.670   11.718
  155.201    0.269    0.391   67.930   11.054
  155.501    0.267    0.401   81.695   10.028
  155.801    0.243    0.411   92.335    8.921
  156.101    0.200    0.428   99.222    8.253
  156.401    0.226    0.439  104.861    7.784
  156.701    0.241    0.453  107.373    7.483
  157.001    0.243    0.454  106.132    7.335
  157.301    0.240    0.438  102.391    7.329
  157.601    0.233    0.438   98.650    7.469
  157.901    0.228    0.449   96.158    7.908
  158.201    0.208    0.454   93.665    8.217
  158.501    0.193    0.442   89.295    8.871
  158.801    0.190    0.437   81.177    8.867
  159.101    0.221    0.437   76.183    8.691
  159.401    0.250    0.438  101.206    8.356
  159.701    0.234    0.439   90.588    8.191
  160.001    0.207    0.428   86.846    8.671
  160.301    0.215    0.447   93.105    8.834
  160.601    0.196    0.457   96.243    8.830
  160.901    0.065    0.449   92.502    9.000
  161.201    0.092    0.385   90.007   10.704
  161.501    0.161    0.381  100.649   14.023
  161.801    0.195    0.390   98.156   16.360
  162.101    0.219    0.405   91.287   16.665
  162.401    0.270    0.441   88.172   16.335
  162.701    0.278    0.449   86.307   16.011
  163.001    0.282    0.434   84.442   15.394
  163.301    0.267    0.412   81.326   15.088
  163.601    0.261    0.402   80.081   15.076
  163.901    0.280    0.409   83.220   15.361
  164.201    0.292    0.422   82.604   15.958
  164.501    0.280    0.426   78.862   16.262
  164.801    0.277    0.416   75.121   16.252
  165.101    0.282    0.389   73.252   16.243
  165.401    0.285    0.382   77.639   15.611
  165.701    0.281    0.403   82.650   15.303
  166.001    0.249    0.422   80.783   15.002
  166.301    0.252    0.413   74.541   15.585
  166.601    0.278    0.406   82.057   15.881
  166.901    0.286    0.408   86.442   15.264
  167.201    0.271    0.412   93.955   14.400
  167.501    0.228    0.413   87.715   12.327
  167.801    0.167    0.430   85.846   10.553
  168.101    0.164    0.465   91.482   10.147
  168.401    0.206    0.435  102.124    9.946
  168.701    0.236    0.407  100.259   10.133
  169.001    0.233    0.398   96.519   10.325
  169.301    0.224    0.397   95.899   10.520
  169.601    0.231    0.393   96.533    9.916
  169.901    0.226    0.398   96.544    9.720
  170.201    0.217    0.454  100.306    9.715
  170.501    0.217    0.442  100.942    9.711
  170.801    0.224    0.411   98.452    9.894
  171.101    0.207    0.394   97.208   10.081
  171.401    0.221    0.437   94.095   10.075
  171.701    0.249    0.456   93.475   10.461
  172.001    0.264    0.456   88.482   11.520
  172.301    0.285    0.448   78.486   11.737
  172.601    0.308    0.445   70.367   11.960
  172.901    0.317    0.448   77.885   11.723
  173.201    0.313    0.438   80.392   11.055
  173.501    0.303    0.428   82.903    9.837
  173.801    0.288    0.426   81.037    9.458
  174.101    0.282    0.409   76.045   10.614
  174.401    0.302    0.402   72.306   11.912
  174.701    0.321    0.394   71.060   12.864
  175.001    0.318    0.397   74.196   13.623
  175.301    0.292    0.393   84.212   13.096
  175.601    0.281    0.388   89.224   12.114
  175.901    0.261    0.398   90.485   10.991
  176.201    0.257    0.434   90.494   10.364
  176.501    0.289    0.439   84.877   10.559
  176.801    0.290    0.447   79.258   10.971
  177.101    0.264    0.432   74.267   12.074
  177.401    0.203    0.412   71.777   12.545
  177.701    0.226    0.412   71.157   13.028
  178.001    0.267    0.420   79.295   12.525
  178.301    0.254    0.433   82.432   12.044
  178.601    0.238    0.448   91.197   10.927
  178.901    0.233    0.444   96.835    9.354
  179.201    0.229    0.428   94.967    8.651
  179.501    0.189    0.416   79.346    8.482
  179.801    0.160    0.424   82.482    8.642
  180.101    0.238    0.443   87.493    9.151
  180.401    0.240    0.434   80.000   10.075
  180.701    0.073    0.405   70.630   12.217
  181.001    0.036    0.272   63.135   14.533
  181.301    0.135    0.282   58.767   15.690
  181.601    0.180    0.319   78.787   15.680
  181.901    0.224    0.394   88.802   14.226
  182.201    0.244    0.423   98.192   10.036
  182.501    0.251    0.453  105.705    7.360
  182.801    0.242    0.454  110.716    5.610
  183.101    0.220    0.436  103.852    5.290
  183.401    0.215    0.449  101.981    6.053
  183.701    0.214    0.429  100.741    6.665
  184.001    0.212    0.405  100.125    9.077
  184.301    0.201    0.397   99.511   10.385
  184.601    0.187    0.425   98.271   11.211
  184.901    0.203    0.445   98.904   11.425
  185.201    0.204    0.438   99.539   10.981
  185.501    0.184    0.438   96.424   10.766
  185.801    0.148    0.444   95.810   10.352
  186.101    0.151    0.468   97.066    9.953
  186.401    0.194    0.478  106.456    9.570
  186.701    0.216    0.469  117.096    9.200
  187.001    0.218    0.470  110.853    9.373
  187.301    0.216    0.467  104.612   10.120
  187.601    0.204    0.441  102.119   11.805
  187.901    0.176    0.407   99.003   12.750
  188.201    0.157    0.374   99.010   14.035
  188.501    0.191    0.358  111.530   14.026
  188.801    0.211    0.351  112.786   13.224
  189.101    0.229    0.379  103.420   12.717
