~VERSION INFORMATION
 VERS.                 2.0:   CWLS LOG ASCII STANDARD -VERSION 2.0
 WRAP.                  NO:   ONE LINE PER DEPTH STEP
~WELL INFORMATION BLOCK
#MNEM.UNIT           DATA                    DESCRIPTION OF MNEMONIC
#---------    -------------------            -------------------------------
# Generated from Intellog Unique Number	CW_73_75/WELL/2733
WELL.         ANADARKO ER AL FRANCIS 07-32   : Well_name    - WELL
LOC .         00/07-32-073-21W4/0            : Location     - LOCATION
UWI .         00/07-32-073-21W4/0            : Uwi          - UNIQUE WELL ID
ENTR.         JAYE                           : Entered      - ENTERED BY
SRVC.         SCHLUMBERGER                   : Scn          - SERVICE COMPANY
DATE.         18 FEB 79                      : Date         - LOG DATE
STRT.M        325                            : top_depth    - START DEPTH
STOP.M        575                            : bot_depth    - STOP DEPTH
STEP.M        0.25                           : increment    - STEP LENGTH
 NULL. -999.2500:NULL Value
~CURVE INFORMATION BLOCK
#MNEM UNIT       ERCB CURVE CODE    CURVE DESCRIPTION
#-----------   ------------------   ----------------------------------
DEPT.M        00 001 00 00         : DEPTH        - DEPTH
ILD .OHMM     00 120 00 00         : RESD         - DEEP RESISTIVITY (DIL)
NPHI.V/V      00 330 00 00         : PHIN         - NEUTRON POROSITY (SANDSTONE)
DPHI.V/V      00 890 00 00         : PHID         - DENSITY POROSITY (SANDSTONE)
GR  .API      00 310 00 00         : GR           - GAMMA RAY
CALI.MM       00 280 01 00         : CAL          - CALIPER
~PARAMETER INFORMATION
#MNEM.UNIT           DATA             DESCRIPTION OF MNEMONIC
#---------         -----------     ------------------------------
GL  .M        674                  : gl           - GROUND LEVEL ELEVATION
EREF.M        677.8                : kb           - ELEVATION OF DEPTH REFERENCE
DATM.M        674                  : datum        - DATUM ELEVATION
TDD .M        600                  : tdd          - TOTAL DEPTH DRILLER
RUN .         ONE                  : Run          - RUN NUMBER
ENG .         WESOIOWSKY           : Engineer     - RECORDING ENGINEER
WIT .         ROGERS               : Witness      - WITNESSED BY
BASE.         EDM                  : Branch       - HOME BASE OF LOGGING UNIT
MUD .         GEL CHEM             : Mud_type     - MUD TYPE
MATR.         SANDSTONE            : Logunit      - NEUTRON MATRIX
TMAX.C        24                   : BHT          - MAXIMUM RECORDED TEMPERATURE
BHTD.M        601                  : BHTDEP       - MAXIMUM RECORDED TEMPERATURE
RMT .C        18                   : MDTP         - TEMPERATURE OF MUD
MUDD.KG/M     1090                 : MWT          - MUD DENSITY
NEUT.         1                    : NEUTRON      - NEUTRON TYPE
RESI.         0                    : RESIST       - RESISTIVITY TYPE
RM  .OHMM     5.8                  : RM           - RESISTIVITY OF MUD
RMC .OHMM     0                    : RMC          - RESISTIVITY OF MUD CAKE
RMF .OHMM     5.1                  : RMF          - RESISTIVITY OF MUD FILTRATE
SUFT.C        0                    : SUFT         - SURFACE TEMPERATURE
~A  DEPTH     RESD     PHIN     PHID       GR      CAL
# ...
  544.000    5.517    0.397    0.147  110.237  168.870
  544.250    6.319    0.378    0.132  100.211  169.230
  544.500    7.064    0.316    0.114   88.943  169.690
  544.750    7.421    0.315    0.095   84.628  170.051
  545.000    7.438    0.337    0.085   89.061  170.818
  545.250    7.371    0.377    0.091   92.691  173.145
  545.500    7.318    0.374    0.114   93.278  174.119
  545.750    7.266    0.373    0.129   95.107  173.650
  546.000    7.296    0.396    0.120   99.603  172.559
  546.250    7.382    0.385    0.129  100.006  171.785
  546.500    7.385    0.379    0.125   98.418  171.633
  546.750    7.332    0.362    0.116   93.109  171.569
  547.000    7.117    0.381    0.120   92.020  171.511
  547.250    6.831    0.401    0.106   93.911  171.144
  547.500    6.495    0.378    0.078   92.946  170.577
  547.750    5.904    0.368    0.070   98.435  169.895
  548.000    5.645    0.377    0.089   98.651  168.697
  548.250    5.531    0.402    0.110   98.058  167.399
  548.500    5.523    0.394    0.135   99.204  168.072
  548.750    5.599    0.396    0.140   95.261  169.669
  549.000    5.622    0.404    0.128   91.874  170.647
  549.250    5.571    0.426    0.159   97.243  171.010
  549.500    5.439    0.442    0.151   99.813  170.742
  549.750    5.279    0.419    0.135  105.515  170.371
  550.000    5.115    0.361    0.112  108.732  169.699
  550.250    4.956    0.376    0.146  112.517  168.918
  550.500    4.802    0.406    0.165  113.403  168.346
  550.750    4.723    0.433    0.164  111.759  168.187
  551.000    4.628    0.429    0.156  106.165  168.123
  551.250    4.578    0.416    0.128  109.705  167.766
  551.500    4.571    0.401    0.109  114.971  167.399
  551.750    4.556    0.381    0.123  117.956  166.716
  552.000    4.618    0.380    0.141  118.041  166.455
  552.250    4.734    0.390    0.164  113.989  166.916
  552.500    4.835    0.432    0.150  112.716  168.722
  552.750    4.937    0.418    0.135  116.256  170.323
  553.000    5.062    0.397    0.124  118.993  171.613
  553.250    5.131    0.386    0.150  121.729  172.070
  553.500    5.104    0.395    0.167  129.156  171.916
  553.750    5.058    0.414    0.145  124.427  171.231
  554.000    5.175    0.431    0.141  120.809  170.866
  554.250    5.426    0.421    0.105  122.805  172.359
  554.500    5.733    0.407    0.104  128.751  173.754
  554.750    5.833    0.430    0.123  138.955  174.214
  555.000    5.673    0.403    0.155  154.836  173.849
  555.250    5.569    0.378    0.139  200.892  172.967
  555.500    5.666    0.409    0.152  244.110  171.255
  555.750    6.009    0.438    0.164  252.339  169.854
  556.000    6.542    0.409    0.181  232.429  168.763
  556.250    7.123    0.382    0.126  211.409  167.673
  556.500    7.653    0.388    0.107  184.341  168.031
  556.750    8.300    0.384    0.038  161.470  169.733
  557.000    8.606    0.394    0.020  168.650  171.017
  557.250    8.528    0.427   -0.008  181.076  172.208
  557.500    7.824    0.451    0.051  190.478  172.977
  557.750    7.085    0.487    0.109  191.363  173.434
  558.000    6.636    0.513    0.117  192.064  172.038
  558.250    6.298    0.489    0.110  196.962  170.427
  558.500    6.125    0.476    0.132  208.646  168.819
  558.750    5.913    0.504    0.149  224.095  168.560
  559.000    5.772    0.441    0.135  240.038  171.396
  559.250    5.593    0.448    0.134  250.181  173.412
  559.500    5.449    0.481    0.149  259.459  171.903
  559.750    5.309    0.510    0.167  307.367  165.329
  560.000    5.173    0.556    0.168  310.597  163.518
  560.250    5.031    0.575    0.148  311.978  163.665
  560.500    4.874    0.537    0.155  312.248  163.612
  560.750    4.481    0.519    0.189  312.269  163.141
  561.000    3.784    0.540    0.231  312.413  162.258
  561.250    3.591    0.514    0.276  312.313  161.788
  561.500    3.559    0.490    0.238  311.224  162.660
  561.750    3.541    0.497    0.232  309.642  165.502
  562.000    3.616    0.510    0.219  307.134  168.758
  562.250    3.871    0.536    0.227  300.306  170.771
  562.500    4.120    0.518    0.197  244.606  171.439
  562.750    4.288    0.485    0.171  241.110  171.484
  563.000    4.404    0.448    0.182  235.516  171.324
  563.250    4.480    0.475    0.209  218.569  171.889
  563.500    4.440    0.510    0.201  212.730  173.074
  563.750    4.425    0.504    0.182  208.061  174.263
  564.000    4.469    0.521    0.186  202.159  175.035
  564.250    4.538    0.579    0.194  194.406  174.974
  564.500    4.643    0.537    0.191  184.987  172.023
  564.750    4.823    0.556    0.150  174.333  170.108
  565.000    5.001    0.556    0.132  184.784  169.537
  565.250    5.303    0.507    0.158  186.596  169.270
  565.500    5.676    0.534    0.138  189.148  169.316
  565.750    6.100    0.578    0.094  195.279  169.675
  566.000    6.300    0.544    0.145  190.981  170.550
  566.250    6.532    0.509    0.179  168.973  170.595
  566.500    6.759    0.469    0.165  165.911  169.299
  566.750    7.087    0.468    0.124  160.564  168.830
  567.000    7.459    0.514    0.095  138.865  168.981
  567.250    7.851    0.500    0.038  102.356  169.545
  567.500    8.435    0.467    0.079   66.279  168.243
  567.750    9.464    0.398    0.085   64.945  165.809
  568.000    9.831    0.326    0.132   73.666  163.271
  568.250    9.965    0.301    0.091   62.210  160.429
  568.500   10.025    0.281    0.090   58.900  160.369
  568.750   10.029    0.285    0.093   62.810  161.345
  569.000    9.883    0.297    0.106   72.953  164.078
  569.250    9.539    0.317    0.115   74.517  162.678
  569.500    8.935    0.338    0.131   78.366  160.553
  569.750    8.290    0.306    0.108   82.645  161.634
  570.000    7.972    0.281    0.085   75.818  165.406
  570.250    8.096    0.242    0.067   79.296  168.040
  570.500    8.222    0.252    0.064   84.563  169.743
  570.750    7.996    0.262    0.076   80.636  169.896
  571.000    7.490    0.273    0.094   73.130  169.325
  571.250    7.175    0.308    0.131   66.178  167.403
  571.500    6.861    0.375    0.185   53.859  160.105
  571.750    6.864    0.335    0.164   44.008  156.425
  572.000    8.670    0.299    0.131   36.192  158.548
  572.250   12.260    0.268    0.076   27.205  160.558
  572.500   15.168    0.269    0.017   20.009  160.915
  572.750   19.159    0.301    0.032   21.083  160.342
  573.000   18.634    0.316    0.056   23.756  159.664
  573.250   11.936    0.283    0.073   28.467  160.847
  573.500    8.228    0.260    0.085   34.782  162.038
  573.750    6.593    0.301    0.130   48.072  162.186
  574.000    5.728    0.323    0.191   45.689  160.066
  574.250    5.099    0.324    0.176   44.537  159.488
  574.500    4.904    0.241    0.134   45.177  159.740
  574.750    4.896    0.252    0.151   47.975  159.687
  575.000    4.834    0.269    0.179   51.205  159.010
