~VERSION INFORMATION
 VERS.                 2.0:   CWLS LOG ASCII STANDARD -VERSION 2.0
 WRAP.                  NO:   ONE LINE PER DEPTH STEP
~WELL INFORMATION BLOCK
#MNEM.UNIT           DATA                    DESCRIPTION OF MNEMONIC
#---------    -------------------            -------------------------------
# Generated from Intellog Unique Number	CN_94_101/WELL/3386
WELL.         PARAMOUNT RES                  : Well_name    - WELL
LOC .         00/03-28-095-18W4/0            : Location     - LOCATION
UWI .         00/03-28-095-18W400            : Uwi          - UNIQUE WELL ID
ENTR.         T                              : Entered      - ENTERED BY
SRVC.         SCHLUMBERGER                   : Scn          - SERVICE COMPANY
DATE.         07/07/92                       : Date         - LOG DATE
STRT.M        225                            : top_depth    - START DEPTH
STOP.M        400                            : bot_depth    - STOP DEPTH
STEP.M        0.25                           : increment    - STEP LENGTH
 NULL. -999.2500:NULL Value
~CURVE INFORMATION BLOCK
#MNEM UNIT       ERCB CURVE CODE    CURVE DESCRIPTION
#-----------   ------------------   ----------------------------------
DEPT.M        00 001 00 00         : DEPTH        - DEPTH
GR  .API      00 310 00 00         : GR           - GAMMA RAY
NPHI.V/V      00 330 00 00         : PHIN         - NEUTRON POROSITY (SANDSTONE)
DPHI.V/V      00 890 00 00         : PHID         - DENSITY POROSITY (SANDSTONE)
ILD .OHMM     00 120 00 00         : RESD         - DEEP RESISTIVITY (DIL)
~PARAMETER INFORMATION
#MNEM.UNIT           DATA             DESCRIPTION OF MNEMONIC
#---------         -----------     ------------------------------
GL  .M        680.3                : gl           - GROUND LEVEL ELEVATION
EREF.M        683.8                : kb           - ELEVATION OF DEPTH REFERENCE
DATM.M        683.8                : datum        - DATUM ELEVATION
TDD .M        398                  : tdd          - TOTAL DEPTH DRILLER
RUN .         ONE                  : Run          - RUN NUMBER
ENG .         JO                   : Engineer     - RECORDING ENGINEER
WIT .         TIM                  : Witness      - WITNESSED BY
MUD .         GEL                  : Mud_type     - MUD TYPE
MATR.         SANDSTONE            : Logunit      - NEUTRON MATRIX
TMAX.C        32                   : BHT          - MAXIMUM RECORDED TEMPERATURE
BHTD.M        398                  : BHTDEP       - MAXIMUM RECORDED TEMPERATURE
RMT .C        21                   : MDTP         - TEMPERATURE OF MUD
MUDD.KG/M     1100                 : MWT          - MUD DENSITY
NEUT.         1                    : NEUTRON      - NEUTRON TYPE
RESI.         0                    : RESIST       - RESISTIVITY TYPE
RM  .OHMM     4                    : RM           - RESISTIVITY OF MUD
RMC .OHMM     3.5                  : RMC          - RESISTIVITY OF MUD CAKE
RMF .OHMM     5                    : RMF          - RESISTIVITY OF MUD FILTRATE
SUFT.C        4                    : SUFT         - SURFACE TEMPERATURE
~A  DEPTH       GR     PHIN     PHID     RESD
# ...
  355.500  112.301    0.419    0.211    7.524
  355.750  114.231    0.424    0.207    7.257
  356.000  114.883    0.429    0.200    7.128
  356.250  112.986    0.424    0.188    6.878
  356.500  109.166    0.396    0.135    6.754
  356.750  105.988    0.367    0.124    6.512
  357.000  103.452    0.351    0.115    6.397
  357.250  105.379    0.403    0.148    6.168
  357.500  110.501    0.432    0.184    5.727
  357.750  114.346    0.423    0.203    5.419
  358.000  111.168    0.386    0.214    4.940
  358.250  105.436    0.372    0.230    4.674
  358.500   99.066    0.467    0.244    4.342
  358.750  102.911    0.497    0.251    4.263
  359.000  111.226    0.532    0.256    4.112
  359.250  118.263    0.518    0.244    4.039
  359.500  118.278    0.451    0.225    4.121
  359.750  113.823    0.442    0.209    4.799
  360.000  106.814    0.443    0.209    5.804
  360.250  102.360    0.432    0.217    7.017
  360.500  100.459    0.413    0.227    8.484
  360.750   96.007    0.371    0.212    8.990
  361.000   92.187    0.301    0.086    8.668
  361.250   90.286    0.361    0.067    8.049
  361.500   89.024    0.410    0.096    6.677
  361.750  105.000    0.434    0.183    6.084
  362.000  119.061    0.449    0.206    5.866
  362.250  120.356    0.445    0.202    5.984
  362.500  119.093    0.434    0.201    6.584
  362.750  115.912    0.396    0.202    7.382
  363.000  107.630    0.399    0.201    8.437
  363.250  105.087    0.405    0.177    8.937
  363.500  103.824    0.375    0.093    9.292
  363.750  105.115    0.352    0.075    9.662
  364.000  107.045    0.282    0.046    9.862
  364.250   99.398    0.241    0.048    9.871
  364.500   93.670    0.353    0.163   10.075
  364.750   97.512    0.407    0.198   10.092
  365.000  101.995    0.395    0.203   10.290
  365.250  106.479    0.370    0.200   10.307
  365.500  107.132    0.361    0.198   10.124
  365.750  106.508    0.365    0.197    9.951
  366.000  105.884    0.371    0.195    9.964
  366.250  105.902    0.377    0.194    9.788
  366.500  105.916    0.382    0.191    9.624
  366.750  106.569    0.384    0.196    9.630
  367.000  107.222    0.387    0.200    9.468
  367.250  107.879    0.393    0.203    9.475
  367.500  108.532    0.401    0.201    9.493
  367.750  109.181    0.396    0.198    9.683
  368.000  111.114    0.388    0.194    9.692
  368.250  112.402    0.380    0.190    9.896
  368.500  113.693    0.375    0.186   10.094
  368.750  114.350    0.372    0.182   10.300
  369.000  115.003    0.370    0.180   10.713
  369.250  115.017    0.372    0.177   11.351
  369.500  114.393    0.373    0.175   12.485
  369.750  110.577    0.370    0.171   14.537
  370.000  106.118    0.295    0.160   17.916
  370.250   98.471    0.241    0.138   20.464
  370.500   90.186    0.205    0.051   24.280
  370.750   81.900    0.180    0.010   28.818
  371.000   73.614    0.198    0.004   28.316
  371.250   67.883    0.238    0.037   23.920
  371.500   78.112    0.289    0.083   18.394
  371.750   92.173    0.319    0.103   14.688
  372.000  102.407    0.366    0.147   11.956
  372.250  107.525    0.379    0.193   10.688
  372.500  112.013    0.370    0.196   10.702
  372.750  105.639    0.355    0.164   10.919
  373.000   90.334    0.312    0.119   12.480
  373.250   89.067    0.286    0.093   13.224
  373.500   89.720    0.328    0.124   12.994
  373.750   94.843    0.362    0.170   12.529
  374.000  100.607    0.365    0.179   11.855
  374.250  106.364    0.353    0.195   11.431
  374.500  103.824    0.326    0.169   11.232
  374.750   97.454    0.309    0.148   11.457
  375.000   95.557    0.298    0.154   11.476
  375.250   96.210    0.309    0.178   11.494
  375.500   97.497    0.326    0.184   11.502
  375.750  100.066    0.341    0.194   11.302
  376.000  103.280    0.366    0.201   11.108
  376.250  103.929    0.364    0.203   10.912
  376.500  105.220    0.371    0.188   10.325
  376.750   97.573    0.370    0.162    9.587
  377.000   86.734    0.340    0.124    9.423
  377.250   82.275    0.296    0.051   10.175
  377.500   83.570    0.279    0.033   10.583
  377.750   94.439    0.308    0.083   10.791
  378.000  106.584    0.352    0.145   10.607
  378.250  112.345    0.399    0.155    8.793
  378.500  115.551    0.423    0.125    7.291
  378.750  116.843    0.437    0.127    6.050
  379.000  118.134    0.445    0.142    5.721
  379.250  120.067    0.452    0.157    5.317
  379.500  121.997    0.455    0.165    5.223
  379.750  123.927    0.455    0.172    5.227
  380.000  122.665    0.450    0.177    5.139
  380.250  120.764    0.438    0.179    5.144
  380.500  115.028    0.424    0.174    5.249
  380.750  109.300    0.420    0.167    5.354
  381.000  111.230    0.416    0.162    5.676
  381.250  115.075    0.409    0.164    5.790
  381.500  117.643    0.397    0.166    6.022
  381.750  116.377    0.406    0.169    6.141
  382.000  108.095    0.415    0.160    6.149
  382.250  102.998    0.407    0.115    6.159
  382.500   99.186    0.392    0.095    6.165
  382.750   99.835    0.371    0.089    6.059
  383.000  104.319    0.381    0.119    6.065
  383.250  115.826    0.406    0.165    5.848
  383.500  127.336    0.425    0.167    5.748
  383.750  134.377    0.435    0.163    5.648
  384.000  133.115    0.445    0.154    5.448
  384.250  130.572    0.450    0.126    5.453
  384.500  126.117    0.446    0.124    5.357
  384.750  123.577    0.442    0.139    5.264
  385.000  121.042    0.438    0.149    5.272
  385.250  121.694    0.436    0.154    5.277
  385.500  124.259    0.436    0.127    5.286
  385.750  126.193    0.437    0.095    5.195
  386.000  119.819    0.438    0.124    5.199
  386.250  118.560    0.442    0.135    5.108
  386.500  118.574    0.447    0.157    5.115
  386.750  119.869    0.443    0.170    5.122
  387.000  120.515    0.429    0.176    5.130
  387.250  124.360    0.418    0.171    5.236
  387.500  127.567    0.405    0.161    5.341
  387.750  126.304    0.412    0.155    5.553
  388.000  126.957    0.433    0.143    5.664
  388.250  126.972    0.440    0.129    5.672
  388.500  124.432    0.426    0.109    5.787
  388.750  116.789    0.411    0.093    5.795
  389.000  112.330    0.390    0.084    5.694
  389.250  108.518    0.379    0.113    5.701
  389.500  111.724    0.404    0.139    5.501
  389.750  115.566    0.414    0.151    5.403
  390.000  120.688    0.433    0.158    5.309
  390.250  124.533    0.451    0.158    5.217
  390.500  120.079    0.459    0.154    5.030
  390.750  113.708    0.449    0.150    5.037
  391.000  109.253    0.441    0.148    5.141
  391.250  106.714    0.440    0.145    5.342
  391.500  106.090    0.445    0.140    5.662
  391.750   99.081    0.439    0.134    6.228
  392.000   89.519    0.433    0.125    7.392
  392.250   81.233    0.381    0.120    9.107
  392.500   77.417    0.339    0.120   11.011
  392.750   72.966    0.297    0.124   13.313
  393.000   69.788    0.295    0.133   15.501
  393.250   67.245    0.290    0.154   18.742
  393.500   65.347    0.287    0.216   22.667
  393.750   64.720    0.287    0.235   26.392
  394.000   64.096    0.287    0.235   29.601
  394.250   62.833    0.288    0.233   31.972
  394.500   60.294    0.288    0.230   32.601
  394.750   56.481    0.289    0.228   33.909
  395.000   54.580    0.289    0.223   33.953
  395.250   53.318    0.289    0.216   33.997
  395.500   53.971    0.289    0.207   34.041
  395.750   53.985    0.289    0.197   34.085
  396.000   53.999    0.289    0.192   34.140
  396.250   54.010    0.289    0.192   34.163
  396.500   53.386    0.290    0.191   36.209
  396.750   52.766    0.290    0.191   38.354
  397.000   51.503    0.290    0.190   39.879
  397.250   48.322    0.287    0.188   39.198
  397.500   44.505    0.286    0.187   38.503
  397.750   37.497    0.281    0.176   37.833
  398.000   31.765    0.266    0.162   37.174
  398.250   27.949    0.246    0.126   37.943
  398.500   27.325    0.227    0.102   38.703
  398.750   26.701    0.218    0.078   38.753
