~VERSION INFORMATION
 VERS.                 2.0:   CWLS LOG ASCII STANDARD -VERSION 2.0
 WRAP.                  NO:   ONE LINE PER DEPTH STEP
~WELL INFORMATION BLOCK
#MNEM.UNIT           DATA                    DESCRIPTION OF MNEMONIC
#---------    -------------------            -------------------------------
# Generated from Intellog Unique Number	CW_82_90/WELL/3064
WELL.         CHEVRON ET AL WABASCA          : Well_name    - WELL
LOC .         00/07-19-085-24W4/0            : Location     - LOCATION
UWI .         00/07-19-085-24W4/0            : Uwi          - UNIQUE WELL ID
ENTR.         JAYE                           : Entered      - ENTERED BY
SRVC.         SCHLUMBERGER                   : Scn          - SERVICE COMPANY
DATE.         26 FEB 73                      : Date         - LOG DATE
STRT.M        167.64                         : top_depth    - START DEPTH
STOP.M        365.64                         : bot_depth    - STOP DEPTH
STEP.M        0.25                           : increment    - STEP LENGTH
 NULL. -999.2500:NULL Value
~CURVE INFORMATION BLOCK
#MNEM UNIT       ERCB CURVE CODE    CURVE DESCRIPTION
#-----------   ------------------   ----------------------------------
DEPT.M        00 001 00 00         : DEPTH        - DEPTH
DPHI.V/V      00 890 00 00         : PHID         - DENSITY POROSITY (SANDSTONE)
ILD .OHMM     00 120 00 00         : RESD         - DEEP RESISTIVITY (DIL)
CALI.MM       00 280 01 00         : CAL          - CALIPER
GR  .API      00 310 00 00         : GR           - GAMMA RAY
NPHI.V/V      00 330 00 00         : PHIN         - NEUTRON POROSITY (SANDSTONE)
~PARAMETER INFORMATION
#MNEM.UNIT           DATA             DESCRIPTION OF MNEMONIC
#---------         -----------     ------------------------------
GL  .M        543.794              : gl           - GROUND LEVEL ELEVATION
EREF.M        546.08               : kb           - ELEVATION OF DEPTH REFERENCE
DATM.M        543.794              : datum        - DATUM ELEVATION
TDD .M        366.979              : tdd          - TOTAL DEPTH DRILLER
RUN .         ONE                  : Run          - RUN NUMBER
ENG .         SIROIS & SIMPSON     : Engineer     - RECORDING ENGINEER
WIT .         LEWIS                : Witness      - WITNESSED BY
BASE.         EDMONTON             : Branch       - HOME BASE OF LOGGING UNIT
MUD .         FGM                  : Mud_type     - MUD TYPE
MATR.         SANDSTONE            : Logunit      - NEUTRON MATRIX
TMAX.C        18.8889              : BHT          - MAXIMUM RECORDED TEMPERATURE
BHTD.M        366.979              : BHTDEP       - MAXIMUM RECORDED TEMPERATURE
RMT .C        -17.7778             : MDTP         - TEMPERATURE OF MUD
MUDD.KG/M     9400                 : MWT          - MUD DENSITY
NEUT.         1                    : NEUTRON      - NEUTRON TYPE
RESI.         0                    : RESIST       - RESISTIVITY TYPE
RM  .OHMM     0.25                 : RM           - RESISTIVITY OF MUD
RMC .OHMM     0.25                 : RMC          - RESISTIVITY OF MUD CAKE
RMF .OHMM     5.45                 : RMF          - RESISTIVITY OF MUD FILTRATE
SUFT.C        4                    : SUFT         - SURFACE TEMPERATURE
~A  DEPTH     PHID     RESD      CAL       GR     PHIN
# ...
  313.640    0.075   12.728  197.966   82.236    0.311
  313.890    0.052   13.200  197.370   82.971    0.276
  314.140    0.051   13.814  196.984   74.498    0.265
  314.390    0.156   16.089  197.954   68.297    0.296
  314.640    0.157   18.297  200.277   72.345    0.374
  314.890    0.146   19.256  202.186   75.964    0.370
  315.140    0.144   18.895  202.322   83.019    0.369
  315.390    0.148   17.960  201.000   92.161    0.380
  315.640    0.158   14.731  200.196   93.325    0.388
  315.890    0.156   12.631  200.232   90.929    0.381
  316.140    0.160   11.702  200.575   83.438    0.382
  316.390    0.149   11.417  201.334   80.981    0.361
  316.640    0.119   11.622  201.156   82.328    0.283
  316.890    0.062   12.345  201.189   83.430    0.261
  317.140    0.047   13.355  201.223   80.850    0.272
  317.390    0.159   14.856  201.985   79.436    0.381
  317.640    0.154   15.347  203.061   82.318    0.381
  317.890    0.148   15.367  204.025   85.016    0.374
  318.140    0.131   14.691  205.619   90.168    0.357
  318.390    0.122   13.140  206.283   92.191    0.353
  318.640    0.108   11.142  205.476   94.766    0.346
  318.890    0.116    9.241  203.738   93.352    0.334
  319.140    0.167    7.894  202.418   90.097    0.394
  319.390    0.166    7.575  201.513   92.303    0.389
  319.640    0.148    7.282  201.646   93.528    0.371
  319.890    0.131    7.094  203.862   90.580    0.358
  320.140    0.144    6.970  207.127   87.815    0.360
  320.390    0.135    6.800  208.408   84.498    0.364
  320.640    0.140    6.947  208.546   87.380    0.386
  320.890    0.154    7.422  208.370   91.981    0.371
  321.140    0.127    7.809  207.253   89.462    0.350
  321.390    0.079    8.435  204.472   83.628    0.320
  321.640    0.019    9.141  202.937   77.365    0.250
  321.890    0.090   11.697  202.033   70.489    0.348
  322.140    0.174   14.348  202.486   71.591    0.400
  322.390    0.149   16.591  202.621   73.736    0.387
  322.640    0.127   17.395  202.545   74.900    0.362
  322.890    0.108   16.910  202.579   76.615    0.357
  323.140    0.090   14.714  202.920   77.657    0.334
  323.390    0.085   13.812  203.268   76.794    0.313
  323.640    0.132   13.300  202.989   75.749    0.335
  323.890    0.149   12.927  202.704   79.551    0.369
  324.140    0.138   12.452  202.317   82.679    0.370
  324.390    0.104   12.238  201.624   85.806    0.361
  324.640    0.054   12.052  201.133   83.532    0.305
  324.890    0.037   12.132  201.267   78.865    0.260
  325.140    0.127   12.373  200.885   75.119    0.358
  325.390    0.150   12.880  200.082   73.950    0.379
  325.640    0.154   13.132  199.497   78.980    0.372
  325.890    0.137   12.813  199.519   83.949    0.360
  326.140    0.120   11.980  198.924   89.470    0.346
  326.390    0.116   10.679  199.585   87.442    0.339
  326.640    0.127   10.061  201.073   83.450    0.347
  326.890    0.123    9.796  202.463   86.394    0.345
  327.140    0.102    9.438  203.120   89.644    0.333
  327.390    0.077    9.257  203.877   91.544    0.313
  327.640    0.098    9.217  202.451   92.216    0.296
  327.890    0.097    9.227  201.022   93.441    0.317
  328.140    0.080    9.274  200.115   97.183    0.304
  328.390    0.120    9.353  204.214  103.318    0.343
  328.640    0.103    9.193  208.623  109.698    0.322
  328.890    0.099    8.955  209.279  104.908    0.322
  329.140    0.092    9.112  206.704   94.901    0.316
  329.390    0.080    9.952  205.183   88.086    0.302
  329.640    0.105   10.646  205.309   88.022    0.337
  329.890    0.131   11.244  206.069   90.413    0.354
  330.140    0.089   11.924  207.253   91.208    0.350
  330.390    0.058   12.593  207.492   90.837    0.322
  330.640    0.018   13.699  206.895   89.055    0.238
  330.890   -0.011   15.070  204.010   83.897    0.171
  331.140   -0.038   17.200  200.816   72.109    0.177
  331.390   -0.013   18.372  201.362   75.421    0.236
  331.640    0.121   18.979  203.165   78.856    0.346
  331.890    0.123   17.229  204.346   82.597    0.341
  332.140    0.128   14.319  204.376   85.540    0.356
  332.390    0.109   13.510  204.205   88.545    0.349
  332.640    0.091   12.964  204.445   88.052    0.336
  332.890    0.087   13.371  204.578   84.366    0.316
  333.140    0.108   13.811  203.983   88.967    0.322
  333.390    0.119   14.321  201.627   89.516    0.344
  333.640    0.093   14.584  201.753   85.033    0.339
  333.890    0.065   14.678  201.377   80.243    0.303
  334.140    0.036   15.736  201.718   74.103    0.217
  334.390   -0.005   17.597  201.535   66.736    0.184
  334.640   -0.027   21.505  200.945   66.242    0.192
  334.890    0.041   25.565  199.416   68.081    0.211
  335.140    0.022   29.833  198.817   68.385    0.258
  335.390   -0.017   33.061  198.751   66.172    0.204
  335.640    0.005   30.404  199.304   70.220    0.274
  335.890    0.031   25.642  199.953   72.672    0.345
  336.140    0.114   21.741  201.132   75.125    0.385
  336.390    0.127   18.779  201.483   78.314    0.361
  336.640    0.104   15.544  201.512   82.424    0.340
  336.890    0.086   13.776  201.962   79.598    0.320
  337.140    0.064   12.788  202.094   79.841    0.299
  337.390    0.096   11.982  202.963   76.769    0.274
  337.640    0.126   11.996  204.248   80.634    0.331
  337.890    0.121   12.322  205.211   83.393    0.342
  338.140    0.089   12.778  205.763   84.311    0.328
  338.390    0.057   13.081  205.587   84.308    0.290
  338.640    0.038   13.417  205.206   80.746    0.267
  338.890    0.061   13.706  205.033   80.621    0.281
  339.140    0.149   13.771  204.854   84.975    0.374
  339.390    0.146   13.590  204.671   89.453    0.368
  339.640    0.136   13.403  203.975   93.870    0.356
  339.890    0.149   11.925  203.487   95.893    0.380
  340.140    0.157   10.036  203.312   95.031    0.377
  340.390    0.134    9.077  203.549   96.010    0.355
  340.640    0.117    8.153  204.312   95.946    0.343
  340.890    0.103    7.650  205.278   92.199    0.331
  341.140    0.110    7.801  205.623   89.312    0.329
  341.390    0.102    8.442  206.074   87.038    0.326
  341.640    0.051    9.320  205.685   84.949    0.313
  341.890   -0.003    9.991  204.259   83.289    0.202
  342.140   -0.016   10.551  204.714   77.456    0.199
  342.390    0.030   10.354  206.935   82.670    0.335
  342.640    0.116   10.082  208.418   97.520    0.345
  342.890    0.130    9.480  209.388  102.735    0.351
  343.140    0.119    8.767  209.737  108.624    0.341
  343.390    0.135    8.019  208.723  111.138    0.346
  343.640    0.151    7.709  207.402  112.669    0.376
  343.890    0.165    7.876  206.081  113.649    0.389
  344.140    0.187    8.211  204.442  109.228    0.431
  344.390    0.242    8.851  201.138   75.284    0.485
  344.640    0.264   10.678  199.192   41.034    0.501
  344.890    0.284   13.073  198.702   32.929    0.507
  345.140    0.273   31.983  198.838   31.146    0.496
  345.390    0.283   38.801  199.293   33.415    0.499
  345.640    0.272   43.321  199.838   34.885    0.493
  345.890    0.257   43.447  200.285   34.698    0.481
  346.140    0.239   41.309  200.428   36.046    0.470
  346.390    0.222   38.487  200.565   38.008    0.450
  346.640    0.222   37.482  200.698   41.504    0.442
  346.890    0.215   36.378  200.727   49.602    0.438
  347.140    0.187   36.013  200.760   55.308    0.415
  347.390    0.159   35.981  200.792   56.533    0.366
  347.640    0.136   36.091  201.347   52.970    0.372
  347.890    0.212   36.336  201.689   52.231    0.444
  348.140    0.231   37.266  202.031   52.658    0.445
  348.390    0.214   38.283  203.004   52.471    0.434
  348.640    0.199   39.478  203.866   50.689    0.421
  348.890    0.234   40.562  204.419   47.863    0.467
  349.140    0.256   42.369  203.930   45.712    0.491
  349.390    0.280   45.421  201.565   42.886    0.508
  349.640    0.268   48.245  199.306   38.464    0.485
  349.890    0.248   48.119  197.148   36.927    0.453
