~VERSION INFORMATION
 VERS.                 2.0:   CWLS LOG ASCII STANDARD -VERSION 2.0
 WRAP.                  NO:   ONE LINE PER DEPTH STEP
~WELL INFORMATION BLOCK
#MNEM.UNIT           DATA                    DESCRIPTION OF MNEMONIC
#---------    -------------------            -------------------------------
# Generated from Intellog Unique Number	CS_77_79/WELL/913
WELL.         NOVALTA VIOLET                 : Well_name    - WELL
LOC .         00/07-32-078-03W4/0            : Location     - LOCATION
UWI .         00/07-32-078-03W4/0            : Uwi          - UNIQUE WELL ID
ENTR.         JHS                            : Entered      - ENTERED BY
SRVC.         SCHLUMBERGER                   : Scn          - SERVICE COMPANY
STRT.M        135                            : top_depth    - START DEPTH
STOP.M        400                            : bot_depth    - STOP DEPTH
STEP.M        0.25                           : increment    - STEP LENGTH
 NULL. -999.2500:NULL Value
~CURVE INFORMATION BLOCK
#MNEM UNIT       ERCB CURVE CODE    CURVE DESCRIPTION
#-----------   ------------------   ----------------------------------
DEPT.M        00 001 00 00         : DEPTH        - DEPTH
DPHI.V/V      00 890 00 00         : PHID         - DENSITY POROSITY (LIMESTONE)
NPHI.V/V      00 330 00 00         : PHIN         - NEUTRON POROSITY (LIMESTONE)
GR  .API      00 310 00 00         : GR           - GAMMA RAY
ILD .OHMM     00 120 00 00         : RESD         - DEEP RESISTIVITY (DIL)
RHOB.KG/M3    00 350 00 00         : DENS         - BULK DENSITY
~PARAMETER INFORMATION
#MNEM.UNIT           DATA             DESCRIPTION OF MNEMONIC
#---------         -----------     ------------------------------
GL  .M        549.79               : gl           - GROUND LEVEL ELEVATION
EREF.M        552.8                : kb           - ELEVATION OF DEPTH REFERENCE
DATM.M        552.8                : datum        - DATUM ELEVATION
TDD .M        405                  : tdd          - TOTAL DEPTH DRILLER
RUN .         ONE                  : Run          - RUN NUMBER
ENG .         BILL                 : Engineer     - RECORDING ENGINEER
WIT .         JIM                  : Witness      - WITNESSED BY
MUD .         GEL                  : Mud_type     - MUD TYPE
MATR.         LIMESTONE            : Logunit      - NEUTRON MATRIX
TMAX.C        23                   : BHT          - MAXIMUM RECORDED TEMPERATURE
BHTD.M        405                  : BHTDEP       - MAXIMUM RECORDED TEMPERATURE
MATR.         1                    : LOGUNIT      - NEUTRON MATRIX
RMT .C        25                   : MDTP         - TEMPERATURE OF MUD
NEUT.         1                    : NEUTRON      - NEUTRON TYPE
RESI.         0                    : RESIST       - RESISTIVITY TYPE
RMC .OHMM     0.25                 : RMC          - RESISTIVITY OF MUD CAKE
RMF .OHMM     0.25                 : RMF          - RESISTIVITY OF MUD FILTRATE
SUFT.C        15                   : SUFT         - SURFACE TEMPERATURE
~A  DEPTH     PHID     PHIN       GR     RESD     DENS
# ...
  244.500    0.335    0.452   64.299   12.652    0.000
  244.750    0.332    0.445   63.725   12.422    0.000
  245.000    0.330    0.428   64.364   12.425    0.000
  245.250    0.331    0.421   64.997   12.428    0.000
  245.500    0.334    0.428   64.417   12.431    0.000
  245.750    0.333    0.434   61.415   12.668    0.000
  246.000    0.327    0.436   63.260   12.908    0.000
  246.250    0.326    0.453   65.720   12.911    0.000
  246.500    0.319    0.459   66.965   13.157    0.000
  246.750    0.312    0.442   67.007   13.159    0.000
  247.000    0.313    0.443   67.638   12.919    0.000
  247.250    0.323    0.452   68.279   12.923    0.000
  247.500    0.325    0.441   70.736   12.453    0.000
  247.750    0.323    0.433   71.977   12.226    0.000
  248.000    0.319    0.433   69.585   11.782    0.000
  248.250    0.318    0.444   69.001   11.567    0.000
  248.500    0.323    0.444   69.637   11.357    0.000
  248.750    0.331    0.440   70.276   11.359    0.000
  249.000    0.327    0.435   69.091   11.362    0.000
  249.250    0.311    0.452   69.730   10.949    0.000
  249.500    0.307    0.444   73.404   10.356    0.000
  249.750    0.305    0.416   79.515    9.264    0.000
  250.000    0.287    0.402   83.181    8.286    0.000
  250.250    0.253    0.417   89.897    6.753    0.000
  250.500    0.231    0.489   93.563    5.929    0.000
  250.750    0.218    0.499   98.453    4.656    0.000
  251.000    0.220    0.502  101.529    4.322    0.000
  251.250    0.228    0.483  103.379    3.939    0.000
  251.500    0.232    0.471  104.621    3.726    0.000
  251.750    0.233    0.466  102.827    3.658    0.000
  252.000    0.237    0.484  102.854    3.460    0.000
  252.250    0.248    0.562  107.137    3.153    0.000
  252.500    0.240    0.554  108.384    2.982    0.000
  252.750    0.232    0.534  108.416    2.874    0.000
  253.000    0.230    0.530  109.052    2.875    0.000
  253.250    0.228    0.540  106.046    2.875    0.000
  253.500    0.219    0.544  109.118    2.930    0.000
  253.750    0.218    0.561  109.747    3.042    0.000
  254.000    0.216    0.542  109.176    3.218    0.000
  254.250    0.208    0.509  109.205    3.279    0.000
  254.500    0.213    0.509  110.446    3.280    0.000
  254.750    0.226    0.524  111.698    3.281    0.000
  255.000    0.244    0.530  111.117    3.343    0.000
  255.250    0.255    0.519  109.322    3.470    0.000
  255.500    0.250    0.512  107.539    3.670    0.000
  255.750    0.238    0.481  103.925    3.955    0.000
  256.000    0.227    0.462   99.704    4.424    0.000
  256.250    0.226    0.449   99.732    4.767    0.000
  256.500    0.238    0.440   99.767    5.233    0.000
  256.750    0.249    0.442   93.108    5.639    0.000
  257.000    0.254    0.457   89.494    5.854    0.000
  257.250    0.267    0.470   87.703    6.192    0.000
  257.500    0.282    0.475   82.877    6.428    0.000
  257.750    0.267    0.471   85.339    6.799    0.000
  258.000    0.256    0.430   86.580    7.326    0.000
  258.250    0.245    0.417   84.786    8.043    0.000
  258.500    0.242    0.420   78.139    8.830    0.000
  258.750    0.224    0.435   74.534    9.515    0.000
  259.000    0.200    0.443   73.341   10.445    0.000
  259.250    0.219    0.422   69.731   11.467    0.000
  259.500    0.205    0.338   69.156   12.589    0.000
  259.750    0.128    0.296   64.323   13.315    0.000
  260.000    0.110    0.289   59.493   13.825    0.000
  260.250    0.196    0.363   62.562   13.827    0.000
  260.500    0.247    0.437   67.454   13.574    0.000
  260.750    0.316    0.457   69.912   12.371    0.000
  261.000    0.322    0.459   70.545   12.144    0.000
  261.250    0.323    0.442   71.183   11.488    0.000
  261.500    0.310    0.432   73.644   11.490    0.000
  261.750    0.295    0.430   77.322   11.493    0.000
  262.000    0.293    0.439   76.135   11.495    0.000
  262.250    0.288    0.438   71.913   11.498    0.000
  262.500    0.232    0.404   68.913   11.289    0.000
  262.750    0.185    0.369   67.722   10.678    0.000
  263.000    0.161    0.363   66.539   10.100    0.000
  263.250    0.174    0.405   70.214    9.553    0.000
  263.500    0.256    0.432   75.101    9.037    0.000
  263.750    0.274    0.437   81.210    8.871    0.000
  264.000    0.268    0.456   83.667    8.710    0.000
  264.250    0.263    0.435   83.700    8.876    0.000
  264.500    0.274    0.411   79.481    8.878    0.000
  264.750    0.272    0.405   79.504    9.047    0.000
  265.000    0.282    0.416   80.756    8.882    0.000
  265.250    0.292    0.400   80.179    8.883    0.000
  265.500    0.273    0.395   79.602    8.722    0.000
  265.750    0.249    0.423   83.272    8.405    0.000
  266.000    0.241    0.463   89.370    8.100    0.000
  266.250    0.251    0.454   93.051    7.805    0.000
  266.500    0.239    0.443   91.255    7.521    0.000
  266.750    0.226    0.446   90.075    7.114    0.000
  267.000    0.216    0.443   92.537    7.116    0.000
  267.250    0.213    0.430   94.993    7.118    0.000
  267.500    0.212    0.415   96.848    7.253    0.000
  267.750    0.216    0.399   96.875    7.391    0.000
  268.000    0.224    0.388   95.693    7.256    0.000
  268.250    0.233    0.389   94.510    6.992    0.000
  268.500    0.239    0.426   95.153    6.738    0.000
  268.750    0.246    0.444   97.008    6.374    0.000
  269.000    0.232    0.449   97.022    6.029    0.000
  269.250    0.224    0.452   97.054    5.703    0.000
  269.500    0.223    0.462   95.266    5.295    0.000
  269.750    0.225    0.470   92.866    4.916    0.000
  270.000    0.227    0.458   90.472    4.737    0.000
  270.250    0.227    0.453   89.280    4.481    0.000
  270.500    0.230    0.474   88.706    4.084    0.000
  270.750    0.239    0.509   96.025    3.791    0.000
  271.000    0.262    0.499  100.913    3.455    0.000
  271.250    0.262    0.486  100.942    3.392    0.000
  271.500    0.256    0.492  102.190    3.149    0.000
  271.750    0.261    0.522  104.645    2.979    0.000
  272.000    0.267    0.540  105.897    2.870    0.000
  272.250    0.252    0.539  103.495    2.818    0.000
  272.500    0.241    0.518  103.518    2.819    0.000
  272.750    0.239    0.502  109.021    2.982    0.000
  273.000    0.241    0.476  106.615    3.153    0.000
  273.250    0.254    0.448   97.537    3.661    0.000
  273.500    0.263    0.435   90.289    4.250    0.000
  273.750    0.251    0.441   89.705    4.495    0.000
  274.000    0.237    0.486   95.808    4.496    0.000
  274.250    0.221    0.502  103.127    4.253    0.000
  274.500    0.227    0.483  104.980    4.254    0.000
  274.750    0.253    0.439  103.184    4.499    0.000
  275.000    0.263    0.424   94.105    5.032 2261.010
  275.250    0.247    0.431   88.671    5.524 2288.120
  275.500    0.245    0.437   83.848    5.952 2290.300
  275.750    0.270    0.431   80.840    6.414 2248.870
  276.000    0.299    0.413   79.652    6.659 2199.150
  276.250    0.300    0.420   80.302    6.661 2197.170
  276.500    0.286    0.436   79.722    6.662 2220.130
  276.750    0.271    0.458   78.529    6.664 2247.250
  277.000    0.262    0.479   82.204    6.665 2261.870
  277.250    0.230    0.445   86.484    6.792 2315.960
  277.500    0.195    0.415   88.340    7.051 2376.300
  277.750    0.184    0.415   84.724    7.052 2395.100
  278.000    0.223    0.437   85.977    6.797 2328.760
  278.250    0.233    0.456   88.426    6.673 2312.250
  278.500    0.234    0.455   90.891    6.551 2310.320
  278.750    0.232    0.440   90.920    6.432 2312.450
  279.000    0.229    0.430   91.562    6.198 2318.840
  279.250    0.230    0.423   90.981    6.085 2316.850
  279.500    0.234    0.416   86.156    6.086 2310.710
  279.750    0.237    0.422   86.788    6.202 2304.570
  280.000    0.236    0.419   92.293    6.204 2306.780
  280.250    0.226    0.400   94.744    6.205 2323.490
  280.500    0.221    0.390   97.812    6.206 2331.900
  280.750    0.240    0.403   98.446    5.871 2298.770
