~VERSION INFORMATION
 VERS.                 2.0:   CWLS LOG ASCII STANDARD -VERSION 2.0
 WRAP.                  NO:   ONE LINE PER DEPTH STEP
~WELL INFORMATION BLOCK
#MNEM.UNIT           DATA                    DESCRIPTION OF MNEMONIC
#---------    -------------------            -------------------------------
# Generated from Intellog Unique Number	CW_73_75/WELL/2734
WELL.         CAVALIER FRANCIS 07-33         : Well_name    - WELL
LOC .         00/07-33-073-20W4/0            : Location     - LOCATION
UWI .         00/07-33-073-20W4/0            : Uwi          - UNIQUE WELL ID
ENTR.         JAYE                           : Entered      - ENTERED BY
SRVC.         SCHLUMBERGER                   : Scn          - SERVICE COMPANY
DATE.         24 MAR 74                      : Date         - LOG DATE
STRT.M        411.48                         : top_depth    - START DEPTH
STOP.M        627.98                         : bot_depth    - STOP DEPTH
STEP.M        0.25                           : increment    - STEP LENGTH
 NULL. -999.2500:NULL Value
~CURVE INFORMATION BLOCK
#MNEM UNIT       ERCB CURVE CODE    CURVE DESCRIPTION
#-----------   ------------------   ----------------------------------
DEPT.M        00 001 00 00         : DEPTH        - DEPTH
ILD .OHMM     00 120 00 00         : RESD         - DEEP RESISTIVITY (DIL)
NPHI.V/V      00 330 00 00         : PHIN         - NEUTRON POROSITY (SANDSTONE)
DPHI.V/V      00 890 00 00         : PHID         - DENSITY POROSITY (SANDSTONE)
GR  .API      00 310 00 00         : GR           - GAMMA RAY
CALI.MM       00 280 01 00         : CAL          - CALIPER
~PARAMETER INFORMATION
#MNEM.UNIT           DATA             DESCRIPTION OF MNEMONIC
#---------         -----------     ------------------------------
GL  .M        719.938              : gl           - GROUND LEVEL ELEVATION
EREF.M        722.986              : kb           - ELEVATION OF DEPTH REFERENCE
DATM.M        719.938              : datum        - DATUM ELEVATION
TDD .M        630.936              : tdd          - TOTAL DEPTH DRILLER
RUN .         ONE                  : Run          - RUN NUMBER
ENG .         CORLE                : Engineer     - RECORDING ENGINEER
WIT .         CONNELLY             : Witness      - WITNESSED BY
BASE.         EDM                  : Branch       - HOME BASE OF LOGGING UNIT
MUD .         GEL CHEM             : Mud_type     - MUD TYPE
MATR.         SANDSTONE            : Logunit      - NEUTRON MATRIX
TMAX.C        30                   : BHT          - MAXIMUM RECORDED TEMPERATURE
BHTD.M        632.155              : BHTDEP       - MAXIMUM RECORDED TEMPERATURE
RMT .C        26.6667              : MDTP         - TEMPERATURE OF MUD
MUDD.KG/M     1116                 : MWT          - MUD DENSITY
NEUT.         1                    : NEUTRON      - NEUTRON TYPE
RESI.         0                    : RESIST       - RESISTIVITY TYPE
RM  .OHMM     4.39                 : RM           - RESISTIVITY OF MUD
RMC .OHMM     0                    : RMC          - RESISTIVITY OF MUD CAKE
RMF .OHMM     4.01                 : RMF          - RESISTIVITY OF MUD FILTRATE
SUFT.C        -17.7778             : SUFT         - SURFACE TEMPERATURE
~A  DEPTH     RESD     PHIN     PHID       GR      CAL
# ...
  447.980    7.083    0.486    0.252   88.747  152.556
  448.230    7.088    0.483    0.255   87.173  153.001
  448.480    6.504    0.474    0.269   86.212  153.127
  448.730    5.959    0.499    0.282   86.898  153.354
  448.980    5.218    0.498    0.277   86.975  153.489
  449.230    4.713    0.470    0.272   86.195  153.822
  449.480    4.365    0.444    0.259   86.272  154.368
  449.730    4.213    0.469    0.250   87.325  154.492
  449.980    4.140    0.483    0.236   89.844  155.144
  450.230    4.106    0.476    0.255   92.302  155.169
  450.480    4.113    0.481    0.239   95.311  155.189
  450.730    4.158    0.484    0.234   96.487  155.213
  450.980    4.479    0.485    0.231   93.997  155.136
  451.230    5.074    0.514    0.231   91.813  155.476
  451.480    5.080    0.562    0.250   91.584  155.605
  451.730    4.929    0.559    0.249   88.667  155.523
  451.980    4.777    0.540    0.221   84.774  154.824
  452.230    4.941    0.517    0.196   83.631  154.543
  452.480    5.380    0.489    0.182   83.949  155.393
  452.730    6.093    0.463    0.227   87.750  157.179
  452.980    6.887    0.447    0.193   91.431  160.304
  453.230    7.522    0.474    0.225   91.445  165.399
  453.480    7.686    0.547    0.296   89.811  167.595
  453.730    7.574    0.764    0.363   87.445  164.724
  453.980    7.619    0.795    0.417   77.688  160.823
  454.230    7.742    0.800    0.441   63.351  157.641
  454.480    7.788    0.477    0.238   52.006  154.771
  454.730    7.794    0.408    0.251   46.829  152.623
  454.980    7.760    0.415    0.260   49.594  150.791
  455.230    7.609    0.403    0.280   51.197  149.785
  455.480    7.457    0.390    0.261   53.349  148.976
  455.730    7.187    0.414    0.263   52.631  148.385
  455.980    6.841    0.429    0.278   54.296  148.310
  456.230    6.649    0.427    0.290   55.593  148.330
  456.480    6.457    0.438    0.281   54.326  148.668
  456.730    6.150    0.416    0.293   51.836  149.105
  456.980    5.919    0.417    0.276   51.912  150.063
  457.230    5.650    0.395    0.283   52.357  151.125
  457.480    5.498    0.411    0.302   52.553  153.323
  457.730    5.347    0.425    0.295   51.349  154.896
  457.980    5.234    0.432    0.292   50.873  156.472
  458.230    5.162    0.416    0.304   50.220  157.739
  458.480    5.129    0.425    0.319   49.988  158.496
  458.730    5.135    0.452    0.317   48.781  158.720
  458.980    5.180    0.455    0.298   48.370  159.163
  459.230    5.264    0.448    0.308   49.544  159.500
  459.480    5.429    0.455    0.304   52.063  159.631
  459.730    5.434    0.434    0.313   53.667  159.549
  459.980    5.321    0.401    0.328   52.584  159.368
  460.230    5.130    0.409    0.304   51.681  158.877
  460.480    5.098    0.366    0.266   48.337  158.595
  460.730    5.142    0.374    0.256   46.642  158.512
  460.980    5.148    0.390    0.316   46.841  158.540
  461.230    5.154    0.403    0.340   48.871  158.978
  461.480    5.161    0.422    0.346   47.603  159.316
  461.730    5.161    0.417    0.331   45.848  159.545
  461.980    5.172    0.406    0.321   48.245  159.674
  462.230    5.172    0.401    0.313   48.992  159.805
  462.480    5.186    0.404    0.312   46.565  160.248
  462.730    5.191    0.406    0.304   46.398  160.475
  462.980    5.235    0.395    0.304   47.694  161.128
  463.230    5.241    0.392    0.316   51.801  161.464
  463.480    5.247    0.403    0.299   56.214  161.692
  463.730    5.252    0.393    0.315   56.106  162.030
  463.980    5.299    0.389    0.323   51.968  162.162
  464.230    5.306    0.408    0.314   52.106  162.400
  464.480    5.310    0.430    0.325   53.526  162.516
  464.730    5.317    0.436    0.312   55.312  162.541
  464.980    5.282    0.412    0.325   54.838  162.568
  465.230    5.288    0.388    0.337   51.739  162.594
  465.480    5.295    0.423    0.336   52.243  162.417
  465.730    5.301    0.457    0.328   53.845  162.230
  465.980    5.306    0.430    0.302   56.183  162.052
  466.230    5.272    0.417    0.314   58.456  161.976
  466.480    5.201    0.434    0.305   59.816  161.790
  466.730    5.206    0.426    0.308   58.731  161.408
  466.980    5.213    0.405    0.315   56.974  161.014
  467.230    5.178    0.391    0.319   56.929  160.728
  467.480    5.146    0.389    0.328   58.412  160.346
  467.730    5.073    0.398    0.341   59.340  160.161
  467.980    5.039    0.430    0.325   56.974  159.675
  468.230    5.005    0.454    0.337   57.479  159.384
  468.480    4.973    0.436    0.329   58.471  159.202
  468.730    4.979    0.426    0.339   58.301  159.123
  468.980    5.023    0.412    0.332   58.989  158.838
  469.230    5.068    0.416    0.328   60.774  158.565
  469.480    5.153    0.436    0.324   62.500  158.379
  469.730    5.316    0.449    0.322   60.379  158.405
  469.980    5.440    0.444    0.322   59.049  158.431
  470.230    5.485    0.433    0.310   59.678  158.449
  470.480    5.649    0.427    0.298   59.936  158.688
  470.730    5.774    0.458    0.312   59.705  158.712
  470.980    5.936    0.443    0.310   58.927  158.734
  471.230    6.099    0.453    0.296   57.781  158.560
  471.480    6.263    0.478    0.304   55.416  158.585
  471.730    6.584    0.467    0.312   52.986  158.607
  471.980    6.943    0.447    0.320   48.481  158.842
  472.230    7.382    0.436    0.307   48.741  159.179
  472.480    7.821    0.454    0.301   49.611  159.510
  472.730    7.433    0.470    0.296   50.055  159.848
  472.980    6.613    0.469    0.288   50.253  160.186
  473.230    5.950    0.445    0.266   50.085  160.414
  473.480    5.642    0.394    0.211   49.305  160.542
  473.730    5.568    0.238    0.149   47.061  160.874
  473.980    5.496    0.196    0.067   45.550  160.903
  474.230    5.464    0.218    0.088   43.609  161.239
  474.480    5.469    0.256    0.120   40.266  161.263
  474.730    5.514    0.304    0.305   39.671  161.704
  474.980    5.563    0.399    0.307   39.686  162.142
  475.230    5.644    0.447    0.310   39.823  162.271
  475.480    5.728    0.449    0.303   40.388  162.297
  475.730    5.773    0.447    0.310   41.257  162.320
  475.980    5.701    0.458    0.323   43.715  162.561
  476.230    5.629    0.461    0.320   44.464  162.685
  476.480    5.517    0.464    0.316   43.318  163.021
  476.730    5.444    0.485    0.311   42.295  163.150
  476.980    5.370    0.480    0.302   42.127  163.495
  477.230    5.258    0.451    0.301   43.547  163.615
  477.480    5.147    0.457    0.315   43.989  163.849
  477.730    5.034    0.449    0.323   43.393  163.666
  477.980    4.883    0.457    0.313   43.836  162.245
  478.230    4.811    0.498    0.306   45.501  160.615
  478.480    4.776    0.473    0.308   47.897  159.504
  478.730    4.744    0.470    0.308   45.163  159.220
  478.980    4.671    0.469    0.311   42.797  159.138
  479.230    4.637    0.486    0.313   42.567  158.655
  479.480    4.603    0.509    0.319   44.477  158.785
  479.730    4.603    0.501    0.318   46.690  159.012
  479.980    4.615    0.463    0.309   46.461  159.244
  480.230    4.623    0.455    0.314   43.851  159.684
  480.480    4.627    0.480    0.323   45.392  160.014
  480.730    4.633    0.500    0.311   46.140  160.355
  480.980    4.633    0.498    0.330   46.767  160.587
  481.230    4.647    0.470    0.319   47.880  160.918
  481.480    4.652    0.445    0.297   49.178  161.259
  481.730    4.657    0.449    0.292   48.154  161.488
  481.980    4.664    0.466    0.287   46.398  161.719
  482.230    4.708    0.475    0.290   45.253  162.054
  482.480    4.753    0.499    0.305   44.352  162.288
  482.730    4.759    0.498    0.318   43.880  162.626
  482.980    4.805    0.500    0.318   43.894  162.967
  483.230    4.851    0.476    0.313   44.398  163.299
  483.480    4.856    0.457    0.305   45.023  163.847
  483.730    4.901    0.448    0.316   45.405  164.176
  483.980    4.985    0.408    0.315   45.908  164.405
  484.230    5.072    0.412    0.307   46.902  164.743
