~VERSION INFORMATION
 VERS.                 2.0:   CWLS LOG ASCII STANDARD -VERSION 2.0
 WRAP.                  NO:   ONE LINE PER DEPTH STEP
~WELL INFORMATION BLOCK
#MNEM.UNIT           DATA                    DESCRIPTION OF MNEMONIC
#---------    -------------------            -------------------------------
# Generated from Intellog Unique Number	CS_69_70/WELL/776
WELL.         MAYNARD EXPLORATION            : Well_name    - WELL
LOC .         00/06-25-070-16W4/0            : Location     - LOCATION
UWI .         00/06-25-070-16W4/0            : Uwi          - UNIQUE WELL ID
ENTR.         SP                             : Entered      - ENTERED BY
SRVC.         SCHLUMBERGER                   : Scn          - SERVICE COMPANY
STRT.M        280                            : top_depth    - START DEPTH
STOP.M        490                            : bot_depth    - STOP DEPTH
STEP.M        0.25                           : increment    - STEP LENGTH
 NULL. -999.2500:NULL Value
~CURVE INFORMATION BLOCK
#MNEM UNIT       ERCB CURVE CODE    CURVE DESCRIPTION
#-----------   ------------------   ----------------------------------
DEPT.M        00 001 00 00         : DEPTH        - DEPTH
ILD .OHMM     00 120 00 00         : RESD         - DEEP RESISTIVITY (DIL)
DPHI.V/V      00 890 00 00         : PHID         - DENSITY POROSITY (LIMESTONE)
NPHI.V/V      00 330 00 00         : PHIN         - NEUTRON POROSITY (LIMESTONE)
GR  .API      00 310 00 00         : GR           - GAMMA RAY
~PARAMETER INFORMATION
#MNEM.UNIT           DATA             DESCRIPTION OF MNEMONIC
#---------         -----------     ------------------------------
GL  .M        580.53               : gl           - GROUND LEVEL ELEVATION
EREF.M        583.73               : kb           - ELEVATION OF DEPTH REFERENCE
DATM.M        580.53               : datum        - DATUM ELEVATION
TDD .M        499                  : tdd          - TOTAL DEPTH DRILLER
RUN .         ONE                  : Run          - RUN NUMBER
ENG .         BILL                 : Engineer     - RECORDING ENGINEER
WIT .         JIM                  : Witness      - WITNESSED BY
MUD .         GEL                  : Mud_type     - MUD TYPE
MATR.         LIMESTONE            : Logunit      - NEUTRON MATRIX
TMAX.C        23                   : BHT          - MAXIMUM RECORDED TEMPERATURE
BHTD.M        499                  : BHTDEP       - MAXIMUM RECORDED TEMPERATURE
MATR.         1                    : LOGUNIT      - NEUTRON MATRIX
RMT .C        25                   : MDTP         - TEMPERATURE OF MUD
NEUT.         1                    : NEUTRON      - NEUTRON TYPE
RESI.         0                    : RESIST       - RESISTIVITY TYPE
RMC .OHMM     0.25                 : RMC          - RESISTIVITY OF MUD CAKE
RMF .OHMM     0.25                 : RMF          - RESISTIVITY OF MUD FILTRATE
SUFT.C        15                   : SUFT         - SURFACE TEMPERATURE
~A  DEPTH     RESD     PHID     PHIN       GR
# ...
  323.500    3.766    0.212    0.385   89.482
  323.750    3.856    0.247    0.381   94.585
  324.000    3.921    0.264    0.380   98.349
  324.250    3.971    0.267    0.380  100.653
  324.500    3.995    0.259    0.371   97.847
  324.750    3.963    0.257    0.364   94.007
  325.000    3.823    0.254    0.363   91.933
  325.250    3.815    0.248    0.373   93.750
  325.500    3.913    0.248    0.389   93.256
  325.750    4.028    0.257    0.401   94.891
  326.000    4.110    0.269    0.396   98.229
  326.250    4.151    0.250    0.387  101.385
  326.500    4.184    0.241    0.377  103.872
  326.750    4.192    0.239    0.389  102.465
  327.000    4.200    0.249    0.403  104.282
  327.250    4.184    0.265    0.411  103.546
  327.500    4.233    0.268    0.397   98.003
  327.750    4.282    0.267    0.378   93.312
  328.000    4.348    0.263    0.365   88.743
  328.250    4.545    0.256    0.345   82.714
  328.500    4.807    0.240    0.308   76.319
  328.750    5.291    0.213    0.276   69.863
  329.000    7.660    0.118    0.222   66.390
  329.250    9.348    0.084    0.099   63.159
  329.500   12.422    0.069    0.089   60.414
  329.750   14.045    0.147    0.202   69.227
  330.000   13.692    0.181    0.285   76.397
  330.250   11.791    0.212    0.347   81.256
  330.500   10.127    0.245    0.377   85.325
  330.750    8.053    0.287    0.381   86.716
  331.000    6.529    0.284    0.381   86.708
  331.250    4.840    0.277    0.383   86.884
  331.500    4.020    0.272    0.390   89.734
  331.750    3.717    0.267    0.383   91.857
  332.000    3.635    0.261    0.379   92.093
  332.250    3.635    0.251    0.382   92.813
  332.500    3.660    0.244    0.388   93.963
  332.750    3.824    0.238    0.385   96.206
  333.000    3.898    0.233    0.380   98.693
  333.250    3.996    0.229    0.386  101.484
  333.500    4.119    0.229    0.398  103.667
  333.750    4.234    0.239    0.407  105.302
  334.000    4.299    0.248    0.408  105.295
  334.250    4.398    0.258    0.400  102.003
  334.500    4.496    0.265    0.396   98.103
  334.750    4.578    0.249    0.392   93.351
  335.000    4.586    0.249    0.382   89.390
  335.250    4.660    0.260    0.376   87.193
  335.500    4.668    0.258    0.386   91.868
  335.750    4.685    0.250    0.394   95.451
  336.000    4.709    0.243    0.398   99.154
  336.250    4.726    0.238    0.403  101.093
  336.500    4.685    0.235    0.411  102.059
  336.750    4.439    0.240    0.419  102.477
  337.000    4.160    0.243    0.423  104.294
  337.250    3.857    0.245    0.422  106.294
  337.500    3.701    0.252    0.421  108.538
  337.750    3.677    0.258    0.412  110.538
  338.000    3.841    0.244    0.405  110.895
  338.250    4.193    0.235    0.407  109.914
  338.500    4.578    0.236    0.410  108.387
  338.750    4.808    0.237    0.394  106.981
  339.000    5.062    0.231    0.404  105.757
  339.250    5.275    0.225    0.401  108.122
  339.500    5.513    0.220    0.391  110.242
  339.750    5.669    0.211    0.381  109.993
  340.000    5.751    0.205    0.374  106.518
  340.250    5.833    0.210    0.376  101.219
  340.500    5.546    0.224    0.389   97.197
  340.750    5.447    0.236    0.402   94.210
  341.000    5.300    0.250    0.396   90.613
  341.250    5.070    0.264    0.390   86.713
  341.500    4.783    0.271    0.386   84.820
  341.750    4.562    0.277    0.381   83.718
  342.000    4.365    0.276    0.387   83.527
  342.250    4.259    0.272    0.380   83.947
  342.500    4.259    0.268    0.382   90.871
  342.750    4.341    0.262    0.378   95.123
  343.000    4.431    0.254    0.378  101.139
  343.250    4.480    0.255    0.389  101.497
  343.500    4.472    0.299    0.392   88.168
  343.750    4.448    0.352    0.406   78.611
  344.000    4.407    0.394    0.415   75.197
  344.250    4.316    0.338    0.397   73.852
  344.500    4.226    0.319    0.376   77.737
  344.750    4.030    0.310    0.369   79.008
  345.000    3.874    0.322    0.371   79.304
  345.250    3.669    0.329    0.375   78.141
  345.500    3.489    0.337    0.360   75.762
  345.750    3.333    0.342    0.356   74.293
  346.000    3.202    0.347    0.367   73.862
  346.250    3.120    0.352    0.378   73.547
  346.500    3.071    0.357    0.383   72.507
  346.750    3.063    0.360    0.376   71.589
  347.000    3.087    0.355    0.374   72.373
  347.250    3.087    0.348    0.379   73.217
  347.500    3.120    0.346    0.366   73.575
  347.750    3.145    0.352    0.360   73.202
  348.000    3.153    0.359    0.361   74.107
  348.250    3.169    0.358    0.360   75.195
  348.500    3.177    0.356    0.356   73.850
  348.750    2.809    0.356    0.357   71.772
  349.000    2.809    0.361    0.359   70.915
  349.250    2.825    0.372    0.361   70.479
  349.500    2.841    0.375    0.361   70.596
  349.750    2.858    0.371    0.360   71.135
  350.000    2.899    0.365    0.358   71.796
  350.250    2.915    0.359    0.367   71.973
  350.500    2.907    0.357    0.371   72.210
  350.750    2.883    0.354    0.363   71.959
  351.000    2.858    0.351    0.361   71.525
  351.250    2.850    0.348    0.365   71.215
  351.500    2.825    0.348    0.356   70.659
  351.750    2.809    0.354    0.356   70.226
  352.000    2.825    0.359    0.362   69.854
  352.250    2.842    0.356    0.364   69.420
  352.500    2.850    0.350    0.371   69.170
  352.750    2.825    0.348    0.383   68.918
  353.000    2.801    0.349    0.377   68.791
  353.250    2.776    0.353    0.367   67.142
  353.500    2.752    0.350    0.373   66.709
  353.750    2.735    0.348    0.364   66.335
  354.000    2.719    0.344    0.361   65.659
  354.250    2.719    0.342    0.368   64.436
  354.500    2.776    0.339    0.358   64.915
  354.750    2.850    0.335    0.352   68.314
  355.000    2.948    0.332    0.372   74.025
  355.250    3.121    0.328    0.385   82.107
  355.500    3.301    0.318    0.390   90.251
  355.750    3.490    0.299    0.383   96.387
  356.000    3.776    0.273    0.386  101.672
  356.250    3.990    0.261    0.410  103.975
  356.500    4.170    0.258    0.407  107.556
  356.750    4.244    0.257    0.388  109.434
  357.000    4.211    0.256    0.400  109.428
  357.250    4.145    0.258    0.384  101.270
  357.500    4.096    0.264    0.366   92.443
  357.750    3.981    0.285    0.365   84.589
  358.000    3.916    0.305    0.374   78.316
  358.250    3.736    0.301    0.385   74.051
  358.500    3.629    0.294    0.393   73.862
  358.750    3.564    0.301    0.386   73.915
  359.000    3.424    0.314    0.379   73.236
  359.250    3.350    0.323    0.373   72.623
  359.500    3.219    0.327    0.379   70.608
  359.750    3.146    0.320    0.374   69.020
  360.000    3.121    0.313    0.367   69.073
  360.250    3.154    0.309    0.362   69.674
  360.500    3.195    0.308    0.363   71.492
  360.750    3.351    0.305    0.368   74.951
  361.000    3.555    0.301    0.370   77.316
  361.250    3.678    0.297    0.377   78.769
  361.500    3.752    0.294    0.387   81.256
  361.750    3.777    0.292    0.388   83.863
  362.000    3.711    0.292    0.393   84.767
  362.250    3.588    0.290    0.394   83.059
  362.500    3.498    0.288    0.390   78.306
  362.750    3.384    0.285    0.381   75.378
  363.000    3.302    0.293    0.379   76.832
  363.250    3.293    0.293    0.396   78.527
  363.500    3.351    0.281    0.409   79.797
  363.750    3.449    0.276    0.400   79.912
  364.000    3.662    0.272    0.387   81.546
  364.250    3.736    0.267    0.382   83.851
  364.500    3.793    0.264    0.382   86.338
  364.750    3.834    0.261    0.385   87.973
  365.000    3.884    0.260    0.386   88.818
  365.250    3.892    0.257    0.387   88.506
  365.500    3.900    0.254    0.376   87.404
  365.750    3.884    0.250    0.366   88.794
  366.000    3.851    0.249    0.389   91.828
  366.250    3.769    0.256    0.392   94.559
  366.500    3.703    0.264    0.409   97.897
  366.750    3.613    0.272    0.427   99.290
