~VERSION INFORMATION
 VERS.                 2.0:   CWLS LOG ASCII STANDARD -VERSION 2.0
 WRAP.                  NO:   ONE LINE PER DEPTH STEP
~WELL INFORMATION BLOCK
#MNEM.UNIT           DATA                    DESCRIPTION OF MNEMONIC
#---------    -------------------            -------------------------------
# Generated from Intellog Unique Number	CS_73_76/WELL/886
WELL.         WAINOCO ET AL GROUSE           : Well_name    - WELL
LOC .         00/05-31-074-11W4/0            : Location     - LOCATION
UWI .         00/05-31-074-11W4/0            : Uwi          - UNIQUE WELL ID
ENTR.         TIM                            : Entered      - ENTERED BY
SRVC.         SCHLUMBERGER                   : Scn          - SERVICE COMPANY
STRT.M        400                            : top_depth    - START DEPTH
STOP.M        520                            : bot_depth    - STOP DEPTH
STEP.M        0.25                           : increment    - STEP LENGTH
 NULL. -999.2500:NULL Value
~CURVE INFORMATION BLOCK
#MNEM UNIT       ERCB CURVE CODE    CURVE DESCRIPTION
#-----------   ------------------   ----------------------------------
DEPT.M        00 001 00 00         : DEPTH        - DEPTH
GR  .API      00 310 00 00         : GR           - GAMMA RAY
NPHI.V/V      00 330 00 00         : PHIN         - NEUTRON POROSITY (LIMESTONE)
DPHI.V/V      00 890 00 00         : PHID         - DENSITY POROSITY (LIMESTONE)
ILD .OHMM     00 120 00 00         : RESD         - DEEP RESISTIVITY (DIL)
~PARAMETER INFORMATION
#MNEM.UNIT           DATA             DESCRIPTION OF MNEMONIC
#---------         -----------     ------------------------------
GL  .M        656.1                : gl           - GROUND LEVEL ELEVATION
EREF.M        660.1                : kb           - ELEVATION OF DEPTH REFERENCE
DATM.M        660.1                : datum        - DATUM ELEVATION
TDD .M        529                  : tdd          - TOTAL DEPTH DRILLER
RUN .         ONE                  : Run          - RUN NUMBER
ENG .         BILL                 : Engineer     - RECORDING ENGINEER
WIT .         JIM                  : Witness      - WITNESSED BY
MUD .         GEL                  : Mud_type     - MUD TYPE
MATR.         LIMESTONE            : Logunit      - NEUTRON MATRIX
TMAX.C        22                   : BHT          - MAXIMUM RECORDED TEMPERATURE
BHTD.M        43529                : BHTDEP       - MAXIMUM RECORDED TEMPERATURE
MATR.         1                    : LOGUNIT      - NEUTRON MATRIX
RMT .C        23                   : MDTP         - TEMPERATURE OF MUD
NEUT.         1                    : NEUTRON      - NEUTRON TYPE
RESI.         0                    : RESIST       - RESISTIVITY TYPE
RMC .OHMM     3.52                 : RMC          - RESISTIVITY OF MUD CAKE
RMF .OHMM     1                    : RMF          - RESISTIVITY OF MUD FILTRATE
SUFT.C        15                   : SUFT         - SURFACE TEMPERATURE
~A  DEPTH       GR     PHIN     PHID     RESD
# ...
  487.000   73.423    0.403    0.295   23.013
  487.250   69.436    0.403    0.302   24.726
  487.500   65.759    0.390    0.317   27.576
  487.750   62.683    0.385    0.347   31.053
  488.000   62.615    0.392    0.360   36.978
  488.250   64.051    0.401    0.348   47.442
  488.500   63.975    0.392    0.336   55.952
  488.750   63.013    0.389    0.330   60.702
  489.000   59.636    0.390    0.322   62.252
  489.250   58.967    0.387    0.312   60.371
  489.500   59.191    0.380    0.308   55.326
  489.750   60.920    0.378    0.311   52.158
  490.000   59.666    0.383    0.316   50.616
  490.250   56.590    0.372    0.321   49.546
  490.500   55.310    0.374    0.324   49.411
  490.750   56.153    0.376    0.327   52.598
  491.000   57.590    0.369    0.330   56.009
  491.250   57.212    0.369    0.337   60.179
  491.500   55.039    0.379    0.338   65.220
  491.750   50.451    0.376    0.330   67.558
  492.000   48.286    0.369    0.324   68.618
  492.250   48.519    0.367    0.319   68.455
  492.500   49.345    0.369    0.315   68.245
  492.750   48.374    0.370    0.314   68.105
  493.000   46.811    0.367    0.310   67.290
  493.250   45.824    0.371    0.311   65.845
  493.500   46.374    0.374    0.312   63.856
  493.750   46.900    0.381    0.307   63.091
  494.000   46.230    0.378    0.302   63.508
  494.250   45.569    0.367    0.301   64.526
  494.500   46.086    0.346    0.302   68.711
  494.750   46.327    0.343    0.306   75.215
  495.000   47.170    0.349    0.311   79.350
  495.250   47.704    0.354    0.319   85.258
  495.500   48.238    0.357    0.325   86.625
  495.750   49.072    0.358    0.327   80.879
  496.000   49.614    0.362    0.327   76.326
  496.250   51.644    0.365    0.325   69.299
  496.500   53.991    0.369    0.322   61.820
  496.750   56.639    0.371    0.317   52.114
  497.000   64.091    0.371    0.301   43.525
  497.250   70.348    0.369    0.298   36.692
  497.500   69.378    0.360    0.287   32.429
  497.750   58.172    0.358    0.301   30.288
  498.000   52.990    0.361    0.322   31.646
  498.250   49.898    0.364    0.350   35.636
  498.500   50.423    0.373    0.357   40.883
  498.750   52.177    0.375    0.342   47.754
  499.000   57.532    0.376    0.335   49.911
  499.250   63.789    0.382    0.329   49.331
  499.500   69.127    0.383    0.322   44.804
  499.750   69.067    0.378    0.315   38.137
  500.000   67.796    0.371    0.309   36.641
  500.250   62.916    0.365    0.311   36.884
  500.500   59.238    0.368    0.322   34.437
  500.750   55.553    0.374    0.328   34.355
  501.000   55.468    0.382    0.332   33.306
  501.250   56.620    0.383    0.334   30.543
  501.500   58.666    0.385    0.334   30.460
  501.750   61.907    0.385    0.327   31.238
  502.000   61.237    0.382    0.318   31.445
  502.250   58.162    0.377    0.321   31.370
  502.500   53.273    0.366    0.326   31.284
  502.750   50.489    0.359    0.331   31.786
  503.000   50.430    0.346    0.323   31.395
  503.250   53.370    0.347    0.285   30.741
  503.500   61.131    0.357    0.263   28.722
  503.750   91.469    0.379    0.240   25.376
  504.000  106.759    0.392    0.223   20.802
  504.250  110.300    0.398    0.199   15.976
  504.500  109.029    0.396    0.200   12.855
  504.750  105.343    0.399    0.229   12.011
  505.000  101.958    0.393    0.245   11.753
  505.250  100.094    0.397    0.259   11.612
  505.500  103.335    0.412    0.253   11.469
  505.750  106.885    0.404    0.216   11.234
  506.000  108.622    0.396    0.193   10.686
  506.250   92.303    0.421    0.187   10.081
  506.500   63.032    0.429    0.234    9.242
  506.750   51.827    0.395    0.260    8.322
  507.000   49.352    0.397    0.312    7.350
  507.250   52.576    0.403    0.339    6.491
  507.500   59.435    0.411    0.343    6.411
  507.750   63.294    0.424    0.307    6.396
  508.000   83.999    0.413    0.263    6.621
  508.250   84.833    0.403    0.287    6.854
  508.500   67.311    0.399    0.306    7.226
  508.750   74.161    0.407    0.320    7.346
  509.000   84.939    0.410    0.280    7.464
  509.250   96.301    0.402    0.207    7.446
  509.500   92.924    0.395    0.183    7.496
  509.750   81.418    0.388    0.195    7.684
  510.000   75.025    0.383    0.210    7.881
  510.250   74.364    0.374    0.206    7.859
  510.500   65.564    0.360    0.153    7.911
  510.750   52.554    0.346    0.160    7.892
  511.000   48.266    0.331    0.200    7.798
  511.250   48.198    0.324    0.246    7.702
  511.500   53.553    0.325    0.174    7.681
  511.750   68.534    0.329    0.149    7.663
  512.000   72.986    0.339    0.148    7.783
  512.250   75.016    0.352    0.145    7.984
  512.500   77.062    0.365    0.139    8.112
  512.750   83.018    0.381    0.137    8.093
  513.000   84.454    0.374    0.142    7.991
  513.250   81.069    0.352    0.160    7.827
  513.500   78.603    0.343    0.174    7.515
  513.750   79.137    0.347    0.161    7.153
  514.000   85.085    0.380    0.076    6.812
  514.250   97.969    0.432    0.087    6.303
  514.500  111.144    0.449    0.089    5.946
  514.750  109.572    0.455    0.084    5.660
  515.000  106.196    0.443    0.079    5.438
  515.250  101.900    0.442    0.092    5.369
  515.500  105.158    0.445    0.115    5.560
  515.750  108.098    0.447    0.120    5.811
  516.000  104.403    0.455    0.116    6.128
  516.250  100.124    0.454    0.116    6.461
  516.500   96.455    0.447    0.114    6.631
  516.750   92.168    0.438    0.112    6.800
  517.000   88.783    0.434    0.102    7.039
  517.250   87.821    0.436    0.105    7.149
  517.500   89.850    0.427    0.118    7.132
  517.750   89.782    0.422    0.123    7.179
  518.000   89.413    0.423    0.117    7.292
  518.250   88.134    0.420    0.107    7.478
  518.500   85.677    0.420    0.093    7.816
  518.750   81.999    0.417    0.081    8.169
  519.000   81.931    0.312    0.075    8.857
  519.250   82.465    0.229    0.070    9.977
  519.500   81.486    0.223    0.065   12.328
  519.750   79.915    0.210    0.064   14.956
  520.000   78.644    0.211    0.068   16.226
