~VERSION INFORMATION
 VERS.                 2.0:   CWLS LOG ASCII STANDARD -VERSION 2.0
 WRAP.                  NO:   ONE LINE PER DEPTH STEP
~WELL INFORMATION BLOCK
#MNEM.UNIT           DATA                    DESCRIPTION OF MNEMONIC
#---------    -------------------            -------------------------------
# Generated from Intellog Unique Number	CS_77_79/WELL/3293
WELL.         SCURRY                         : Well_name    - WELL
LOC .         00/06-20-078-02W5/0            : Location     - LOCATION
UWI .         00/06-20-078-02W5/0            : Uwi          - UNIQUE WELL ID
ENTR.         TIM                            : Entered      - ENTERED BY
SRVC.         COMPUTALOG                     : Scn          - SERVICE COMPANY
STRT.M        320.04                         : top_depth    - START DEPTH
STOP.M        573.04                         : bot_depth    - STOP DEPTH
STEP.M        0.25                           : increment    - STEP LENGTH
 NULL. -999.2500:NULL Value
~CURVE INFORMATION BLOCK
#MNEM UNIT       ERCB CURVE CODE    CURVE DESCRIPTION
#-----------   ------------------   ----------------------------------
DEPT.M        00 001 00 00         : DEPTH        - DEPTH
ILD .OHMM     00 120 00 00         : RESD         - DEEP RESISTIVITY (DIL)
GR  .API      00 310 00 00         : GR           - GAMMA RAY
DELT.US/F     00 520 00 00         : DELT         - SONIC TRAVEL TIME
~PARAMETER INFORMATION
#MNEM.UNIT           DATA             DESCRIPTION OF MNEMONIC
#---------         -----------     ------------------------------
GL  .M        641.635              : gl           - GROUND LEVEL ELEVATION
EREF.M        645.262              : kb           - ELEVATION OF DEPTH REFERENCE
DATM.M        645.262              : datum        - DATUM ELEVATION
TDD .M        575.158              : tdd          - TOTAL DEPTH DRILLER
RUN .         ONE                  : Run          - RUN NUMBER
ENG .         BILL                 : Engineer     - RECORDING ENGINEER
WIT .         JIM                  : Witness      - WITNESSED BY
MUD .         GEL                  : Mud_type     - MUD TYPE
MATR.         SANDSTONE            : Logunit      - NEUTRON MATRIX
TMAX.C        27.7778              : BHT          - MAXIMUM RECORDED TEMPERATURE
BHTD.M        573.024              : BHTDEP       - MAXIMUM RECORDED TEMPERATURE
MATR.         1                    : LOGUNIT      - NEUTRON MATRIX
RMT .C        18.8889              : MDTP         - TEMPERATURE OF MUD
NEUT.         1                    : NEUTRON      - NEUTRON TYPE
RESI.         0                    : RESIST       - RESISTIVITY TYPE
RMC .OHMM     4                    : RMC          - RESISTIVITY OF MUD CAKE
RMF .OHMM     13.1                 : RMF          - RESISTIVITY OF MUD FILTRATE
SUFT.C        5                    : SUFT         - SURFACE TEMPERATURE
~A  DEPTH     RESD       GR     DELT
# ...
  482.790    7.403   83.817  287.121
  483.040    7.804   83.805  274.133
  483.290    8.603   82.617  265.049
  483.540   10.198   76.728  283.938
  483.790   12.587   66.125  319.084
  484.040   11.398   63.764  315.203
  484.290   10.407   64.928  304.172
  484.540    9.616   76.678  302.893
  484.790    9.022   84.311  333.491
  485.040    8.430   83.120  336.109
  485.290    8.036   81.932  340.038
  485.540    7.840   83.682  343.317
  485.790    7.645   86.025  338.780
  486.040    7.448   89.542  332.297
  486.290    7.253   91.882  332.975
  486.540    7.058   91.280  334.948
  486.790    6.862   90.680  334.969
  487.040    6.866   91.250  333.684
  487.290    6.871   91.245  331.109
  487.540    6.872   90.645  329.835
  487.790    7.075   85.928  327.255
  488.040    7.078   82.976  322.718
  488.290    7.479   83.550  308.430
  488.540    7.880   84.126  268.768
  488.790    9.078   84.111  223.259
  489.040   10.672   83.517  234.338
  489.290   11.668   80.559  285.100
  489.540   12.467   78.786  299.431
  489.790   11.277   77.007  314.418
  490.040   10.088   77.584  322.895
  490.290    9.097   80.515  333.975
  490.540    8.504   84.032  346.360
  490.790    7.912   87.549  351.585
  491.040    7.517   90.471  346.403
  491.290    6.726   92.815  339.920
  491.540    6.530   95.150  335.394
  491.790    6.334   96.317  333.459
  492.040    6.140   94.541  331.539
  492.290    6.142   92.762  330.255
  492.540    5.947   92.168  328.981
  492.790    5.752   91.565  327.701
  493.040    5.556   90.374  330.319
  493.290    5.559   90.948  340.097
  493.540    5.763   90.942  355.079
  493.790    5.765   92.106  362.911
  494.040    5.970   92.683  364.239
  494.290    6.171   93.844  368.809
  494.540    6.372   94.421  371.437
  494.790    6.574   94.409  367.551
  495.040    6.976   94.979  362.369
  495.290    7.179   96.149  357.837
  495.540    7.580   96.726  353.305
  495.790    7.582   95.535  353.332
  496.040    7.786   94.350  358.563
  496.290    7.787   90.807  356.638
  496.540    7.990   84.914  355.353
  496.790    8.193   83.138  356.676
  497.040    8.196   84.891  361.895
  497.290    7.802   87.820  373.630
  497.540    7.408   91.924  372.351
  497.790    7.014   94.265  370.421
  498.040    6.818   95.429  365.895
  498.290    6.821   96.003  364.616
  498.540    6.826   95.991  362.691
  498.790    6.829   95.979  361.401
  499.040    6.831   96.555  358.826
  499.290    6.637   93.603  355.595
  499.540    6.639   90.651  353.015
  499.790    6.642   94.168  349.784
  500.040    6.646   98.264  347.854
  500.290    6.849   99.431  343.979
  500.540    6.852  100.007  342.694
  500.790    6.856   99.408  342.065
  501.040    6.859   98.811  362.906
  501.290    6.862   98.205  362.933
  501.540    6.468   98.199  360.347
  501.790    6.272   97.594  348.016
  502.040    6.077   98.170  346.080
  502.290    6.081   98.743  341.549
  502.540    6.085   98.149  329.212
  502.790    6.087   95.197  325.331
  503.040    6.091   93.421  339.017
  503.290    6.294   96.350  352.047
  503.540    6.496  102.213  359.874
  503.790    6.499  106.318  367.056
  504.040    6.502  109.837  367.078
  504.290    6.308  111.587  367.750
  504.540    5.912  109.811  363.218
  504.790    5.519  106.859  345.677
  505.040    5.522  103.910  339.200
  505.290    5.525   99.778  334.663
  505.540    5.926   96.826  320.380
  505.790    6.725   93.871  314.542
  506.040    7.723   90.922  306.113
  506.290    8.919   87.970  304.828
  506.540   10.712   82.663  288.588
  506.790   13.101   77.940  259.340
  507.040   16.088   76.170  243.756
  507.290   18.477   72.627  231.419
  507.540   21.264   69.678  226.231
  507.790   24.250   64.959  226.903
  508.040   28.827   60.833  230.177
  508.290   33.603   61.992  225.645
  508.540   39.770   63.744  224.366
  508.790   40.370   64.909  227.640
  509.040   39.776   64.900  258.888
  509.290   38.189   61.945  311.607
  509.540   30.835   61.348  321.380
  509.790   27.062   66.041  324.653
  510.040   23.088   71.322  316.219
  510.290   20.706   76.597  312.994
  510.540   18.323   80.116  317.563
  510.790   16.140   87.159  332.550
  511.040   15.546   89.502  342.984
  511.290   14.157   89.487  343.656
  511.540   12.570   91.234  344.328
  511.790   11.181   92.401  346.306
  512.040    9.794   93.569  350.230
  512.290    9.002   95.906  352.859
  512.540    8.409   97.659  352.875
  512.790    8.214   98.823  352.891
  513.040    7.819   99.402  351.617
  513.290    7.822   99.388  350.343
  513.540    7.825   99.379  349.714
  513.790    7.828   96.421  348.440
  514.040    8.232   94.648  348.451
  514.290    8.432   92.281  348.478
  514.540    8.635   91.096  349.800
  514.790    8.639   90.496  349.822
  515.040    8.643   90.481  349.188
  515.290    8.843   91.061  347.914
  515.540    8.848   91.637  346.634
  515.790    8.851   93.381  346.666
  516.040    8.656   93.375  347.328
  516.290    8.659   92.772  349.306
  516.540    8.663   92.763  349.972
  516.790    8.666   93.334  351.300
  517.040    8.669   93.325  351.327
  517.290    8.673   93.904  351.343
  517.540    8.676   93.295  351.375
  517.790    8.481   92.699  351.392
  518.040    8.286   92.096  352.709
  518.290    8.289   92.087  354.042
  518.540    8.093   92.666  354.703
  518.790    8.097   93.240  352.133
  519.040    8.300   93.816  348.247
  519.290    8.501   94.392  333.313
  519.540    8.703   92.022  320.971
  519.790    9.105   90.252  304.731
  520.040   10.300   86.124  274.827
  520.290   14.082   80.820  300.872
  520.540   27.607   76.103  337.318
  520.790   27.013   70.796  352.956
  521.040   21.847   68.429  363.385
  521.290   20.260   71.358  364.062
  521.540   18.275   75.465  359.525
  521.790   17.880   74.862  347.188
  522.040   19.078   72.499  327.045
  522.290   19.876   70.722  320.562
  522.540   19.880   70.123  347.258
  522.790   19.286   69.520  353.784
  523.040   17.700   70.096  352.520
  523.290   16.311   73.616  350.580
  523.540   15.121   78.897  347.349
  523.790   12.938   83.587  344.113
  524.040   11.549   83.578  339.587
  524.290   10.360   83.560  338.307
  524.540    9.569   83.551  338.985
  524.790    9.373   82.358  339.001
  525.040    9.177   82.349  339.022
  525.290    8.981   81.749  337.743
  525.540    8.588   82.325  335.813
  525.790    8.590   83.487  333.883
  526.040    8.396   84.066  331.959
  526.290    8.398   85.231  333.281
  526.540    8.205   84.625  334.604
  526.790    8.009   84.031  333.980
  527.040    8.011   85.777  332.050
  527.290    7.618   88.706  331.416
  527.540    7.620   89.873  327.540
  527.790    7.029   92.217  326.255
  528.040    6.831   94.557  324.325
  528.290    6.636   98.659  328.255
  528.540    6.441  101.000  335.437
  528.790    6.246  105.102  341.307
  529.040    6.248  106.266  345.882
  529.290    6.252  105.075  345.258
  529.540    6.256  103.890  340.076
  529.790    6.260  102.114  332.942
  530.040    6.263   99.156  318.654
  530.290    6.465   98.562  312.822
  530.540    6.667   95.607  325.852
  530.790    7.467   93.834  329.126
  531.040    8.265   91.467  333.700
  531.290    9.462   88.515  329.169
  531.540   10.260   86.151  303.172
  531.790   11.456   83.784  295.388
  532.040   12.852   82.008  279.799
  532.290   12.259   80.820  305.844
  532.540   11.665   80.223  320.181
  532.790   10.874   79.621  324.100
  533.040   10.083   79.609  326.723
  533.290    9.688   82.537  318.289
  533.540    9.294   88.995  313.106
  533.790    9.097   94.275  307.285
  534.040    8.506   96.028  305.355
  534.290    8.310   97.192  302.119
  534.540    8.313   98.945  304.092
  534.790    8.913  101.285  315.171
  535.040    9.313  105.387  319.095
  535.290    9.516  108.319  331.491
  535.540    9.122  114.185  334.104
  535.790    8.332  117.113  338.678
  536.040    7.936  120.630  345.855
  536.290    7.740  116.502  349.128
  536.540    7.347  111.785  342.651
  536.790    7.151  108.830  336.818
