~VERSION INFORMATION
 VERS.                 2.0:   CWLS LOG ASCII STANDARD -VERSION 2.0
 WRAP.                  NO:   ONE LINE PER DEPTH STEP
~WELL INFORMATION BLOCK
#MNEM.UNIT           DATA                    DESCRIPTION OF MNEMONIC
#---------    -------------------            -------------------------------
# Generated from Intellog Unique Number	CS_67_68/WELL/2176
WELL.         07-08-067-02W4                 : Well_name    - WELL
LOC .         00/07-08-067-02W4/0            : Location     - LOCATION
UWI .         00/07-08-067-02W4/0            : Uwi          - UNIQUE WELL ID
ENTR.         SP                             : Entered      - ENTERED BY
SRVC.         SCHLUMBERGER                   : Scn          - SERVICE COMPANY
STRT.M        345                            : top_depth    - START DEPTH
STOP.M        606                            : bot_depth    - STOP DEPTH
STEP.M        0.25                           : increment    - STEP LENGTH
 NULL. -999.2500:NULL Value
~CURVE INFORMATION BLOCK
#MNEM UNIT       ERCB CURVE CODE    CURVE DESCRIPTION
#-----------   ------------------   ----------------------------------
DEPT.M        00 001 00 00         : DEPTH        - DEPTH
ILD .OHMM     00 120 00 00         : RESD         - DEEP RESISTIVITY (DIL)
DPHI.V/V      00 890 00 00         : PHID         - DENSITY POROSITY (LIMESTONE)
NPHI.V/V      00 330 00 00         : PHIN         - NEUTRON POROSITY (LIMESTONE)
GR  .API      00 310 00 00         : GR           - GAMMA RAY
CALI.MM       00 280 01 00         : CAL          - CALIPER
~PARAMETER INFORMATION
#MNEM.UNIT           DATA             DESCRIPTION OF MNEMONIC
#---------         -----------     ------------------------------
GL  .M        644.3                : gl           - GROUND LEVEL ELEVATION
EREF.M        648.1                : kb           - ELEVATION OF DEPTH REFERENCE
DATM.M        648.1                : datum        - DATUM ELEVATION
TDD .M        613.8                : tdd          - TOTAL DEPTH DRILLER
RUN .         ONE                  : Run          - RUN NUMBER
ENG .         BILL                 : Engineer     - RECORDING ENGINEER
WIT .         JIM                  : Witness      - WITNESSED BY
MUD .         GEL                  : Mud_type     - MUD TYPE
MATR.         LIMESTONE            : Logunit      - NEUTRON MATRIX
TMAX.C        25.5                 : BHT          - MAXIMUM RECORDED TEMPERATURE
BHTD.M        618.3                : BHTDEP       - MAXIMUM RECORDED TEMPERATURE
MATR.         1                    : LOGUNIT      - NEUTRON MATRIX
RMT .C        25                   : MDTP         - TEMPERATURE OF MUD
NEUT.         1                    : NEUTRON      - NEUTRON TYPE
RESI.         0                    : RESIST       - RESISTIVITY TYPE
RMC .OHMM     0.25                 : RMC          - RESISTIVITY OF MUD CAKE
RMF .OHMM     0.25                 : RMF          - RESISTIVITY OF MUD FILTRATE
SUFT.C        15                   : SUFT         - SURFACE TEMPERATURE
~A  DEPTH     RESD     PHID     PHIN       GR      CAL
  345.000    3.126    0.218    0.494  105.703  172.531
  345.250    3.184    0.231    0.517  101.298  173.331
  345.500    3.213    0.236    0.512  104.025  174.031
  345.750    3.267    0.236    0.497  106.147  174.427
  346.000    3.310    0.235    0.467  103.677  174.922
  346.250    3.303    0.227    0.447  101.024  175.015
  346.500    3.260    0.217    0.465   98.493  175.007
  346.750    3.235    0.222    0.498   98.379  174.895
  347.000    3.204    0.234    0.518  100.743  174.483
  347.250    3.168    0.241    0.521  103.228  173.868
  347.500    3.091    0.236    0.509  109.097  173.454
  347.750    3.050    0.236    0.500  112.126  173.240
  348.000    3.016    0.236    0.510  108.265  173.334
  348.250    3.010    0.235    0.498  103.317  173.729
  348.500    3.060    0.228    0.491   99.758  174.327
  348.750    3.141    0.221    0.502  103.633  174.824
  349.000    3.223    0.223    0.511  108.596  175.019
  349.250    3.314    0.226    0.517  108.059  175.111
  349.500    3.370    0.232    0.516  106.011  174.900
  349.750    3.395    0.238    0.519  104.749  174.183
  350.000    3.375    0.243    0.506  102.157  172.758
  350.250    3.381    0.241    0.493   99.506  171.637
  350.500    3.470    0.239    0.470   97.700  170.516
  350.750    3.615    0.228    0.456   96.257  171.114
  351.000    3.731    0.197    0.483   96.868  172.015
  351.250    3.730    0.219    0.512  103.824  173.824
  351.500    3.653    0.232    0.478  107.518  174.929
  351.750    3.578    0.237    0.479  103.840  176.236
  352.000    3.505    0.237    0.469  101.428  177.340
  352.250    3.414    0.232    0.483   99.804  177.634
  352.500    3.325    0.228    0.499   99.629  177.119
  352.750    3.190    0.231    0.502   97.400  176.302
  353.000    3.131    0.236    0.507   93.841  174.776
  353.250    3.101    0.249    0.511   95.541  172.844
  353.500    3.124    0.261    0.501  100.262  170.106
  353.750    3.218    0.259    0.458   95.494  166.659
  354.000    3.566    0.252    0.400   88.430  161.997
  354.250    4.763    0.255    0.367   85.234  159.967
  354.500    6.003    0.241    0.377   81.011  159.552
  354.750    7.168    0.249    0.391   72.436  159.241
  355.000    7.913    0.277    0.380   63.075  158.826
  355.250    8.228    0.329    0.380   54.199  156.291
  355.500    8.397    0.310    0.396   63.030  153.349
  355.750    8.554    0.287    0.413   77.239  152.227
  356.000    8.845    0.287    0.425   79.361  151.408
  356.250    9.078    0.296    0.422   75.864  150.996
  356.500    9.369    0.302    0.427   72.667  150.481
  356.750    9.633    0.306    0.426   69.954  150.168
  357.000    9.722    0.311    0.404   68.753  149.756
  357.250    9.830    0.314    0.390   73.776  149.342
  357.500    9.939    0.309    0.382   78.135  149.030
  357.750    9.956    0.304    0.388   82.191  149.021
  358.000    9.898    0.293    0.389   84.434  149.417
  358.250    9.933    0.282    0.389   86.073  149.711
  358.500   10.025    0.268    0.380   85.657  150.410
  358.750   10.174    0.256    0.373   81.615  151.110
  359.000   10.422    0.257    0.376   78.237  151.910
  359.250   10.557    0.267    0.379   79.090  152.607
  359.500   10.714    0.270    0.372   79.037  153.205
  359.750   10.853    0.251    0.366   77.957  153.703
  360.000   10.872    0.279    0.392   76.090  153.998
  360.250   10.890    0.306    0.416   76.036  154.191
  360.500   10.707    0.309    0.433   81.362  154.282
  360.750   10.428    0.313    0.433   70.673  154.274
  361.000   10.119    0.325    0.420   62.943  154.064
  361.250    9.709    0.328    0.402   54.791  153.953
  361.500    9.475    0.317    0.398   50.387  154.248
  361.750    9.229    0.303    0.398   54.684  154.542
  362.000    9.039    0.305    0.381   58.499  155.341
  362.250    9.021    0.317    0.388   67.028  155.738
  362.500    9.002    0.328    0.453   76.160  156.033
  362.750    8.526    0.322    0.457   86.442  156.024
  363.000    8.304    0.298    0.415   84.757  155.813
  363.250    8.349    0.275    0.395   74.369  155.702
  363.500    8.411    0.281    0.380   67.546  155.490
  363.750    8.519    0.277    0.380   75.350  155.483
  364.000    8.597    0.212    0.402   89.982  155.675
  364.250    8.597    0.188    0.414   87.935  155.870
  364.500    8.643    0.206    0.415   88.667  155.861
  364.750    8.690    0.233    0.418   90.850  155.447
  365.000    8.737    0.235    0.409   88.862  154.932
  365.250    8.785    0.230    0.421   86.512  154.621
  365.500    8.783    0.260    0.435   89.541  154.409
  365.750    8.782    0.273    0.429   87.675  154.400
  366.000    8.601    0.266    0.424   90.402  154.089
  366.250    8.131    0.253    0.422   93.491  153.978
  366.500    7.788    0.256    0.416   91.624  153.969
  366.750    8.128    0.258    0.410   81.961  154.062
  367.000    8.483    0.271    0.402   68.008  154.051
  367.250    8.642    0.287    0.389   61.972  153.740
  367.500    8.496    0.301    0.379   59.380  153.428
  367.750    8.384    0.311    0.391   62.409  153.317
  368.000    8.121    0.294    0.411   71.783  153.512
  368.250    7.909    0.260    0.417   80.976  153.503
  368.500    7.967    0.232    0.424   85.093  153.392
  368.750    8.238    0.229    0.434   81.536  153.486
  369.000    8.407    0.278    0.439   80.514  153.274
  369.250    8.469    0.304    0.410   76.654  152.759
  369.500    8.483    0.307    0.390   86.331  152.345
  369.750    8.466    0.283    0.402   97.820  151.831
  370.000    8.417    0.266    0.415  104.354  151.620
  370.250    7.868    0.276    0.434  108.531  151.511
  370.500    7.205    0.290    0.443  111.500  151.907
  370.750    6.660    0.300    0.440  115.193  152.605
  371.000    6.065    0.292    0.434  118.223  154.417
  371.250    5.482    0.284    0.432  118.653  155.723
  371.500    5.310    0.235    0.444  116.484  157.533
  371.750    5.172    0.210    0.456  112.624  158.840
  372.000    5.308    0.185    0.465  106.587  158.932
  372.250    5.827    0.173    0.479   95.050  158.013
  372.500    6.432    0.232    0.492   69.251  156.588
  372.750    6.878    0.273    0.503   51.792  154.962
  373.000    7.424    0.310    0.403   43.278  153.638
  373.250    7.954    0.327    0.396   45.098  152.921
  373.500    8.209    0.320    0.394   49.880  152.407
  373.750    8.208    0.327    0.402   53.090  152.195
  374.000    7.935    0.340    0.413   58.899  152.488
  374.250    7.362    0.344    0.425   65.614  153.088
  374.500    7.091    0.331    0.432   69.731  153.787
  374.750    7.170    0.321    0.420   68.891  155.092
  375.000    7.276    0.316    0.393   75.849  156.601
  375.250    7.371    0.305    0.383   82.987  158.514
  375.500    7.494    0.285    0.389   90.126  160.123
  375.750    7.634    0.260    0.396   90.556  161.427
  376.000    7.748    0.254    0.392   88.327  162.128
  376.250    7.996    0.262    0.382   90.087  162.725
  376.500    8.346    0.270    0.393   89.430  162.211
  376.750    8.711    0.278    0.426   84.904  161.393
  377.000    9.024    0.285    0.445   80.620  159.868
  377.250    9.296    0.279    0.459   82.560  157.937
  377.500    9.576    0.262    0.468   81.783  156.614
  377.750    9.485    0.259    0.461   79.311  155.594
  378.000    9.187    0.266    0.455   82.461  155.279
  378.250    8.604    0.273    0.460   88.632  155.474
  378.500    8.210    0.283    0.460   93.958  155.463
  378.750    7.952    0.287    0.459   90.157  155.152
  379.000    7.702    0.281    0.456   85.391  155.447
  379.250    7.558    0.276    0.449   82.919  155.436
  379.500    7.458    0.269    0.445   88.124  155.430
  379.750    7.712    0.268    0.453   91.273  155.926
  380.000    8.049    0.277    0.439   85.056  156.017
  380.250    8.385    0.281    0.435   80.470  156.212
  380.500    8.510    0.275    0.449   80.537  156.508
  380.750    8.351    0.271    0.463   81.753  157.105
  381.000    7.850    0.271    0.449   82.304  157.602
  381.250    7.449    0.262    0.450   85.757  157.896
