~VERSION INFORMATION
 VERS.                 2.0:   CWLS LOG ASCII STANDARD -VERSION 2.0
 WRAP.                  NO:   ONE LINE PER DEPTH STEP
~WELL INFORMATION BLOCK
#MNEM.UNIT           DATA                    DESCRIPTION OF MNEMONIC
#---------    -------------------            -------------------------------
# Generated from Intellog Unique Number	CS_73_76/WELL/2912
WELL.         BRALORNE OIL TOWER             : Well_name    - WELL
LOC .         00/07-32-076-15W4/0            : Location     - LOCATION
UWI .         00/07-32-076-15W4/0            : Uwi          - UNIQUE WELL ID
ENTR.         SP                             : Entered      - ENTERED BY
SRVC.         SCHLUMBERGER                   : Scn          - SERVICE COMPANY
STRT.M        305                            : top_depth    - START DEPTH
STOP.M        545                            : bot_depth    - STOP DEPTH
STEP.M        0.25                           : increment    - STEP LENGTH
 NULL. -999.2500:NULL Value
~CURVE INFORMATION BLOCK
#MNEM UNIT       ERCB CURVE CODE    CURVE DESCRIPTION
#-----------   ------------------   ----------------------------------
DEPT.M        00 001 00 00         : DEPTH        - DEPTH
DPHI.V/V      00 890 00 00         : PHID         - DENSITY POROSITY (LIMESTONE)
NPHI.V/V      00 330 00 00         : PHIN         - NEUTRON POROSITY (LIMESTONE)
GR  .API      00 310 00 00         : GR           - GAMMA RAY
ILD .OHMM     00 120 00 00         : RESD         - DEEP RESISTIVITY (DIL)
~PARAMETER INFORMATION
#MNEM.UNIT           DATA             DESCRIPTION OF MNEMONIC
#---------         -----------     ------------------------------
GL  .M        679.7                : gl           - GROUND LEVEL ELEVATION
EREF.M        684                  : kb           - ELEVATION OF DEPTH REFERENCE
DATM.M        679.7                : datum        - DATUM ELEVATION
TDD .M        557                  : tdd          - TOTAL DEPTH DRILLER
RUN .         ONE                  : Run          - RUN NUMBER
ENG .         BILL                 : Engineer     - RECORDING ENGINEER
WIT .         JIM                  : Witness      - WITNESSED BY
MUD .         GEL                  : Mud_type     - MUD TYPE
MATR.         LIMESTONE            : Logunit      - NEUTRON MATRIX
TMAX.C        21                   : BHT          - MAXIMUM RECORDED TEMPERATURE
BHTD.M        557                  : BHTDEP       - MAXIMUM RECORDED TEMPERATURE
MATR.         1                    : LOGUNIT      - NEUTRON MATRIX
RMT .C        25                   : MDTP         - TEMPERATURE OF MUD
NEUT.         1                    : NEUTRON      - NEUTRON TYPE
RESI.         0                    : RESIST       - RESISTIVITY TYPE
RMC .OHMM     0.25                 : RMC          - RESISTIVITY OF MUD CAKE
RMF .OHMM     0.25                 : RMF          - RESISTIVITY OF MUD FILTRATE
SUFT.C        15                   : SUFT         - SURFACE TEMPERATURE
~A  DEPTH     PHID     PHIN       GR     RESD
# ...
  392.000    0.272    0.479   78.912    8.089
  392.250    0.281    0.490   77.677    7.231
  392.500    0.284    0.483   77.667    6.710
  392.750    0.269    0.473   78.263    6.711
  393.000    0.249    0.462   80.079    7.510
  393.250    0.231    0.452   81.898    8.095
  393.500    0.214    0.445   84.933    8.096
  393.750    0.189    0.441   87.357    8.098
  394.000    0.257    0.458   89.170    8.099
  394.250    0.274    0.473   90.983    8.100
  394.500    0.263    0.479   91.587    7.803
  394.750    0.253    0.470   92.793    7.518
  395.000    0.249    0.463   92.780    7.108
  395.250    0.239    0.457   93.372    6.474
  395.500    0.244    0.477   94.576    6.597
  395.750    0.254    0.494   94.569    6.598
  396.000    0.247    0.487   92.114    6.724
  396.250    0.250    0.471   90.274    6.725
  396.500    0.242    0.461   90.870    6.725
  396.750    0.231    0.466   94.510    6.726
  397.000    0.220    0.474   95.723    6.603
  397.250    0.231    0.461   95.709    6.481
  397.500    0.235    0.461   95.085    6.244
  397.750    0.229    0.478   95.069    6.129
  398.000    0.229    0.489   95.663    5.905
  398.250    0.239    0.491   96.876    5.688
  398.500    0.237    0.480   98.691    5.584
  398.750    0.231    0.481   96.848    5.379
  399.000    0.229    0.487   95.001    5.086
  399.250    0.220    0.491   94.379    4.900
  399.500    0.227    0.498   95.587    4.721
  399.750    0.251    0.491   96.186    4.634
  400.000    0.271    0.494   94.341    4.722
  400.250    0.282    0.514   91.889    4.903
  400.500    0.301    0.494   88.830    5.385
  400.750    0.317    0.447   83.940    5.696
  401.000    0.312    0.445   79.659    6.495
  401.250    0.302    0.449   75.986    7.133
  401.500    0.297    0.445   82.674    7.002
  401.750    0.287    0.463   85.105    6.621
  402.000    0.295    0.479   90.576    6.030
  402.250    0.293    0.479   94.225    5.290
  402.500    0.268    0.541   99.698    4.387
  402.750    0.271    0.602  103.342    3.075
  403.000    0.265    0.608  105.159    2.366
  403.250    0.275    0.600  106.366    2.155
  403.500    0.254    0.610  108.179    2.000
  403.750    0.251    0.597  108.771    2.000
  404.000    0.261    0.568  109.374    2.000
  404.250    0.285    0.576  106.922    2.039
  404.500    0.281    0.565  104.464    2.157
  404.750    0.276    0.554  105.064    2.198
  405.000    0.257    0.537  105.053    2.282
  405.250    0.247    0.538  103.819    2.414
  405.500    0.240    0.539   99.534    2.602
  405.750    0.259    0.525   98.307    2.967
  406.000    0.275    0.518   94.633    3.447
  406.250    0.289    0.516   90.963    3.785
  406.500    0.301    0.497   86.073    4.157
  406.750    0.330    0.461   82.402    4.740
  407.000    0.319    0.436   85.432    5.015
  407.250    0.296    0.441   87.251    5.406
  407.500    0.285    0.465   89.067    5.613
  407.750    0.258    0.481   87.222    5.720
  408.000    0.260    0.473   84.772    5.939
  408.250    0.259    0.460   82.322    6.052
  408.500    0.267    0.454   79.868    6.402
  408.750    0.279    0.449   78.027    6.773
  409.000    0.283    0.444   77.405    7.301
  409.250    0.266    0.442   76.167    8.170
  409.500    0.229    0.433   75.547    9.670
  409.750    0.192    0.321   73.095   10.822
  410.000    0.046    0.215   70.032   11.885
  410.250    0.021    0.197   68.803   14.068
  410.500    0.006    0.179   68.787   15.164
  410.750    0.000    0.170   68.168   16.346
  411.000    0.010    0.152   66.320   17.619
  411.250    0.025    0.149   63.869   18.295
  411.500    0.050    0.156   61.420   18.643
  411.750    0.046    0.145   57.137   17.627
  412.000    0.056    0.145   54.078   15.756
  412.250    0.088    0.165   52.840   13.567
  412.500    0.181    0.192   55.877   12.127
  412.750    0.245    0.221   59.519   10.840
  413.000    0.297    0.292   61.336    8.660
  413.250    0.339    0.414   62.545    7.457
  413.500    0.354    0.412   60.090    6.542
  413.750    0.353    0.421   58.861    6.302
  414.000    0.351    0.417   59.455    6.072
  414.250    0.351    0.422   60.665    6.073
  414.500    0.341    0.415   60.652    6.074
  414.750    0.333    0.419   61.247    6.189
  415.000    0.324    0.413   63.060    6.190
  415.250    0.337    0.403   64.266    6.076
  415.500    0.342    0.386   65.476    6.077
  415.750    0.343    0.401   67.289    6.078
  416.000    0.340    0.409   69.105    6.193
  416.250    0.341    0.426   70.314    6.194
  416.500    0.326    0.435   72.129    6.312
  416.750    0.324    0.425   72.117    6.313
  417.000    0.332    0.435   72.713    6.314
  417.250    0.325    0.442   72.088    6.198
  417.500    0.323    0.425   72.076    6.199
  417.750    0.316    0.442   73.282    6.085
  418.000    0.302    0.453   75.099    4.953
  418.250    0.282    0.464   79.353    4.511
  418.500    0.279    0.476   82.998    4.428
  418.750    0.272    0.451   83.593    4.347
  419.000    0.273    0.459   82.358    4.513
  419.250    0.279    0.451   82.348    4.865
  419.500    0.286    0.438   78.067    5.051
  419.750    0.290    0.439   73.785    5.343
  420.000    0.287    0.435   71.942    5.653
  420.250    0.276    0.433   72.535    5.870
  420.500    0.279    0.426   70.086    6.209
  420.750    0.260    0.407   65.807    7.214
  421.000    0.210    0.349   60.913    8.225
  421.250    0.058    0.216   56.631   10.493
  421.500    0.000    0.185   53.573   12.655
  421.750    0.000    0.147   49.903   15.551
  422.000    0.018    0.158   53.543   18.755
  422.250    0.064    0.173   57.796   19.473
  422.500    0.117    0.223   60.227   15.852
  422.750    0.251    0.337   65.698   10.502
  423.000    0.301    0.412   68.126    8.082
  423.250    0.321    0.431   70.553    6.830
  423.500    0.316    0.419   68.706    6.338
  423.750    0.313    0.429   69.916    6.106
  424.000    0.306    0.412   72.947    6.106
  424.250    0.295    0.419   72.328    6.107
  424.500    0.290    0.413   68.046    6.341
  424.750    0.273    0.413   64.986    6.584
  425.000    0.228    0.439   65.582    6.965
  425.250    0.275    0.454   68.005    6.837
  425.500    0.296    0.451   74.089    6.587
  425.750    0.289    0.435   80.174    6.113
  426.000    0.289    0.446   86.258    6.000
  426.250    0.290    0.437   89.903    5.673
  426.500    0.288    0.433   87.448    5.674
  426.750    0.287    0.433   86.827    5.570
  427.000    0.289    0.439   86.205    5.366
  427.250    0.283    0.433   84.360    5.366
  427.500    0.272    0.429   83.130    5.268
  427.750    0.284    0.454   83.118    5.171
  428.000    0.250    0.467   86.147    5.076
  428.250    0.278    0.487   87.358    5.076
  428.500    0.270    0.482   89.176    5.173
  428.750    0.242    0.460   88.552    5.371
  429.000    0.236    0.446   87.319    5.473
  429.250    0.240    0.434   87.305    5.683
  429.500    0.249    0.425   86.683    5.792
  429.750    0.271    0.445   86.059    5.792
  430.000    0.250    0.458   87.875    5.580
  430.250    0.254    0.465   90.909    5.581
  430.500    0.259    0.457   90.288    5.376
  430.750    0.238    0.448   90.883    5.180
  431.000    0.224    0.455   91.480    4.990
  431.250    0.233    0.461   90.857    5.085
  431.500    0.218    0.447   90.231    5.086
  431.750    0.209    0.448   90.218    5.086
  432.000    0.213    0.445   91.427    5.282
  432.250    0.225    0.446   92.022    5.382
  432.500    0.245    0.448   92.617    5.089
  432.750    0.236    0.462   92.603    4.996
  433.000    0.220    0.473   92.595    4.636
  433.250    0.221    0.455   93.190    4.813
  433.500    0.240    0.464   91.347    4.814
  433.750    0.252    0.455   88.282    4.905
  434.000    0.258    0.442   86.442    5.189
  434.250    0.298    0.426   85.816    5.700
  434.500    0.302    0.403   85.808    6.260
  434.750    0.302    0.397   85.185    6.747
  435.000    0.300    0.377   85.169    7.693
  435.250    0.299    0.361   84.549    8.772
