~VERSION INFORMATION
 VERS.                 2.0:   CWLS LOG ASCII STANDARD -VERSION 2.0
 WRAP.                  NO:   ONE LINE PER DEPTH STEP
~WELL INFORMATION BLOCK
#MNEM.UNIT           DATA                    DESCRIPTION OF MNEMONIC
#---------    -------------------            -------------------------------
# Generated from Intellog Unique Number	CW_73_75/WELL/549
WELL.         AMOCO 59 MARTEN HILLS 06-21    : Well_name    - WELL
LOC .         00/06-21-075-25W4/0            : Location     - LOCATION
UWI .         00/06-21-075-25W4/0            : Uwi          - UNIQUE WELL ID
ENTR.         JAYE                           : Entered      - ENTERED BY
SRVC.         SCHLUMBERGER                   : Scn          - SERVICE COMPANY
DATE.         27 JAN 75                      : Date         - LOG DATE
STRT.M        445.008                        : top_depth    - START DEPTH
STOP.M        647.508                        : bot_depth    - STOP DEPTH
STEP.M        0.25                           : increment    - STEP LENGTH
 NULL. -999.2500:NULL Value
~CURVE INFORMATION BLOCK
#MNEM UNIT       ERCB CURVE CODE    CURVE DESCRIPTION
#-----------   ------------------   ----------------------------------
DEPT.M        00 001 00 00         : DEPTH        - DEPTH
ILD .OHMM     00 120 00 00         : RESD         - DEEP RESISTIVITY (DIL)
NPHI.V/V      00 330 00 00         : PHIN         - NEUTRON POROSITY (SANDSTONE)
DPHI.V/V      00 890 00 00         : PHID         - DENSITY POROSITY (SANDSTONE)
GR  .API      00 310 00 00         : GR           - GAMMA RAY
CALI.MM       00 280 01 00         : CAL          - CALIPER
~PARAMETER INFORMATION
#MNEM.UNIT           DATA             DESCRIPTION OF MNEMONIC
#---------         -----------     ------------------------------
GL  .M        724.51               : gl           - GROUND LEVEL ELEVATION
EREF.M        728.624              : kb           - ELEVATION OF DEPTH REFERENCE
DATM.M        724.51               : datum        - DATUM ELEVATION
TDD .M        647.7                : tdd          - TOTAL DEPTH DRILLER
RUN .         ONE                  : Run          - RUN NUMBER
MATR.         SANDSTONE            : Logunit      - NEUTRON MATRIX
TMAX.C        27.7778              : BHT          - MAXIMUM RECORDED TEMPERATURE
BHTD.M        648.005              : BHTDEP       - MAXIMUM RECORDED TEMPERATURE
RMT .C        17.2222              : MDTP         - TEMPERATURE OF MUD
MUDD.KG/M     0                    : MWT          - MUD DENSITY
NEUT.         1                    : NEUTRON      - NEUTRON TYPE
RESI.         0                    : RESIST       - RESISTIVITY TYPE
RM  .OHMM     4.33                 : RM           - RESISTIVITY OF MUD
RMC .OHMM     0                    : RMC          - RESISTIVITY OF MUD CAKE
RMF .OHMM     5.22                 : RMF          - RESISTIVITY OF MUD FILTRATE
SUFT.C        -17.7778             : SUFT         - SURFACE TEMPERATURE
~A  DEPTH     RESD     PHIN     PHID       GR      CAL
# ...
  518.008    4.641    0.451    0.284   74.107  218.171
  518.258    4.599    0.449    0.292   78.626  219.288
  518.508    4.641    0.450    0.272   81.337  220.303
  518.758    4.649    0.452    0.257   81.092  221.523
  519.008    4.675    0.454    0.248   79.279  222.437
  519.258    4.727    0.486    0.235   79.939  224.065
  519.508    4.761    0.525    0.220   79.935  225.284
  519.758    4.823    0.533    0.220   78.545  223.645
  520.008    4.930    0.508    0.231   78.119  220.676
  520.258    4.985    0.487    0.243   78.960  220.364
  520.508    5.086    0.452    0.227   80.645  220.971
  520.758    5.152    0.453    0.221   81.184  221.781
  521.008    5.180    0.460    0.224   79.552  221.878
  521.258    5.209    0.464    0.219   78.403  221.770
  521.508    5.218    0.456    0.225   81.837  221.764
  521.758    5.171    0.448    0.234   85.693  222.166
  522.008    5.086    0.446    0.216   87.197  224.611
  522.258    4.903    0.441    0.210   87.736  222.257
  522.508    4.623    0.459    0.210   89.361  224.803
  522.758    4.233    0.487    0.200   92.132  227.044
  523.008    3.799    0.492    0.213   96.471  228.875
  523.258    3.391    0.496    0.212   95.985  228.461
  523.508    3.048    0.510    0.197   93.569  227.025
  523.758    2.751    0.519    0.217   92.299  226.101
  524.008    2.524    0.511    0.221   93.441  226.503
  524.258    2.410    0.499    0.222   95.669  226.905
  524.508    2.510    0.493    0.222   97.897  227.411
  524.758    2.716    0.494    0.219   95.239  228.016
  525.008    2.971    0.496    0.215   93.186  228.214
  525.258    3.304    0.492    0.222   91.373  228.106
  525.508    3.589    0.480    0.228   90.163  227.182
  525.758    3.862    0.474    0.228   89.074  224.929
  526.008    4.095    0.473    0.221   88.769  224.309
  526.258    4.407    0.459    0.198   91.600  225.121
  526.508    4.673    0.484    0.188   94.189  226.544
  526.758    4.725    0.495    0.196   95.332  227.457
  527.008    4.439    0.494    0.206   95.328  227.962
  527.258    4.248    0.489    0.196   94.903  227.650
  527.508    4.431    0.489    0.200   93.030  227.337
  527.758    4.751    0.492    0.204   90.734  226.821
  528.008    5.197    0.511    0.202   88.921  226.508
  528.258    5.593    0.508    0.205   87.108  226.707
  528.508    5.665    0.478    0.231   85.235  226.495
  528.758    5.511    0.445    0.219   82.819  226.695
  529.008    5.255    0.446    0.210   81.428  226.381
  529.258    5.047    0.456    0.200   78.952  225.968
  529.508    4.856    0.461    0.180   80.938  224.941
  529.758    4.811    0.447    0.215   82.081  220.237
  530.008    4.847    0.425    0.222   82.379  217.473
  530.258    4.874    0.428    0.217   81.289  218.896
  530.508    4.964    0.438    0.210   79.959  221.138
  530.758    5.293    0.448    0.219   76.035  223.684
  531.008    5.531    0.462    0.247   71.991  222.760
  531.258    5.633    0.474    0.264   68.127  217.341
  531.508    5.664    0.482    0.277   62.696  213.964
  531.758    5.748    0.474    0.293   60.038  212.222
  532.008    5.908    0.481    0.285   60.578  210.786
  532.258    6.208    0.487    0.275   60.272  209.043
  532.508    6.817    0.469    0.273   57.193  208.528
  532.758    7.526    0.443    0.262   54.114  209.441
  533.008    8.573    0.399    0.244   52.180  211.783
  533.258    9.379    0.376    0.181   53.564  210.143
  533.508    9.091    0.356    0.153   54.766  206.358
  533.758    8.588    0.387    0.166   55.365  206.454
  534.008    7.821    0.424    0.187   55.604  206.857
  534.258    6.841    0.441    0.222   56.143  207.871
  534.508    6.117    0.460    0.252   56.863  208.478
  534.758    5.674    0.435    0.255   57.462  209.495
  535.008    5.253    0.445    0.278   58.363  210.918
  535.258    4.981    0.453    0.280   60.712  211.933
  535.508    4.854    0.457    0.288   63.785  212.642
  535.758    4.828    0.453    0.285   66.013  212.636
  536.008    5.350    0.446    0.290   66.612  212.630
  536.258    5.642    0.451    0.288   65.463  212.419
  536.508    5.842    0.438    0.284   63.710  211.494
  536.758    5.863    0.418    0.259   64.068  210.876
  537.008    5.736    0.412    0.231   65.573  211.482
  537.258    5.631    0.435    0.216   70.755  212.600
  537.508    5.549    0.451    0.253   75.999  214.227
  537.758    5.529    0.464    0.272   78.167  215.446
  538.008    5.498    0.482    0.251   74.062  215.951
  538.258    5.428    0.504    0.260   71.043  216.354
  538.508    5.329    0.481    0.280   71.461  216.654
  538.758    5.194    0.455    0.293   72.664  216.955
  539.008    5.063    0.463    0.305   74.470  216.949
  539.258    4.916    0.476    0.270   75.974  217.556
  539.508    4.827    0.477    0.222   77.297  218.469
  539.758    4.774    0.487    0.195   78.018  223.365
  540.008    4.747    0.487    0.242   76.205  224.585
  540.258    4.774    0.473    0.278   69.326  220.289
  540.508    4.943    0.468    0.306   63.653  217.831
  540.758    5.156    0.463    0.314   61.176  216.498
  541.008    5.558    0.452    0.288   61.897  215.777
  541.258    6.014    0.444    0.254   62.014  216.077
  541.508    6.689    0.415    0.218   66.654  216.685
  541.758    7.003    0.392    0.146   67.675  217.290
  542.008    6.952    0.411    0.119   69.240  217.591
  542.258    6.863    0.430    0.123   76.173  217.789
  542.508    6.689    0.442    0.190   82.321  217.783
  542.758    6.472    0.456    0.195   86.720  217.981
  543.008    6.058    0.468    0.206   90.275  217.566
  543.258    5.755    0.471    0.225   88.100  216.846
  543.508    5.609    0.477    0.263   83.815  215.615
  543.758    5.650    0.468    0.299   77.538  207.847
  544.008    5.948    0.458    0.300   78.802  176.488
  544.258    6.238    0.475    0.272   81.270  161.979
  544.508    6.296    0.466    0.235   81.328  167.182
  544.758    6.125    0.445    0.194   78.248  189.746
  545.008    5.829    0.434    0.172   82.104  210.472
  545.258    5.557    0.451    0.190   84.936  218.943
  545.508    5.347    0.469    0.209   86.621  220.060
  545.758    5.164    0.480    0.215   86.074  221.177
  546.008    5.014    0.467    0.232   86.131  222.294
  546.258    4.941    0.455    0.229   86.670  222.288
  546.508    4.968    0.447    0.216   87.571  221.159
  546.758    5.014    0.453    0.215   90.221  220.030
  547.008    5.079    0.464    0.217   89.434  219.718
  547.258    5.116    0.458    0.220   86.475  220.017
  547.508    5.042    0.446    0.225   87.074  219.296
  547.758    4.941    0.439    0.211   88.820  225.112
  548.008    4.816    0.453    0.195   90.988  229.498
  548.258    4.693    0.465    0.199   92.794  228.572
  548.508    4.533    0.483    0.205   91.222  227.238
  548.758    4.377    0.479    0.206   88.263  225.802
  549.008    4.243    0.461    0.220   86.269  224.571
  549.258    4.251    0.477    0.225   84.215  222.727
  549.508    4.541    0.495    0.216   81.135  220.474
  549.758    5.134    0.513    0.224   79.142  217.608
  550.008    5.795    0.452    0.218   77.931  217.092
  550.258    6.481    0.432    0.210   74.068  216.371
  550.508    7.090    0.403    0.216   69.782  216.365
  550.758    7.382    0.427    0.231   69.598  218.299
  551.008    7.182    0.450    0.215   72.128  218.905
  551.258    7.012    0.470    0.213   74.959  219.002
  551.508    7.038    0.492    0.235   73.809  218.486
  551.758    7.182    0.474    0.215   71.212  217.560
  552.008    7.771    0.442    0.199   69.218  217.042
  552.258    8.316    0.413    0.207   66.440  217.037
  552.508    8.675    0.393    0.214   62.939  217.133
  552.758    9.032    0.379    0.200   63.538  217.434
  553.008    9.048    0.392    0.185   66.972  216.713
  553.258    8.658    0.437    0.210   70.829  215.175
  553.508    8.031    0.458    0.218   68.594  214.045
  553.758    7.327    0.439    0.203   66.721  213.529
  554.008    6.846    0.422    0.190   69.913  212.706
  554.258    6.563    0.426    0.212   76.484  211.781
