~VERSION INFORMATION
 VERS.                 2.0:   CWLS LOG ASCII STANDARD -VERSION 2.0
 WRAP.                  NO:   ONE LINE PER DEPTH STEP
~WELL INFORMATION BLOCK
#MNEM.UNIT           DATA                    DESCRIPTION OF MNEMONIC
#---------    -------------------            -------------------------------
# Generated from Intellog Unique Number	CS_77_79/WELL/857
WELL.         HB THORNBURY LAKE              : Well_name    - WELL
LOC .         00/05-19-078-12W4/0            : Location     - LOCATION
UWI .         00/05-19-078-12W4/0            : Uwi          - UNIQUE WELL ID
ENTR.         JHS                            : Entered      - ENTERED BY
SRVC.         SCHLUMBERGER                   : Scn          - SERVICE COMPANY
STRT.M        243.84                         : top_depth    - START DEPTH
STOP.M        456.84                         : bot_depth    - STOP DEPTH
STEP.M        0.25                           : increment    - STEP LENGTH
 NULL. -999.2500:NULL Value
~CURVE INFORMATION BLOCK
#MNEM UNIT       ERCB CURVE CODE    CURVE DESCRIPTION
#-----------   ------------------   ----------------------------------
DEPT.M        00 001 00 00         : DEPTH        - DEPTH
RHOB.KG/M3    00 350 00 00         : DENS         - BULK DENSITY
GR  .API      00 310 00 00         : GR           - GAMMA RAY
DPHI.V/V      00 890 00 00         : PHID         - DENSITY POROSITY (SANDSTONE)
NPHI.V/V      00 330 00 00         : PHIN         - NEUTRON POROSITY (SANDSTONE)
ILD .OHMM     00 120 00 00         : RESD         - DEEP RESISTIVITY (DIL)
~PARAMETER INFORMATION
#MNEM.UNIT           DATA             DESCRIPTION OF MNEMONIC
#---------         -----------     ------------------------------
GL  .M        685.19               : gl           - GROUND LEVEL ELEVATION
EREF.M        685.19               : kb           - ELEVATION OF DEPTH REFERENCE
DATM.M        685.19               : datum        - DATUM ELEVATION
TDD .M        466.344              : tdd          - TOTAL DEPTH DRILLER
RUN .         ONE                  : Run          - RUN NUMBER
ENG .         BILL                 : Engineer     - RECORDING ENGINEER
WIT .         JIM                  : Witness      - WITNESSED BY
MUD .         GEL                  : Mud_type     - MUD TYPE
MATR.         SANDSTONE            : Logunit      - NEUTRON MATRIX
TMAX.C        26.6667              : BHT          - MAXIMUM RECORDED TEMPERATURE
BHTD.M        466.344              : BHTDEP       - MAXIMUM RECORDED TEMPERATURE
MATR.         1                    : LOGUNIT      - NEUTRON MATRIX
RMT .C        25                   : MDTP         - TEMPERATURE OF MUD
NEUT.         1                    : NEUTRON      - NEUTRON TYPE
RESI.         0                    : RESIST       - RESISTIVITY TYPE
RMC .OHMM     0.25                 : RMC          - RESISTIVITY OF MUD CAKE
RMF .OHMM     0.25                 : RMF          - RESISTIVITY OF MUD FILTRATE
SUFT.C        15                   : SUFT         - SURFACE TEMPERATURE
~A  DEPTH     DENS       GR     PHID     PHIN     RESD
# ...
  316.840    0.000   46.086    0.333    0.425   18.143
  317.090    0.000   45.108    0.327    0.414   18.166
  317.340    0.000   44.239    0.320    0.409   18.170
  317.590    0.000   44.374    0.308    0.412   18.188
  317.840    0.000   42.714    0.297    0.428   18.192
  318.090   -0.000   41.728    0.302    0.437   18.160
  318.340    0.000   40.179    0.321    0.443   17.908
  318.590    0.000   39.955    0.326    0.449   17.570
  318.840    0.000   38.978    0.326    0.452   17.248
  319.090   -0.000   39.993    0.322    0.446   17.285
  319.340   -0.000   41.855    0.332    0.427   17.294
  319.590   -0.000   43.834    0.333    0.432   17.309
  319.840    0.000   42.710    0.328    0.446   17.322
  320.090    0.000   43.559    0.329    0.446   17.333
  320.340   -0.000   42.725    0.320    0.450   17.359
  320.590   -0.000   40.674    0.312    0.423   17.020
  320.840   -0.000   40.398    0.302    0.417   17.054
  321.090    0.000   41.409    0.318    0.434   17.071
  321.340    0.000   42.146    0.314    0.452   17.088
  321.590    0.000   42.064    0.306    0.464   17.102
  321.840   -0.000   41.058    0.315    0.465   17.112
  322.090   -0.000   40.304    0.329    0.455   17.129
  322.340   -0.000   40.379    0.334    0.451   17.149
  322.590    0.000   41.406    0.335    0.446   16.920
  322.840    0.000   42.294    0.331    0.458   16.860
  323.090    0.000   41.602    0.315    0.452   16.864
  323.340   -0.000   40.800    0.305    0.446   16.878
  323.590   -0.000   40.196    0.310    0.445   16.895
  323.840    0.000   38.646    0.315    0.440   16.908
  324.090    0.000   38.648    0.315    0.436   16.954
  324.340    0.000   38.660    0.320    0.434   16.597
  324.590   -0.000   38.648    0.323    0.441   16.640
  324.840   -0.000   38.134    0.308    0.438   16.648
  325.090   -0.000   36.760    0.310    0.445   16.667
  325.340    0.000   35.706    0.326    0.458   16.644
  325.590    0.000   35.109    0.301    0.459   17.041
  325.840    0.000   34.529    0.309    0.465   17.018
  326.090   -0.000   36.525    0.318    0.448   17.028
  326.340   -0.000   39.245    0.318    0.432   17.040
  326.590    0.000   40.572    0.323    0.429   17.063
  326.840    0.000   40.637    0.305    0.446   16.731
  327.090    0.000   39.844    0.314    0.451   16.772
  327.340   -0.000   38.908    0.320    0.450   16.776
  327.590   -0.000   38.529    0.320    0.461   16.626
  327.840   -0.000   38.968    0.338    0.465   16.466
  328.090    0.000   40.606    0.318    0.454   16.194
  328.340    0.000   42.078    0.321    0.441   16.223
  328.590    0.000   43.747    0.321    0.433   16.233
  328.840   -0.000   44.366    0.309    0.436   16.249
  329.090   -0.000   44.507    0.313    0.445   16.254
  329.340   -0.000   45.552    0.306    0.437   16.273
  329.590    0.000   46.543    0.312    0.437   15.957
  329.840    0.000   47.437    0.309    0.443   15.923
  330.090   -0.000   47.392    0.323    0.450   15.714
  330.340   -0.000   47.095    0.312    0.466   15.728
  330.590   -0.000   45.987    0.314    0.475   15.731
  330.840    0.000   44.515    0.331    0.476   16.021
  331.090    0.000   44.042    0.324    0.474   16.178
  331.340    0.000   45.165    0.310    0.466   16.731
  331.590   -0.000   47.347    0.294    0.440   17.265
  331.840   -0.000   46.749    0.272    0.425   17.880
  332.090   -0.000   47.518    0.260    0.452   19.453
  332.340    0.000   47.828    0.278    0.460   20.383
  332.590    0.000   49.588    0.313    0.449   23.881
  332.840   -0.000   50.546    0.317    0.448   24.794
  333.090   -0.000   50.353    0.324    0.471   22.869
  333.340   -0.000   47.853    0.318    0.474   20.184
  333.590    0.000   45.303    0.324    0.472   17.253
  333.840    0.000   45.392    0.318    0.468   16.210
  334.090    0.000   47.864    0.329    0.456   15.268
  334.340   -0.000   49.875    0.317    0.436   15.065
  334.590   -0.000   49.836    0.317    0.429   15.081
  334.840   -0.000   48.131    0.319    0.435   15.094
  335.090    0.000   46.539    0.299    0.451   15.075
  335.340    0.000   46.371    0.263    0.432   15.388
  335.590    0.000   44.046    0.203    0.375   16.009
  335.840   -0.000   40.842    0.073    0.246   16.649
  336.090   -0.000   39.216    0.027    0.218   18.758
  336.340    0.000   42.639    0.032    0.286   21.860
  336.590    0.000   48.147    0.184    0.383   25.922
  336.840    0.000   48.223    0.167    0.311   27.213
  337.090   -0.000   45.119    0.014    0.204   29.058
  337.340   -0.000   42.793   -0.002    0.176   30.183
  337.590   -0.000   44.554   -0.002    0.191   32.882
  337.840    0.000   51.093    0.058    0.283   34.536
  338.090    0.000   56.471    0.223    0.392   33.491
  338.340    0.000   60.680    0.305    0.426   30.832
  338.590   -0.000   65.643    0.301    0.461   26.171
  338.840   -0.000   70.878    0.290    0.479   20.288
  339.090    0.000   74.364    0.263    0.502   12.767
  339.340    0.000   75.377    0.270    0.500   10.503
  339.590    0.000   73.230    0.280    0.473    9.278
  339.840   -0.000   70.266    0.269    0.463    8.982
  340.090   -0.000   70.764    0.266    0.489    8.250
  340.340   -0.000   73.638    0.281    0.482    8.321
  340.590    0.000   75.130    0.300    0.473    8.731
  340.840    0.000   75.315    0.307    0.460    9.230
  341.090    0.000   77.149    0.293    0.446    9.508
  341.340   -0.000   81.824    0.256    0.457    9.096
  341.590   -0.000   83.511    0.252    0.479    8.593
  341.840   -0.000   82.390    0.271    0.473    8.040
  342.090    0.000   88.320    0.235    0.492    6.806
  342.340    0.000   92.660    0.225    0.531    5.194
  342.590   -0.000   94.424    0.215    0.607    3.291
  342.840   -0.000   95.114    0.209    0.605    2.648
  343.090   -0.000   95.067    0.221    0.595    2.260
  343.340    0.000   95.600    0.215    0.575    2.039
  343.590    0.000   96.549    0.223    0.552    1.993
  343.840    0.000   98.238    0.238    0.517    2.092
  344.090   -0.000   97.214    0.245    0.494    2.252
  344.340   -0.000   93.460    0.225    0.481    2.645
  344.590   -0.000   87.768    0.208    0.467    3.356
  344.840    0.000   86.745    0.191    0.468    4.448
  345.090    0.000   90.413    0.183    0.505    5.366
  345.340   -0.000   90.388    0.189    0.517    6.267
  345.590   -0.000   88.282    0.187    0.511    6.549
  345.840   -0.000   85.861    0.184    0.499    6.611
  346.090    0.000   84.944    0.187    0.491    6.415
  346.340    0.000   87.285    0.168    0.496    6.282
  346.590    0.000   88.698    0.198    0.507    6.296
  346.840   -0.000   90.704    0.183    0.526    6.300
  347.090   -0.000   93.156    0.191    0.532    6.307
  347.340   -0.000   90.850    0.196    0.517    6.310
  347.590    0.000   88.818    0.222    0.510    6.328
  347.840    0.000   88.173    0.202    0.499    6.189
  348.090    0.000   90.607    0.193    0.496    6.207
  348.340   -0.000   93.907    0.194    0.504    6.020
  348.590   -0.000   93.812    0.175    0.511    5.813
  348.840    0.000   92.961    0.206    0.518    5.575
  349.090    0.000   94.361    0.204    0.523    5.159
  349.340    0.000   93.543    0.206    0.532    4.641
  349.590   -0.000   87.853    0.211    0.535    4.311
  349.840   -0.000   87.510    0.222    0.525    4.292
  350.090   -0.000   90.431    0.236    0.508    4.497
  350.340    0.000   95.562    0.218    0.488    4.860
  350.590    0.000   95.676    0.211    0.488    5.218
  350.840    0.000   98.152    0.237    0.498    5.604
  351.090   -0.000  100.212    0.212    0.505    5.445
  351.340   -0.000  100.096    0.200    0.530    5.036
  351.590    0.000  100.357    0.210    0.553    4.662
  351.840    0.000  100.763    0.218    0.571    4.092
  352.090    0.000   98.117    0.227    0.591    3.429
  352.340   -0.000  100.242    0.217    0.602    3.057
  352.590   -0.000  101.248    0.206    0.578    2.755
  352.840   -0.000   98.328    0.211    0.562    2.611
  353.090    0.000  100.580    0.230    0.564    2.535
