~VERSION INFORMATION
 VERS.                 2.0:   CWLS LOG ASCII STANDARD -VERSION 2.0
 WRAP.                  NO:   ONE LINE PER DEPTH STEP
~WELL INFORMATION BLOCK
#MNEM.UNIT           DATA                    DESCRIPTION OF MNEMONIC
#---------    -------------------            -------------------------------
# Generated from Intellog Unique Number	CS_73_76/WELL/2180
WELL.         WAINOCO OIL AND GAS COMPAN     : Well_name    - WELL
LOC .         00/07-34-074-12W4/0            : Location     - LOCATION
UWI .         00/07-34-074-12W4/0            : Uwi          - UNIQUE WELL ID
ENTR.         SP                             : Entered      - ENTERED BY
SRVC.         SCHLUMBERGER                   : Scn          - SERVICE COMPANY
STRT.M        290                            : top_depth    - START DEPTH
STOP.M        520                            : bot_depth    - STOP DEPTH
STEP.M        0.25                           : increment    - STEP LENGTH
 NULL. -999.2500:NULL Value
~CURVE INFORMATION BLOCK
#MNEM UNIT       ERCB CURVE CODE    CURVE DESCRIPTION
#-----------   ------------------   ----------------------------------
DEPT.M        00 001 00 00         : DEPTH        - DEPTH
ILD .OHMM     00 120 00 00         : RESD         - DEEP RESISTIVITY (DIL)
DPHI.V/V      00 890 00 00         : PHID         - DENSITY POROSITY (LIMESTONE)
NPHI.V/V      00 330 00 00         : PHIN         - NEUTRON POROSITY (LIMESTONE)
GR  .API      00 310 00 00         : GR           - GAMMA RAY
~PARAMETER INFORMATION
#MNEM.UNIT           DATA             DESCRIPTION OF MNEMONIC
#---------         -----------     ------------------------------
GL  .M        661.49               : gl           - GROUND LEVEL ELEVATION
EREF.M        664.75               : kb           - ELEVATION OF DEPTH REFERENCE
DATM.M        661.49               : datum        - DATUM ELEVATION
TDD .M        530                  : tdd          - TOTAL DEPTH DRILLER
RUN .         ONE                  : Run          - RUN NUMBER
ENG .         BILL                 : Engineer     - RECORDING ENGINEER
WIT .         JIM                  : Witness      - WITNESSED BY
MUD .         GEL                  : Mud_type     - MUD TYPE
MATR.         LIMESTONE            : Logunit      - NEUTRON MATRIX
TMAX.C        22                   : BHT          - MAXIMUM RECORDED TEMPERATURE
BHTD.M        530                  : BHTDEP       - MAXIMUM RECORDED TEMPERATURE
MATR.         1                    : LOGUNIT      - NEUTRON MATRIX
RMT .C        25                   : MDTP         - TEMPERATURE OF MUD
NEUT.         1                    : NEUTRON      - NEUTRON TYPE
RESI.         0                    : RESIST       - RESISTIVITY TYPE
RMC .OHMM     0.25                 : RMC          - RESISTIVITY OF MUD CAKE
RMF .OHMM     0.25                 : RMF          - RESISTIVITY OF MUD FILTRATE
SUFT.C        15                   : SUFT         - SURFACE TEMPERATURE
~A  DEPTH     RESD     PHID     PHIN       GR
# ...
  377.000    3.859    0.251    0.489  104.396
  377.250    3.648    0.257    0.497  107.453
  377.500    3.650    0.249    0.488  106.836
  377.750    4.092    0.259    0.479  103.159
  378.000    4.586    0.270    0.475  100.094
  378.250    5.338    0.284    0.477   97.640
  378.500    6.333    0.302    0.463   92.126
  378.750    7.372    0.304    0.439   87.836
  379.000    8.582    0.306    0.396   83.546
  379.250    9.439    0.306    0.361   82.317
  379.500    9.998    0.293    0.355   83.535
  379.750   10.194    0.298    0.360   83.532
  380.000   10.198    0.302    0.397   81.692
  380.250   10.206    0.304    0.428   79.238
  380.500   10.211    0.306    0.455   79.847
  380.750   10.025    0.310    0.438   80.453
  381.000   10.031    0.300    0.413   80.450
  381.250   10.036    0.294    0.401   79.220
  381.500    9.855    0.296    0.397   78.605
  381.750    9.861    0.299    0.391   76.763
  382.000    9.679    0.294    0.401   79.820
  382.250    9.685    0.296    0.406   82.877
  382.500    9.690    0.299    0.406   87.157
  382.750    9.696    0.307    0.419   85.930
  383.000    9.887    0.319    0.412   87.150
  383.250    9.892    0.328    0.416   90.818
  383.500    9.898    0.317    0.402   93.263
  383.750    9.720    0.316    0.401   95.708
  384.000    9.541    0.300    0.406   95.091
  384.250    8.522    0.294    0.422   95.086
  384.500    7.328    0.282    0.440   96.307
  384.750    5.417    0.271    0.450  103.034
  385.000    3.929    0.273    0.472  105.481
  385.250    3.253    0.282    0.481  108.538
  385.500    2.798    0.295    0.499  110.983
  385.750    2.747    0.316    0.515  111.590
  386.000    3.260    0.317    0.509  106.689
  386.250    3.584    0.317    0.460   97.501
  386.500    4.417    0.321    0.443   91.987
  386.750    5.340    0.315    0.429   89.533
  387.000    6.833    0.313    0.422   91.365
  387.250    7.658    0.299    0.426   93.197
  387.500    7.662    0.293    0.434   93.806
  387.750    7.523    0.290    0.443   93.801
  388.000    7.387    0.286    0.452   93.183
  388.250    7.116    0.281    0.456   92.568
  388.500    6.856    0.278    0.450   91.950
  388.750    6.731    0.268    0.445   92.559
  389.000    6.864    0.268    0.438   95.004
  389.250    7.133    0.282    0.429   97.448
  389.500    7.411    0.289    0.428   98.055
  389.750    7.851    0.284    0.433   97.440
  390.000    8.005    0.289    0.431   94.986
  390.250    8.162    0.283    0.433   91.920
  390.500    8.322    0.273    0.432   89.467
  390.750    8.170    0.268    0.426   90.076
  391.000    7.871    0.246    0.428   91.296
  391.250    8.026    0.213    0.427   90.678
  391.500    8.500    0.180    0.403   90.062
  391.750    9.529    0.099    0.368   85.772
  392.000   10.089    0.057    0.283   77.196
  392.250   11.312    0.032    0.246   70.457
  392.500   11.754    0.034    0.235   68.005
  392.750   12.211    0.089    0.217   64.939
  393.000   11.544    0.147    0.229   71.055
  393.250    9.927    0.173    0.272   75.950
  393.500    8.702    0.201    0.331   83.291
  393.750    7.922    0.217    0.382   85.738
  394.000    7.631    0.239    0.406   89.406
  394.250    7.351    0.245    0.422   90.627
  394.500    7.356    0.245    0.419   89.397
  394.750    7.359    0.255    0.412   87.556
  395.000    7.650    0.259    0.405   88.165
  395.250    7.800    0.249    0.403   88.159
  395.500    7.803    0.244    0.400   89.991
  395.750    7.957    0.259    0.400   93.659
  396.000    7.960    0.259    0.406   96.104
  396.250    7.965    0.258    0.411   96.714
  396.500    7.820    0.259    0.427   97.934
  396.750    7.678    0.266    0.433   97.317
  397.000    7.397    0.264    0.446   96.699
  397.250    7.127    0.265    0.448   96.083
  397.500    7.130    0.272    0.446   95.467
  397.750    7.133    0.277    0.443   95.464
  398.000    7.139    0.277    0.441   95.458
  398.250    7.279    0.270    0.438   95.454
  398.500    7.283    0.264    0.436   96.675
  398.750    7.288    0.258    0.435   98.507
  399.000    7.290    0.250    0.435  100.339
  399.250    7.025    0.249    0.430   99.111
  399.500    7.028    0.255    0.426   97.268
  399.750    6.900    0.258    0.441   96.039
  400.000    6.774    0.250    0.446   94.811
  400.250    6.779    0.260    0.448   96.644
  400.500    6.783    0.274    0.446   97.864
  400.750    6.786    0.286    0.446   95.410
  401.000    6.663    0.293    0.442   94.182
  401.250    6.542    0.297    0.440   92.341
  401.500    6.546    0.301    0.448   89.888
  401.750    6.549    0.291    0.450   88.659
  402.000    6.552    0.262    0.451   92.939
  402.250    6.556    0.254    0.451   97.219
  402.500    6.687    0.248    0.452   99.052
  402.750    6.690    0.257    0.451  100.273
  403.000    6.821    0.260    0.448  100.882
  403.250    6.824    0.265    0.447  101.490
  403.500    6.829    0.270    0.448  101.483
  403.750    6.832    0.281    0.456  101.480
  404.000    6.710    0.263    0.458  101.476
  404.250    6.713    0.254    0.463  101.471
  404.500    6.716    0.257    0.455  102.080
  404.750    6.848    0.260    0.449  101.462
  405.000    6.983    0.258    0.435  102.072
  405.250    7.121    0.254    0.430   98.393
  405.500    7.124    0.263    0.422   97.165
  405.750    7.263    0.259    0.418   96.548
  406.000    7.268    0.252    0.417   96.544
  406.250    6.870    0.248    0.423   97.150
  406.500    6.254    0.247    0.429   98.371
  406.750    5.082    0.262    0.442   98.980
  407.000    4.453    0.279    0.468   98.361
  407.250    3.550    0.299    0.474   98.970
  407.500    2.996    0.308    0.489  100.803
  407.750    2.727    0.317    0.503  102.634
  408.000    2.437    0.325    0.514  104.466
  408.250    2.392    0.312    0.521  106.299
  408.500    2.348    0.285    0.526  108.132
  408.750    2.683    0.267    0.515  108.741
  409.000    2.895    0.261    0.497  108.122
  409.250    3.435    0.257    0.488  107.505
  409.500    3.850    0.264    0.468  107.501
  409.750    4.234    0.269    0.452  108.110
  410.000    5.217    0.269    0.438  108.718
  410.250    5.737    0.266    0.424  106.876
  410.500    6.310    0.262    0.413  105.648
  410.750    6.558    0.256    0.409  104.419
  411.000    6.687    0.252    0.409  102.578
  411.250    6.818    0.246    0.407   97.675
  411.500    6.825    0.258    0.406   92.162
  411.750    6.700    0.279    0.402   83.587
  412.000    6.578    0.293    0.397   76.235
  412.250    6.581    0.293    0.394   73.170
  412.500    6.583    0.309    0.391   73.165
  412.750    6.464    0.317    0.390   72.549
  413.000    6.347    0.325    0.389   70.094
  413.250    6.232    0.333    0.386   69.479
  413.500    6.234    0.333    0.384   67.638
  413.750    6.120    0.339    0.386   65.797
  414.000    6.126    0.333    0.392   65.792
  414.250    6.128    0.330    0.395   67.624
  414.500    6.131    0.321    0.401   68.846
  414.750    6.252    0.317    0.402   71.289
  415.000    6.257    0.309    0.400   73.122
  415.250    6.259    0.304    0.395   74.342
  415.500    6.262    0.300    0.391   71.887
  415.750    6.267    0.306    0.392   71.884
  416.000    6.269    0.306    0.392   71.267
  416.250    6.274    0.310    0.395   71.874
  416.500    6.276    0.331    0.400   72.483
  416.750    6.280    0.338    0.396   72.480
  417.000    6.166    0.346    0.415   72.475
  417.250    6.170    0.346    0.417   74.307
  417.500    6.172    0.351    0.418   76.138
  417.750    6.177    0.346    0.413   77.360
  418.000    6.180    0.345    0.406   79.804
  418.250    6.183    0.348    0.401   81.636
  418.500    6.187    0.348    0.399   83.467
  418.750    6.189    0.347    0.400   85.299
  419.000    6.079    0.337    0.404   85.297
  419.250    6.082    0.316    0.404   86.516
  419.500    6.085    0.294    0.402   86.512
  419.750    5.974    0.286    0.401   85.283
  420.000    5.755    0.281    0.401   86.503
  420.250    5.440    0.277    0.402   87.112
