~VERSION INFORMATION
 VERS.                 2.0:   CWLS LOG ASCII STANDARD -VERSION 2.0
 WRAP.                  NO:   ONE LINE PER DEPTH STEP
~WELL INFORMATION BLOCK
#MNEM.UNIT           DATA                    DESCRIPTION OF MNEMONIC
#---------    -------------------            -------------------------------
# Generated from Intellog Unique Number	CX_WELLS/WELL/2849
WELL.         CMME THORNBURY                 : Well_name    - WELL
LOC .         00/09-14-081-14W4/0            : Location     - LOCATION
UWI .         00/09-14-081-14W400            : Uwi          - UNIQUE WELL ID
ENTR.         T                              : Entered      - ENTERED BY
SRVC.         SCHLUMBERGER                   : Scn          - SERVICE COMPANY
STRT.M        215                            : top_depth    - START DEPTH
STOP.M        425                            : bot_depth    - STOP DEPTH
STEP.M        0.25                           : increment    - STEP LENGTH
 NULL. -999.2500:NULL Value
~CURVE INFORMATION BLOCK
#MNEM UNIT       ERCB CURVE CODE    CURVE DESCRIPTION
#-----------   ------------------   ----------------------------------
DEPT.M        00 001 00 00         : DEPTH        - DEPTH
GR  .API      00 310 00 00         : GR           - GAMMA RAY
NPHI.V/V      00 330 00 00         : PHIN         - NEUTRON POROSITY (SANDSTONE)
DPHI.V/V      00 890 00 00         : PHID         - DENSITY POROSITY (SANDSTONE)
ILD .OHMM     00 120 00 00         : RESD         - DEEP RESISTIVITY (OTHER)
~PARAMETER INFORMATION
#MNEM.UNIT           DATA             DESCRIPTION OF MNEMONIC
#---------         -----------     ------------------------------
GL  .M        643.4                : gl           - GROUND LEVEL ELEVATION
EREF.M        647.8                : kb           - ELEVATION OF DEPTH REFERENCE
DATM.M        647.8                : datum        - DATUM ELEVATION
TDD .M        432                  : tdd          - TOTAL DEPTH DRILLER
RUN .         ONE                  : Run          - RUN NUMBER
ENG .         BILL                 : Engineer     - RECORDING ENGINEER
WIT .         JIM                  : Witness      - WITNESSED BY
MUD .         GEL                  : Mud_type     - MUD TYPE
MATR.         SANDSTONE            : Logunit      - NEUTRON MATRIX
TMAX.C        20                   : BHT          - MAXIMUM RECORDED TEMPERATURE
BHTD.M        432                  : BHTDEP       - MAXIMUM RECORDED TEMPERATURE
MATR.         1                    : LOGUNIT      - NEUTRON MATRIX
RMT .C        17                   : MDTP         - TEMPERATURE OF MUD
NEUT.         1                    : NEUTRON      - NEUTRON TYPE
RESI.         8.6                  : RESIST       - RESISTIVITY TYPE
RMC .OHMM     7.8                  : RMC          - RESISTIVITY OF MUD CAKE
RMF .OHMM     7.8                  : RMF          - RESISTIVITY OF MUD FILTRATE
SUFT.C        4                    : SUFT         - SURFACE TEMPERATURE
~A  DEPTH       GR     PHIN     PHID     RESD
# ...
  389.000   83.271    0.401    0.246    8.015
  389.250   86.338    0.407    0.243    7.423
  389.500   83.913    0.415    0.241    7.144
  389.750   82.098    0.423    0.240    7.422
  390.000   79.063    0.427    0.241    8.011
  390.250   75.414    0.401    0.243    8.165
  390.500   71.160    0.396    0.248    8.647
  390.750   69.348    0.388    0.248    9.334
  391.000   69.362    0.382    0.242    8.811
  391.250   71.816    0.376    0.236    8.480
  391.500   73.659    0.372    0.232    8.161
  391.750   73.674    0.367    0.233    7.853
  392.000   69.422    0.367    0.228    8.158
  392.250   65.168    0.365    0.227    9.151
  392.500   58.471    0.353    0.236   10.461
  392.750   48.727    0.338    0.249   11.293
  393.000   52.401    0.327    0.258   12.911
  393.250   62.782    0.326    0.246   15.046
  393.500   68.897    0.332    0.234   16.241
  393.750   76.233    0.339    0.227   15.629
  394.000   83.561    0.361    0.222   14.755
  394.250   92.723    0.368    0.219   14.199
  394.500  102.494    0.382    0.217   13.664
  394.750  109.826    0.397    0.226   12.900
  395.000  109.847    0.418    0.249   13.925
  395.250  106.199    0.418    0.256   15.920
  395.500  101.335    0.413    0.261   23.344
  395.750   87.933    0.388    0.268   26.687
  396.000   80.629    0.386    0.274   30.512
  396.250   72.716    0.382    0.272   34.882
  396.500   72.730    0.379    0.271   33.568
  396.750   76.403    0.376    0.267   31.089
  397.000   80.689    0.364    0.264   29.351
  397.250   83.143    0.358    0.258   26.668
  397.500   83.157    0.349    0.249   25.178
  397.750   83.171    0.342    0.235   22.016
  398.000   79.526    0.340    0.230   21.598
  398.250   75.275    0.342    0.235   21.186
  398.500   71.630    0.347    0.244   23.761
  398.750   69.205    0.355    0.253   26.145
  399.000   69.829    0.369    0.270   29.891
  399.250   72.279    0.375    0.282   35.507
  399.500   75.952    0.373    0.297   38.328
  399.750   79.625    0.369    0.287   34.825
  400.000   82.689    0.369    0.275   31.643
  400.250   85.752    0.372    0.258   29.307
  400.500   85.766    0.368    0.242   26.629
  400.750   83.344    0.357    0.234   23.285
  401.000   86.411    0.342    0.230   21.984
  401.250   91.300    0.347    0.225   19.974
  401.500   95.583    0.349    0.218   19.222
  401.750   95.601    0.353    0.216   18.146
  402.000   94.392    0.359    0.221   17.463
  402.250   93.796    0.359    0.226   16.806
  402.500   96.250    0.356    0.226   16.172
  402.750   96.874    0.354    0.225   15.563
  403.000   93.233    0.354    0.224   14.692
  403.250   88.981    0.356    0.224   14.413
  403.500   88.996    0.359    0.226   13.348
  403.750   92.055    0.363    0.229   12.845
  404.000   95.728    0.376    0.233   12.127
  404.250  101.231    0.391    0.236   11.896
  404.500  104.294    0.388    0.239   11.230
  404.750   98.823    0.386    0.240   10.602
  405.000   97.615    0.384    0.241   10.400
  405.250   99.458    0.379    0.239   10.008
  405.500  102.525    0.380    0.234    9.631
  405.750  104.978    0.388    0.229    9.447
  406.000  106.822    0.398    0.229    9.267
  406.250  105.010    0.401    0.229    9.091
  406.500  103.801    0.398    0.227    8.917
  406.750  103.205    0.389    0.222    8.916
  407.000  104.443    0.387    0.226    8.915
  407.250  105.067    0.390    0.227    8.914
  407.500  105.077    0.396    0.227    8.913
  407.750  104.482    0.404    0.232    9.084
  408.000  101.450    0.406    0.235    9.258
  408.250   97.203    0.391    0.242    9.619
  408.500   95.384    0.382    0.247    9.993
  408.750   93.565    0.386    0.252   10.787
  409.000   89.920    0.392    0.254   11.645
  409.250   86.276    0.402    0.249   12.813
  409.500   83.241    0.414    0.245   14.931
  409.750   78.380    0.405    0.242   16.746
  410.000   75.341    0.389    0.216   18.782
  410.250   72.916    0.394    0.206   20.275
  410.500   70.491    0.405    0.235   22.739
  410.750   70.509    0.409    0.258   24.081
  411.000   72.959    0.396    0.272   24.544
  411.250   75.416    0.387    0.286   25.499
  411.500   78.479    0.381    0.297   26.490
  411.750   81.546    0.383    0.278   27.000
  412.000   82.776    0.392    0.273   27.519
  412.250   83.403    0.397    0.283   29.141
  412.500   80.978    0.400    0.295   29.701
  412.750   78.553    0.400    0.305   30.271
  413.000   76.125    0.396    0.303   30.268
  413.250   73.703    0.386    0.297   30.263
  413.500   73.104    0.380    0.295   30.262
  413.750   71.902    0.383    0.292   30.258
  414.000   70.700    0.386    0.292   30.255
  414.250   68.888    0.390    0.292   29.677
  414.500   67.676    0.391    0.294   29.674
  414.750   65.871    0.391    0.298   28.013
  415.000   64.662    0.391    0.306   26.958
  415.250   63.449    0.391    0.312   25.452
  415.500   61.024    0.391    0.317   22.686
  415.750   57.380    0.383    0.319   21.418
  416.000   56.174    0.376    0.317   18.729
  416.250   64.116    0.377    0.277   17.347
  416.500   72.058    0.379    0.216   15.170
  416.750   83.052    0.383    0.216   13.522
  417.000   90.388    0.392    0.213   11.825
  417.250   93.447    0.404    0.208   10.952
  417.500   96.510    0.406    0.209   10.950
  417.750   93.476    0.401    0.214   11.596
  418.000   88.611    0.397    0.221   12.280
  418.250   86.190    0.384    0.227   13.256
  418.500   86.204    0.374    0.230   13.771
  418.750   90.487    0.373    0.220   13.770
  419.000   95.989    0.371    0.198   13.507
  419.250  100.272    0.363    0.194   13.250
  419.500  103.335    0.354    0.189   12.751
  419.750  102.130    0.352    0.172   12.749
  420.000   96.046    0.352    0.168   12.748
  420.250   90.572    0.353    0.194   12.992
  420.500   88.760    0.354    0.203   12.991
  420.750   90.600    0.357    0.205   13.757
  421.000   93.057    0.359    0.207   14.293
  421.250   91.848    0.369    0.217   15.726
  421.500   86.381    0.367    0.228   17.304
  421.750   82.736    0.359    0.238   18.679
  422.000   79.088    0.352    0.252   21.768
  422.250   76.663    0.348    0.255   24.887
  422.500   74.847    0.345    0.254   28.451
  422.750   74.861    0.345    0.244   27.379
  423.000   76.095    0.345    0.229   24.406
  423.250   80.992    0.345    0.218   20.541
  423.500   85.881    0.346    0.190   17.622
  423.750   91.993    0.349    0.155   15.411
  424.000   98.719    0.350    0.134   14.002
  424.250  101.172    0.351    0.126   13.474
  424.500  101.796    0.354    0.125   14.269
  424.750  101.814    0.355    0.134   16.004
  425.000  101.828    0.356    0.149   17.276
