~VERSION INFORMATION
 VERS.                 2.0:   CWLS LOG ASCII STANDARD -VERSION 2.0
 WRAP.                  NO:   ONE LINE PER DEPTH STEP
~WELL INFORMATION BLOCK
#MNEM.UNIT           DATA                    DESCRIPTION OF MNEMONIC
#---------    -------------------            -------------------------------
# Generated from Intellog Unique Number	CS_67_68/WELL/768
WELL.         FISHER CREEK                   : Well_name    - WELL
LOC .         00/07-01-068-06W4/0            : Location     - LOCATION
UWI .         00/07-01-068-06W4/0            : Uwi          - UNIQUE WELL ID
ENTR.         SP                             : Entered      - ENTERED BY
SRVC.         SCHLUMBERGER                   : Scn          - SERVICE COMPANY
STRT.M        335                            : top_depth    - START DEPTH
STOP.M        550                            : bot_depth    - STOP DEPTH
STEP.M        0.25                           : increment    - STEP LENGTH
 NULL. -999.2500:NULL Value
~CURVE INFORMATION BLOCK
#MNEM UNIT       ERCB CURVE CODE    CURVE DESCRIPTION
#-----------   ------------------   ----------------------------------
DEPT.M        00 001 00 00         : DEPTH        - DEPTH
ILD .OHMM     00 120 00 00         : RESD         - DEEP RESISTIVITY (DIL)
DPHI.V/V      00 890 00 00         : PHID         - DENSITY POROSITY (LIMESTONE)
NPHI.V/V      00 330 00 00         : PHIN         - NEUTRON POROSITY (LIMESTONE)
GR  .API      00 310 00 00         : GR           - GAMMA RAY
~PARAMETER INFORMATION
#MNEM.UNIT           DATA             DESCRIPTION OF MNEMONIC
#---------         -----------     ------------------------------
GL  .M        672.57               : gl           - GROUND LEVEL ELEVATION
EREF.M        675.6                : kb           - ELEVATION OF DEPTH REFERENCE
DATM.M        672.57               : datum        - DATUM ELEVATION
TDD .M        554                  : tdd          - TOTAL DEPTH DRILLER
RUN .         ONE                  : Run          - RUN NUMBER
ENG .         BILL                 : Engineer     - RECORDING ENGINEER
WIT .         JIM                  : Witness      - WITNESSED BY
MUD .         GEL                  : Mud_type     - MUD TYPE
MATR.         LIMESTONE            : Logunit      - NEUTRON MATRIX
TMAX.C        20                   : BHT          - MAXIMUM RECORDED TEMPERATURE
BHTD.M        554                  : BHTDEP       - MAXIMUM RECORDED TEMPERATURE
MATR.         1                    : LOGUNIT      - NEUTRON MATRIX
RMT .C        25                   : MDTP         - TEMPERATURE OF MUD
NEUT.         1                    : NEUTRON      - NEUTRON TYPE
RESI.         0                    : RESIST       - RESISTIVITY TYPE
RMC .OHMM     0.25                 : RMC          - RESISTIVITY OF MUD CAKE
RMF .OHMM     0.25                 : RMF          - RESISTIVITY OF MUD FILTRATE
SUFT.C        15                   : SUFT         - SURFACE TEMPERATURE
~A  DEPTH     RESD     PHID     PHIN       GR
# ...
  422.000    4.996    0.347    0.476   67.455
  422.250    4.906    0.343    0.473   66.640
  422.500    4.863    0.340    0.473   65.700
  422.750    4.903    0.339    0.492   64.759
  423.000    4.952    0.348    0.505   64.572
  423.250    4.992    0.344    0.485   67.835
  423.500    5.005    0.336    0.485   69.717
  423.750    5.017    0.330    0.496   71.662
  424.000    5.030    0.337    0.500   72.541
  424.250    5.024    0.342    0.493   72.981
  424.500    5.018    0.333    0.496   73.797
  424.750    5.019    0.325    0.500   74.802
  425.000    5.023    0.316    0.481   75.680
  425.250    5.035    0.309    0.467   76.748
  425.500    5.105    0.303    0.458   79.069
  425.750    5.254    0.299    0.474   78.066
  426.000    5.450    0.298    0.487   80.137
  426.250    5.494    0.292    0.478   77.126
  426.500    5.425    0.290    0.488   74.868
  426.750    5.367    0.300    0.495   77.629
  427.000    5.320    0.296    0.480   80.767
  427.250    5.294    0.277    0.474   82.524
  427.500    5.296    0.262    0.483   84.156
  427.750    5.370    0.249    0.496   86.979
  428.000    5.444    0.242    0.500   88.925
  428.250    5.573    0.246    0.477   89.929
  428.500    5.650    0.256    0.465   90.118
  428.750    5.707    0.260    0.458   90.432
  429.000    5.742    0.257    0.475   90.683
  429.250    5.823    0.256    0.491   89.555
  429.500    5.870    0.247    0.500   89.555
  429.750    5.907    0.234    0.498   91.752
  430.000    5.933    0.234    0.507   93.760
  430.250    5.969    0.243    0.514   93.196
  430.500    6.007    0.235    0.495   92.444
  430.750    6.045    0.220    0.486   91.315
  431.000    5.946    0.205    0.477   90.374
  431.250    5.233    0.196    0.497   89.810
  431.500    4.222    0.243    0.520   90.689
  431.750    3.708    0.253    0.507   89.373
  432.000    4.047    0.247    0.505   87.428
  432.250    4.213    0.278    0.525   88.683
  432.500    4.386    0.300    0.538   94.707
  432.750    4.356    0.271    0.537  100.918
  433.000    4.126    0.245    0.559  104.055
  433.250    3.930    0.257    0.583  100.104
  433.500    3.889    0.284    0.611   94.835
  433.750    3.913    0.302    0.484   91.385
  434.000    3.991    0.273    0.464   87.998
  434.250    4.107    0.252    0.452   82.540
  434.500    4.219    0.264    0.454   76.894
  434.750    4.376    0.280    0.463   72.692
  435.000    4.548    0.287    0.454   77.962
  435.250    4.636    0.278    0.440   78.966
  435.500    4.648    0.267    0.462   76.771
  435.750    4.651    0.250    0.474   83.924
  436.000    4.558    0.229    0.466   89.069
  436.250    4.442    0.269    0.497   92.520
  436.500    4.271    0.315    0.560   88.505
  436.750    4.031    0.341    0.571   82.232
  437.000    3.920    0.324    0.557   78.594
  437.250    4.059    0.325    0.537   77.905
  437.500    4.340    0.330    0.515   80.038
  437.750    4.543    0.322    0.501   81.796
  438.000    4.747    0.306    0.485   82.800
  438.250    5.037    0.297    0.476   78.472
  438.500    5.213    0.290    0.474   72.136
  438.750    5.469    0.294    0.482   67.557
  439.000    5.576    0.318    0.489   64.922
  439.250    5.664    0.332    0.479   63.167
  439.500    5.743    0.343    0.481   63.355
  439.750    5.735    0.350    0.490   61.035
  440.000    5.663    0.351    0.497   58.840
  440.250    5.519    0.346    0.512   59.718
  440.500    5.419    0.339    0.503   61.727
  440.750    5.422    0.334    0.512   61.978
  441.000    5.425    0.338    0.514   59.469
  441.250    5.429    0.341    0.502   59.031
  441.500    5.453    0.342    0.489   61.164
  441.750    5.487    0.343    0.479   62.482
  442.000    5.480    0.348    0.476   62.608
  442.250    5.482    0.350    0.477   61.542
  442.500    5.507    0.348    0.473   59.912
  442.750    5.584    0.342    0.479   59.913
  443.000    5.683    0.341    0.488   61.356
  443.250    5.794    0.326    0.493   62.109
  443.500    5.952    0.311    0.453   61.984
  443.750    6.208    0.299    0.415   61.734
  444.000    6.378    0.325    0.431   61.609
  444.250    6.480    0.343    0.450   62.488
  444.500    6.495    0.347    0.465   64.433
  444.750    6.317    0.334    0.474   66.316
  445.000    5.622    0.327    0.476   67.697
  445.250    4.995    0.324    0.495   64.247
  445.500    4.989    0.326    0.466   64.938
  445.750    5.303    0.327    0.451   67.887
  446.000    5.531    0.328    0.455   69.330
  446.250    5.725    0.330    0.461   66.445
  446.500    5.871    0.330    0.466   64.187
  446.750    5.819    0.317    0.476   65.819
  447.000    5.618    0.325    0.482   69.019
  447.250    5.505    0.333    0.485   71.654
  447.500    5.354    0.341    0.494   72.784
  447.750    5.227    0.346    0.495   69.899
  448.000    5.113    0.342    0.486   65.508
  448.250    5.049    0.329    0.486   66.701
  448.500    5.004    0.337    0.490   68.395
  448.750    4.942    0.340    0.491   69.650
  449.000    4.926    0.336    0.463   71.094
  449.250    4.929    0.329    0.469   71.346
  449.500    4.932    0.329    0.477   68.711
  449.750    4.925    0.334    0.487   66.704
  450.000    4.910    0.338    0.492   65.889
  450.250    4.884    0.320    0.493   64.008
  450.500    4.879    0.315    0.494   62.064
  450.750    4.881    0.328    0.503   64.762
  451.000    4.932    0.339    0.510   67.523
  451.250    5.010    0.343    0.499   68.903
  451.500    5.040    0.339    0.474   67.712
  451.750    5.100    0.332    0.480   69.846
  452.000    5.161    0.322    0.493   73.234
  452.250    5.204    0.317    0.500   76.183
  452.500    5.246    0.319    0.491   77.627
  452.750    5.249    0.315    0.480   77.941
  453.000    5.292    0.305    0.494   77.691
  453.250    5.325    0.301    0.489   81.016
  453.500    5.399    0.291    0.467   85.784
  453.750    5.454    0.280    0.453   89.675
  454.000    5.345    0.269    0.467   90.867
  454.250    5.082    0.260    0.478   91.181
  454.500    4.896    0.252    0.473   92.688
  454.750    4.700    0.246    0.466   95.762
  455.000    4.402    0.243    0.462   98.586
  455.250    3.737    0.227    0.487  101.535
  455.500    3.221    0.226    0.567  101.410
  455.750    2.905    0.250    0.568   99.466
  456.000    2.596    0.268    0.547   95.514
  456.250    2.445    0.283    0.573   92.127
  456.500    2.329    0.292    0.589   86.607
  456.750    2.274    0.286    0.555   86.231
  457.000    2.249    0.286    0.534   87.047
  457.250    2.251    0.303    0.560   88.554
  457.500    2.278    0.307    0.591   90.562
  457.750    2.327    0.298    0.612   95.205
  458.000    2.391    0.296    0.606   96.774
  458.250    2.466    0.279    0.558   95.708
  458.500    2.552    0.271    0.551   95.144
  458.750    2.687    0.273    0.563   92.321
  459.000    2.983    0.287    0.569   87.052
  459.250    3.445    0.308    0.499   79.775
  459.500    4.211    0.337    0.451   72.185
  459.750    6.990    0.358    0.431   69.739
  460.000    9.409    0.349    0.415   70.116
  460.250   10.365    0.339    0.434   69.489
  460.500   10.509    0.329    0.454   66.541
  460.750   10.358    0.324    0.468   64.409
  461.000   10.424    0.326    0.483   65.350
  461.250   10.651    0.329    0.481   67.107
  461.500   10.756    0.321    0.485   68.425
  461.750   11.073    0.315    0.502   70.433
  462.000   11.119    0.310    0.511   72.065
  462.250   10.815    0.312    0.503   71.940
  462.500   10.015    0.314    0.495   69.996
  462.750    9.016    0.315    0.485   69.432
  463.000    8.428    0.308    0.475   71.126
  463.250    8.028    0.296    0.492   72.821
  463.500    7.605    0.284    0.504   72.822
  463.750    7.204    0.295    0.499   72.446
  464.000    6.850    0.302    0.492   72.760
  464.250    6.587    0.301    0.486   73.953
  464.500    6.359    0.295    0.482   77.906
  464.750    6.185    0.292    0.495   80.855
  465.000    6.007    0.288    0.504   78.220
  465.250    5.941    0.289    0.496   76.276
