~VERSION INFORMATION
 VERS.                 2.0:   CWLS LOG ASCII STANDARD -VERSION 2.0
 WRAP.                  NO:   ONE LINE PER DEPTH STEP
~WELL INFORMATION BLOCK
#MNEM.UNIT           DATA                    DESCRIPTION OF MNEMONIC
#---------    -------------------            -------------------------------
# Generated from Intellog Unique Number	CW_70_72/WELL/3016
NULL.         -999.25                        : NULL_VALUE
WELL.         GULF CHISHOLM 07-10            : Well_name    - WELL              
LOC .         07-10-070-26W4                 : Location     - LOCATION          
UWI .         00/07-10-070-26W4/0            : Uwi          - UNIQUE WELL ID    
ENTR.         J                              : Entered      - ENTERED BY        
SRVC.         SCHLUMBERGER                   : Scn          - SERVICE COMPANY   
DATE.         12 MAR 77                      : Date         - LOG DATE          
STRT.M        463.296                        : top_depth    - START DEPTH       
STOP.M        701.046                        : bot_depth    - STOP DEPTH        
STEP.M        0.25                           : increment    - STEP LENGTH       
~CURVE INFORMATION BLOCK
#MNEM UNIT       ERCB CURVE CODE    CURVE DESCRIPTION
#-----------   ------------------   ----------------------------------
DEPT.M        00 001 00 00         : DEPTH        - DEPTH                       
ILD .OHMM     00 120 00 00         : RESD         - DEEP RESISTIVITY (DIL)      
CALI.MM       00 280 01 00         : CAL          - CALIPER                     
GR  .API      00 310 00 00         : GR           - GAMMA RAY                   
NPHI.V/V      00 330 00 00         : PHIN         - NEUTRON POROSITY (SANDSTONE)
DPHI.V/V      00 890 00 00         : PHID         - DENSITY POROSITY (SANDSTONE)
~PARAMETER INFORMATION       
#MNEM.UNIT           DATA             DESCRIPTION OF MNEMONIC
#---------         -----------     ------------------------------
GL  .M        638.861              : gl           - GROUND LEVEL ELEVATION      
EREF.M        642.214              : kb           - ELEVATION OF DEPTH REFERENCE
DATM.M        638.861              : datum        - DATUM ELEVATION             
TDD .M        701.345              : tdd          - TOTAL DEPTH DRILLER         
RUN .         ONE                  : Run          - RUN NUMBER                  
ENG .         FIGGURES             : Engineer     - RECORDING ENGINEER          
WIT .         LANE                 : Witness      - WITNESSED BY                
BASE.         EDM                  : Branch       - HOME BASE OF LOGGING UNIT   
MATR.         SANDSTONE            : Logunit      - NEUTRON MATRIX              
TMAX.C        25.5556              : BHT          - MAXIMUM RECORDED TEMPERATURE
BHTD.M        701.345              : BHTDEP       - MAXIMUM RECORDED TEMPERATURE
RMT .C        16.6667              : MDTP         - TEMPERATURE OF MUD          
MUDD.KG/M     1116                 : MWT          - MUD DENSITY                 
NEUT.         1                    : NEUTRON      - NEUTRON TYPE                
RESI.         0                    : RESIST       - RESISTIVITY TYPE            
RM  .OHMM     0.54                 : RM           - RESISTIVITY OF MUD          
RMC .OHMM     0.25                 : RMC          - RESISTIVITY OF MUD CAKE     
RMF .OHMM     0.25                 : RMF          - RESISTIVITY OF MUD FILTRATE 
SUFT.C        -17.7778             : SUFT         - SURFACE TEMPERATURE         
~A  DEPTH     RESD      CAL       GR     PHIN     PHID
# ...
  499.796    2.352  160.693  110.455    0.497    0.189
  500.046    2.480  159.451   97.165    0.486    0.172
  500.296    2.541  156.874   83.088    0.441    0.160
  500.546    2.722  155.015   85.023    0.425    0.169
  500.796    2.816  154.079   85.624    0.449    0.191
  501.046    2.952  153.452   83.677    0.448    0.237
  501.296    2.971  153.342   84.823    0.428    0.252
  501.546    2.968  152.407   87.062    0.410    0.248
  501.796    2.877  152.089   92.091    0.409    0.240
  502.046    2.868  151.462   99.970    0.443    0.220
  502.296    2.819  151.350  104.817    0.473    0.243
  502.546    2.874  151.648  112.029    0.485    0.240
  502.796    3.014  152.666  115.904    0.474    0.239
  503.046    3.037  153.890  117.537    0.459    0.232
  503.296    3.091  156.342  120.200    0.447    0.230
  503.546    3.105  157.874  125.107    0.447    0.211
  503.796    3.033  159.302  137.293    0.441    0.197
  504.046    3.018  160.422  128.917    0.444    0.183
  504.296    2.987  160.825  119.569    0.469    0.177
  504.546    2.969  158.966  113.135    0.500    0.177
  504.796    2.945  156.286  106.761    0.538    0.205
  505.046    2.943  154.939  100.567    0.558    0.243
  505.296    2.984  154.622   95.952    0.529    0.236
  505.546    2.984  155.329   93.521    0.489    0.244
  505.796    2.984  156.143   97.153    0.471    0.253
  506.046    3.124  157.057   99.513    0.465    0.262
  506.296    3.132  156.843  100.175    0.458    0.264
  506.546    3.132  156.421   98.531    0.449    0.228
  506.796    3.132  156.413   98.767    0.438    0.208
  507.046    2.943  156.607  101.976    0.433    0.223
  507.296    2.902  156.085  105.004    0.432    0.234
  507.546    2.863  155.869  106.272    0.437    0.206
  507.796    2.931  155.859  102.808    0.445    0.217
  508.046    3.032  155.849  100.862    0.463    0.234
  508.296    3.119  156.353  102.615    0.464    0.239
  508.546    3.259  157.575  107.038    0.451    0.240
  508.796    3.260  158.696  116.433    0.444    0.252
  509.046    3.222  160.635  117.701    0.465    0.224
  509.296    3.116  161.348  116.482    0.496    0.186
  509.546    3.023  162.364  120.238    0.489    0.181
  509.796    2.897  162.663  122.719    0.479    0.187
  510.046    2.756  161.317  118.042    0.475    0.187
  510.296    2.756  159.868  109.543    0.486    0.185
  510.546    2.663  157.188  103.836    0.504    0.181
  510.796    2.685  154.715   96.189    0.465    0.247
  511.046    2.778  153.884   91.331    0.434    0.236
  511.296    2.778  153.361   95.328    0.429    0.245
  511.546    3.012  153.658   99.021    0.440    0.248
  511.796    3.150  154.058  101.321    0.453    0.255
  512.046    3.296  153.843   98.829    0.447    0.234
  512.296    3.434  153.936  102.705    0.433    0.243
  512.546    3.586  154.132  106.156    0.428    0.236
  512.796    3.751  155.253  108.818    0.432    0.204
  513.046    3.820  158.221  110.390    0.448    0.183
  513.296    3.807  162.218  112.750    0.468    0.179
  513.546    3.662  168.473  114.564    0.474    0.169
  513.796    3.508  175.139  116.136    0.485    0.156
  514.046    3.188  178.106  114.189    0.517    0.176
  514.296    3.003  174.502  103.568    0.541    0.212
  514.546    2.714  166.174   97.254    0.502    0.245
  514.796    2.512  159.385   94.215    0.466    0.264
  515.046    2.376  159.581   93.725    0.456    0.275
  515.296    2.323  162.754   92.203    0.464    0.248
  515.546    2.454  167.982   89.406    0.477    0.247
  515.796    2.504  165.098   89.583    0.458    0.272
  516.046    2.768  156.461   94.126    0.447    0.274
  516.296    3.233  154.602   99.337    0.437    0.240
  516.546    3.288  156.543  106.306    0.440    0.221
  516.796    3.396  158.279  110.910    0.441    0.192
  517.046    3.380  159.397  108.780    0.432    0.177
  517.296    3.293  159.902  103.498    0.439    0.175
  517.546    3.183  160.612   97.427    0.448    0.182
  517.796    3.199  160.500   93.297    0.440    0.209
  518.046    3.185  159.462   90.744    0.420    0.239
  518.296    3.185  157.400  100.140    0.417    0.256
  518.546    2.888  157.286  107.594    0.442    0.238
  518.796    2.725  157.584  107.225    0.469    0.221
  519.046    2.388  158.293  102.184    0.510    0.214
  519.296    2.114  159.209   95.143    0.508    0.225
  519.546    1.873  157.041   83.248    0.483    0.240
  519.796    1.814  152.821   70.445    0.458    0.257
  520.046    1.829  149.831   57.277    0.428    0.285
  520.296    1.878  148.690   49.143    0.412    0.288
  520.546    1.958  148.271   47.863    0.409    0.283
  520.796    2.063  148.262   49.435    0.419    0.283
  521.046    2.175  148.354   52.886    0.421    0.288
  521.296    2.224  148.551   55.610    0.416    0.292
  521.546    2.247  148.746   54.450    0.410    0.289
  521.796    2.214  149.558   54.021    0.406    0.280
  522.046    2.187  149.960   56.139    0.404    0.273
  522.296    2.112  150.155   59.044    0.412    0.270
  522.546    2.068  150.042   59.827    0.413    0.264
  522.796    2.033  150.031   58.608    0.404    0.269
  523.046    1.979  149.918   56.539    0.400    0.263
  523.296    1.942  149.808   55.925    0.399    0.249
  523.546    1.902  149.590   57.376    0.401    0.251
  523.796    1.853  149.479   60.646    0.404    0.263
  524.046    1.821  149.572   62.764    0.408    0.276
  524.296    1.790  149.357   63.061    0.419    0.279
  524.546    1.763  149.347   61.843    0.427    0.288
  524.796    1.745  149.339   60.321    0.438    0.309
  525.046    1.719  149.635   58.980    0.446    0.305
  525.296    1.708  150.139   62.068    0.452    0.281
  525.546    1.697  150.437   58.725    0.457    0.292
  525.796    1.685  150.737   56.234    0.458    0.301
  526.046    1.674  150.726   57.077    0.457    0.295
  526.296    1.667  151.024   62.893    0.448    0.286
  526.546    1.668  151.117   64.707    0.438    0.301
  526.796    1.677  151.209   64.094    0.429    0.315
  527.046    1.699  151.098   61.785    0.420    0.285
  527.296    1.699  151.088   60.080    0.421    0.279
  527.546    1.895  151.490   60.075    0.438    0.278
  527.796    1.981  151.068   61.221    0.438    0.270
  528.046    2.103  151.059   62.550    0.432    0.263
  528.296    2.376  151.050   61.756    0.424    0.257
  528.546    2.404  151.037   58.657    0.406    0.248
  528.796    2.372  151.027   54.466    0.384    0.247
  529.046    2.372  151.635   50.153    0.361    0.222
  529.296    2.124  151.625   51.421    0.332    0.187
  529.546    2.075  151.718   56.268    0.348    0.173
  529.796    1.984  151.606   59.658    0.403    0.239
  530.046    1.897  150.979   53.405    0.428    0.272
  530.296    1.814  150.968   52.490    0.415    0.275
  530.546    1.761  150.549   53.939    0.406    0.245
  530.796    1.731  150.437   57.148    0.410    0.229
  531.046    1.719  150.528   61.328    0.419    0.248
  531.296    1.710  150.520   64.900    0.425    0.266
  531.546    1.712  150.921   67.321    0.426    0.287
  531.796    1.713  150.912   69.923    0.424    0.280
  532.046    1.713  150.697   70.221    0.422    0.278
  532.296    1.749  150.686   71.974    0.426    0.284
  532.546    1.789  150.779   76.700    0.431    0.271
  532.796    1.896  150.871   76.572    0.429    0.288
  533.046    2.076  150.863   74.625    0.427    0.302
  533.296    2.319  150.852   71.162    0.430    0.309
  533.546    2.892  150.841   73.522    0.438    0.306
  533.796    3.431  150.830   76.124    0.424    0.295
  534.046    4.818  151.028   76.422    0.414    0.274
  534.296    5.392  151.019   75.142    0.393    0.248
  534.546    6.035  150.804   70.648    0.377    0.212
  534.796    6.693  152.335   65.305    0.314    0.177
  535.046    7.117  153.763   66.452    0.273    0.146
  535.296    7.377  153.137   67.113    0.279    0.095
  535.546    7.521  152.306   65.105    0.302    0.124
  535.796    6.973  151.679   64.311    0.332    0.152
  536.046    5.793  154.134   65.094    0.275    0.170
