~VERSION INFORMATION
 VERS.                 2.0:   CWLS LOG ASCII STANDARD -VERSION 2.0
 WRAP.                  NO:   ONE LINE PER DEPTH STEP
~WELL INFORMATION BLOCK
#MNEM.UNIT           DATA                    DESCRIPTION OF MNEMONIC
#---------    -------------------            -------------------------------
# Generated from Intellog Unique Number	CS_77_79/WELL/914
WELL.         PCI PCEJ CHARD                 : Well_name    - WELL
LOC .         00/07-32-079-06W4/0            : Location     - LOCATION
UWI .         00/07-32-079-06W4/0            : Uwi          - UNIQUE WELL ID
ENTR.         JHS                            : Entered      - ENTERED BY
SRVC.         SCHLUMBERGER                   : Scn          - SERVICE COMPANY
STRT.M        120                            : top_depth    - START DEPTH
STOP.M        360                            : bot_depth    - STOP DEPTH
STEP.M        0.25                           : increment    - STEP LENGTH
 NULL. -999.2500:NULL Value
~CURVE INFORMATION BLOCK
#MNEM UNIT       ERCB CURVE CODE    CURVE DESCRIPTION
#-----------   ------------------   ----------------------------------
DEPT.M        00 001 00 00         : DEPTH        - DEPTH
DPHI.V/V      00 890 00 00         : PHID         - DENSITY POROSITY (LIMESTONE)
NPHI.V/V      00 330 00 00         : PHIN         - NEUTRON POROSITY (LIMESTONE)
GR  .API      00 310 00 00         : GR           - GAMMA RAY
ILD .OHMM     00 120 00 00         : RESD         - DEEP RESISTIVITY (DIL)
RHOB.KG/M3    00 350 00 00         : DENS         - BULK DENSITY
~PARAMETER INFORMATION
#MNEM.UNIT           DATA             DESCRIPTION OF MNEMONIC
#---------         -----------     ------------------------------
GL  .M        547.4                : gl           - GROUND LEVEL ELEVATION
EREF.M        550.5                : kb           - ELEVATION OF DEPTH REFERENCE
DATM.M        550.5                : datum        - DATUM ELEVATION
TDD .M        365                  : tdd          - TOTAL DEPTH DRILLER
RUN .         ONE                  : Run          - RUN NUMBER
ENG .         BILL                 : Engineer     - RECORDING ENGINEER
WIT .         JIM                  : Witness      - WITNESSED BY
MUD .         GEL                  : Mud_type     - MUD TYPE
MATR.         LIMESTONE            : Logunit      - NEUTRON MATRIX
TMAX.C        20                   : BHT          - MAXIMUM RECORDED TEMPERATURE
BHTD.M        365                  : BHTDEP       - MAXIMUM RECORDED TEMPERATURE
MATR.         1                    : LOGUNIT      - NEUTRON MATRIX
RMT .C        25                   : MDTP         - TEMPERATURE OF MUD
NEUT.         1                    : NEUTRON      - NEUTRON TYPE
RESI.         0                    : RESIST       - RESISTIVITY TYPE
RMC .OHMM     0.25                 : RMC          - RESISTIVITY OF MUD CAKE
RMF .OHMM     0.25                 : RMF          - RESISTIVITY OF MUD FILTRATE
SUFT.C        15                   : SUFT         - SURFACE TEMPERATURE
~A  DEPTH     PHID     PHIN       GR     RESD     DENS
# ...
  193.000    0.358    0.468   61.337   23.591    0.000
  193.250    0.345    0.474   60.147   23.163    0.000
  193.500    0.335    0.467   56.540   22.333    0.000
  193.750    0.326    0.457   57.176   21.530    0.000
  194.000    0.327    0.453   56.596   21.546    0.000
  194.250    0.349    0.485   51.767   21.167    0.000
  194.500    0.364    0.462   52.416   21.181    0.000
  194.750    0.362    0.441   53.650   21.206    0.000
  195.000    0.360    0.431   53.685   21.620    0.000
  195.250    0.361    0.460   52.499   21.635    0.000
  195.500    0.362    0.465   52.530   21.655    0.000
  195.750    0.350    0.439   52.567   22.084    0.000
  196.000    0.344    0.431   51.379   22.526    0.000
  196.250    0.360    0.451   50.200   22.971    0.000
  196.500    0.374    0.455   50.833   22.995    0.000
  196.750    0.364    0.435   49.655   23.453    0.000
  197.000    0.357    0.434   48.465   23.465    0.000
  197.250    0.362    0.458   50.322   23.053    0.000
  197.500    0.362    0.463   52.172   23.065    0.000
  197.750    0.370    0.471   54.028   23.087    0.000
  198.000    0.375    0.469   54.056   22.680    0.000
  198.250    0.358    0.434   51.664   22.706    0.000
  198.500    0.353    0.428   53.516   22.294    0.000
  198.750    0.358    0.432   52.937   22.311    0.000
  199.000    0.369    0.434   51.753   22.331    0.000
  199.250    0.367    0.430   52.999   22.352    0.000
  199.500    0.356    0.433   51.813   22.372    0.000
  199.750    0.356    0.444   46.986   22.392    0.000
  200.000    0.370    0.453   46.410   22.414    0.000
  200.250    0.376    0.466   52.518   22.433    0.000
  200.500    0.371    0.477   51.939   22.452    0.000
  200.750    0.356    0.459   51.970   22.471    0.000
  201.000    0.356    0.456   55.644   22.074    0.000
  201.250    0.362    0.448   55.075   22.087    0.000
  201.500    0.356    0.427   52.679   22.104    0.000
  201.750    0.357    0.428   52.705   22.127    0.000
  202.000    0.358    0.456   51.520   23.426    0.000
  202.250    0.235    0.375   46.691   26.742    0.000
  202.500    0.141    0.240   41.258   28.854    0.000
  202.750    0.062    0.207   39.469   29.423    0.000
  203.000    0.120    0.213   48.011   29.445    0.000
  203.250    0.337    0.428   51.676   27.863    0.000
  203.500    0.358    0.435   54.747   26.355    0.000
  203.750    0.361    0.437   55.380   24.014    0.000
  204.000    0.358    0.446   52.984   21.883    0.000
  204.250    0.363    0.453   49.373   21.094    0.000
  204.500    0.382    0.449   50.008   20.342    0.000
  204.750    0.384    0.433   51.863   20.350    0.000
  205.000    0.378    0.433   51.894   20.372    0.000
  205.250    0.373    0.456   50.107   20.777    0.000
  205.500    0.377    0.467   48.925   20.789    0.000
  205.750    0.382    0.443   48.342   21.203    0.000
  206.000    0.387    0.438   53.237   21.625    0.000
  206.250    0.388    0.451   55.090   22.054    0.000
  206.500    0.382    0.455   52.081   22.494    0.000
  206.750    0.312    0.441   48.471   22.933    0.000
  207.000    0.291    0.452   47.288   23.396    0.000
  207.250    0.328    0.466   49.138   23.408    0.000
  207.500    0.359    0.455   50.988   22.994    0.000
  207.750    0.367    0.470   51.627   22.174    0.000
  208.000    0.381    0.478   51.660   21.770    0.000
  208.250    0.379    0.476   51.082   20.992    0.000
  208.500    0.377    0.487   50.508   21.015    0.000
  208.750    0.377    0.493   49.944   21.025    0.000
  209.000    0.376    0.484   50.577   21.048    0.000
  209.250    0.381    0.487   51.217   21.066    0.000
  209.500    0.377    0.494   51.250   21.082    0.000
  209.750    0.367    0.493   50.661   20.706    0.000
  210.000    0.359    0.483   51.306   20.335    0.000
  210.250    0.362    0.453   54.975   18.532    0.000
  210.500    0.355    0.445   67.153   16.570    0.000
  210.750    0.329    0.475   76.906   12.283    0.000
  211.000    0.308    0.509   83.007    8.445    0.000
  211.250    0.294    0.514   87.897    6.260    0.000
  211.500    0.283    0.523   88.545    4.909    0.000
  211.750    0.271    0.534   88.566    4.732    0.000
  212.000    0.257    0.480   91.637    4.736    0.000
  212.250    0.268    0.462   91.663    4.922    0.000
  212.500    0.270    0.473   89.877    5.211    0.000
  212.750    0.259    0.505   89.911    5.518    0.000
  213.000    0.259    0.509   88.121    5.734    0.000
  213.250    0.261    0.493   86.929    5.847    0.000
  213.500    0.255    0.478   90.606    5.637    0.000
  213.750    0.248    0.474   93.673    5.434    0.000
  214.000    0.245    0.507   97.968    5.238    0.000
  214.250    0.240    0.536   99.818    4.774    0.000
  214.500    0.244    0.531  101.666    4.601    0.000
  214.750    0.256    0.535  102.308    4.272    0.000
  215.000    0.266    0.563  102.332    3.967    0.000
  215.250    0.277    0.536   99.934    3.823    0.000
  215.500    0.279    0.536   95.715    3.755    0.000
  215.750    0.269    0.554   92.713    3.758    0.000
  216.000    0.252    0.514   92.133    3.833    0.000
  216.250    0.231    0.485   95.206    3.838    0.000
  216.500    0.243    0.515   98.275    3.841    0.000
  216.750    0.257    0.533  100.733    3.843    0.000
  217.000    0.237    0.544  100.758    3.775    0.000
  217.250    0.240    0.534   97.147    3.779    0.000
  217.500    0.260    0.525   92.925    3.854    0.000
  217.750    0.258    0.534   90.527    3.929    0.000
  218.000    0.261    0.534   89.348    4.320    0.000
  218.250    0.274    0.512   88.766    4.661    0.000
  218.500    0.270    0.495   90.626    4.844    0.000
  218.750    0.264    0.507   92.474    4.848    0.000
  219.000    0.266    0.536   94.940    4.673    0.000
  219.250    0.273    0.580   96.182    4.504    0.000
  219.500    0.273    0.542   96.822    4.028    0.000
  219.750    0.263    0.516   99.284    3.810    0.000
  220.000    0.258    0.526   99.917    3.673    0.000
  220.250    0.271    0.552   96.306    3.541    0.000
  220.500    0.271    0.574   91.481    3.478    0.000
  220.750    0.259    0.569   88.473    3.416    0.000
  221.000    0.251    0.561   97.005    3.419    0.000
  221.250    0.253    0.560  103.724    3.359    0.000
  221.500    0.274    0.553  104.969    3.362    0.000
  221.750    0.285    0.567  100.146    3.365    0.000
  222.000    0.295    0.599   96.526    3.496    0.000
  222.250    0.305    0.545   87.453    3.916    0.000
  222.500    0.304    0.484   78.974    4.642    0.000
  222.750    0.297    0.467   76.574    5.199    0.000
  223.000    0.281    0.467   73.573    6.047    0.000
  223.250    0.277    0.473   71.170    6.523    0.000
  223.500    0.282    0.482   77.281    6.907    0.000
  223.750    0.276    0.496   74.884    6.661    0.000
  224.000    0.268    0.486   73.692    6.664    0.000
  224.250    0.260    0.474   76.772    6.547    0.000
  224.500    0.257    0.470   78.006    6.552    0.000
  224.750    0.256    0.467   75.615    6.808    0.000
  225.000    0.258    0.449   74.431    7.209    0.000
  225.250    0.261    0.416   75.679    7.492    0.000
  225.500    0.264    0.415   76.928    7.499    0.000
  225.750    0.270    0.444   78.777    7.228    0.000
  226.000    0.257    0.468   80.633    6.968    0.000
  226.250    0.247    0.477   80.052    6.973    0.000
  226.500    0.262    0.490   78.863    6.979    0.000
  226.750    0.277    0.486   76.475    7.118    0.000
  227.000    0.291    0.460   76.508    7.536    0.000
  227.250    0.299    0.445   75.922    8.132    0.000
  227.500    0.303    0.441   74.739    8.773    0.000
  227.750    0.307    0.443   71.124    9.117    0.000
  228.000    0.310    0.454   65.697    9.472    0.000
  228.250    0.316    0.467   65.726    9.480    0.000
  228.500    0.322    0.460   68.796    9.669    0.000
  228.750    0.325    0.438   69.436    9.864    0.000
  229.000    0.316    0.425   68.252    9.868    0.000
  229.250    0.303    0.438   65.248    9.876    0.000
