~VERSION INFORMATION
 VERS.                 2.0:   CWLS LOG ASCII STANDARD -VERSION 2.0
 WRAP.                  NO:   ONE LINE PER DEPTH STEP
~WELL INFORMATION BLOCK
#MNEM.UNIT           DATA                    DESCRIPTION OF MNEMONIC
#---------    -------------------            -------------------------------
# Generated from Intellog Unique Number	CS_73_76/WELL/2388
WELL.         07-24-075-13W4                 : Well_name    - WELL
LOC .         00/07-24-075-13W4/0            : Location     - LOCATION
UWI .         00/07-24-075-13W4/0            : Uwi          - UNIQUE WELL ID
ENTR.         SP                             : Entered      - ENTERED BY
SRVC.         SCHLUMBERGER                   : Scn          - SERVICE COMPANY
STRT.M        323.088                        : top_depth    - START DEPTH
STOP.M        548.338                        : bot_depth    - STOP DEPTH
STEP.M        0.25                           : increment    - STEP LENGTH
 NULL. -999.2500:NULL Value
~CURVE INFORMATION BLOCK
#MNEM UNIT       ERCB CURVE CODE    CURVE DESCRIPTION
#-----------   ------------------   ----------------------------------
DEPT.M        00 001 00 00         : DEPTH        - DEPTH
GR  .API      00 310 00 00         : GR           - GAMMA RAY
DPHI.V/V      00 890 00 00         : PHID         - DENSITY POROSITY (SANDSTONE)
NPHI.V/V      00 330 00 00         : PHIN         - NEUTRON POROSITY (SANDSTONE)
ILD .OHMM     00 120 00 00         : RESD         - DEEP RESISTIVITY (DIL)
~PARAMETER INFORMATION
#MNEM.UNIT           DATA             DESCRIPTION OF MNEMONIC
#---------         -----------     ------------------------------
GL  .M        698.602              : gl           - GROUND LEVEL ELEVATION
EREF.M        702.869              : kb           - ELEVATION OF DEPTH REFERENCE
DATM.M        698.602              : datum        - DATUM ELEVATION
TDD .M        554.126              : tdd          - TOTAL DEPTH DRILLER
RUN .         ONE                  : Run          - RUN NUMBER
ENG .         BILL                 : Engineer     - RECORDING ENGINEER
WIT .         JIM                  : Witness      - WITNESSED BY
MUD .         GEL                  : Mud_type     - MUD TYPE
MATR.         SANDSTONE            : Logunit      - NEUTRON MATRIX
TMAX.C        18.8889              : BHT          - MAXIMUM RECORDED TEMPERATURE
BHTD.M        554.126              : BHTDEP       - MAXIMUM RECORDED TEMPERATURE
MATR.         1                    : LOGUNIT      - NEUTRON MATRIX
RMT .C        25                   : MDTP         - TEMPERATURE OF MUD
NEUT.         1                    : NEUTRON      - NEUTRON TYPE
RESI.         0                    : RESIST       - RESISTIVITY TYPE
RMC .OHMM     0.25                 : RMC          - RESISTIVITY OF MUD CAKE
RMF .OHMM     0.25                 : RMF          - RESISTIVITY OF MUD FILTRATE
SUFT.C        15                   : SUFT         - SURFACE TEMPERATURE
~A  DEPTH       GR     PHID     PHIN     RESD
# ...
  453.588   51.886    0.323    0.542    7.524
  453.838   51.599    0.342    0.549    7.408
  454.088   50.998    0.335    0.546    7.113
  454.338   54.215    0.337    0.547    6.850
  454.588   56.038    0.345    0.553    6.541
  454.838   57.802    0.345    0.552    6.197
  455.088   58.004    0.348    0.554    6.020
  455.338   57.981    0.347    0.554    5.840
  455.588   59.254    0.341    0.549    5.667
  455.838   61.593    0.335    0.542    5.497
  456.088   63.373    0.316    0.519    5.427
  456.338   64.121    0.298    0.502    5.397
  456.588   64.495    0.299    0.506    5.392
  456.838   64.270    0.310    0.514    5.386
  457.088   63.950    0.325    0.526    5.366
  457.338   60.218    0.334    0.538    5.288
  457.588   55.414    0.352    0.553    5.098
  457.838   52.330    0.349    0.562    4.801
  458.088   51.560    0.332    0.553    4.666
  458.338   48.102    0.313    0.535    4.583
  458.588   48.338    0.300    0.509    4.735
  458.838   49.758    0.288    0.494    4.809
  459.088   51.089    0.279    0.479    4.933
  459.338   51.817    0.316    0.516    5.080
  459.588   52.434    0.344    0.549    5.022
  459.838   52.245    0.356    0.563    4.861
  460.088   51.757    0.364    0.571    4.809
  460.338   53.333    0.365    0.573    4.620
  460.588   55.566    0.355    0.570    4.533
  460.838   56.998    0.352    0.562    4.540
  461.088   57.574    0.355    0.559    4.539
  461.338   55.038    0.352    0.555    4.538
  461.588   52.454    0.348    0.554    4.469
  461.838   52.259    0.348    0.558    4.453
  462.088   52.889    0.343    0.551    4.449
  462.338   53.385    0.345    0.550    4.446
  462.588   53.910    0.348    0.552    4.443
  462.838   53.388    0.355    0.557    4.444
  463.088   54.000    0.355    0.560    4.353
  463.338   53.768    0.349    0.559    4.358
  463.588   51.717    0.348    0.555    4.357
  463.838   50.235    0.342    0.549    4.382
  464.088   51.081    0.332    0.533    4.617
  464.338   51.514    0.323    0.506    4.821
  464.588   50.717    0.290    0.454    5.142
  464.838   45.150    0.213    0.398    5.753
  465.088   40.308    0.150    0.372    6.453
  465.338   40.684    0.137    0.348    7.527
  465.588   43.749    0.160    0.346    8.406
  465.838   46.699    0.214    0.413    9.210
  466.088   48.666    0.271    0.544    8.711
  466.338   49.589    0.312    0.553    7.550
  466.588   50.487    0.349    0.561    6.547
  466.838   52.134    0.361    0.565    5.753
  467.088   53.634    0.358    0.567    5.331
  467.338   53.819    0.357    0.565    4.905
  467.588   52.403    0.354    0.563    4.731
  467.838   51.928    0.350    0.554    4.654
  468.088   52.024    0.341    0.547    4.687
  468.338   50.685    0.345    0.551    4.737
  468.588   52.553    0.344    0.551    4.735
  468.838   54.705    0.341    0.548    4.728
  469.088   55.439    0.340    0.546    4.817
  469.338   55.727    0.344    0.547    4.815
  469.588   56.563    0.349    0.554    4.815
  469.838   55.333    0.350    0.554    4.813
  470.088   57.703    0.348    0.555    4.811
  470.338   56.973    0.340    0.547    4.810
  470.588   54.551    0.335    0.539    4.800
  470.838   52.665    0.336    0.540    4.903
  471.088   54.857    0.335    0.547    4.892
  471.338   58.267    0.331    0.538    4.893
  471.588   61.098    0.327    0.532    4.927
  471.838   63.648    0.320    0.531    4.884
  472.088   66.263    0.307    0.517    4.961
  472.338   67.453    0.297    0.505    4.894
  472.588   65.070    0.291    0.495    4.972
  472.838   57.231    0.302    0.503    5.004
  473.088   52.010    0.309    0.515    5.270
  473.338   48.769    0.286    0.506    5.524
  473.588   51.995    0.267    0.485    5.632
  473.838   59.187    0.255    0.468    5.877
  474.088   62.379    0.276    0.472    6.075
  474.338   59.002    0.290    0.492    6.071
  474.588   55.070    0.302    0.503    5.942
  474.838   53.659    0.302    0.502    5.754
  475.088   52.470    0.293    0.498    5.706
  475.338   52.682    0.302    0.505    5.523
  475.588   54.209    0.317    0.522    5.348
  475.838   55.737    0.329    0.535    5.305
  476.088   55.684    0.333    0.538    5.130
  476.338   54.271    0.320    0.526    5.127
  476.588   55.151    0.290    0.499    5.133
  476.838   52.517    0.266    0.473    5.295
  477.088   54.199    0.241    0.452    5.450
  477.338   58.833    0.261    0.462    5.608
  477.588   60.081    0.286    0.506    5.692
  477.838   54.566    0.317    0.528    5.559
  478.088   54.367    0.311    0.517    5.397
  478.338   59.552    0.304    0.512    5.259
  478.588   65.106    0.309    0.512    5.176
  478.838   69.684    0.307    0.515    5.104
  479.088   72.268    0.311    0.514    5.054
  479.338   72.935    0.314    0.520    5.096
  479.588   69.773    0.317    0.524    5.089
  479.838   69.784    0.311    0.525    5.189
  480.088   70.144    0.291    0.506    5.296
  480.338   58.542    0.250    0.490    5.538
  480.588   53.121    0.203    0.459    5.714
  480.838   46.157    0.167    0.429    6.017
  481.088   45.532    0.147    0.390    6.690
  481.338   48.303    0.141    0.356    7.166
  481.588   49.346    0.151    0.358    8.175
  481.838   59.927    0.155    0.352    9.002
  482.088   69.938    0.199    0.382    8.617
  482.338   77.105    0.235    0.450    7.776
  482.588   77.159    0.258    0.463    7.103
  482.838   77.476    0.244    0.451    6.627
  483.088   82.655    0.240    0.455    6.360
  483.338   85.199    0.253    0.461    6.042
  483.588   86.789    0.256    0.455    5.623
  483.838   85.576    0.237    0.449    5.548
  484.088   81.192    0.260    0.454    5.584
  484.338   82.047    0.274    0.466    5.645
  484.588   86.626    0.258    0.467    5.819
  484.838   88.321    0.262    0.468    5.983
  485.088   84.996    0.247    0.460    6.286
  485.338   80.456    0.243    0.450    6.346
  485.588   76.796    0.248    0.453    6.540
  485.838   74.232    0.246    0.455    6.307
  486.088   74.609    0.242    0.450    6.019
  486.338   72.799    0.243    0.451    5.496
  486.588   71.297    0.241    0.451    4.930
  486.838   71.356    0.237    0.449    4.703
  487.088   72.353    0.231    0.436    4.508
  487.338   73.863    0.236    0.439    4.502
  487.588   75.555    0.267    0.457    4.432
  487.838   71.634    0.287    0.480    4.035
  488.088   68.098    0.302    0.504    3.227
  488.338   68.141    0.311    0.517    2.788
  488.588   69.198    0.323    0.527    2.424
  488.838   69.875    0.323    0.522    2.283
  489.088   70.353    0.319    0.520    2.065
  489.338   69.941    0.312    0.516    1.973
  489.588   68.725    0.305    0.508    1.970
  489.838   69.909    0.311    0.512    1.971
  490.088   74.889    0.313    0.519    2.007
  490.338   78.939    0.305    0.515    2.019
  490.588   83.520    0.298    0.504    2.040
  490.838   88.308    0.296    0.496    2.076
  491.088   87.049    0.292    0.500    2.132
  491.338   85.168    0.285    0.494    2.150
  491.588   83.332    0.283    0.492    2.316
  491.838   78.819    0.285    0.484    2.638
  492.088   74.405    0.266    0.477    2.916
  492.338   76.293    0.252    0.456    3.176
  492.588   77.496    0.231    0.438    3.621
  492.838   78.959    0.219    0.426    3.885
  493.088   79.075    0.224    0.428    4.257
  493.338   75.942    0.215    0.420    4.556
  493.588   74.838    0.209    0.415    4.678
  493.838   74.965    0.192    0.405    4.897
  494.088   76.643    0.212    0.399    4.976
  494.338   75.460    0.228    0.418    4.972
  494.588   77.015    0.226    0.428    4.788
  494.838   78.856    0.227    0.431    4.382
  495.088   80.286    0.237    0.446    4.001
  495.338   78.117    0.244    0.450    3.754
  495.588   76.091    0.238    0.450    3.641
  495.838   74.998    0.226    0.434    3.642
  496.088   74.671    0.228    0.425    3.562
  496.338   74.547    0.228    0.433    3.559
  496.588   75.723    0.232    0.436    3.636
  496.838   78.420    0.222    0.436    3.628
