~VERSION INFORMATION
 VERS.                 2.0:   CWLS LOG ASCII STANDARD -VERSION 2.0
 WRAP.                  NO:   ONE LINE PER DEPTH STEP
~WELL INFORMATION BLOCK
#MNEM.UNIT           DATA                    DESCRIPTION OF MNEMONIC
#---------    -------------------            -------------------------------
# Generated from Intellog Unique Number	CS_77_79/WELL/920
WELL.         CANADIAN WORLDWIDE ENERGY      : Well_name    - WELL
LOC .         00/08-20-077-05W4/0            : Location     - LOCATION
UWI .         00/08-20-077-05W4/0            : Uwi          - UNIQUE WELL ID
ENTR.         SP                             : Entered      - ENTERED BY
SRVC.         SCHLUMBERGER                   : Scn          - SERVICE COMPANY
STRT.M        155.250                        : top_depth    - START DEPTH
STOP.M        408.000                        : bot_depth    - STOP DEPTH
STEP.M        0.25                           : increment    - STEP LENGTH
 NULL. -999.2500:NULL Value
~CURVE INFORMATION BLOCK
#MNEM UNIT       ERCB CURVE CODE    CURVE DESCRIPTION
#-----------   ------------------   ----------------------------------
DEPT.M        00 001 00 00         : DEPTH        - DEPTH
ILD .OHMM     00 120 00 00         : RESD         - DEEP RESISTIVITY (DIL)
DPHI.V/V      00 890 00 00         : PHID         - DENSITY POROSITY (SANDSTONE)
NPHI.V/V      00 330 00 00         : PHIN         - NEUTRON POROSITY (SANDSTONE)
GR  .API      00 310 00 00         : GR           - GAMMA RAY
~PARAMETER INFORMATION
#MNEM.UNIT           DATA             DESCRIPTION OF MNEMONIC
#---------         -----------     ------------------------------
GL  .M        570.1                : gl           - GROUND LEVEL ELEVATION
EREF.M        574                  : kb           - ELEVATION OF DEPTH REFERENCE
DATM.M        570.1                : datum        - DATUM ELEVATION
TDD .M        415                  : tdd          - TOTAL DEPTH DRILLER
RUN .         ONE                  : Run          - RUN NUMBER
ENG .         BILL                 : Engineer     - RECORDING ENGINEER
WIT .         JIM                  : Witness      - WITNESSED BY
MUD .         GEL                  : Mud_type     - MUD TYPE
MATR.         SANDSTONE            : Logunit      - NEUTRON MATRIX
TMAX.C        20                   : BHT          - MAXIMUM RECORDED TEMPERATURE
BHTD.M        415                  : BHTDEP       - MAXIMUM RECORDED TEMPERATURE
MATR.         1                    : LOGUNIT      - NEUTRON MATRIX
RMT .C        25                   : MDTP         - TEMPERATURE OF MUD
NEUT.         1                    : NEUTRON      - NEUTRON TYPE
RESI.         0                    : RESIST       - RESISTIVITY TYPE
RMC .OHMM     0.25                 : RMC          - RESISTIVITY OF MUD CAKE
RMF .OHMM     0.25                 : RMF          - RESISTIVITY OF MUD FILTRATE
SUFT.C        15                   : SUFT         - SURFACE TEMPERATURE
~A  DEPTH     RESD     PHID     PHIN       GR
# ...
  372.750   50.109    0.352    0.351   36.529
  373.000   51.095    0.352    0.347   35.935
  373.250   53.099    0.351    0.342   34.734
  373.500   55.196    0.350    0.347   31.696
  373.750   55.230    0.361    0.363   30.492
  374.000   55.293    0.368    0.369   31.739
  374.250   53.301    0.363    0.369   31.764
  374.500   49.493    0.352    0.368   31.174
  374.750   45.967    0.353    0.370   29.366
  375.000   47.404    0.028    0.360   32.075
  375.250   43.191    0.004    0.358   34.520
  375.500   41.608    0.001    0.350   36.370
  375.750   38.630    0.310    0.347   35.795
  376.000   37.933    0.320    0.352   31.611
  376.250   37.250    0.333    0.350   29.832
  376.500   37.983    0.338    0.335   29.254
  376.750   38.729    0.342    0.328   29.303
  377.000   38.037    0.335    0.324   28.718
  377.250   33.999    0.314    0.322   29.970
  377.500   29.825    0.298    0.311   33.639
  377.750   26.655    0.293    0.306   39.737
  378.000   23.382    0.308    0.325   40.966
  378.250   20.897    0.330    0.342   42.208
  378.500   19.035    0.350    0.358   41.046
  378.750   19.053    0.363    0.371   41.081
  379.000   19.425    0.367    0.386   41.115
  379.250   20.570    0.366    0.390   42.969
  379.500   22.195    0.356    0.383   43.599
  379.750   22.630    0.348    0.374   44.855
  380.000   19.852    0.341    0.363   43.684
  380.250   18.079    0.332    0.354   46.750
  380.500   14.989    0.312    0.343   49.190
  380.750   12.428    0.285    0.336   61.924
  381.000   11.752    0.265    0.323   71.042
  381.250   10.906    0.254    0.334   71.680
  381.500    9.934    0.273    0.352   59.012
  381.750    9.397    0.292    0.364   54.817
  382.000    9.403    0.316    0.374   51.225
  382.250    9.408    0.322    0.370   45.221
  382.500    9.595    0.322    0.361   38.596
  382.750    9.422    0.329    0.354   31.379
  383.000    9.082    0.340    0.351   30.202
  383.250    8.917    0.344    0.346   29.642
  383.500    9.093    0.340    0.339   29.686
  383.750    9.811    0.341    0.351   29.720
  384.000   10.789    0.342    0.361   29.143
  384.250   11.640    0.345    0.357   26.761
  384.500   11.868    0.336    0.347   27.395
  384.750   11.655    0.337    0.346   32.888
  385.000   11.027    0.331    0.337   41.993
  385.250   10.827    0.294    0.326   50.492
  385.500   10.631    0.284    0.322   54.156
  385.750    8.812    0.278    0.330   48.139
  386.000    7.877    0.284    0.335   46.380
  386.250    6.057    0.306    0.328   44.594
  386.500    5.117    0.323    0.330   40.388
  386.750    4.488    0.344    0.339   33.166
  387.000    3.864    0.355    0.352   26.549
  387.250    3.587    0.348    0.355   21.753
  387.500    3.457    0.342    0.359   23.603
  387.750    3.395    0.340    0.349   28.476
  388.000    3.333    0.343    0.359   28.527
  388.250    3.273    0.350    0.370   26.135
  388.500    3.402    0.351    0.372   23.157
  388.750    3.403    0.354    0.370   22.570
  389.000    3.537    0.354    0.357   21.398
  389.250    3.745    0.350    0.357   27.499
  389.500    4.041    0.344    0.358   31.147
  389.750    4.198    0.324    0.341   37.836
  390.000    4.447    0.276    0.330   49.967
  390.250    4.533    0.247    0.325   59.077
  390.500    4.622    0.267    0.334   51.854
  390.750    4.625    0.279    0.348   42.825
  391.000    4.543    0.301    0.356   35.597
  391.250    4.461    0.316    0.357   38.665
  391.500    4.220    0.301    0.348   44.746
  391.750    4.067    0.281    0.338   47.806
  392.000    3.993    0.305    0.338   39.380
  392.250    4.150    0.323    0.354   32.761
  392.500    4.152    0.337    0.348   27.349
  392.750    4.316    0.317    0.333   44.334
  393.000    4.402    0.284    0.327   51.014
  393.250    4.404    0.258    0.329   56.494
  393.500    4.407    0.254    0.349   56.536
  393.750    4.409    0.269    0.358   48.701
  394.000    4.413    0.281    0.354   29.992
  394.250    4.333    0.315    0.345   22.162
  394.500    4.255    0.331    0.335   18.571
  394.750    4.101    0.336    0.328   19.233
  395.000    3.952    0.336    0.323   19.258
  395.250    3.882    0.335    0.319   19.891
  395.500    3.812    0.341    0.324   18.738
  395.750    3.743    0.342    0.329   18.762
  396.000    3.746    0.337    0.337   18.788
  396.250    3.748    0.331    0.327   20.651
  396.500    3.823    0.320    0.320   20.674
  396.750    3.825    0.311    0.319   20.716
  397.000    3.901    0.307    0.317   20.146
  397.250    4.054    0.310    0.318   19.596
  397.500    4.212    0.323    0.323   19.017
  397.750    4.544    0.332    0.331   19.660
  398.000    4.997    0.332    0.336   22.720
  398.250    5.191    0.313    0.338   27.588
  398.500    5.708    0.291    0.339   51.813
  398.750    6.275    0.243    0.348   74.835
  399.000    6.770    0.185    0.358   85.756
  399.250    7.585    0.158    0.360   91.837
  399.500    8.340    0.018    0.345   90.669
  399.750    9.169    0.064    0.333   94.331
  400.000   10.083    0.082    0.315   92.551
  400.250   10.878    0.096    0.303   84.124
  400.500   11.736    0.098    0.297   76.899
  400.750   12.662    0.095    0.291   67.869
  401.000   14.186    0.083    0.289   64.891
  401.250   16.195    0.065    0.284   61.907
  401.500   18.490    0.050    0.271   57.097
  401.750   20.715    0.036    0.250   52.292
  402.000   23.209    0.040    0.241   46.887
  402.250   25.039    0.105    0.245   44.498
  402.500   27.532    0.135    0.248   64.499
  402.750   29.157    0.151    0.237   54.869
  403.000   29.729    0.147    0.220   53.082
  403.250   29.751    0.110    0.194   54.330
  403.500   30.339    0.053    0.190   59.197
  403.750   30.356    0.050    0.202   62.863
  404.000   31.551    0.070    0.234   62.897
  404.250   32.166    0.129    0.254   60.518
  404.500   33.433    0.193    0.269   62.971
  404.750   34.730    0.222    0.259   63.008
  405.000   35.417    0.243    0.241   60.022
  405.250   36.114    0.236    0.223   48.571
  405.500   36.137    0.231    0.212   43.759
  405.750   34.178    0.218    0.201   37.153
  406.000   32.330    0.205    0.192   33.554
  406.250   30.573    0.160    0.182   28.142
  406.500   30.026    0.077    0.178   22.741
  406.750   30.056    0.076    0.178   20.960
  407.000   29.513    0.081    0.180   25.239
  407.250   29.530    0.064    0.184   27.685
  407.500   28.995    0.052    0.189   27.120
  407.750   27.421    0.070    0.204   27.159
  408.000   22.309    0.143    0.228   34.455
