~VERSION INFORMATION
 VERS.                 2.0:   CWLS LOG ASCII STANDARD -VERSION 2.0
 WRAP.                  NO:   ONE LINE PER DEPTH STEP
~WELL INFORMATION BLOCK
#MNEM.UNIT           DATA                    DESCRIPTION OF MNEMONIC
#---------    -------------------            -------------------------------
# Generated from Intellog Unique Number	CS_71_72/WELL/737
WELL.         KISSINGER ET AL CORRIGAL       : Well_name    - WELL
LOC .         00/06-07-072-11W4/0            : Location     - LOCATION
UWI .         00/06-07-072-11W4/0            : Uwi          - UNIQUE WELL ID
ENTR.         SP                             : Entered      - ENTERED BY
SRVC.         SCHLUMBERGER                   : Scn          - SERVICE COMPANY
STRT.M        300                            : top_depth    - START DEPTH
STOP.M        529                            : bot_depth    - STOP DEPTH
STEP.M        0.25                           : increment    - STEP LENGTH
 NULL. -999.2500:NULL Value
~CURVE INFORMATION BLOCK
#MNEM UNIT       ERCB CURVE CODE    CURVE DESCRIPTION
#-----------   ------------------   ----------------------------------
DEPT.M        00 001 00 00         : DEPTH        - DEPTH
ILD .OHMM     00 120 00 00         : RESD         - DEEP RESISTIVITY (DIL)
DPHI.V/V      00 890 00 00         : PHID         - DENSITY POROSITY (LIMESTONE)
NPHI.V/V      00 330 00 00         : PHIN         - NEUTRON POROSITY (LIMESTONE)
GR  .API      00 310 00 00         : GR           - GAMMA RAY
~PARAMETER INFORMATION
#MNEM.UNIT           DATA             DESCRIPTION OF MNEMONIC
#---------         -----------     ------------------------------
GL  .M        641.09               : gl           - GROUND LEVEL ELEVATION
EREF.M        644.99               : kb           - ELEVATION OF DEPTH REFERENCE
DATM.M        641.09               : datum        - DATUM ELEVATION
TDD .M        513                  : tdd          - TOTAL DEPTH DRILLER
RUN .         ONE                  : Run          - RUN NUMBER
ENG .         BILL                 : Engineer     - RECORDING ENGINEER
WIT .         JIM                  : Witness      - WITNESSED BY
MUD .         GEL                  : Mud_type     - MUD TYPE
MATR.         LIMESTONE            : Logunit      - NEUTRON MATRIX
TMAX.C        30                   : BHT          - MAXIMUM RECORDED TEMPERATURE
BHTD.M        513                  : BHTDEP       - MAXIMUM RECORDED TEMPERATURE
MATR.         1                    : LOGUNIT      - NEUTRON MATRIX
RMT .C        25                   : MDTP         - TEMPERATURE OF MUD
NEUT.         1                    : NEUTRON      - NEUTRON TYPE
RESI.         0                    : RESIST       - RESISTIVITY TYPE
RMC .OHMM     0.25                 : RMC          - RESISTIVITY OF MUD CAKE
RMF .OHMM     0.25                 : RMF          - RESISTIVITY OF MUD FILTRATE
SUFT.C        15                   : SUFT         - SURFACE TEMPERATURE
~A  DEPTH     RESD     PHID     PHIN       GR
  300.000    2.570    0.230    0.439   86.236
  300.250    2.731    0.226    0.486   86.850
  300.500    2.730    0.223    0.528   87.465
  300.750    2.810    0.220    0.474   89.903
  301.000    2.810    0.219    0.478   91.123
  301.250    2.890    0.218    0.451   91.737
  301.500    2.970    0.218    0.436   92.355
  301.750    3.131    0.219    0.417   91.146
  302.000    3.291    0.221    0.396   88.118
  302.250    3.612    0.222    0.397   86.910
  302.500    3.772    0.216    0.412   86.309
  302.750    4.013    0.207    0.412   85.710
  303.000    4.093    0.201    0.396   88.146
  303.250    4.173    0.195    0.372   91.191
  303.500    4.173    0.189    0.336   93.019
  303.750    4.092    0.182    0.314   93.025
  304.000    3.851    0.193    0.313   91.819
  304.250    3.610    0.191    0.315   91.222
  304.500    3.610    0.186    0.395   91.837
  304.750    3.449    0.192    0.399   91.841
  305.000    3.368    0.197    0.415   91.243
  305.250    3.368    0.208    0.412   90.646
  305.500    3.287    0.215    0.406   90.653
  305.750    3.207    0.219    0.471   90.659
  306.000    3.287    0.214    0.488   90.664
  306.250    3.286    0.206    0.454   91.887
  306.500    3.366    0.200    0.418   93.109
  306.750    3.366    0.191    0.394   94.937
  307.000    3.366    0.176    0.381   96.767
  307.250    3.285    0.168    0.395   96.776
  307.500    3.205    0.188    0.403   95.568
  307.750    3.204    0.194    0.418   93.754
  308.000    3.124    0.205    0.419   93.759
  308.250    3.124    0.214    0.409   91.338
  308.500    3.204    0.212    0.412   88.915
  308.750    3.364    0.210    0.429   87.709
  309.000    3.444    0.208    0.453   88.931
  309.250    3.524    0.201    0.384   89.549
  309.500    3.524    0.197    0.358   88.339
  309.750    3.524    0.201    0.339   86.525
  310.000    3.523    0.207    0.404   84.710
  310.250    3.684    0.233    0.484   78.645
  310.500    4.005    0.285    0.557   70.757
  310.750    4.567    0.305    0.505   62.870
  311.000    6.334    0.333    0.252   54.983
  311.250    8.743    0.394    0.191   49.524
  311.500   14.445    0.431    0.152   48.925
  311.750   18.702    0.429    0.123   53.790
  312.000   20.549    0.417    0.129   55.622
  312.250   20.469    0.408    0.134   57.454
  312.500   19.665    0.394    0.144   57.236
  312.750   17.175    0.372    0.169   58.072
  313.000   13.801    0.352    0.186   57.470
  313.250   11.311    0.333    0.231   58.087
  313.500    9.945    0.321    0.270   61.736
  313.750    9.222    0.297    0.228   75.104
  314.000    8.740    0.270    0.220   83.009
  314.250    8.418    0.219    0.329   84.228
  314.500    8.177    0.198    0.387   87.273
  314.750    8.016    0.191    0.417   88.496
  315.000    7.936    0.195    0.390   90.934
  315.250    7.855    0.206    0.380   92.154
  315.500    8.015    0.212    0.385   93.374
  315.750    8.096    0.214    0.399   93.990
  316.000    8.176    0.217    0.387   92.176
  316.250    8.336    0.218    0.380   91.575
  316.500    8.336    0.217    0.387   93.405
  316.750    8.335    0.209    0.381   94.630
  317.000    8.094    0.203    0.357   95.243
  317.250    7.612    0.195    0.347   95.856
  317.500    7.290    0.185    0.392   95.255
  317.750    7.531    0.188    0.409   87.976
  318.000    7.932    0.192    0.418   75.837
  318.250    8.816    0.258    0.355   60.056
  318.500    9.860    0.300    0.283   53.992
  318.750   11.386    0.342    0.258   52.783
  319.000   12.992    0.323    0.223   50.364
  319.250   15.642    0.324    0.161   47.334
  319.500   16.124    0.373    0.143   43.698
  319.750   15.802    0.363    0.147   46.740
  320.000   16.123    0.336    0.200   46.747
  320.250   18.613    0.323    0.217   41.896
  320.500   18.773    0.347    0.186   38.868
  320.750   17.648    0.351    0.161   45.554
  321.000   15.881    0.312    0.147   58.923
  321.250   14.515    0.270    0.253   66.825
  321.500   12.989    0.246    0.402   68.047
  321.750   11.382    0.249    0.418   63.806
  322.000    8.812    0.311    0.395   61.382
  322.250    8.249    0.323    0.384   58.961
  322.500    7.928    0.324    0.388   58.967
  322.750    8.168    0.318    0.398   62.016
  323.000    8.409    0.313    0.398   62.631
  323.250    8.409    0.311    0.383   63.245
  323.500    8.409    0.310    0.365   64.465
  323.750    8.408    0.314    0.361   66.291
  324.000    8.328    0.314    0.425   70.551
  324.250    8.247    0.312    0.450   74.201
  324.500    8.006    0.324    0.418   73.601
  324.750    7.684    0.354    0.408   76.647
  325.000    7.523    0.389    0.452   79.081
  325.250    7.282    0.284    0.473   82.733
  325.500    7.121    0.244    0.424   84.562
  325.750    7.282    0.217    0.414   83.355
  326.000    7.683    0.214    0.424   79.720
  326.250    7.924    0.237    0.403   76.085
  326.500    8.486    0.269    0.394   73.663
  326.750    9.128    0.294    0.400   72.455
  327.000    9.288    0.308    0.416   70.639
  327.250    9.609    0.297    0.424   67.613
  327.500    9.770    0.284    0.432   66.403
  327.750    9.368    0.279    0.426   63.982
  328.000    9.287    0.277    0.412   62.166
  328.250    9.287    0.269    0.398   59.745
  328.500    9.528    0.257    0.428   58.539
  328.750    9.849    0.249    0.442   59.158
  329.000   10.330    0.274    0.429   60.377
  329.250   10.892    0.285    0.418   62.204
  329.500   11.535    0.290    0.414   63.431
  329.750   12.257    0.291    0.411   62.829
  330.000   13.141    0.285    0.398   61.620
  330.250   13.462    0.275    0.401   60.413
  330.500   12.979    0.272    0.410   59.813
  330.750   11.935    0.269    0.427   60.429
  331.000   11.131    0.272    0.449   61.042
  331.250   10.007    0.267    0.470   62.871
  331.500    9.685    0.264    0.421   62.270
  331.750    9.364    0.261    0.408   59.849
  332.000    9.203    0.264    0.393   63.501
  332.250    8.881    0.264    0.381   76.869
  332.500    7.917    0.224    0.386   90.844
  332.750    7.515    0.209    0.393   99.351
  333.000    6.792    0.196    0.403  104.219
  333.250    5.908    0.181    0.396  106.655
  333.500    5.346    0.186    0.409  107.269
  333.750    5.667    0.195    0.390  104.851
  334.000    6.309    0.211    0.373  103.033
  334.250    7.112    0.231    0.369   97.578
  334.500    7.433    0.230    0.373   94.546
  334.750    7.834    0.230    0.388   87.270
  335.000    8.075    0.248    0.379   84.239
  335.250    8.316    0.270    0.371   78.781
  335.500    8.396    0.279    0.364   76.963
  335.750    8.476    0.287    0.345   83.653
  336.000    8.235    0.293    0.335   89.733
  336.250    7.913    0.251    0.374   92.775
  336.500    7.672    0.214    0.400   96.427
  336.750    7.511    0.211    0.421   92.793
  337.000    7.430    0.214    0.419   90.368
  337.250    7.430    0.225    0.419   84.912
  337.500    7.671    0.258    0.423   80.061
  337.750    7.992    0.282    0.408   76.423
  338.000    8.152    0.275    0.370   73.394
  338.250    8.473    0.269    0.348   78.260
  338.500    8.553    0.269    0.317   84.344
  338.750    8.713    0.263    0.346   88.604
  339.000    8.874    0.252    0.351   91.648
  339.250    8.793    0.237    0.343   94.084
  339.500    8.793    0.224    0.357   95.912
  339.750    8.632    0.212    0.365   97.739
  340.000    8.471    0.207    0.388  100.175
  340.250    8.310    0.200    0.385  102.007
  340.500    8.149    0.195    0.404  102.010
  340.750    8.069    0.192    0.427  100.197
  341.000    8.069    0.198    0.439   94.134
  341.250    8.229    0.213    0.432   91.102
  341.500    8.229    0.230    0.405   85.644
  341.750    8.148    0.221    0.395   82.007
  342.000    7.827    0.206    0.367   86.270
  342.250    7.264    0.198    0.358   88.704
  342.500    6.541    0.204    0.456   91.746
  342.750    5.818    0.208    0.484   95.401
  343.000    5.335    0.207    0.451   96.013
  343.250    4.934    0.206    0.438   90.559
