~VERSION INFORMATION
 VERS.                 2.0:   CWLS LOG ASCII STANDARD -VERSION 2.0
 WRAP.                  NO:   ONE LINE PER DEPTH STEP
~WELL INFORMATION BLOCK
#MNEM.UNIT           DATA                    DESCRIPTION OF MNEMONIC
#---------    -------------------            -------------------------------
# Generated from Intellog Unique Number	CX_WELLS/WELL/3134
WELL.         UNEX RES CANOXY WATCHUK        : Well_name    - WELL
LOC .         00/06-18-083-03W4/0            : Location     - LOCATION
UWI .         00/06-18-083-03W400            : Uwi          - UNIQUE WELL ID
ENTR.         TIM                            : Entered      - ENTERED BY
SRVC.         SCHLUMBERGER                   : Scn          - SERVICE COMPANY
STRT.F        350                            : top_depth    - START DEPTH
STOP.F        1029.95                        : bot_depth    - STOP DEPTH
STEP.F        0.82                           : increment    - STEP LENGTH
 NULL. -999.2500:NULL Value
~CURVE INFORMATION BLOCK
#MNEM UNIT       ERCB CURVE CODE    CURVE DESCRIPTION
#-----------   ------------------   ----------------------------------
DEPT.F        00 001 00 00         : DEPTH        - DEPTH
GR  .API      00 310 00 00         : GR           - GAMMA RAY
NPHI.V/V      00 330 00 00         : PHIN         - NEUTRON POROSITY (SANDSTONE)
DPHI.V/V      00 890 00 00         : PHID         - DENSITY POROSITY (SANDSTONE)
ILD .OHMM     00 120 00 00         : RESD         - DEEP RESISTIVITY (OTHER)
~PARAMETER INFORMATION
#MNEM.UNIT           DATA             DESCRIPTION OF MNEMONIC
#---------         -----------     ------------------------------
GL  .F        1569                 : gl           - GROUND LEVEL ELEVATION
EREF.F        1581                 : kb           - ELEVATION OF DEPTH REFERENCE
DATM.F        1581                 : datum        - DATUM ELEVATION
TDD .F        1080                 : tdd          - TOTAL DEPTH DRILLER
RUN .         ONE                  : Run          - RUN NUMBER
ENG .         BILL                 : Engineer     - RECORDING ENGINEER
WIT .         JIM                  : Witness      - WITNESSED BY
MUD .         GEL                  : Mud_type     - MUD TYPE
MATR.         SANDSTONE            : Logunit      - NEUTRON MATRIX
TMAX.F        71.6                 : BHT          - MAXIMUM RECORDED TEMPERATURE
BHTD.F        1080                 : BHTDEP       - MAXIMUM RECORDED TEMPERATURE
MATR.         1                    : LOGUNIT      - NEUTRON MATRIX
RMT .F        77                   : MDTP         - TEMPERATURE OF MUD
NEUT.         1                    : NEUTRON      - NEUTRON TYPE
RESI.         5.1                  : RESIST       - RESISTIVITY TYPE
RMC .OHMM     6                    : RMC          - RESISTIVITY OF MUD CAKE
RMF .OHMM     6                    : RMF          - RESISTIVITY OF MUD FILTRATE
SUFT.F        32                   : SUFT         - SURFACE TEMPERATURE
~A  DEPTH       GR     PHIN     PHID     RESD
# ...
  492.717   53.712    0.318    0.083   16.188
  493.537   55.535    0.341    0.130   15.068
  494.357   57.342    0.359    0.174   14.032
  495.177   59.150    0.410    0.321   13.551
  495.997   61.539    0.449    0.323   13.330
  496.818   63.943    0.470    0.318   13.118
  497.638   64.587    0.465    0.313   12.898
  498.458   65.215    0.455    0.313   12.923
  499.278   65.277    0.450    0.313   12.942
  500.098   65.952    0.451    0.312   12.742
  500.919   65.998    0.449    0.310   12.767
  501.739   66.642    0.445    0.309   12.786
  502.559   67.286    0.447    0.309   12.583
  503.379   67.348    0.449    0.309   12.601
  504.199   65.664    0.449    0.309   12.626
  505.020   62.236    0.448    0.311   12.426
  505.840   61.716    0.450    0.313   12.462
  506.660   62.390    0.451    0.315   12.480
  507.480   62.452    0.450    0.315   12.498
  508.301   62.499    0.450    0.314   12.535
  509.121   63.142    0.450    0.314   12.559
  509.941   63.220    0.447    0.314   12.577
  510.761   63.266    0.445    0.307   12.614
  511.581   63.359    0.442    0.305   12.626
  512.402   63.406    0.438    0.306   12.651
  513.222   63.483    0.437    0.308   12.694
  514.042   63.545    0.439    0.310   12.706
  514.862   63.592    0.443    0.309   12.725
  515.682   63.654    0.449    0.309   12.762
  516.503   63.149    0.458    0.306   12.787
  517.323   63.211    0.469    0.306   12.805
  518.143   63.289    0.464    0.306   12.830
  518.963   61.039    0.456    0.306   12.861
  519.783   59.906    0.455    0.306   12.886
  520.604   58.836    0.456    0.308   12.911
  521.424   58.867    0.457    0.314   12.955
  522.244   59.510    0.457    0.321   12.974
  523.064   59.006    0.471    0.320   12.750
  523.885   57.935    0.481    0.318   12.781
  524.705   57.966    0.476    0.321   12.572
  525.525   59.192    0.471    0.321   12.590
  526.345   60.433    0.468    0.316   12.627
  527.165   60.479    0.467    0.309   12.651
  527.986   62.318    0.467    0.306   12.670
  528.806   64.109    0.470    0.300   12.713
  529.626   66.498    0.469    0.298   12.493
  530.446   68.903    0.466    0.301   12.511
  531.266   70.128    0.464    0.300   12.313
  532.087   71.951    0.463    0.300   12.123
  532.907   73.774    0.461    0.300   12.135
  533.727   73.805    0.464    0.299   11.948
  534.547   74.449    0.467    0.299   11.966
  535.367   72.183    0.463    0.297   11.983
  536.188   70.531    0.464    0.294   11.793
  537.008   70.593    0.470    0.291   11.816
  537.828   71.221    0.481    0.286   11.851
  538.648   71.880    0.485    0.285   11.868
  539.469   73.106    0.475    0.281   11.885
  540.289   75.495    0.466    0.282   11.489
  541.109   76.721    0.460    0.283   11.296
  541.929   77.364    0.465    0.290   11.111
  542.749   76.263    0.473    0.296   10.935
  543.570   76.325    0.491    0.300   10.555
  544.390   76.968    0.506    0.304    9.650
  545.210   77.046    0.509    0.308    8.978
  546.030   75.975    0.496    0.311    8.062
  546.850   76.037    0.491    0.310    7.778
  547.671   75.486    0.492    0.304    7.651
  548.491   76.161    0.491    0.299    8.566
  549.311   76.192    0.484    0.299    9.585
  550.131   76.835    0.476    0.299   10.337
  550.951   75.749    0.471    0.298   10.555
  551.772   74.648    0.465    0.298    9.469
  552.592   73.546    0.463    0.296    8.035
  553.412   74.205    0.467    0.294    6.221
  554.232   76.610    0.494    0.290    5.090
  555.052   78.386    0.515    0.283    4.243
  555.873   83.118    0.535    0.277    3.808
  556.693   88.416    0.553    0.271    3.748
  557.513   94.327    0.566    0.266    3.751
  558.333   96.700    0.568    0.261    3.760
  559.154   99.089    0.564    0.261    3.838
  559.974  100.315    0.561    0.281    3.640
  560.794   98.631    0.556    0.284    3.450
  561.614   99.306    0.550    0.284    3.211
  562.434  101.695    0.563    0.283    2.934
  563.255  102.921    0.583    0.282    2.782
  564.075  101.834    0.587    0.276    2.787
  564.895  100.702    0.591    0.264    2.794
  565.715  100.198    0.595    0.258    2.852
  566.535  103.184    0.594    0.255    3.021
  567.356  104.991    0.594    0.254    3.139
  568.176  105.053    0.595    0.254    3.385
  568.996  104.518    0.594    0.251    3.721
  569.816  102.834    0.589    0.248    4.087
  570.636  100.003    0.558    0.244    4.408
  571.457   98.304    0.542    0.238    4.845
  572.277   95.457    0.526    0.232    5.325
  573.097   93.207    0.504    0.227    5.533
  573.917   91.524    0.496    0.221    5.752
  574.738   92.765    0.502    0.212    5.982
  575.558   94.572    0.502    0.208    6.105
  576.378   93.471    0.502    0.216    6.228
  577.198   90.057    0.497    0.223    6.723
  578.018   88.343    0.486    0.227    7.382
  578.839   83.751    0.419    0.218   10.500
  579.659   75.668    0.332    0.188   12.882
  580.479   63.512    0.290    0.118   14.963
  581.299   55.995    0.210    0.030   14.992
  582.119   53.149    0.222    0.079   14.214
  582.940   67.189    0.250    0.108   13.237
  583.760   71.905    0.384    0.214   12.315
  584.580   79.546    0.416    0.256   10.847
  585.400   83.098    0.436    0.243    8.713
  586.220   89.009    0.451    0.243    7.678
  587.041   89.086    0.468    0.253    7.693
  587.861   89.715    0.481    0.259    7.704
  588.681   89.761    0.484    0.261    7.866
  589.501   90.405    0.483    0.259    8.032
  590.322   91.095    0.476    0.250    8.193
  591.142   91.126    0.464    0.246    8.063
  591.962   90.606    0.453    0.244    7.932
  592.782   90.699    0.443    0.244    7.660
  593.602   90.776    0.444    0.250    7.535
  594.423   90.241    0.451    0.252    7.411
  595.243   89.706    0.461    0.258    7.023
  596.063   88.604    0.470    0.267    6.789
  596.883   86.936    0.471    0.267    6.675
  597.703   89.325    0.466    0.266    6.688
  598.524   91.117    0.459    0.254    6.582
  599.344   94.670    0.454    0.243    6.595
  600.164   96.508    0.453    0.239    6.611
  600.984   95.972    0.455    0.235    6.617
  601.804   95.468    0.455    0.232    6.633
  602.625   94.933    0.455    0.228    6.525
  603.445   95.592    0.457    0.230    5.962
  604.265   95.654    0.461    0.232    5.449
  605.085   95.134    0.489    0.236    4.799
  605.906   95.196    0.495    0.240    4.387
  606.726   95.258    0.522    0.257    4.316
  607.546   94.738    0.560    0.263    4.405
  608.366   90.743    0.557    0.253    4.413
  609.186   90.208    0.554    0.249    4.504
  610.007   93.179    0.554    0.255    4.596
  610.827   95.032    0.546    0.264    4.691
  611.647   93.900    0.541    0.272    4.969
  612.467   91.084    0.529    0.273    5.262
  613.287   89.951    0.518    0.271    5.470
  614.108   86.522    0.498    0.269    5.381
  614.928   83.094    0.488    0.266    4.829
  615.748   84.901    0.486    0.261    4.413
  616.568   87.872    0.526    0.252    4.186
  617.388   93.767    0.550    0.247    4.270
  618.209   97.902    0.577    0.248    4.524
  619.029   99.709    0.569    0.254    4.700
  619.849   99.204    0.538    0.250    5.262
  620.669   95.807    0.484    0.239    5.569
  621.490   94.092    0.472    0.230    6.350
  622.310   91.843    0.463    0.226    7.242
  623.130   90.741    0.449    0.219    7.810
  623.950   89.058    0.419    0.206    8.270
  624.770   86.211    0.389    0.174    8.290
  625.591   81.021    0.346    0.124    8.460
  626.411   74.102    0.392    0.108    8.795
  627.231   68.912    0.441    0.174    8.812
  628.051   64.902    0.455    0.219    8.351
  628.871   71.394    0.468    0.245    7.631
  629.692   72.604    0.474    0.258    6.973
  630.512   72.115    0.476    0.282    6.614
  631.332   72.162    0.474    0.279    6.385
  632.152   72.805    0.472    0.278    6.397
  632.972   73.449    0.470    0.277    6.296
  633.793   74.690    0.466    0.269    6.308
  634.613   75.916    0.462    0.254    6.208
