~VERSION INFORMATION
 VERS.                 2.0:   CWLS LOG ASCII STANDARD -VERSION 2.0
 WRAP.                  NO:   ONE LINE PER DEPTH STEP
~WELL INFORMATION BLOCK
#MNEM.UNIT           DATA                    DESCRIPTION OF MNEMONIC
#---------    -------------------            -------------------------------
# Generated from Intellog Unique Number	CS_69_70/WELL/701
NULL.         -999.25                        : NULL_VALUE
WELL.         HUSKY OIL OPERATION            : Well_name    - WELL              
LOC .         00/05-19-070-05W4/0            : Location     - LOCATION          
UWI .         00/05-19-070-05W4/0            : Uwi          - UNIQUE WELL ID    
ENTR.         SP                             : Entered      - ENTERED BY        
SRVC.         SCHLUMBERGER                   : Scn          - SERVICE COMPANY   
STRT.M        305                            : top_depth    - START DEPTH       
STOP.M        550                            : bot_depth    - STOP DEPTH        
STEP.M        0.25                           : increment    - STEP LENGTH       
~CURVE INFORMATION BLOCK
#MNEM UNIT       ERCB CURVE CODE    CURVE DESCRIPTION
#-----------   ------------------   ----------------------------------
DEPT.M        00 001 00 00         : DEPTH        - DEPTH                       
ILD .OHMM     00 120 00 00         : RESD         - DEEP RESISTIVITY (DIL)      
DPHI.V/V      00 890 00 00         : PHID         - DENSITY POROSITY (LIMESTONE)
NPHI.V/V      00 330 00 00         : PHIN         - NEUTRON POROSITY (LIMESTONE)
GR  .API      00 310 00 00         : GR           - GAMMA RAY                   
~PARAMETER INFORMATION       
#MNEM.UNIT           DATA             DESCRIPTION OF MNEMONIC
#---------         -----------     ------------------------------
GL  .M        667.3                : gl           - GROUND LEVEL ELEVATION      
EREF.M        671                  : kb           - ELEVATION OF DEPTH REFERENCE
DATM.M        667                  : datum        - DATUM ELEVATION             
TDD .M        555                  : tdd          - TOTAL DEPTH DRILLER         
RUN .         ONE                  : Run          - RUN NUMBER                  
ENG .         BILL                 : Engineer     - RECORDING ENGINEER          
WIT .         JIM                  : Witness      - WITNESSED BY                
MUD .         GEL                  : Mud_type     - MUD TYPE                    
MATR.         LIMESTONE            : Logunit      - NEUTRON MATRIX              
TMAX.C        26                   : BHT          - MAXIMUM RECORDED TEMPERATURE
BHTD.M        555                  : BHTDEP       - MAXIMUM RECORDED TEMPERATURE
MATR.         1                    : LOGUNIT      - NEUTRON MATRIX              
RMT .C        25                   : MDTP         - TEMPERATURE OF MUD          
NEUT.         1                    : NEUTRON      - NEUTRON TYPE                
RESI.         0                    : RESIST       - RESISTIVITY TYPE            
RMC .OHMM     0.25                 : RMC          - RESISTIVITY OF MUD CAKE     
RMF .OHMM     0.25                 : RMF          - RESISTIVITY OF MUD FILTRATE 
SUFT.C        15                   : SUFT         - SURFACE TEMPERATURE         
~A  DEPTH     RESD     PHID     PHIN       GR
# ...
  522.500    3.879    0.324    0.360   38.368
  522.750    3.954    0.321    0.357   35.377
  523.000    3.955    0.331    0.369   33.583
  523.250    4.030    0.321    0.370   42.036
  523.500    4.108    0.298    0.363   47.478
  523.750    4.186    0.281    0.358   49.902
  524.000    4.111    0.290    0.361   41.492
  524.250    4.112    0.308    0.372   36.688
  524.500    4.114    0.326    0.370   41.526
  524.750    4.039    0.314    0.364   45.154
  525.000    3.893    0.305    0.356   42.165
  525.250    3.752    0.317    0.371   37.969
  525.500    3.549    0.334    0.387   34.366
  525.750    3.359    0.344    0.395   27.158
  526.000    3.298    0.356    0.387   25.978
  526.250    3.238    0.343    0.379   26.590
  526.500    3.180    0.350    0.374   26.003
  526.750    3.122    0.352    0.376   21.208
  527.000    3.123    0.356    0.374   19.417
  527.250    3.124    0.353    0.367   20.034
  527.500    3.067    0.347    0.364   23.071
  527.750    3.068    0.333    0.374   27.306
  528.000    3.070    0.336    0.367   29.726
  528.250    3.071    0.328    0.362   32.155
  528.500    3.130    0.324    0.359   28.562
  528.750    3.189    0.329    0.359   27.376
  529.000    3.191    0.334    0.364   27.394
  529.250    3.252    0.328    0.376   28.613
  529.500    3.315    0.323    0.371   29.241
  529.750    3.316    0.320    0.361   28.646
  530.000    3.256    0.334    0.357   28.062
  530.250    3.257    0.347    0.373   29.889
  530.500    3.198    0.338    0.385   28.703
  530.750    3.199    0.320    0.389   27.515
  531.000    3.201    0.311    0.385   29.346
  531.250    3.202    0.321    0.377   32.376
  531.500    3.263    0.324    0.364   33.595
  531.750    3.264    0.325    0.360   30.001
  532.000    3.326    0.333    0.355   28.811
  532.250    3.328    0.336    0.352   28.829
  532.500    3.329    0.327    0.358   27.041
  532.750    3.330    0.314    0.349   24.650
  533.000    3.271    0.307    0.347   25.873
  533.250    3.271    0.311    0.372   27.696
  533.500    3.153    0.348    0.394   24.699
  533.750    3.096    0.362    0.401   23.515
  534.000    2.984    0.360    0.404   27.151
  534.250    2.930    0.355    0.389   28.974
  534.500    2.931    0.351    0.379   28.991
  534.750    2.988    0.360    0.371   30.212
  535.000    2.989    0.367    0.367   33.245
  535.250    2.990    0.355    0.380   32.059
  535.500    2.990    0.356    0.389   30.870
  535.750    2.936    0.361    0.385   29.083
  536.000    2.883    0.363    0.385   26.089
  536.250    2.831    0.368    0.389   23.697
  536.500    2.780    0.370    0.379   22.507
  536.750    2.730    0.368    0.367   23.130
  537.000    2.731    0.364    0.364   24.957
  537.250    2.681    0.363    0.373   26.184
  537.500    2.733    0.364    0.381   27.405
  537.750    2.734    0.362    0.375   27.418
  538.000    2.735    0.358    0.362   28.043
  538.250    2.736    0.357    0.371   28.055
  538.500    2.737    0.357    0.390   26.866
  538.750    2.738    0.358    0.404   25.083
  539.000    2.739    0.367    0.415   24.495
  539.250    2.740    0.375    0.409   25.118
  539.500    2.741    0.372    0.393   26.941
  539.750    2.742    0.375    0.399   28.766
  540.000    2.794    0.381    0.420   29.987
  540.250    2.795    0.380    0.439   28.799
  540.500    2.849    0.379    0.420   25.208
  540.750    2.850    0.379    0.394   24.017
  541.000    2.799    0.382    0.384   23.435
  541.250    2.748    0.371    0.376   21.649
  541.500    2.698    0.363    0.384   19.865
  541.750    2.649    0.357    0.377   19.875
  542.000    2.602    0.365    0.367   27.118
  542.250    2.701    0.366    0.361   46.414
  542.500    2.966    0.354    0.367   72.339
  542.750    3.380    0.298    0.379   89.826
  543.000    4.074    0.119    0.368   92.251
  543.250    4.909    0.116    0.355   91.066
  543.500    5.700    0.143    0.354   89.881
  543.750    6.142    0.159    0.371   87.490
  544.000    6.745    0.161    0.380   83.889
  544.250    6.873    0.153    0.388   64.631
  544.500    7.138    0.135    0.430   54.409
  544.750    7.274    0.114    0.454   50.811
  545.000    7.010    0.066    0.380   47.820
  545.250    7.279    0.030    0.321   44.822
  545.500    8.295    0.001    0.236   42.430
  545.750   11.178   -0.009    0.192   40.641
  546.000   15.063   -0.010    0.176   39.458
  546.250   18.840   -0.012    0.181   39.479
  546.500   21.875   -0.012    0.182   39.491
  546.750   24.469   -0.012    0.177   40.719
  547.000   24.940   -0.008    0.177   41.335
  547.250   25.417    0.000    0.182   42.560
  547.500   27.392    0.008    0.187   41.973
  547.750   30.075    0.015    0.194   41.388
  548.000   32.415    0.018    0.189   40.205
  548.250   33.664    0.016    0.183   39.019
  548.500   33.670    0.014    0.181   36.629
  548.750   34.962    0.017    0.186   34.840
  549.000   36.298    0.013    0.192   33.046
  549.250   37.691    0.009    0.190   30.657
  549.500   38.417    0.012    0.186   30.067
  549.750   39.149    0.015    0.184   29.483
  550.000   39.164    0.012    0.185   29.504
