~VERSION INFORMATION
 VERS.                 2.0:   CWLS LOG ASCII STANDARD -VERSION 2.0
 WRAP.                  NO:   ONE LINE PER DEPTH STEP
~WELL INFORMATION BLOCK
#MNEM.UNIT           DATA                    DESCRIPTION OF MNEMONIC
#---------    -------------------            -------------------------------
# Generated from Intellog Unique Number	CX_WELLS/WELL/3171
WELL.         ULSTER ET AL HANGST            : Well_name    - WELL
LOC .         00/02-02-083-11W4/0            : Location     - LOCATION
UWI .         00/02-02-083-11W400            : Uwi          - UNIQUE WELL ID
ENTR.         T                              : Entered      - ENTERED BY
SRVC.         SCHLUMBERGER                   : Scn          - SERVICE COMPANY
STRT.M        285                            : top_depth    - START DEPTH
STOP.M        510                            : bot_depth    - STOP DEPTH
STEP.M        0.25                           : increment    - STEP LENGTH
 NULL. -999.2500:NULL Value
~CURVE INFORMATION BLOCK
#MNEM UNIT       ERCB CURVE CODE    CURVE DESCRIPTION
#-----------   ------------------   ----------------------------------
DEPT.M        00 001 00 00         : DEPTH        - DEPTH
GR  .API      00 310 00 00         : GR           - GAMMA RAY
NPHI.V/V      00 330 00 00         : PHIN         - NEUTRON POROSITY (SANDSTONE)
DPHI.V/V      00 890 00 00         : PHID         - DENSITY POROSITY (SANDSTONE)
ILD .OHMM     00 120 00 00         : RESD         - DEEP RESISTIVITY (DIL)
~PARAMETER INFORMATION
#MNEM.UNIT           DATA             DESCRIPTION OF MNEMONIC
#---------         -----------     ------------------------------
GL  .M        733                  : gl           - GROUND LEVEL ELEVATION
EREF.M        736.9                : kb           - ELEVATION OF DEPTH REFERENCE
DATM.M        736.9                : datum        - DATUM ELEVATION
TDD .M        508                  : tdd          - TOTAL DEPTH DRILLER
RUN .         ONE                  : Run          - RUN NUMBER
ENG .         BILL                 : Engineer     - RECORDING ENGINEER
WIT .         JIM                  : Witness      - WITNESSED BY
MUD .         GEL                  : Mud_type     - MUD TYPE
MATR.         SANDSTONE            : Logunit      - NEUTRON MATRIX
TMAX.C        23                   : BHT          - MAXIMUM RECORDED TEMPERATURE
BHTD.M        508                  : BHTDEP       - MAXIMUM RECORDED TEMPERATURE
MATR.         1                    : LOGUNIT      - NEUTRON MATRIX
RMT .C        20                   : MDTP         - TEMPERATURE OF MUD
NEUT.         1                    : NEUTRON      - NEUTRON TYPE
RESI.         4.2                  : RESIST       - RESISTIVITY TYPE
RMC .OHMM     4.2                  : RMC          - RESISTIVITY OF MUD CAKE
RMF .OHMM     3.75                 : RMF          - RESISTIVITY OF MUD FILTRATE
SUFT.C        15                   : SUFT         - SURFACE TEMPERATURE
~A  DEPTH       GR     PHIN     PHID     RESD
# ...
  459.000  114.674    0.419    0.243    8.807
  459.250  117.019    0.417    0.243    9.488
  459.500  103.416    0.413    0.251   10.210
  459.750   92.659    0.410    0.260   11.191
  460.000   79.611    0.403    0.274   12.047
  460.250   77.376    0.373    0.284   13.700
  460.500   73.460    0.365    0.285   14.474
  460.750   77.498    0.344    0.270   17.055
  461.000   82.105    0.345    0.258   19.750
  461.250   86.712    0.347    0.252   19.770
  461.500   89.042    0.351    0.244   17.137
  461.750   91.386    0.360    0.230   15.963
  462.000   88.040    0.366    0.220   15.412
  462.250   86.387    0.375    0.216   15.167
  462.500   88.148    0.384    0.221   15.177
  462.750   92.172    0.393    0.229   14.925
  463.000   97.931    0.400    0.228   14.946
  463.250  104.827    0.406    0.205   14.966
  463.500  104.313    0.409    0.196   14.987
  463.750  101.522    0.397    0.198   15.007
  464.000   97.593    0.379    0.203   14.758
  464.250   94.788    0.350    0.203   14.778
  464.500   91.428    0.344    0.193   14.804
  464.750   88.069    0.348    0.180   14.824
  465.000   84.153    0.352    0.189   15.120
  465.250   84.194    0.354    0.212   15.407
  465.500   81.986    0.359    0.238   17.207
  465.750   79.750    0.381    0.247   18.861
  466.000   75.835    0.388    0.261   19.576
  466.250   75.334    0.392    0.269   20.703
  466.500   75.957    0.392    0.272   21.487
  466.750   78.274    0.394    0.274   22.731
  467.000   78.329    0.395    0.277   23.170
  467.250   74.996    0.399    0.278   24.950
  467.500   73.329    0.402    0.280   25.431
  467.750   72.232    0.405    0.282   26.395
  468.000   71.731    0.407    0.284   27.414
  468.250   74.048    0.410    0.284   29.510
  468.500   76.392    0.414    0.285   31.208
  468.750   74.739    0.416    0.285   32.391
  469.000   73.656    0.415    0.288   34.892
  469.250   72.003    0.406    0.290   35.553
  469.500   70.919    0.402    0.290   36.925
  469.750   69.822    0.395    0.290   36.988
  470.000   67.613    0.392    0.290   37.013
  470.250   64.809    0.393    0.291   37.077
  470.500   62.018    0.393    0.295   37.818
  470.750   60.365    0.391    0.300   37.843
  471.000   59.309    0.385    0.303   37.921
  471.250   59.932    0.389    0.303   38.666
  471.500   59.417    0.396    0.303   38.732
  471.750   58.903    0.393    0.303   38.758
  472.000   56.694    0.387    0.306   40.254
  472.250   56.153    0.380    0.312   41.031
  472.500   53.944    0.374    0.317   43.377
  472.750   53.430    0.375    0.315   45.873
  473.000   55.178    0.380    0.303   43.510
  473.250   58.673    0.382    0.301   42.774
  473.500   59.297    0.384    0.301   41.340
  473.750   59.351    0.386    0.301   40.627
  474.000   59.392    0.389    0.307   39.953
  474.250   60.611    0.392    0.314   40.008
  474.500   61.208    0.392    0.317   40.076
  474.750   62.400    0.396    0.318   40.117
  475.000   62.468    0.398    0.318   39.479
  475.250   55.680    0.398    0.316   39.519
  475.500   54.028    0.398    0.315   38.851
  475.750   55.816    0.392    0.315   38.944
  476.000   58.716    0.388    0.314   38.984
  476.250   59.908    0.380    0.314   38.324
  476.500   54.828    0.369    0.318   38.390
  476.750   53.744    0.358    0.320   37.753
  477.000   56.088    0.356    0.318   37.792
  477.250   58.974    0.371    0.316   37.178
  477.500   61.331    0.379    0.312   37.216
  477.750   61.386    0.383    0.310   37.267
  478.000   61.440    0.383    0.312   37.318
  478.250   60.925    0.379    0.312   37.369
  478.500   58.121    0.378    0.309   38.798
  478.750   54.761    0.377    0.309   38.155
  479.000   57.092    0.377    0.310   34.291
  479.250   61.698    0.378    0.303   31.942
  479.500   65.749    0.378    0.285   29.753
  479.750   66.400    0.379    0.283   28.726
  480.000   65.858    0.380    0.283   27.762
  480.250   65.357    0.380    0.283   27.302
  480.500   64.273    0.380    0.282   27.330
  480.750   64.897    0.379    0.280   27.367
  481.000   64.951    0.383    0.278   28.933
  481.250   63.298    0.386    0.280   30.608
  481.500   60.508    0.388    0.286   30.639
  481.750   58.272    0.389    0.294   31.800
  482.000   59.492    0.393    0.300   31.844
  482.250   61.809    0.396    0.300   31.887
  482.500   65.860    0.404    0.301   31.942
  482.750   61.348    0.411    0.304   29.743
  483.000   55.143    0.415    0.309   27.209
  483.250   50.076    0.419    0.313   24.445
  483.500   46.716    0.413    0.315   21.969
  483.750   43.356    0.402    0.316   20.471
  484.000   43.411    0.404    0.311   19.410
  484.250   51.432    0.397    0.308   18.404
  484.500   62.325    0.390    0.295   16.842
  484.750   66.349    0.385    0.273   15.975
  485.000   72.107    0.380    0.257   15.996
  485.250   75.576    0.374    0.248   16.018
  485.500   76.213    0.360    0.252   16.934
  485.750   74.546    0.362    0.255   17.576
  486.000   72.894    0.366    0.260   18.248
  486.250   71.268    0.370    0.263   18.946
  486.500   70.726    0.363    0.264   18.978
  486.750   69.656    0.357    0.264   19.004
  487.000   69.128    0.356    0.254   19.023
  487.250   70.903    0.349    0.247   19.056
  487.500   79.493    0.336    0.243   19.082
  487.750   92.080    0.326    0.237   18.766
  488.000   94.993    0.326    0.230   17.793
  488.250   93.340    0.327    0.221   16.574
  488.500   93.394    0.328    0.213   15.439
  488.750   95.711    0.329    0.198   14.643
  489.000   99.762    0.332    0.193   13.894
  489.250   96.403    0.338    0.207   13.178
  489.500   91.335    0.340    0.221   12.728
  489.750   88.531    0.347    0.231   12.517
  490.000   81.757    0.351    0.240   13.232
  490.250   79.535    0.358    0.251   15.318
  490.500   76.189    0.361    0.259   17.409
  490.750   73.981    0.362    0.265   19.785
  491.000   73.439    0.363    0.270   21.679
  491.250   71.786    0.366    0.273   25.554
  491.500   70.147    0.369    0.277   25.589
  491.750   69.632    0.370    0.280   24.279
  492.000   83.912    0.375    0.284   23.441
  492.250   95.930    0.379    0.286   21.067
  492.500  104.520    0.386    0.283   18.920
  492.750  102.867    0.390    0.252   16.688
  493.000   98.369    0.388    0.258   15.545
  493.250   95.023    0.358    0.267   15.292
  493.500   96.798    0.350    0.263   15.323
  493.750  100.822    0.340    0.216   15.059
  494.000  108.843    0.340    0.193   14.284
  494.250  119.723    0.365    0.189   12.837
  494.500  120.915    0.390    0.217   12.854
  494.750  116.417    0.408    0.235   13.833
  495.000  111.350    0.410    0.254   15.726
  495.250  107.448    0.395    0.267   17.232
  495.500  107.476    0.389    0.269   18.549
  495.750  107.530    0.388    0.267   19.617
  496.000  107.015    0.386    0.262   19.651
  496.250  107.083    0.391    0.258   19.664
  496.500  107.720    0.394    0.250   18.317
  496.750  107.761    0.395    0.241   15.872
  497.000  107.260    0.396    0.271   14.264
  497.250  105.038    0.396    0.293   13.776
  497.500  102.803    0.397    0.301   14.825
  497.750  101.163    0.398    0.311   18.118
  498.000  100.649    0.396    0.315   21.356
  498.250  100.717    0.390    0.319   23.828
  498.500  100.717    0.384    0.320   25.199
  498.750   97.425    0.382    0.318   22.226
  499.000   98.034    0.379    0.316   20.333
  499.250   98.644    0.378    0.313   18.267
  499.500   99.281    0.378    0.302   16.411
  499.750  100.487    0.382    0.304   13.970
  500.000  101.083    0.388    0.305   13.246
  500.250  101.707    0.388    0.307   12.564
  500.500   99.485    0.388    0.311   11.917
  500.750   99.539    0.391    0.312   11.719
  501.000  100.163    0.391    0.312   11.735
  501.250  100.800    0.385    0.299   11.751
  501.500  101.992    0.371    0.286   12.201
  501.750  102.615    0.378    0.253   13.373
  502.000  103.252    0.381    0.273   14.659
  502.250  100.475    0.369    0.295   17.594
