~VERSION INFORMATION
 VERS.                 2.0:   CWLS LOG ASCII STANDARD -VERSION 2.0
 WRAP.                  NO:   ONE LINE PER DEPTH STEP
~WELL INFORMATION BLOCK
#MNEM.UNIT           DATA                    DESCRIPTION OF MNEMONIC
#---------    -------------------            -------------------------------
# Generated from Intellog Unique Number	CS_77_79/WELL/886
WELL.         PEX LOUGHERY                   : Well_name    - WELL
LOC .         00/06-30-078-05W4/0            : Location     - LOCATION
UWI .         00/06-30-078-05W4/0            : Uwi          - UNIQUE WELL ID
ENTR.         JHS                            : Entered      - ENTERED BY
SRVC.         SCHLUMBERGER                   : Scn          - SERVICE COMPANY
STRT.M        115                            : top_depth    - START DEPTH
STOP.M        390                            : bot_depth    - STOP DEPTH
STEP.M        0.25                           : increment    - STEP LENGTH
 NULL. -999.2500:NULL Value
~CURVE INFORMATION BLOCK
#MNEM UNIT       ERCB CURVE CODE    CURVE DESCRIPTION
#-----------   ------------------   ----------------------------------
DEPT.M        00 001 00 00         : DEPTH        - DEPTH
DPHI.V/V      00 890 00 00         : PHID         - DENSITY POROSITY (LIMESTONE)
NPHI.V/V      00 330 00 00         : PHIN         - NEUTRON POROSITY (LIMESTONE)
GR  .API      00 310 00 00         : GR           - GAMMA RAY
ILD .OHMM     00 120 00 00         : RESD         - DEEP RESISTIVITY (DIL)
RHOB.KG/M3    00 350 00 00         : DENS         - BULK DENSITY
~PARAMETER INFORMATION
#MNEM.UNIT           DATA             DESCRIPTION OF MNEMONIC
#---------         -----------     ------------------------------
GL  .M        552.72               : gl           - GROUND LEVEL ELEVATION
EREF.M        555.82               : kb           - ELEVATION OF DEPTH REFERENCE
DATM.M        555.82               : datum        - DATUM ELEVATION
TDD .M        398                  : tdd          - TOTAL DEPTH DRILLER
RUN .         ONE                  : Run          - RUN NUMBER
ENG .         BILL                 : Engineer     - RECORDING ENGINEER
WIT .         JIM                  : Witness      - WITNESSED BY
MUD .         GEL                  : Mud_type     - MUD TYPE
MATR.         LIMESTONE            : Logunit      - NEUTRON MATRIX
TMAX.C        18.5                 : BHT          - MAXIMUM RECORDED TEMPERATURE
BHTD.M        398                  : BHTDEP       - MAXIMUM RECORDED TEMPERATURE
MATR.         1                    : LOGUNIT      - NEUTRON MATRIX
RMT .C        25                   : MDTP         - TEMPERATURE OF MUD
NEUT.         1                    : NEUTRON      - NEUTRON TYPE
RESI.         0                    : RESIST       - RESISTIVITY TYPE
RMC .OHMM     0.25                 : RMC          - RESISTIVITY OF MUD CAKE
RMF .OHMM     0.25                 : RMF          - RESISTIVITY OF MUD FILTRATE
SUFT.C        15                   : SUFT         - SURFACE TEMPERATURE
~A  DEPTH     PHID     PHIN       GR     RESD     DENS
  115.000    0.291    0.553  106.516    3.748    0.000
  115.250    0.300    0.553  105.891    3.613    0.000
  115.500    0.298    0.532  105.878    3.484    0.000
  115.750    0.299    0.524  110.153    3.486    0.000
  116.000    0.285    0.524  111.362    3.425    0.000
  116.250    0.285    0.517  108.902    3.366    0.000
  116.500    0.294    0.517  107.668    3.369    0.000
  116.750    0.304    0.541  105.816    3.373    0.000
  117.000    0.308    0.536  107.643    3.376    0.000
  117.250    0.294    0.530  115.589    3.317    0.000
  117.500    0.303    0.535  118.025    3.259    0.000
  117.750    0.309    0.555  113.726    3.201    0.000
  118.000    0.302    0.547  111.265    3.144    0.000
  118.250    0.303    0.531  108.193    3.088    0.000
  118.500    0.313    0.556  103.895    3.034    0.000
  118.750    0.324    0.592  106.331    3.038    0.000
  119.000    0.330    0.614  112.438    2.983    0.000
  119.250    0.331    0.621  113.041    2.987    0.000
  119.500    0.320    0.621  112.414    2.934    0.000
  119.750    0.307    0.592  116.074    2.938    0.000
  120.000    0.309    0.554  117.286    2.941    0.000
  120.250    0.305    0.532  116.661    2.944    0.000
  120.500    0.288    0.532  116.038    2.947    0.000
  120.750    0.289    0.559  111.128    2.951    0.000
  121.000    0.302    0.572  109.281    2.953    0.000
  121.250    0.298    0.576  113.553    2.956    0.000
  121.500    0.286    0.575  114.765    3.017    0.000
  121.750    0.294    0.569  110.468    3.078    0.000
  122.000    0.302    0.556  107.392    3.080    0.000
  122.250    0.298    0.551  107.379    3.142    0.000
  122.500    0.301    0.566  107.368    3.207    0.000
  122.750    0.303    0.579  106.133    3.270    0.000
  123.000    0.303    0.550  107.345    3.336    0.000
  123.250    0.300    0.533  104.271    3.404    0.000
  123.500    0.306    0.553   99.360    3.407    0.000
  123.750    0.318    0.577   99.349    3.285    0.000
  124.000    0.327    0.582  109.744    3.167    0.000
  124.250    0.332    0.555  115.238    2.995    0.000
  124.500    0.330    0.547  107.270    2.782    0.000
  124.750    0.317    0.550   98.076    2.681    0.000
  125.000    0.310    0.557   96.838    2.634    0.000
  125.250    0.317    0.571  101.111    2.587    0.000
  125.500    0.330    0.611  104.770    2.589    0.000
  125.750    0.344    0.614  100.472    2.544    0.000
  126.000    0.351    0.594   97.400    2.548    0.000
  126.250    0.289    0.570   94.328    2.549    0.000
  126.500    0.258    0.543   91.864    2.601    0.000
  126.750    0.253    0.522   97.976    2.604    0.000
  127.000    0.297    0.527  102.859    2.657    0.000
  127.250    0.321    0.552   99.787    2.660    0.000
  127.500    0.306    0.561   95.488    2.662    0.000
  127.750    0.297    0.584   96.702    2.615    0.000
  128.000    0.304    0.557  104.035    2.569    0.000
  128.250    0.311    0.541  107.083    2.572    0.000
  128.500    0.306    0.600  102.786    2.526    0.000
  128.750    0.287    0.612   92.979    2.529    0.000
  129.000    0.263    0.587   88.681    2.532    0.000
  129.250    0.267    0.563   96.627    2.535    0.000
  129.500    0.291    0.560  103.349    2.538    0.000
  129.750    0.300    0.573  102.723    2.541    0.000
  130.000    0.304    0.572   92.305    2.544    0.000
  130.250    0.312    0.578   90.455    2.545    0.000
  130.500    0.306    0.585   95.338    2.698    0.000
  130.750    0.268    0.587   98.389    2.805    0.000
  131.000    0.234    0.567   97.764    2.860    0.000
  131.250    0.202    0.547   98.362    3.088    0.000
  131.500    0.265    0.568   98.962    3.150    0.000
  131.750    0.287    0.582   99.562    3.214    0.000
  132.000    0.282    0.561  101.388    3.280    0.000
  132.250    0.277    0.547  101.986    3.282    0.000
  132.500    0.263    0.557   98.303    3.348    0.000
  132.750    0.261    0.566   96.454    3.352    0.000
  133.000    0.257    0.560   98.274    3.483    0.000
  133.250    0.254    0.548   97.040    3.691    0.000
  133.500    0.259    0.529   96.415    3.765    0.000
  133.750    0.271    0.529  101.913    3.699    0.000
  134.000    0.273    0.543  105.571    3.566    0.000
  134.250    0.260    0.530  106.786    3.438    0.000
  134.500    0.261    0.518  105.549    3.314    0.000
  134.750    0.269    0.513  101.863    3.318    0.000
  135.000    0.264    0.505   96.341    3.385    0.000
  135.250    0.253    0.511   93.267    3.724    0.000
  135.500    0.231    0.537   87.134    4.019    0.000
  135.750    0.213    0.532   70.593    4.591    0.000
  136.000    0.162    0.335   52.828    5.551    0.000
  136.250    0.130    0.299   39.960    7.805    0.000
  136.500    0.243    0.328   34.435   10.370    0.000
  136.750    0.300    0.383   33.201   12.775    0.000
  137.000    0.330    0.421   32.576   16.350    0.000
  137.250    0.360    0.435   39.296   17.985    0.000
  137.500    0.368    0.423   47.243   16.703    0.000
  137.750    0.338    0.419   56.414   15.790    0.000
  138.000    0.273    0.435   79.664   12.139    0.000
  138.250    0.250    0.475   95.568    8.985    0.000
  138.500    0.259    0.494  100.453    6.052    0.000
  138.750    0.265    0.499  101.050    4.565    0.000
  139.000    0.263    0.528  102.877    4.080    0.000
  139.250    0.259    0.542   96.741    4.242    0.000
  139.500    0.263    0.522   88.773    5.427    0.000
  139.750    0.279    0.468   80.189    7.348    0.000
  140.000    0.297    0.426   78.334    9.581    0.000
  140.250    0.283    0.407   83.835   11.368    0.000
  140.500    0.272    0.427   90.558   12.742    0.000
  140.750    0.262    0.431   96.055   13.758    0.000
  141.000    0.262    0.441   92.979   13.516    0.000
  141.250    0.285    0.450   80.115   13.533    0.000
  141.500    0.313    0.435   70.306   14.069    0.000
  141.750    0.325    0.419   68.457   15.184    0.000
  142.000    0.322    0.408   72.118   16.703    0.000
  142.250    0.299    0.414   81.900   16.722    0.000
  142.500    0.283    0.430   88.623   14.127    0.000
  142.750    0.277    0.437   95.955   11.275    0.000
  143.000    0.266    0.445  100.840    9.348    0.000
  143.250    0.273    0.461   99.604    8.679    0.000
  143.500    0.306    0.492   79.392    9.023    0.000
  143.750    0.328    0.472   73.254    9.738    0.000
  144.000    0.354    0.445   73.245   11.552    0.000
  144.250    0.360    0.460   75.678   15.061    0.000
  144.500    0.348    0.477   80.565   18.211    0.000
  144.750    0.346    0.460   87.900   21.611    0.000
  145.000    0.332    0.444   97.680   22.041    0.000
  145.250    0.305    0.445  103.177   18.620    0.000
  145.500    0.288    0.470  103.165   15.144    0.000
  145.750    0.273    0.475   90.910   11.422    0.000
  146.000    0.273    0.454   81.101   10.213    0.000
  146.250    0.276    0.434   78.640   10.617    0.000
  146.500    0.276    0.398   76.178   11.246    0.000
  146.750    0.224    0.383   70.045   14.664    0.000
  147.000    0.174    0.372   65.748   17.727    0.000
  147.250    0.213    0.373   66.348   19.875    0.000
  147.500    0.273    0.405   79.191   20.278    0.000
  147.750    0.246    0.404   85.301   19.179    0.000
  148.000    0.259    0.403   87.126   16.829    0.000
  148.250    0.278    0.406   83.440   15.922    0.000
  148.500    0.259    0.415   82.203   15.341    0.000
  148.750    0.249    0.419   85.863   15.072    0.000
  149.000    0.250    0.410   88.301   14.807    0.000
  149.250    0.250    0.436   93.186   14.273    0.000
  149.500    0.261    0.469   90.113   14.291    0.000
  149.750    0.274    0.438   69.286   15.137    0.000
  150.000    0.297    0.386   65.601   15.446    0.000
  150.250    0.297    0.366   77.218   14.612    0.000
  150.500    0.334    0.420   71.085   14.901    0.000
  150.750    0.375    0.499   58.217   17.028    0.000
  151.000    0.424    0.613   45.959   20.203    0.000
  151.250    0.333    0.493   41.660   23.074    0.000
