~VERSION INFORMATION
 VERS.                 2.0:   CWLS LOG ASCII STANDARD -VERSION 2.0
 WRAP.                  NO:   ONE LINE PER DEPTH STEP
~WELL INFORMATION BLOCK
#MNEM.UNIT           DATA                    DESCRIPTION OF MNEMONIC
#---------    -------------------            -------------------------------
# Generated from Intellog Unique Number	CW_79_81/WELL/2443
WELL.         04-01-080-22W4                 : Well_name    - WELL
LOC .         00/04-01-080-22W4/0            : Location     - LOCATION
UWI .         00/04-01-080-22W4/0            : Uwi          - UNIQUE WELL ID
ENTR.         MAX                            : Entered      - ENTERED BY
SRVC.         COMPUTALOG                     : Scn          - SERVICE COMPANY
STRT.M        215                            : top_depth    - START DEPTH
STOP.M        474.75                         : bot_depth    - STOP DEPTH
STEP.M        0.25                           : increment    - STEP LENGTH
 NULL. -999.2500:NULL Value
~CURVE INFORMATION BLOCK
#MNEM UNIT       ERCB CURVE CODE    CURVE DESCRIPTION
#-----------   ------------------   ----------------------------------
DEPT.M        00 001 00 00         : DEPTH        - DEPTH
ILD .OHMM     00 120 00 00         : RESD         - DEEP RESISTIVITY (DIL)
NPHI.V/V      00 330 00 00         : PHIN         - NEUTRON POROSITY (SANDSTONE)
DPHI.V/V      00 890 00 00         : PHID         - DENSITY POROSITY (SANDSTONE)
GR  .API      00 310 00 00         : GR           - GAMMA RAY
CALI.MM       00 280 01 00         : CAL          - CALIPER
~PARAMETER INFORMATION
#MNEM.UNIT           DATA             DESCRIPTION OF MNEMONIC
#---------         -----------     ------------------------------
GL  .M        585.4                : gl           - GROUND LEVEL ELEVATION
EREF.M        590                  : kb           - ELEVATION OF DEPTH REFERENCE
DATM.M        585.4                : datum        - DATUM ELEVATION
TDD .M        477                  : tdd          - TOTAL DEPTH DRILLER
RUN .         ONE                  : Run          - RUN NUMBER
ENG .         BILL                 : Engineer     - RECORDING ENGINEER
WIT .         JIM                  : Witness      - WITNESSED BY
MUD .         GEL                  : Mud_type     - MUD TYPE
MATR.         SANDSTONE            : Logunit      - NEUTRON MATRIX
TMAX.C        30                   : BHT          - MAXIMUM RECORDED TEMPERATURE
BHTD.M        477                  : BHTDEP       - MAXIMUM RECORDED TEMPERATURE
MATR.         1                    : LOGUNIT      - NEUTRON MATRIX
RMT .C        20                   : MDTP         - TEMPERATURE OF MUD
NEUT.         1                    : NEUTRON      - NEUTRON TYPE
RESI.         0                    : RESIST       - RESISTIVITY TYPE
RMC .OHMM     8                    : RMC          - RESISTIVITY OF MUD CAKE
RMF .OHMM     10                   : RMF          - RESISTIVITY OF MUD FILTRATE
SUFT.C        -20                  : SUFT         - SURFACE TEMPERATURE
~A  DEPTH     RESD     PHIN     PHID       GR      CAL
# ...
  288.000   25.416    0.366    0.303   46.530  224.826
  288.250   25.643    0.364    0.300   51.102  224.573
  288.500   25.841    0.414    0.304   56.078  227.456
  288.750   26.417    0.424    0.311   56.296  232.618
  289.000   26.859    0.433    0.311   56.875  235.081
  289.250   27.258    0.431    0.313   54.936  235.447
  289.500   27.713    0.416    0.319   51.860  233.617
  289.750   28.420    0.399    0.323   53.029  228.367
  290.000   28.860    0.401    0.322   51.759  226.247
  290.250   29.073    0.415    0.328   55.096  225.421
  290.500   29.128    0.441    0.322   55.736  224.589
  290.750   29.021    0.459    0.317   52.600  223.757
  291.000   28.809    0.456    0.315   47.425  222.924
  291.250   28.686    0.423    0.316   44.913  221.918
  291.500   29.130    0.406    0.314   45.644  221.054
  291.750   29.561    0.396    0.314   40.108  220.621
  292.000   29.672    0.395    0.308   43.563  220.487
  292.250   29.672    0.389    0.303   49.059  220.454
  292.500   29.673    0.390    0.302   52.399  220.321
  292.750   29.673    0.441    0.306   51.883  219.800
  293.000   29.674    0.457    0.323   50.615  219.346
  293.250   29.025    0.436    0.320   51.556  219.315
  293.500   28.391    0.419    0.318   50.876  219.285
  293.750   27.771    0.410    0.316   49.895  219.252
  294.000   27.319    0.411    0.313   49.576  219.216
  294.250   27.361    0.412    0.316   51.312  219.178
  294.500   27.572    0.414    0.327   55.290  219.140
  294.750   27.572    0.443    0.327   54.549  219.506
  295.000   27.118    0.469    0.321   51.474  219.877
  295.250   26.228    0.487    0.315   48.457  220.047
  295.500   25.195    0.491    0.314   46.578  219.913
  295.750   24.429    0.463    0.322   45.897  219.558
  296.000   24.244    0.439    0.321   47.376  219.946
  296.250   24.423    0.373    0.317   52.629  219.912
  296.500   24.333    0.419    0.306   56.084  220.775
  296.750   23.797    0.452    0.296   56.665  221.539
  297.000   23.027    0.422    0.290   55.571  221.906
  297.250   22.560    0.365    0.293   56.815  222.353
  297.500   22.734    0.417    0.300   59.542  222.737
  297.750   23.241    0.457    0.313   63.839  224.306
  298.000   23.500    0.474    0.328   65.435  226.171
  298.250   23.674    0.479    0.338   65.056  227.538
  298.500   23.762    0.481    0.342   61.505  227.406
  298.750   23.479    0.491    0.343   51.549  224.148
  299.000   22.947    0.483    0.345   51.029  222.028
  299.250   22.115    0.451    0.342   52.926  221.195
  299.500   22.037    0.419    0.344   51.589  220.370
  299.750   22.444    0.403    0.345   49.532  219.740
  300.000   23.116    0.401    0.343   47.474  219.504
  300.250   23.881    0.399    0.335   44.732  219.864
  300.500   24.251    0.408    0.328   46.709  219.833
  300.750   24.611    0.412    0.325   51.006  220.195
  301.000   24.839    0.414    0.330   50.627  220.266
  301.250   24.839    0.416    0.333   50.369  220.237
  301.500   24.566    0.416    0.334   52.447  220.206
  301.750   23.806    0.410    0.337   56.597  220.082
  302.000   22.742    0.411    0.336   57.076  219.627
  302.250   22.575    0.420    0.327   56.340  219.600
  302.500   22.784    0.435    0.322   53.622  219.566
  302.750   23.457    0.432    0.323   49.286  219.730
  303.000   24.389    0.410    0.326   44.951  219.997
  303.250   25.011    0.401    0.326   43.836  219.960
  303.500   25.398    0.399    0.327   45.568  219.925
  303.750   25.586    0.405    0.326   46.027  219.888
  304.000   25.775    0.397    0.319   48.645  219.861
  304.250   26.156    0.383    0.313   50.304  219.831
  304.500   26.693    0.378    0.309   49.806  219.894
  304.750   27.254    0.406    0.306   48.413  220.252
  305.000   28.105    0.399    0.300   51.139  220.227
  305.250   29.581    0.395    0.294   54.478  219.794
  305.500   31.308    0.390    0.284   58.713  218.462
  305.750   33.903    0.388    0.246   64.329  217.231
  306.000   37.355    0.392    0.164   68.867  217.199
  306.250   41.174    0.407    0.038   67.374  219.637
  306.500   46.615    0.401    0.053   69.601  220.021
  306.750   48.354    0.395    0.107   73.899  219.984
  307.000   47.737    0.387    0.162   78.915  220.255
  307.250   45.302    0.387    0.214   83.571  220.424
  307.500   41.510    0.396    0.250   88.588  220.092
  307.750   35.445    0.409    0.247   92.882  218.773
  308.000   30.258    0.428    0.255   74.875  218.321
  308.250   25.852    0.429    0.270   66.943  218.288
  308.500   23.312    0.412    0.287   62.788  218.257
  308.750   21.843    0.408    0.290   64.326  218.023
  309.000   20.982    0.430    0.280   69.460  217.888
  309.250   20.345    0.473    0.274   72.676  218.984
  309.500   20.190    0.458    0.282   75.649  220.618
  309.750   20.042    0.439    0.280   74.673  221.376
  310.000   19.785    0.365    0.266   66.502  221.244
  310.250   19.352    0.311    0.205   60.128  220.812
  310.500   18.684    0.319    0.135   60.469  220.479
  310.750   17.501    0.406    0.179   68.657  220.606
  311.000   16.342    0.447    0.275   70.135  221.411
  311.250   15.867    0.454    0.262   65.320  221.777
  311.500   15.753    0.457    0.259   66.620  222.145
  311.750   16.213    0.480    0.268   69.478  222.512
  312.000   17.170    0.511    0.283   70.298  222.777
  312.250   18.795    0.497    0.276   64.640  222.826
  312.500   23.396    0.475    0.243   55.625  223.208
  312.750   25.347    0.264    0.166   55.603  223.567
  313.000   28.496    0.179    0.103   57.563  223.939
  313.250   31.662    0.150    0.062   59.104  224.508
  313.500   34.265    0.135    0.042   58.425  225.172
  313.750   38.199    0.121    0.023   53.327  225.535
  314.000   40.630    0.112    0.002   48.311  225.504
  314.250   41.840    0.101   -0.011   52.129  225.870
  314.500   42.154    0.097   -0.013   52.169  227.132
  314.750   41.688    0.101   -0.008   50.829  228.897
  315.000   39.830    0.140    0.026   52.606  231.464
  315.250   33.993    0.290    0.157   65.295  236.569
  315.500   27.361    0.445    0.246   71.269  240.284
  315.750   18.651    0.435    0.256   74.127  245.442
  316.000   15.775    0.423    0.274   74.826  246.112
  316.250   14.747    0.411    0.292   74.087  241.686
  316.500   14.480    0.402    0.305   73.830  234.160
  316.750   14.374    0.408    0.305   77.111  227.709
  317.000   14.374    0.401    0.283   76.840  225.596
  317.250   14.269    0.424    0.279   77.059  222.762
  317.500   14.086    0.440    0.269   77.640  220.529
  317.750   13.569    0.437    0.253   81.700  219.498
  318.000   12.772    0.420    0.231   86.537  219.466
  318.250   11.508    0.403    0.203   83.834  219.590
  318.500    9.680    0.380    0.205   84.814  220.395
  318.750    9.123    0.367    0.220   91.745  223.961
  319.000    8.845    0.373    0.216   92.745  223.629
  319.250    8.685    0.386    0.206   92.726  222.396
  319.500    8.590    0.402    0.198   93.905  221.863
  319.750    8.603    0.420    0.192   95.652  222.302
  320.000    8.670    0.418    0.182   94.884  222.687
  320.250    8.670    0.404    0.178   95.343  222.657
  320.500    8.718    0.386    0.183   97.962  222.324
  320.750    8.814    0.382    0.185   97.463  221.293
  321.000    8.913    0.389    0.183   92.887  219.864
  321.250    8.913    0.391    0.189   88.084  218.857
  321.500    8.913    0.408    0.193   90.567  217.990
  321.750    8.913    0.418    0.181   93.424  217.157
  322.000    9.012    0.422    0.169   95.920  216.926
  322.250    9.212    0.417    0.158   96.019  216.896
  322.500    9.437    0.406    0.153   94.380  216.864
  322.750    9.521    0.394    0.167   95.058  216.987
  323.000    9.595    0.397    0.176   98.536  217.788
  323.250    9.595    0.394    0.178   99.475  218.554
  323.500    9.489    0.414    0.188   96.999  218.723
  323.750    9.281    0.432    0.198   93.022  218.689
  324.000    9.080    0.432    0.201   89.165  218.354
  324.250    9.094    0.410    0.188   86.944  216.869
