~VERSION INFORMATION
 VERS.                 2.0:   CWLS LOG ASCII STANDARD -VERSION 2.0
 WRAP.                  NO:   ONE LINE PER DEPTH STEP
~WELL INFORMATION BLOCK
#MNEM.UNIT           DATA                    DESCRIPTION OF MNEMONIC
#---------    -------------------            -------------------------------
# Generated from Intellog Unique Number	CS_67_68/WELL/2167
WELL.         06-13-067-07W4                 : Well_name    - WELL
LOC .         00/06-13-067-07W4/0            : Location     - LOCATION
UWI .         00/06-13-067-07W4/0            : Uwi          - UNIQUE WELL ID
ENTR.         SP                             : Entered      - ENTERED BY
SRVC.         SCHLUMBERGER                   : Scn          - SERVICE COMPANY
STRT.M        330                            : top_depth    - START DEPTH
STOP.M        545                            : bot_depth    - STOP DEPTH
STEP.M        0.25                           : increment    - STEP LENGTH
 NULL. -999.2500:NULL Value
~CURVE INFORMATION BLOCK
#MNEM UNIT       ERCB CURVE CODE    CURVE DESCRIPTION
#-----------   ------------------   ----------------------------------
DEPT.M        00 001 00 00         : DEPTH        - DEPTH
ILD .OHMM     00 120 00 00         : RESD         - DEEP RESISTIVITY (DIL)
DPHI.V/V      00 890 00 00         : PHID         - DENSITY POROSITY (LIMESTONE)
NPHI.V/V      00 330 00 00         : PHIN         - NEUTRON POROSITY (LIMESTONE)
GR  .API      00 310 00 00         : GR           - GAMMA RAY
CALI.MM       00 280 01 00         : CAL          - CALIPER
~PARAMETER INFORMATION
#MNEM.UNIT           DATA             DESCRIPTION OF MNEMONIC
#---------         -----------     ------------------------------
GL  .M        648.63               : gl           - GROUND LEVEL ELEVATION
EREF.M        652.41               : kb           - ELEVATION OF DEPTH REFERENCE
DATM.M        652.41               : datum        - DATUM ELEVATION
TDD .M        553                  : tdd          - TOTAL DEPTH DRILLER
RUN .         ONE                  : Run          - RUN NUMBER
ENG .         BILL                 : Engineer     - RECORDING ENGINEER
WIT .         JIM                  : Witness      - WITNESSED BY
MUD .         GEL                  : Mud_type     - MUD TYPE
MATR.         LIMESTONE            : Logunit      - NEUTRON MATRIX
TMAX.C        21                   : BHT          - MAXIMUM RECORDED TEMPERATURE
BHTD.M        501                  : BHTDEP       - MAXIMUM RECORDED TEMPERATURE
MATR.         1                    : LOGUNIT      - NEUTRON MATRIX
RMT .C        25                   : MDTP         - TEMPERATURE OF MUD
NEUT.         1                    : NEUTRON      - NEUTRON TYPE
RESI.         0                    : RESIST       - RESISTIVITY TYPE
RMC .OHMM     0.25                 : RMC          - RESISTIVITY OF MUD CAKE
RMF .OHMM     0.25                 : RMF          - RESISTIVITY OF MUD FILTRATE
SUFT.C        15                   : SUFT         - SURFACE TEMPERATURE
~A  DEPTH     RESD     PHID     PHIN       GR      CAL
  330.000    2.561    0.255    0.506   97.340  221.608
  330.250    2.571    0.252    0.506  101.479  219.467
  330.500    2.576    0.254    0.507  104.584  212.044
  330.750    2.581    0.261    0.508  103.055  213.458
  331.000    2.600    0.255    0.509   98.784  213.451
  331.250    2.650    0.234    0.509   99.694  209.075
  331.500    2.696    0.255    0.509  101.640  215.263
  331.750    2.773    0.268    0.526  102.062  216.475
  332.000    2.859    0.251    0.543  102.605  211.693
  332.250    2.902    0.247    0.538  102.479  206.809
  332.500    2.975    0.254    0.531  101.499  203.245
  332.750    3.037    0.244    0.544  101.251  207.606
  333.000    3.061    0.254    0.552   98.991  213.997
  333.250    3.078    0.264    0.529   95.451  218.257
  333.500    3.252    0.251    0.515   95.812  219.977
  333.750    3.461    0.238    0.508   97.575  213.163
  334.000    3.615    0.233    0.503   97.205  206.451
  334.250    3.657    0.231    0.495   98.602  204.615
  334.500    3.481    0.245    0.484  100.731  208.669
  334.750    3.365    0.233    0.469   95.911  210.084
  335.000    3.161    0.226    0.482   94.627  207.943
  335.250    3.056    0.222    0.483   96.328  205.701
  335.500    2.920    0.220    0.484   98.030  204.271
  335.750    2.855    0.218    0.499   98.636  203.654
  336.000    2.833    0.230    0.515   98.386  203.951
  336.250    2.855    0.243    0.512   97.956  204.347
  336.500    2.909    0.254    0.501   96.671  204.849
  336.750    2.982    0.253    0.496   95.631  205.451
  337.000    3.068    0.238    0.513   93.432  206.765
  337.250    3.080    0.228    0.538   93.671  208.180
  337.500    3.045    0.220    0.554  100.676  207.358
  337.750    3.028    0.216    0.553  102.134  205.320
  338.000    3.034    0.231    0.550  100.179  201.959
  338.250    3.057    0.232    0.539  100.174  199.514
  338.500    3.104    0.221    0.530   98.402  202.960
  338.750    3.163    0.237    0.521   94.923  206.508
  339.000    3.217    0.248    0.534   92.907  204.977
  339.250    3.236    0.255    0.514   93.512  199.786
  339.500    2.994    0.262    0.493   93.202  196.123
  339.750    3.544    0.345    0.521   93.259  193.779
  340.000    4.023    0.379    0.541   93.072  194.178
  340.250    4.532    0.353    0.563   89.715  189.802
  340.500    5.001    0.290    0.435   87.699  180.550
  340.750    5.263    0.248    0.399   89.462  169.266
  341.000    5.529    0.225    0.416   91.408  159.709
  341.250    5.518    0.251    0.420   93.171  163.764
  341.500    5.354    0.272    0.406   93.410  165.281
  341.750    5.244    0.269    0.399   90.419  164.766
  342.000    5.059    0.254    0.397   81.759  163.234
  342.250    4.871    0.244    0.387   73.221  162.109
  342.500    4.620    0.233    0.382   65.719  161.492
  342.750    4.423    0.265    0.394   58.949  160.265
  343.000    4.324    0.290    0.389   52.727  157.819
  343.250    4.243    0.311    0.389   48.700  158.014
  343.500    4.260    0.320    0.379   49.244  159.226
  343.750    4.358    0.314    0.361   55.883  159.928
  344.000    4.399    0.300    0.351   60.328  160.327
  344.250    4.433    0.284    0.383   63.858  160.829
  344.500    4.424    0.280    0.403   63.610  161.430
  344.750    4.475    0.285    0.416   57.998  162.133
  345.000    4.544    0.288    0.415   52.508  162.227
  345.250    4.692    0.290    0.383   54.149  162.424
  345.500    4.864    0.314    0.388   73.100  162.822
  345.750    5.042    0.309    0.409   82.909  164.338
  346.000    5.257    0.258    0.427   90.036  165.346
  346.250    5.378    0.216    0.428   96.735  165.744
  346.500    5.388    0.215    0.429   99.778  165.736
  346.750    5.368    0.238    0.426   98.860  164.917
  347.000    5.267    0.252    0.427   93.917  162.877
  347.250    5.228    0.263    0.433   91.719  160.736
  347.500    5.208    0.272    0.434   90.861  160.728
  347.750    5.199    0.272    0.422   91.100  161.635
  348.000    5.199    0.286    0.414   89.328  162.643
  348.250    5.209    0.290    0.406   88.592  162.941
  348.500    5.209    0.288    0.399   92.427  162.730
  348.750    5.229    0.282    0.404   97.299  162.519
  349.000    5.339    0.274    0.408   85.836  162.918
  349.250    5.556    0.265    0.414   76.079  163.518
  349.500    5.858    0.246    0.393   72.905  163.917
  349.750    6.016    0.221    0.382   82.591  164.520
  350.000    5.892    0.210    0.385   85.939  165.020
  350.250    5.826    0.203    0.399   89.470  165.419
  350.500    5.826    0.194    0.413   92.451  165.919
  350.750    5.892    0.187    0.420   95.373  168.959
  351.000    6.028    0.181    0.420   96.282  173.421
  351.250    6.005    0.207    0.422   95.424  173.819
  351.500    5.685    0.243    0.412   93.530  171.272
  351.750    5.412    0.257    0.401   93.342  166.185
  352.000    5.192    0.264    0.391   94.679  163.333
  352.250    4.933    0.264    0.425   98.454  163.123
  352.500    4.768    0.283    0.448   83.577  162.809
  352.750    4.626    0.311    0.464   66.323  162.396
  353.000    4.505    0.330    0.463   57.419  161.982
  353.250    4.497    0.335    0.438   54.672  161.668
  353.500    4.497    0.334    0.415   54.118  161.764
  353.750    4.549    0.333    0.409   55.333  161.756
  354.000    4.698    0.331    0.405   56.670  161.646
  354.250    5.135    0.331    0.396   59.834  162.146
  354.500    5.974    0.402    0.448   64.401  168.234
  354.750    7.370    0.447    0.557   68.419  175.743
  355.000    8.526    0.560    0.609   70.122  179.698
  355.250    9.232    0.587    0.646   64.875  180.808
  355.500    7.655    0.606    0.700   60.360  178.769
  355.750    6.288    0.620    0.731   57.186  175.103
  356.000    5.561    0.598    0.595   54.073  168.087
  356.250    4.771    0.499    0.540   51.386  163.813
  356.500    4.299    0.398    0.449   45.957  161.570
  356.750    4.039    0.348    0.396   41.686  160.140
  357.000    3.860    0.330    0.387   44.546  159.421
  357.250    3.824    0.327    0.410   42.834  159.210
  357.500    3.817    0.329    0.420   38.868  158.999
  357.750    3.839    0.331    0.405   43.801  158.992
  358.000    3.890    0.337    0.416   49.891  158.678
  358.250    4.010    0.348    0.406   56.529  158.773
  358.500    4.102    0.353    0.392   62.681  158.562
  358.750    4.188    0.348    0.407   66.944  158.554
  359.000    4.284    0.341    0.414   66.939  158.243
  359.250    4.425    0.336    0.416   65.655  157.828
  359.500    4.578    0.331    0.422   65.528  158.329
  359.750    4.719    0.327    0.431   67.901  158.625
  360.000    4.818    0.319    0.417   69.786  158.922
  360.250    4.846    0.310    0.423   67.525  158.915
  360.500    4.791    0.309    0.421   66.973  158.704
  360.750    4.693    0.310    0.420   75.623  157.985
  361.000    4.596    0.301    0.421   80.190  157.672
  361.250    4.510    0.293    0.414   78.052  157.462
  361.500    4.460    0.302    0.408   69.514  157.555
  361.750    4.511    0.316    0.404   63.841  157.549
  362.000    4.623    0.318    0.410   58.716  158.047
  362.250    4.729    0.308    0.404   60.113  158.447
  362.500    4.838    0.301    0.396   60.109  158.744
  362.750    4.912    0.296    0.389   58.093  159.040
  363.000    4.959    0.307    0.381   54.370  159.135
  363.250    4.978    0.319    0.368   55.036  159.330
  363.500    5.007    0.305    0.363   58.627  159.628
  363.750    5.035    0.290    0.377   60.086  160.230
  364.000    5.122    0.295    0.386   61.848  161.338
  364.250    5.210    0.305    0.394   65.745  161.941
  364.500    5.320    0.296    0.385   71.470  162.746
  364.750    5.432    0.278    0.378   78.171  163.755
  365.000    5.546    0.266    0.368   83.834  165.271
  365.250    5.739    0.255    0.374   86.328  166.177
  365.500    5.938    0.251    0.403   84.983  167.288
  365.750    6.143    0.257    0.406   83.333  168.600
  366.000    6.320    0.270    0.423   80.342  169.302
  366.250    6.429    0.277    0.447   77.472  168.787
