~VERSION INFORMATION
 VERS.                 2.0:   CWLS LOG ASCII STANDARD -VERSION 2.0
 WRAP.                  NO:   ONE LINE PER DEPTH STEP
~WELL INFORMATION BLOCK
#MNEM.UNIT           DATA                    DESCRIPTION OF MNEMONIC
#---------    -------------------            -------------------------------
# Generated from Intellog Unique Number	CS_73_76/WELL/768
WELL.         MAYNARD EXPLORATION            : Well_name    - WELL
LOC .         00/07-11-073-12W4/0            : Location     - LOCATION
UWI .         00/07-11-073-12W4/0            : Uwi          - UNIQUE WELL ID
ENTR.         SP                             : Entered      - ENTERED BY
SRVC.         SCHLUMBERGER                   : Scn          - SERVICE COMPANY
STRT.M        300                            : top_depth    - START DEPTH
STOP.M        545                            : bot_depth    - STOP DEPTH
STEP.M        0.25                           : increment    - STEP LENGTH
 NULL. -999.2500:NULL Value
~CURVE INFORMATION BLOCK
#MNEM UNIT       ERCB CURVE CODE    CURVE DESCRIPTION
#-----------   ------------------   ----------------------------------
DEPT.M        00 001 00 00         : DEPTH        - DEPTH
ILD .OHMM     00 120 00 00         : RESD         - DEEP RESISTIVITY (DIL)
DPHI.V/V      00 890 00 00         : PHID         - DENSITY POROSITY (LIMESTONE)
NPHI.V/V      00 330 00 00         : PHIN         - NEUTRON POROSITY (LIMESTONE)
GR  .API      00 310 00 00         : GR           - GAMMA RAY
~PARAMETER INFORMATION
#MNEM.UNIT           DATA             DESCRIPTION OF MNEMONIC
#---------         -----------     ------------------------------
GL  .M        661.5                : gl           - GROUND LEVEL ELEVATION
EREF.M        665                  : kb           - ELEVATION OF DEPTH REFERENCE
DATM.M        661.5                : datum        - DATUM ELEVATION
TDD .M        562                  : tdd          - TOTAL DEPTH DRILLER
RUN .         ONE                  : Run          - RUN NUMBER
ENG .         BILL                 : Engineer     - RECORDING ENGINEER
WIT .         JIM                  : Witness      - WITNESSED BY
MUD .         GEL                  : Mud_type     - MUD TYPE
MATR.         LIMESTONE            : Logunit      - NEUTRON MATRIX
TMAX.C        21                   : BHT          - MAXIMUM RECORDED TEMPERATURE
BHTD.M        562                  : BHTDEP       - MAXIMUM RECORDED TEMPERATURE
MATR.         1                    : LOGUNIT      - NEUTRON MATRIX
RMT .C        25                   : MDTP         - TEMPERATURE OF MUD
NEUT.         1                    : NEUTRON      - NEUTRON TYPE
RESI.         0                    : RESIST       - RESISTIVITY TYPE
RMC .OHMM     0.25                 : RMC          - RESISTIVITY OF MUD CAKE
RMF .OHMM     0.25                 : RMF          - RESISTIVITY OF MUD FILTRATE
SUFT.C        15                   : SUFT         - SURFACE TEMPERATURE
~A  DEPTH     RESD     PHID     PHIN       GR
# ...
  474.000    2.697    0.246    0.525  100.812
  474.250    2.697    0.235    0.527  100.229
  474.500    2.696    0.231    0.518  100.842
  474.750    2.852    0.239    0.512  100.851
  475.000    3.086    0.220    0.507  100.855
  475.250    3.164    0.220    0.506   99.090
  475.500    3.398    0.235    0.507   96.135
  475.750    3.554    0.268    0.509   94.960
  476.000    3.475    0.280    0.510   93.197
  476.250    3.240    0.285    0.515   91.427
  476.500    3.084    0.295    0.526   90.844
  476.750    2.849    0.283    0.535   91.449
  477.000    2.849    0.274    0.529   92.652
  477.250    3.395    0.282    0.516   92.660
  477.500    4.020    0.277    0.472   92.667
  477.750    4.723    0.244    0.430   92.088
  478.000    5.738    0.204    0.406   91.503
  478.250    6.050    0.151    0.385   85.586
  478.500    5.971    0.141    0.395   87.970
  478.750    6.049    0.161    0.406   90.351
  479.000    6.908    0.181    0.376   93.328
  479.250    8.861    0.188    0.338   88.596
  479.500   10.501    0.163    0.313   83.273
  479.750   11.907    0.139    0.299   77.948
  480.000   13.157    0.154    0.288   75.584
  480.250   14.406    0.214    0.299   71.445
  480.500   14.640    0.248    0.324   71.461
  480.750   14.562    0.271    0.351   72.657
  481.000   14.327    0.279    0.373   73.852
  481.250   14.170    0.272    0.391   74.454
  481.500   13.623    0.285    0.399   73.876
  481.750   12.138    0.274    0.406   73.884
  482.000   10.575    0.268    0.410   75.081
  482.250    9.247    0.255    0.408   78.650
  482.500    8.778    0.243    0.404   82.812
  482.750    9.246    0.234    0.399   86.972
  483.000   10.496    0.246    0.393   91.727
  483.250   12.761    0.269    0.387   88.775
  483.500   13.854    0.270    0.381   89.971
  483.750   14.166    0.262    0.373   91.760
  484.000   14.244    0.255    0.366   92.959
  484.250   14.400    0.251    0.360   90.005
  484.500   14.556    0.268    0.355   85.868
  484.750   14.399    0.278    0.357   84.096
  485.000   12.524    0.265    0.370   78.770
  485.250   11.117    0.249    0.388   79.375
  485.500   10.492    0.243    0.397   83.535
  485.750   10.101    0.241    0.400   88.883
  486.000    9.553    0.241    0.401   94.229
  486.250    9.162    0.237    0.402   97.799
  486.500    8.615    0.224    0.401   96.625
  486.750    8.224    0.209    0.400  100.198
  487.000    7.989    0.200    0.397  102.582
  487.250    8.223    0.198    0.391  104.368
  487.500    8.926    0.198    0.390  104.968
  487.750    9.473    0.199    0.389   98.460
  488.000   10.410    0.206    0.384   98.472
  488.250   11.581    0.209    0.378  100.854
  488.500   13.143    0.220    0.358   97.899
  488.750   15.252    0.236    0.333   94.946
  489.000   19.644    0.263    0.321   90.213
  489.250   22.073    0.277    0.316   86.074
  489.500   23.764    0.296    0.329   74.823
  489.750   23.863    0.307    0.339   70.089
  490.000   23.185    0.287    0.352   64.171
  490.250   22.491    0.285    0.363   61.219
  490.500   21.813    0.283    0.368   62.414
  490.750   17.437    0.254    0.364   64.797
  491.000   16.108    0.237    0.357   68.962
  491.250   15.170    0.226    0.346   71.341
  491.500   14.310    0.218    0.337   76.097
  491.750   13.607    0.227    0.328   81.444
  492.000   13.450    0.233    0.325   85.603
  492.250   13.606    0.233    0.323   87.393
  492.500   13.840    0.226    0.320   86.220
  492.750   13.996    0.220    0.317   83.859
  493.000   14.152    0.212    0.319   83.277
  493.250   14.151    0.212    0.325   83.287
  493.500   14.073    0.223    0.337   83.298
  493.750   13.838    0.246    0.351   78.567
  494.000   13.525    0.254    0.341   72.056
  494.250   13.369    0.254    0.334   73.254
  494.500   13.681    0.247    0.321   76.822
  494.750   14.540    0.248    0.311   78.611
  495.000   16.727    0.259    0.300   79.810
  495.250   19.608    0.277    0.312   73.297
  495.500   21.961    0.301    0.332   62.044
  495.750   21.177    0.300    0.342   49.606
  496.000   19.608    0.289    0.347   47.836
  496.250   21.177    0.286    0.340   51.998
  496.500   24.314    0.273    0.334   56.160
  496.750   26.667    0.263    0.320   59.728
  497.000   26.667    0.304    0.310   51.441
  497.250   19.770    0.321    0.328   45.524
  497.500   10.004    0.331    0.342   41.974
  497.750    6.723    0.304    0.352   46.729
  498.000    5.472    0.252    0.422   68.084
  498.250    4.691    0.171    0.501   82.916
  498.500    4.300    0.153    0.516   97.751
  498.750    4.143    0.152    0.521  109.026
  499.000    4.768    0.163    0.501  113.186
  499.250    5.548    0.189    0.457  113.199
  499.500    6.642    0.200    0.416  112.023
  499.750    7.891    0.210    0.400  106.110
  500.000   10.274    0.197    0.378   94.483
  500.250   10.979    0.200    0.380   91.521
  500.500   11.606    0.219    0.375   87.374
  500.750   13.174    0.242    0.366   85.596
  501.000   16.310    0.259    0.359   80.862
  501.250   18.427    0.271    0.350   74.353
  501.500   20.387    0.281    0.343   70.803
  501.750   20.778    0.292    0.353   67.842
  502.000   20.463    0.293    0.361   67.236
  502.250   18.894    0.282    0.371   67.231
  502.500   17.168    0.275    0.372   75.489
  502.750   14.657    0.266    0.371   74.888
  503.000   12.931    0.274    0.373   75.468
  503.250   11.832    0.272    0.378   77.231
  503.500   10.733    0.254    0.381   81.942
  503.750   10.104    0.240    0.384   86.069
  504.000    9.476    0.213    0.383   90.783
  504.250    9.083    0.191    0.379   93.725
  504.500    8.769    0.174    0.372   94.895
  504.750    8.532    0.176    0.359   96.068
  505.000    8.296    0.188    0.353   99.009
  505.250    8.138    0.196    0.365  102.542
  505.500    8.059    0.208    0.379  104.898
  505.750    8.372    0.199    0.383  108.430
  506.000    8.920    0.189    0.369  107.829
  506.250    9.782    0.213    0.361  104.278
  506.500   10.958    0.217    0.350   96.591
  506.750   13.074    0.232    0.335   85.950
  507.000   15.740    0.233    0.328   79.447
  507.250   18.092    0.250    0.319   72.351
  507.500   19.503    0.272    0.312   61.117
  507.750   24.915    0.291    0.305   55.796
  508.000   31.190    0.307    0.299   46.929
  508.250   35.912    0.317    0.307   41.011
  508.500   39.077    0.320    0.312   40.414
  508.750   42.248    0.314    0.313   42.176
  509.000   40.748    0.311    0.313   39.213
  509.250   40.020    0.311    0.313   36.841
  509.500   43.192    0.318    0.313   34.468
  509.750   45.579    0.329    0.318   32.097
  510.000   45.629    0.328    0.325   30.316
  510.250   41.800    0.309    0.340   43.295
  510.500   38.736    0.298    0.349   50.373
  510.750   32.569    0.284    0.359   57.451
  511.000   28.719    0.294    0.370   64.528
  511.250   17.451    0.255    0.375   75.736
  511.500   12.823    0.230    0.369   82.225
  511.750   11.018    0.204    0.361   88.120
  512.000    9.841    0.182    0.350   91.653
  512.250    8.977    0.197    0.335   91.052
  512.500    9.368    0.208    0.332   86.906
  512.750    9.681    0.220    0.347   85.128
  513.000    9.916    0.225    0.355   83.938
  513.250   10.228    0.234    0.360   84.517
  513.500   10.384    0.238    0.364   85.686
  513.750   10.619    0.240    0.358   85.680
  514.000   10.853    0.231    0.345   83.896
  514.250   10.931    0.227    0.343   80.932
  514.500   10.852    0.221    0.354   79.153
  514.750   10.615    0.222    0.359   77.373
  515.000   10.379    0.221    0.361   76.180
  515.250   10.849    0.219    0.365   76.762
  515.500   11.632    0.224    0.353   78.523
  515.750   12.259    0.234    0.346   80.286
  516.000   13.199    0.246    0.340   76.731
  516.250   13.983    0.250    0.340   73.180
  516.500   14.766    0.256    0.354   68.446
  516.750   15.706    0.254    0.369   64.892
  517.000   16.647    0.251    0.378   63.113
  517.250   17.430    0.261    0.381   64.284
