~VERSION INFORMATION
 VERS.                 2.0:   CWLS LOG ASCII STANDARD -VERSION 2.0
 WRAP.                  NO:   ONE LINE PER DEPTH STEP
~WELL INFORMATION BLOCK
#MNEM.UNIT           DATA                    DESCRIPTION OF MNEMONIC
#---------    -------------------            -------------------------------
# Generated from Intellog Unique Number	CS_69_70/WELL/811
WELL.         WINTERSHALL OIL OF CANADA      : Well_name    - WELL
LOC .         00/07-02-069-14W4/0            : Location     - LOCATION
UWI .         00/07-02-069-14W4/0            : Uwi          - UNIQUE WELL ID
ENTR.         SP                             : Entered      - ENTERED BY
SRVC.         SCHLUMBERGER                   : Scn          - SERVICE COMPANY
STRT.M        283.464                        : top_depth    - START DEPTH
STOP.M        475.214                        : bot_depth    - STOP DEPTH
STEP.M        0.25                           : increment    - STEP LENGTH
 NULL. -999.2500:NULL Value
~CURVE INFORMATION BLOCK
#MNEM UNIT       ERCB CURVE CODE    CURVE DESCRIPTION
#-----------   ------------------   ----------------------------------
DEPT.M        00 001 00 00         : DEPTH        - DEPTH
GR  .API      00 310 00 00         : GR           - GAMMA RAY
DPHI.V/V      00 890 00 00         : PHID         - DENSITY POROSITY (SANDSTONE)
NPHI.V/V      00 330 00 00         : PHIN         - NEUTRON POROSITY (SANDSTONE)
ILD .OHMM     00 120 00 00         : RESD         - DEEP RESISTIVITY (DIL)
~PARAMETER INFORMATION
#MNEM.UNIT           DATA             DESCRIPTION OF MNEMONIC
#---------         -----------     ------------------------------
GL  .M        577.901              : gl           - GROUND LEVEL ELEVATION
EREF.M        580.949              : kb           - ELEVATION OF DEPTH REFERENCE
DATM.M        577.901              : datum        - DATUM ELEVATION
TDD .M        475.488              : tdd          - TOTAL DEPTH DRILLER
RUN .         ONE                  : Run          - RUN NUMBER
ENG .         BILL                 : Engineer     - RECORDING ENGINEER
WIT .         JIM                  : Witness      - WITNESSED BY
MUD .         GEL                  : Mud_type     - MUD TYPE
MATR.         SANDSTONE            : Logunit      - NEUTRON MATRIX
TMAX.C        21.1111              : BHT          - MAXIMUM RECORDED TEMPERATURE
BHTD.M        475.488              : BHTDEP       - MAXIMUM RECORDED TEMPERATURE
MATR.         1                    : LOGUNIT      - NEUTRON MATRIX
RMT .C        25                   : MDTP         - TEMPERATURE OF MUD
NEUT.         1                    : NEUTRON      - NEUTRON TYPE
RESI.         0                    : RESIST       - RESISTIVITY TYPE
RMC .OHMM     0.25                 : RMC          - RESISTIVITY OF MUD CAKE
RMF .OHMM     0.25                 : RMF          - RESISTIVITY OF MUD FILTRATE
SUFT.C        15                   : SUFT         - SURFACE TEMPERATURE
~A  DEPTH       GR     PHID     PHIN     RESD
# ...
  326.964   96.566    0.293    0.505    4.527
  327.214  101.857    0.281    0.521    3.972
  327.464  107.702    0.270    0.508    3.670
  327.714  110.179    0.258    0.493    3.362
  327.964  106.509    0.241    0.489    3.121
  328.214  100.444    0.253    0.510    2.932
  328.464   95.335    0.254    0.525    2.798
  328.714   91.686    0.261    0.496    2.707
  328.964   87.671    0.282    0.470    2.703
  329.214   82.896    0.286    0.455    2.828
  329.464   78.822    0.258    0.452    2.931
  329.714   78.751    0.239    0.450    2.954
  329.964   81.952    0.220    0.446    2.956
  330.214   84.580    0.242    0.455    2.903
  330.464   82.651    0.262    0.468    2.850
  330.714   79.095    0.285    0.477    2.788
  330.964   74.505    0.312    0.489    2.711
  331.214   69.724    0.325    0.502    2.551
  331.464   67.308    0.333    0.516    2.402
  331.714   66.553    0.338    0.528    2.271
  331.964   67.932    0.338    0.538    2.211
  332.214   67.154    0.326    0.530    2.176
  332.464   66.105    0.318    0.507    2.171
  332.714   65.810    0.302    0.489    2.169
  332.964   67.021    0.282    0.479    2.210
  333.214   68.801    0.239    0.486    2.274
  333.464   68.269    0.187    0.463    2.418
  333.714   62.540    0.074    0.408    2.691
  333.964   56.789    0.076    0.332    2.888
  334.214   53.904    0.238    0.251    2.840
  334.464   59.313    0.274    0.381    2.723
  334.714   63.982    0.290    0.458    2.561
  334.964   68.182    0.302    0.481    2.451
  335.214   70.313    0.305    0.487    2.319
  335.464   71.673    0.303    0.497    2.269
  335.714   73.987    0.291    0.511    2.327
  335.964   76.689    0.279    0.516    2.418
  336.214   76.477    0.302    0.501    2.520
  336.464   74.985    0.319    0.497    2.657
  336.714   74.696    0.300    0.505    2.733
  336.964   75.985    0.289    0.510    2.831
  337.214   78.855    0.271    0.509    2.951
  337.464   82.595    0.253    0.496    3.117
  337.714   86.757    0.225    0.479    3.309
  337.964   89.629    0.202    0.466    3.471
  338.214   91.796    0.193    0.486    3.576
  338.464   93.335    0.213    0.497    3.655
  338.714   93.235    0.232    0.489    3.698
  338.964   94.561    0.246    0.501    3.700
  339.214   93.592    0.262    0.505    3.701
  339.464   88.439    0.265    0.512    3.661
  339.714   82.980    0.245    0.504    3.607
  339.964   80.339    0.232    0.485    3.539
  340.214   83.096    0.220    0.466    3.457
  340.464   87.548    0.231    0.472    3.340
  340.714   91.906    0.234    0.484    3.294
  340.964   96.172    0.248    0.501    3.259
  341.214   99.034    0.234    0.532    3.341
  341.464   99.605    0.241    0.539    3.495
  341.714   92.563    0.248    0.515    3.583
  341.964   88.621    0.224    0.492    3.612
  342.214   85.817    0.216    0.474    3.645
  342.464   84.660    0.239    0.472    3.565
  342.714   82.907    0.261    0.465    3.532
  342.964   81.193    0.242    0.453    3.543
  343.214   83.790    0.224    0.456    3.734
  343.464   87.645    0.218    0.463    3.977
  343.714   88.686    0.226    0.447    4.136
  343.964   82.364    0.215    0.434    4.264
  344.214   83.206    0.200    0.421    4.373
  344.464   87.641    0.186    0.438    4.566
  344.714   89.169    0.204    0.454    4.664
  344.964   85.639    0.215    0.459    4.603
  345.214   84.641    0.225    0.464    4.484
  345.464   86.619    0.231    0.450    4.360
  345.714   89.543    0.225    0.459    4.290
  345.964   91.213    0.218    0.471    4.142
  346.214   92.465    0.211    0.476    3.949
  346.464   93.168    0.203    0.475    3.684
  346.714   91.949    0.222    0.480    3.409
  346.964   86.121    0.254    0.466    3.141
  347.214   79.163    0.282    0.462    2.803
  347.464   71.526    0.300    0.481    2.459
  347.714   66.279    0.308    0.499    2.084
  347.964   60.580    0.303    0.516    2.617
  348.214   58.201    0.295    0.503    2.419
  348.464   57.096    0.309    0.484    2.383
  348.714   56.803    0.324    0.482    2.419
  348.964   61.536    0.324    0.470    2.481
  349.214   66.989    0.298    0.454    2.602
  349.464   73.093    0.287    0.460    2.806
  349.714   80.982    0.270    0.475    3.033
  349.964   84.941    0.255    0.479    3.434
  350.214   84.855    0.235    0.473    3.729
  350.464   83.339    0.214    0.467    3.954
  350.714   80.183    0.194    0.463    4.107
  350.964   75.421    0.212    0.459    4.146
  351.214   73.943    0.243    0.465    4.080
  351.464   72.760    0.264    0.471    3.888
  351.714   68.996    0.275    0.473    3.497
  351.964   65.436    0.289    0.465    2.992
  352.214   62.020    0.300    0.454    2.739
  352.464   62.969    0.304    0.442    2.552
  352.714   68.175    0.289    0.437    2.449
  352.964   72.527    0.291    0.443    2.442
  353.214   77.809    0.308    0.448    2.579
  353.464   84.654    0.288    0.452    2.831
  353.714   88.718    0.270    0.458    3.159
  353.964   89.943    0.252    0.468    3.451
  354.214   91.220    0.234    0.472    3.698
  354.464   91.630    0.254    0.459    3.830
  354.714   89.636    0.244    0.451    3.876
  354.964   87.749    0.234    0.460    3.847
  355.214   85.986    0.244    0.469    3.731
  355.464   83.303    0.250    0.476    3.528
  355.714   80.320    0.251    0.467    3.307
  355.964   76.819    0.257    0.448    3.050
  356.214   71.698    0.263    0.439    3.167
  356.464   69.562    0.243    0.434    2.986
  356.714   69.378    0.232    0.424    2.858
  356.964   73.715    0.249    0.421    2.749
  357.214   72.686    0.281    0.435    2.631
  357.464   68.558    0.308    0.451    2.563
  357.714   65.519    0.321    0.463    2.526
  357.964   63.966    0.323    0.471    2.506
  358.214   69.492    0.304    0.466    2.519
  358.464   72.798    0.292    0.468    2.565
  358.714   75.337    0.282    0.477    2.636
  358.964   74.780    0.291    0.485    2.818
  359.214   74.508    0.298    0.477    3.114
  359.464   78.639    0.271    0.471    3.298
  359.714   82.962    0.240    0.471    3.436
  359.964   85.762    0.232    0.485    3.552
  360.214   87.342    0.232    0.497    3.470
  360.464   89.207    0.220    0.515    3.379
  360.714   91.526    0.226    0.533    3.306
  360.964   93.238    0.249    0.537    3.338
  361.214   92.056    0.221    0.515    3.433
  361.464   90.871    0.198    0.512    3.501
  361.714   87.016    0.221    0.520    3.461
  361.964   83.525    0.229    0.517    3.353
  362.214   76.502    0.229    0.504    3.236
  362.464   70.353    0.263    0.492    3.049
  362.714   64.654    0.328    0.483    2.944
  362.964   62.748    0.318    0.478    2.977
  363.214   66.635    0.300    0.486    3.042
  363.464   69.249    0.279    0.475    3.223
  363.714   65.639    0.264    0.459    3.334
  363.964   67.439    0.248    0.447    3.377
  364.214   70.371    0.235    0.438    3.275
  364.464   73.037    0.243    0.449    3.106
  364.714   72.060    0.262    0.465    2.946
  364.964   69.688    0.290    0.480    2.807
  365.214   67.970    0.299    0.490    2.699
  365.464   67.312    0.278    0.498    2.654
  365.714   70.101    0.264    0.511    2.651
  365.964   74.005    0.262    0.507    2.753
  366.214   79.120    0.289    0.486    2.842
  366.464   84.323    0.256    0.509    2.945
  366.714   89.150    0.246    0.535    3.027
  366.964   90.366    0.247    0.560    3.103
  367.214   84.233    0.251    0.566    3.143
  367.464   79.072    0.265    0.515    3.151
  367.714   76.624    0.287    0.482    3.129
  367.964   76.005    0.281    0.457    3.112
  368.214   76.508    0.265    0.467    3.114
  368.464   77.607    0.259    0.483    3.226
  368.714   74.334    0.267    0.495    3.556
  368.964   69.561    0.267    0.434    4.543
  369.214   64.907    0.193    0.391   16.821
  369.464   60.083    0.125    0.327   22.214
  369.714   56.644    0.053    0.250   23.633
  369.964   52.276   -0.015    0.182   24.180
  370.214   47.795   -0.018    0.127   24.241
