~VERSION INFORMATION
 VERS.                 2.0:   CWLS LOG ASCII STANDARD -VERSION 2.0
 WRAP.                  NO:   ONE LINE PER DEPTH STEP
~WELL INFORMATION BLOCK
#MNEM.UNIT           DATA                    DESCRIPTION OF MNEMONIC
#---------    -------------------            -------------------------------
# Generated from Intellog Unique Number	CX_WELLS/WELL/2872
WELL.         07-08-081-18W4                 : Well_name    - WELL
LOC .         00/07-08-081-18W4/0            : Location     - LOCATION
UWI .         00/07-08-081-18W4/0            : Uwi          - UNIQUE WELL ID
ENTR.         T                              : Entered      - ENTERED BY
SRVC.         SCHLUMBERGER                   : Scn          - SERVICE COMPANY
STRT.F        550                            : top_depth    - START DEPTH
STOP.F        1220.11                        : bot_depth    - STOP DEPTH
STEP.F        0.82                           : increment    - STEP LENGTH
 NULL. -999.2500:NULL Value
~CURVE INFORMATION BLOCK
#MNEM UNIT       ERCB CURVE CODE    CURVE DESCRIPTION
#-----------   ------------------   ----------------------------------
DEPT.F        00 001 00 00         : DEPTH        - DEPTH
GR  .API      00 310 00 00         : GR           - GAMMA RAY
NPHI.V/V      00 330 00 00         : PHIN         - NEUTRON POROSITY (SANDSTONE)
ILD .OHMM     00 120 00 00         : RESD         - DEEP RESISTIVITY (OTHER)
~PARAMETER INFORMATION
#MNEM.UNIT           DATA             DESCRIPTION OF MNEMONIC
#---------         -----------     ------------------------------
GL  .F        1854                 : gl           - GROUND LEVEL ELEVATION
EREF.F        1865                 : kb           - ELEVATION OF DEPTH REFERENCE
DATM.F        1865                 : datum        - DATUM ELEVATION
TDD .F        1227                 : tdd          - TOTAL DEPTH DRILLER
RUN .         ONE                  : Run          - RUN NUMBER
ENG .         BILL                 : Engineer     - RECORDING ENGINEER
WIT .         JIM                  : Witness      - WITNESSED BY
MUD .         GEL                  : Mud_type     - MUD TYPE
MATR.         SANDSTONE            : Logunit      - NEUTRON MATRIX
TMAX.F        73                   : BHT          - MAXIMUM RECORDED TEMPERATURE
BHTD.F        1227                 : BHTDEP       - MAXIMUM RECORDED TEMPERATURE
MATR.         1                    : LOGUNIT      - NEUTRON MATRIX
RMT .F        65                   : MDTP         - TEMPERATURE OF MUD
NEUT.         1                    : NEUTRON      - NEUTRON TYPE
RESI.         7.1                  : RESIST       - RESISTIVITY TYPE
RMC .OHMM     6.5                  : RMC          - RESISTIVITY OF MUD CAKE
RMF .OHMM     5                    : RMF          - RESISTIVITY OF MUD FILTRATE
SUFT.F        35                   : SUFT         - SURFACE TEMPERATURE
~A  DEPTH       GR     PHIN     RESD
# ...
  905.971   42.748    0.406    8.406
  906.791   44.008    0.393    8.996
  907.612   45.269    0.385    9.418
  908.432   47.779    0.378    9.924
  909.252   48.425    0.370   10.178
  910.072   47.835    0.357   10.348
  910.892   48.481    0.333   10.602
  911.713   49.748    0.302   10.774
  912.533   52.885    0.269   10.860
  913.353   54.767    0.313   10.947
  914.173   56.661    0.355   10.700
  914.993   57.301    0.374   10.368
  915.814   57.953    0.389    9.952
  916.634   57.972    0.404    9.536
  917.454   56.762    0.417    9.037
  918.274   56.166    0.425    8.789
  919.094   55.570    0.432    8.709
  919.915   55.589    0.432    8.711
  920.735   55.620    0.421    8.883
  921.555   55.018    0.400    8.886
  922.375   54.422    0.390    9.057
  923.196   54.447    0.406    9.142
  924.016   55.106    0.422    9.145
  924.836   55.131    0.427    9.233
  925.656   55.156    0.397    9.235
  926.476   55.175    0.390    9.156
  927.297   55.212    0.386    9.159
  928.117   55.225    0.400    9.080
  928.937   55.256    0.409    9.081
  929.757   55.288    0.418    9.001
  930.577   55.306    0.417    8.836
  931.398   55.325    0.410    8.672
  932.218   54.742    0.397    8.424
  933.038   54.761    0.388    8.177
  933.858   54.165    0.388    8.011
  934.678   54.184    0.398    7.765
  935.499   54.215    0.404    7.683
  936.319   54.234    0.394    7.435
  937.139   54.271    0.393    7.272
  937.959   54.911    0.397    7.189
  938.780   55.564    0.405    7.025
  939.600   55.583    0.410    6.862
  940.420   54.993    0.419    6.698
  941.240   55.012    0.424    6.617
  942.060   53.807    0.422    6.535
  942.881   53.820    0.421    6.372
  943.701   53.224    0.423    6.291
  944.521   50.765    0.431    6.211
  945.341   47.064    0.433    6.213
  946.161   42.742    0.427    6.384
  946.982   38.426    0.421    6.973
  947.802   37.836    0.413    7.646
  948.622   37.849    0.405    8.235
  949.442   37.874    0.395    8.993
  950.262   37.284    0.387    9.246
  951.083   36.688    0.378    9.503
  951.903   36.720    0.367    9.505
  952.723   36.111    0.370    9.591
  953.543   35.522    0.370    9.595
  954.364   35.540    0.368    9.766
  955.184   34.944    0.366    9.936
  956.004   33.734    0.363   10.191
  956.824   33.138    0.358   10.277
  957.644   33.163    0.356   10.364
  958.465   32.573    0.357   10.368
  959.285   31.984    0.368   10.286
  960.105   32.002    0.384   10.289
  960.925   32.034    0.411   10.209
  961.745   32.046    0.421   10.129
  962.566   32.699    0.414   10.132
  963.386   33.339    0.398   10.219
  964.206   33.985    0.383   10.389
  965.026   34.010    0.374   10.560
  965.846   32.799    0.368   10.814
  966.667   30.968    0.353   11.152
  967.487   30.359    0.328   11.909
  968.307   28.521    0.307   15.932
  969.127   26.689    0.282   19.033
  969.948   27.329    0.213   20.126
  970.768   30.459    0.198   19.877
  971.588   34.223    0.208   19.210
  972.408   37.360    0.225   18.376
  973.228   38.614    0.267   17.207
  974.049   40.509    0.287   15.870
  974.869   41.770    0.324   14.115
  975.689   43.037    0.346   12.694
  976.509   43.683    0.360   11.693
  977.329   41.858    0.371   10.607
  978.150   40.628    0.382   10.024
  978.970   40.038    0.392    9.609
  979.790   40.063    0.393    9.277
  980.610   40.716    0.393    8.945
  981.430   40.114    0.392    8.781
  982.251   39.511    0.392    8.616
  983.071   38.928    0.392    8.619
  983.891   38.332    0.393    8.623
  984.711   38.357    0.391    8.626
  985.531   38.376    0.390    8.546
  986.352   38.407    0.394    8.549
  987.172   40.917    0.400    8.467
  987.992   44.041    0.404    8.388
  988.812   47.792    0.401    8.307
  989.633   50.928    0.405    8.226
  990.453   52.810    0.411    8.147
  991.273   55.953    0.413    8.067
  992.093   56.593    0.423    7.984
  992.913   58.494    0.429    7.988
  993.734   59.127    0.437    7.991
  994.554   60.394    0.440    7.995
  995.374   61.674    0.443    7.997
  996.194   62.314    0.439    8.085
  997.014   62.333    0.436    8.088
  997.835   62.364    0.429    8.090
  998.655   62.389    0.423    8.177
  999.475   61.787    0.418    8.181
 1000.300   61.825    0.416    8.184
 1001.120   62.471    0.428    8.187
 1001.940   62.490    0.436    8.190
 1002.760   63.136    0.441    8.193
 1003.580   63.776    0.439    8.197
 1004.400   64.428    0.430    8.200
 1005.220   65.080    0.420    8.202
 1006.040   64.478    0.405    8.206
 1006.860   63.267    0.409    8.292
 1007.680   63.286    0.422    8.295
 1008.500   63.318    0.432    8.383
 1009.320   63.349    0.439    8.469
 1010.140   63.989    0.436    8.558
 1010.960   64.008    0.428    8.560
 1011.780   64.052    0.420    8.564
 1012.600   64.064    0.423    8.567
 1013.420   64.083    0.426    8.570
 1014.240   64.121    0.429    8.573
 1015.060   64.139    0.430    8.575
 1015.880   64.792    0.430    8.579
 1016.700   64.805    0.429    8.582
 1017.520   66.712    0.425    8.586
 1018.340   67.972    0.423    8.506
 1019.160   68.618    0.423    8.424
 1019.980   68.023    0.424    8.343
 1020.800   66.191    0.424    8.263
 1021.620   65.589    0.421    8.266
 1022.440   65.608    0.420    8.268
 1023.260   65.639    0.424    8.189
 1024.080   66.285    0.428    8.192
 1024.900   65.689    0.424    8.363
 1025.720   65.714    0.411    8.533
 1026.540   66.354    0.408    8.703
 1027.360   68.249    0.412    8.623
 1028.180   68.888    0.420    8.458
 1029.000   70.156    0.427    8.210
 1029.820   68.939    0.421    8.130
 1030.640   67.113    0.414    8.049
 1031.460   65.890    0.406    8.052
 1032.280   64.064    0.392    8.139
 1033.100   64.077    0.380    8.310
 1033.920   62.258    0.376    8.482
 1034.740   61.649    0.382    8.569
 1035.560   60.432    0.389    8.655
 1036.380   59.837    0.393    8.826
 1037.200   58.620    0.398    8.912
 1038.020   58.638    0.401    8.999
 1038.850   58.049    0.396    9.002
 1039.670   57.453    0.392    9.089
 1040.490   57.472    0.386    9.176
 1041.310   56.876    0.386    9.262
 1042.130   55.038    0.387    9.435
 1042.950   52.591    0.383    9.521
 1043.770   51.989    0.377    9.690
 1044.590   51.387    0.362   10.029
 1045.410   50.791    0.345   10.452
 1046.230   51.443    0.351   10.622
 1047.050   53.331    0.376   10.960
 1047.870   55.841    0.382   11.214
 1048.690   59.598    0.387   11.217
 1049.510   59.617    0.394   11.136
 1050.330   59.648    0.400   10.722
 1051.150   59.673    0.388   10.556
 1051.970   59.699    0.380   10.308
 1052.790   59.115    0.390   10.145
 1053.610   59.121    0.397   10.149
 1054.430   58.526    0.390   10.067
 1055.250   57.321    0.379    9.986
 1056.070   57.340    0.360    9.989
 1056.890   56.744    0.358    9.994
 1057.710   56.148    0.354    9.996
 1058.530   55.552    0.382    9.999
 1059.350   54.950    0.395   10.003
 1060.170   54.367    0.403   10.090
 1060.990   53.143    0.393   10.178
 1061.810   51.920    0.383   10.180
 1062.630   49.468    0.368   10.266
 1063.450   47.623    0.350   10.438
 1064.270   45.177    0.336   10.524
 1065.090   44.575    0.321   10.695
 1065.910   43.358    0.310   11.032
 1066.730   44.625    0.320   11.288
 1067.550   48.376    0.352   10.788
 1068.370   50.277    0.381   10.373
 1069.190   49.675    0.395    9.957
 1070.010   49.072    0.387    9.541
 1070.830   47.241    0.375    9.460
 1071.650   46.645    0.367    9.798
 1072.470   47.291    0.368   10.221
 1073.290   48.552    0.373   10.309
 1074.110   51.688    0.372   10.143
 1074.930   54.197    0.375    9.978
 1075.750   56.098    0.379    9.731
 1076.570   56.111    0.384    9.567
 1077.400   56.136    0.387    9.402
 1078.220   56.161    0.395    9.237
 1079.040   57.428    0.398    8.906
 1079.860   60.565    0.403    8.657
 1080.680   62.447    0.402    8.327
 1081.500   64.962    0.402    8.162
 1082.320   66.850    0.400    7.997
 1083.140   68.738    0.403    7.666
