~VERSION INFORMATION
 VERS.                 2.0:   CWLS LOG ASCII STANDARD -VERSION 2.0
 WRAP.                  NO:   ONE LINE PER DEPTH STEP
~WELL INFORMATION BLOCK
#MNEM.UNIT           DATA                    DESCRIPTION OF MNEMONIC
#---------    -------------------            -------------------------------
# Generated from Intellog Unique Number	CW_70_72/WELL/642
NULL.         -999.25                        : NULL_VALUE
WELL.         MIDAS AMOCO MEYER 06-21        : Well_name    - WELL              
LOC .         06-21-071-25W4                 : Location     - LOCATION          
UWI .         00/06-21-071-25W4/0            : Uwi          - UNIQUE WELL ID    
ENTR.         JAYE                           : Entered      - ENTERED BY        
SRVC.         SCHLUMBERGER                   : Scn          - SERVICE COMPANY   
DATE.         4 FEB 73                       : Date         - LOG DATE          
STRT.M        402.336                        : top_depth    - START DEPTH       
STOP.M        624.836                        : bot_depth    - STOP DEPTH        
STEP.M        0.25                           : increment    - STEP LENGTH       
~CURVE INFORMATION BLOCK
#MNEM UNIT       ERCB CURVE CODE    CURVE DESCRIPTION
#-----------   ------------------   ----------------------------------
DEPT.M        00 001 00 00         : DEPTH        - DEPTH                       
DPHI.V/V      00 890 00 00         : PHID         - DENSITY POROSITY (SANDSTONE)
NPHI.V/V      00 330 00 00         : PHIN         - NEUTRON POROSITY (SANDSTONE)
GR  .API      00 310 00 00         : GR           - GAMMA RAY                   
CALI.MM       00 280 01 00         : CAL          - CALIPER                     
ILD .OHMM     00 120 00 00         : RESD         - DEEP RESISTIVITY (DIL)      
~PARAMETER INFORMATION       
#MNEM.UNIT           DATA             DESCRIPTION OF MNEMONIC
#---------         -----------     ------------------------------
GL  .M        598.322              : gl           - GROUND LEVEL ELEVATION      
EREF.M        601.37               : kb           - ELEVATION OF DEPTH REFERENCE
DATM.M        598.322              : datum        - DATUM ELEVATION             
TDD .M        628.802              : tdd          - TOTAL DEPTH DRILLER         
RUN .         ONE                  : Run          - RUN NUMBER                  
ENG .         LEWIS                : Engineer     - RECORDING ENGINEER          
WIT .         JAMES                : Witness      - WITNESSED BY                
BASE.         LLOYD                : Branch       - HOME BASE OF LOGGING UNIT   
MUD .         GEL                  : Mud_type     - MUD TYPE                    
MATR.         SANDSTONE            : Logunit      - NEUTRON MATRIX              
TMAX.C        25.5556              : BHT          - MAXIMUM RECORDED TEMPERATURE
BHTD.M        627.583              : BHTDEP       - MAXIMUM RECORDED TEMPERATURE
RMT .C        15                   : MDTP         - TEMPERATURE OF MUD          
MUDD.KG/M     1116                 : MWT          - MUD DENSITY                 
NEUT.         1                    : NEUTRON      - NEUTRON TYPE                
RESI.         0                    : RESIST       - RESISTIVITY TYPE            
RM  .OHMM     8.41                 : RM           - RESISTIVITY OF MUD          
RMC .OHMM     5                    : RMC          - RESISTIVITY OF MUD CAKE     
RMF .OHMM     3.96                 : RMF          - RESISTIVITY OF MUD FILTRATE 
SUFT.C        -17.7778             : SUFT         - SURFACE TEMPERATURE         
~A  DEPTH     PHID     PHIN       GR      CAL     RESD
# ...
  584.836    0.207    0.327   41.425  168.571    2.065
  585.086    0.215    0.332   43.450  169.040    2.087
  585.336    0.213    0.332   44.327  168.797    2.111
  585.586    0.202    0.337   44.242  164.679    2.110
  585.836    0.196    0.339   42.350  164.435    2.113
  586.086    0.222    0.343   40.642  166.432    2.124
  586.336    0.227    0.341   42.003  167.509    2.138
  586.586    0.216    0.330   42.704  168.293    2.149
  586.836    0.212    0.338   38.217  168.569    2.152
  587.086    0.229    0.341   36.748  169.136    2.183
  587.336    0.214    0.333   37.210  170.007    2.205
  587.586    0.235    0.332   37.727  170.375    2.242
  587.836    0.218    0.334   38.542  170.642    2.266
  588.086    0.217    0.330   39.182  170.801    2.272
  588.336    0.207    0.329   39.582  170.662    2.293
  588.586    0.203    0.330   39.734  170.308    2.304
  588.836    0.197    0.333   38.866  169.771    2.316
  589.086    0.204    0.335   38.064  169.509    2.328
  589.336    0.211    0.333   38.337  169.469    2.330
  589.586    0.206    0.327   40.122  169.841    2.351
  589.836    0.206    0.319   39.915  169.597    2.385
  590.086    0.205    0.313   38.385  168.945    2.414
  590.336    0.193    0.308   40.409  168.907    2.455
  590.586    0.183    0.303   46.170  168.866    2.471
  590.836    0.198    0.303   47.290  168.612    2.483
  591.086    0.202    0.318   46.785  168.689    2.523
  591.336    0.206    0.324   47.187  168.532    2.597
  591.586    0.190    0.329   48.606  168.390    2.674
  591.836    0.173    0.320   49.785  167.436    2.716
  592.086    0.199    0.307   50.785  166.476    2.874
  592.336    0.138    0.288   50.520  166.427    3.141
  592.586    0.114    0.269   50.316  167.209    3.680
  592.836    0.079    0.241   51.987  168.796    4.582
  593.086    0.040    0.201   53.099  169.671    5.477
  593.336    0.014    0.178   53.378  170.451    7.006
  593.586    0.006    0.167   53.355  169.087    9.115
  593.836    0.011    0.159   55.317  168.433   10.915
  594.086    0.023    0.160   59.333  167.795   10.497
  594.336    0.019    0.173   62.865  167.631    8.970
  594.586    0.038    0.201   66.092  167.901    7.946
  594.836    0.063    0.236   70.165  168.380    6.901
  595.086    0.080    0.276   81.588  169.049    6.127
  595.336    0.075    0.280   88.676  169.507    5.776
  595.586    0.069    0.279   92.811  169.774    5.596
  595.836    0.084    0.281   96.100  169.941    5.646
  596.086    0.091    0.287  101.680  169.901    5.740
  596.336    0.084    0.303  109.067  169.957    5.779
  596.586    0.077    0.315  113.561  169.813    5.798
  596.836    0.071    0.325  114.988  169.987    5.846
  597.086    0.078    0.332  115.623  170.868    5.908
  597.336    0.089    0.329  117.407  171.737    5.974
  597.586    0.097    0.339  119.255  173.439    6.028
  597.836    0.085    0.363  119.888  173.794    6.079
  598.086    0.068    0.361  113.658  173.754    6.165
  598.336    0.057    0.350  106.825  172.698    6.209
  598.586    0.054    0.335  110.297  171.441    6.284
  598.836    0.046    0.329  110.693  170.577    6.350
  599.086    0.051    0.338  108.622  170.024    6.348
  599.336    0.074    0.338  104.620  169.273    6.393
  599.586    0.072    0.332  100.257  168.917    6.437
  599.836    0.066    0.325   98.004  168.783    6.446
  600.086    0.083    0.315   98.882  168.941    6.466
  600.336    0.095    0.312  103.377  168.594    6.417
  600.586    0.075    0.339  110.162  168.458    6.509
  600.836    0.084    0.360  115.440  168.506    6.773
  601.086    0.089    0.351  114.513  168.570    7.168
  601.336    0.028    0.272  103.462  168.438    7.456
  601.586    0.016    0.248   75.236  168.285    7.617
  601.836   -0.006    0.274   77.082  168.039    7.754
  602.086    0.038    0.317   91.097  168.097    7.655
  602.336    0.082    0.325   72.271  166.423    6.985
  602.586    0.145    0.296   33.681  163.939    6.041
  602.836    0.170    0.285   30.346  163.078    4.526
  603.086    0.185    0.282   32.489  164.056    4.011
  603.336    0.183    0.281   34.336  160.954    3.606
  603.586    0.177    0.282   34.550  152.445    3.307
  603.836    0.190    0.287   35.312  150.672    3.078
  604.086    0.199    0.305   36.430  154.918    2.846
  604.336    0.194    0.316   33.874  160.994    2.667
  604.586    0.191    0.299   30.657  165.753    2.433
  604.836    0.184    0.286   31.839  166.118    2.337
  605.086    0.171    0.312   36.155  159.343    2.357
  605.336    0.203    0.310   43.058  160.524    2.414
  605.586    0.201    0.305   51.230  161.711    2.562
  605.836    0.182    0.292   60.544  161.368    2.755
  606.086    0.150    0.283   69.138  162.447    2.974
  606.336    0.152    0.264   82.973  166.382    3.174
  606.586    0.128    0.280   93.738  169.408    3.402
  606.836    0.107    0.299  116.971  169.368    3.624
  607.086    0.066    0.324  134.242  169.634    3.862
  607.336    0.075    0.354  145.364  169.993    4.020
  607.586    0.080    0.362  136.542  170.056    4.091
  607.836    0.073    0.357  123.924  165.626    4.147
  608.086    0.068    0.333  112.814  167.423    4.171
  608.336    0.083    0.323  109.956  169.937    4.231
  608.586    0.082    0.341  111.739  173.362    4.315
  608.836    0.070    0.345  115.935  173.320    4.540
  609.086    0.091    0.340  118.502  171.237    4.803
  609.336    0.081    0.342  119.984  169.363    4.934
  609.586    0.078    0.328  116.404  167.280    4.995
  609.836    0.074    0.313  103.062  166.522    5.066
  610.086    0.074    0.299  106.533  166.901    5.103
  610.336    0.070    0.294  108.440  167.974    5.128
  610.586    0.062    0.321  111.730  168.751    5.116
  610.836    0.045    0.364  120.199  169.120    5.004
  611.086    0.092    0.387  125.840  169.075    4.778
  611.336    0.130    0.375  127.080  168.426    4.605
  611.586    0.119    0.387  130.492  166.347    4.571
  611.836    0.118    0.411  127.636  165.083    4.670
  612.086    0.110    0.388   96.940  165.449    4.852
  612.336    0.049    0.354   79.681  166.319    5.039
  612.586    0.060    0.288   46.816  166.384    5.291
  612.836    0.085    0.269   42.215  164.910    5.565
  613.086    0.068    0.255   39.478  161.817    5.923
  613.336    0.066    0.245   38.068  159.521    6.183
  613.586    0.054    0.236   38.109  155.605    6.434
  613.836    0.046    0.238   37.783  157.810    6.385
  614.086    0.051    0.239   37.216  161.237    6.277
  614.336    0.072    0.234   36.829  161.300    6.130
  614.586    0.054    0.230   34.393  161.767    5.973
  614.836    0.034    0.229   29.967  163.769    5.714
  615.086    0.039    0.233   25.727  165.766    5.555
  615.336    0.055    0.257   22.510  167.265    5.327
  615.586    0.070    0.264   21.941  167.318    5.226
  615.836    0.081    0.256   22.645  164.521    5.112
  616.086    0.057    0.266   23.281  165.402    5.000
  616.336    0.043    0.256   26.333  165.157    4.918
  616.586    0.052    0.266   31.064  160.727    4.871
  616.836    0.086    0.294   36.644  161.911    4.832
  617.086    0.085    0.310   39.754  162.789    4.811
  617.336    0.071    0.303   36.656  162.340    4.881
  617.586    0.086    0.301   28.078  159.756    5.080
  617.836    0.087    0.260   29.377  159.501    5.323
  618.086    0.099    0.237   42.131  163.951    5.620
  618.336    0.065    0.202   59.096  163.198    5.903
  618.586    0.045    0.233   76.185  162.448    6.121
  618.836    0.047    0.267   74.354  163.524    6.139
  619.086    0.083    0.249   73.068  165.730    6.106
  619.336    0.119    0.242   71.657  167.113    6.090
  619.586    0.118    0.242   75.427  167.684    6.043
  619.836    0.104    0.256   84.983  161.114    5.997
  620.086    0.104    0.262   87.011  167.091    5.896
  620.336    0.092    0.278   87.347  172.563    5.735
  620.586    0.085    0.297   88.707  170.582    5.488
  620.836    0.088    0.309   90.791  166.462    5.147
  621.086    0.100    0.298   94.204  163.363    4.941
