~VERSION INFORMATION
 VERS.                 2.0:   CWLS LOG ASCII STANDARD -VERSION 2.0
 WRAP.                  NO:   ONE LINE PER DEPTH STEP
~WELL INFORMATION BLOCK
#MNEM.UNIT           DATA                    DESCRIPTION OF MNEMONIC
#---------    -------------------            -------------------------------
# Generated from Intellog Unique Number	CN_91_93/WELL/3015
WELL.         PARAMOUNT RESOURCES LTD.       : Well_name    - WELL
LOC .         00/05-31-093-20W4/0            : Location     - LOCATION
UWI .         00/05-31-093-20W4/0            : Uwi          - UNIQUE WELL ID
ENTR.         JOETTE                         : Entered      - ENTERED BY
SRVC.         COMPUTALOG                     : Scn          - SERVICE COMPANY
DATE.         04/09/92                       : Date         - LOG DATE
STRT.M        150                            : top_depth    - START DEPTH
STOP.M        333                            : bot_depth    - STOP DEPTH
STEP.M        0.25                           : increment    - STEP LENGTH
 NULL. -999.2500:NULL Value
~CURVE INFORMATION BLOCK
#MNEM UNIT       ERCB CURVE CODE    CURVE DESCRIPTION
#-----------   ------------------   ----------------------------------
DEPT.M        00 001 00 00         : DEPTH        - DEPTH
CALI.MM       00 280 01 00         : CAL          - CALIPER
GR  .API      00 310 00 00         : GR           - GAMMA RAY
NPHI.V/V      00 330 00 00         : PHIN         - NEUTRON POROSITY (SANDSTONE)
DPHI.V/V      00 890 00 00         : PHID         - DENSITY POROSITY (SANDSTONE)
ILD .OHMM     00 120 00 00         : RESD         - DEEP RESISTIVITY (DIL)
~PARAMETER INFORMATION
#MNEM.UNIT           DATA             DESCRIPTION OF MNEMONIC
#---------         -----------     ------------------------------
GL  .M        638                  : gl           - GROUND LEVEL ELEVATION
EREF.M        641.4                : kb           - ELEVATION OF DEPTH REFERENCE
DATM.M        641.4                : datum        - DATUM ELEVATION
TDD .M        331.6                : tdd          - TOTAL DEPTH DRILLER
RUN .         ONE                  : Run          - RUN NUMBER
ENG .         BILL                 : Engineer     - RECORDING ENGINEER
WIT .         JIM                  : Witness      - WITNESSED BY
MUD .         GEL                  : Mud_type     - MUD TYPE
MATR.         SANDSTONE            : Logunit      - NEUTRON MATRIX
TMAX.C        29                   : BHT          - MAXIMUM RECORDED TEMPERATURE
BHTD.M        331.6                : BHTDEP       - MAXIMUM RECORDED TEMPERATURE
RMT .C        10                   : MDTP         - TEMPERATURE OF MUD
MUDD.KG/M     1150                 : MWT          - MUD DENSITY
NEUT.         1                    : NEUTRON      - NEUTRON TYPE
RESI.         0                    : RESIST       - RESISTIVITY TYPE
RM  .OHMM     4.7                  : RM           - RESISTIVITY OF MUD
RMC .OHMM     4.7                  : RMC          - RESISTIVITY OF MUD CAKE
RMF .OHMM     4.7                  : RMF          - RESISTIVITY OF MUD FILTRATE
SUFT.C        -20                  : SUFT         - SURFACE TEMPERATURE
~A  DEPTH      CAL       GR     PHIN     PHID     RESD
# ...
  186.500  175.207   32.575    0.320    0.328   20.859
  186.750  176.249   50.050    0.316    0.335   18.988
  187.000  180.863   55.270    0.326    0.332   15.737
  187.250  175.775   62.330    0.353    0.321   12.561
  187.500  183.451   61.422    0.370    0.320   13.666
  187.750  184.493   55.918    0.353    0.326   14.729
  188.000  181.958   48.882    0.348    0.326   15.579
  188.250  167.166   52.569    0.357    0.323   15.872
  188.500  166.165   54.419    0.374    0.326   15.428
  188.750  163.117   51.061    0.369    0.308   13.913
  189.000  160.072   48.007    0.337    0.261   11.860
  189.250  166.221   73.142    0.324    0.245   10.301
  189.500  168.284   78.362    0.354    0.269    9.377
  189.750  168.811   86.034    0.375    0.311    8.144
  190.000  176.489   84.514    0.368    0.346    8.455
  190.250  168.848   70.736    0.356    0.322    9.198
  190.500  163.760   47.767    0.342    0.296   10.390
  190.750  166.331   38.586    0.330    0.299   14.158
  191.000  164.820   30.325    0.314    0.297   17.564
  191.250  172.498   20.531    0.289    0.288   17.893
  191.500  167.921   20.849    0.278    0.288   13.887
  191.750  164.873   47.824    0.315    0.323   10.284
  192.000  171.019   76.942    0.329    0.323    9.628
  192.250  176.655  101.464    0.339    0.290   10.377
  192.500  178.721  103.008    0.348    0.255   11.079
  192.750  175.677  100.265    0.346    0.255   11.829
  193.000  173.138  100.886    0.341    0.259   12.052
  193.250  172.135  103.348    0.337    0.263   12.049
  193.500  179.305  106.116    0.336    0.255   11.281
  193.750  180.342  114.706    0.348    0.245   10.562
  194.000  182.916  127.586    0.372    0.233   10.172
  194.250  186.507  124.227    0.382    0.242   10.963
  194.500  188.060  110.144    0.366    0.248   12.499
  194.750  188.078   87.176    0.349    0.250   13.598
  195.000  182.988   68.803    0.337    0.247   12.613
  195.250  171.264   58.091    0.320    0.224   10.259
  195.500  173.325   49.523    0.327    0.126    7.814
  195.750  168.745   66.079    0.334    0.136    6.851
  196.000  162.636  101.325    0.342    0.155    5.678
  196.250  161.638  114.512    0.402    0.201    4.886
  196.500  162.162  122.491    0.448    0.224    3.974
  196.750  164.228  119.130    0.471    0.222    3.863
  197.000  167.821  117.303    0.477    0.231    3.972
  197.250  168.858  120.071    0.479    0.225    4.085
  197.500  169.390  116.713    0.478    0.225    4.201
  197.750  169.919  112.740    0.467    0.229    4.280
  198.000  170.958  111.832    0.469    0.224    4.319
  198.250  170.975  114.294    0.479    0.217    4.318
  198.500  168.440  118.901    0.483    0.215    4.120
  198.750  166.929  118.301    0.479    0.217    4.043
  199.000  166.436  117.086    0.482    0.224    4.080
  199.250  167.476  118.629    0.470    0.228    4.609
  199.500  170.556  118.029    0.448    0.230    5.826
  199.750  174.151  113.135    0.421    0.234    6.580
  200.000  175.191  107.325    0.411    0.241    7.227
  200.250  175.207  107.337    0.398    0.239    7.862
  200.500  176.760  112.252    0.390    0.236    8.394
  200.750  174.736  112.263    0.395    0.237    8.552
  201.000  172.712  106.453    0.404    0.234    8.470
  201.250  172.222  104.624    0.402    0.231    8.311
  201.500  174.285  106.781    0.386    0.231    8.310
  201.750  177.365  108.019    0.365    0.237    8.626
  202.000  178.405  106.496    0.368    0.240    9.124
  202.250  173.317  100.992    0.386    0.241    9.561
  202.500  168.737   98.553    0.395    0.235   10.018
  202.750  165.181   98.256    0.386    0.224   10.797
  203.000  164.691   90.301    0.371    0.203   11.208
  203.250  166.239   90.312    0.361    0.205   11.312
  203.500  170.343   95.532    0.367    0.225   11.100
  203.750  170.361   95.543    0.383    0.242   10.295
  204.000  173.957   93.717    0.398    0.236    9.284
  204.250  169.890   93.423    0.404    0.239    8.531
  204.500  168.374   95.270    0.389    0.245    8.610
  204.750  171.967   98.959    0.386    0.245    8.937
  205.000  172.501   97.133    0.389    0.244    8.770
  205.250  169.966   96.224    0.393    0.250    7.689
  205.500  166.408  102.056    0.401    0.255    6.742
  205.750  165.915  112.178    0.404    0.254    6.023
  206.000  173.085  113.108    0.402    0.245    5.280
  206.250  176.165  110.976    0.425    0.233    4.762
  206.500  175.673  109.761    0.466    0.224    4.254
  206.750  172.628  110.690    0.463    0.225    4.058
  207.000  169.585  111.927    0.466    0.230    3.982
  207.250  168.584  110.100    0.470    0.233    3.982
  207.500  168.598  107.967    0.464    0.243    4.095
  207.750  170.151  109.817    0.446    0.248    4.497
  208.000  169.148  104.618    0.426    0.260    5.224
  208.250  164.060   94.212    0.410    0.273    5.956
  208.500  160.504   89.322    0.413    0.281    6.665
  208.750  160.009   89.638    0.402    0.275    7.528
  209.000  161.562   94.859    0.392    0.271    8.114
  209.250  163.625   94.259    0.398    0.272    8.266
  209.500  165.173   92.431    0.395    0.265    8.187
  209.750  170.811   89.377    0.396    0.259    8.263
  210.000  169.808   84.180    0.390    0.218    8.658
  210.250  165.739   80.514    0.397    0.131    8.657
  210.500  165.758   88.798    0.424    0.197    8.181
  210.750  172.415   94.017    0.414    0.243    7.173
  211.000  174.989   94.948    0.406    0.256    5.835
  211.250  173.475   96.797    0.423    0.252    5.164
  211.500  175.025  101.098    0.441    0.249    4.745
  211.750  176.065  104.479    0.447    0.248    4.360
  212.000  174.041  108.167    0.452    0.247    3.858
  212.250  172.017  108.792    0.453    0.245    3.681
  212.500  170.501   99.000    0.434    0.245    4.042
  212.750  170.522   94.719    0.401    0.246    4.741
  213.000  171.053   89.828    0.410    0.243    6.281
  213.250  173.625   85.856    0.421    0.264    7.228
  213.500  172.622   82.190    0.403    0.266    8.637
  213.750  167.534   82.815    0.403    0.255    9.051
  214.000  166.018   85.890    0.411    0.251    9.484
  214.250  166.547   85.904    0.407    0.251    9.219
  214.500  167.587   85.915    0.393    0.249    8.713
  214.750  169.653   87.150    0.398    0.244    8.006
  215.000  170.690   87.161    0.405    0.239    7.783
  215.250  166.111   87.785    0.389    0.251    8.388
  215.500  171.235   87.489    0.370    0.252    8.707
  215.750  163.596   75.244    0.353    0.188    8.954
  216.000  164.126   75.561    0.385    0.193    8.953
  216.250  165.165   88.442    0.397    0.247    8.867
  216.500  165.184   95.192    0.390    0.276    8.949
  216.750  165.200   96.123    0.388    0.282    9.032
  217.000  169.306   93.684    0.391    0.280    8.698
  217.250  172.388   98.597    0.397    0.271    8.298
  217.500  171.385  100.755    0.391    0.258    7.916
  217.750  169.366  100.766    0.393    0.256    7.274
  218.000  168.869   98.632    0.405    0.260    7.005
  218.250  170.422   96.191    0.420    0.261    7.204
  218.500  170.951   91.607    0.422    0.250    7.270
  218.750  166.884   88.247    0.396    0.226    7.067
  219.000  165.879   84.889    0.387    0.186    6.742
  219.250  167.940   87.962    0.389    0.205    6.080
  219.500  167.450   93.488    0.415    0.258    5.135
  219.750  170.019   95.952    0.442    0.258    3.911
  220.000  172.591   96.574    0.456    0.256    3.429
  220.250  173.125   98.730    0.459    0.258    3.396
  220.500  172.633  103.337    0.447    0.252    3.559
  220.750  171.625  104.270    0.444    0.244    3.694
  221.000  166.539  103.054    0.436    0.238    3.907
  221.250  168.600  100.309    0.435    0.239    4.172
  221.500  169.640   97.255    0.437    0.255    4.496
  221.750  169.661   93.284    0.431    0.270    4.846
  222.000  166.618   90.230    0.443    0.270    4.937
  222.250  163.570   85.953    0.456    0.259    4.844
  222.500  166.650   94.235    0.455    0.265    4.451
  222.750  175.350  100.681    0.455    0.267    4.207
