~VERSION INFORMATION
 VERS.                 2.0:   CWLS LOG ASCII STANDARD -VERSION 2.0
 WRAP.                  NO:   ONE LINE PER DEPTH STEP
~WELL INFORMATION BLOCK
#MNEM.UNIT           DATA                    DESCRIPTION OF MNEMONIC
#---------    -------------------            -------------------------------
# Generated from Intellog Unique Number	CS_67_68/WELL/774
WELL.         MERLAND EXPLORATION            : Well_name    - WELL
LOC .         00/07-20-068-10W4/0            : Location     - LOCATION
UWI .         00/07-20-068-10W4/0            : Uwi          - UNIQUE WELL ID
ENTR.         SP                             : Entered      - ENTERED BY
SRVC.         SCHLUMBERGER                   : Scn          - SERVICE COMPANY
STRT.M        375                            : top_depth    - START DEPTH
STOP.M        615                            : bot_depth    - STOP DEPTH
STEP.M        0.25                           : increment    - STEP LENGTH
 NULL. -999.2500:NULL Value
~CURVE INFORMATION BLOCK
#MNEM UNIT       ERCB CURVE CODE    CURVE DESCRIPTION
#-----------   ------------------   ----------------------------------
DEPT.M        00 001 00 00         : DEPTH        - DEPTH
ILD .OHMM     00 120 00 00         : RESD         - DEEP RESISTIVITY (DIL)
DPHI.V/V      00 890 00 00         : PHID         - DENSITY POROSITY (LIMESTONE)
NPHI.V/V      00 330 00 00         : PHIN         - NEUTRON POROSITY (LIMESTONE)
GR  .API      00 310 00 00         : GR           - GAMMA RAY
~PARAMETER INFORMATION
#MNEM.UNIT           DATA             DESCRIPTION OF MNEMONIC
#---------         -----------     ------------------------------
GL  .M        690.3                : gl           - GROUND LEVEL ELEVATION
EREF.M        693.05               : kb           - ELEVATION OF DEPTH REFERENCE
DATM.M        690.3                : datum        - DATUM ELEVATION
TDD .M        616                  : tdd          - TOTAL DEPTH DRILLER
RUN .         ONE                  : Run          - RUN NUMBER
ENG .         BILL                 : Engineer     - RECORDING ENGINEER
WIT .         JIM                  : Witness      - WITNESSED BY
MUD .         GEL                  : Mud_type     - MUD TYPE
MATR.         LIMESTONE            : Logunit      - NEUTRON MATRIX
TMAX.C        26                   : BHT          - MAXIMUM RECORDED TEMPERATURE
BHTD.M        616                  : BHTDEP       - MAXIMUM RECORDED TEMPERATURE
MATR.         1                    : LOGUNIT      - NEUTRON MATRIX
RMT .C        25                   : MDTP         - TEMPERATURE OF MUD
NEUT.         1                    : NEUTRON      - NEUTRON TYPE
RESI.         0                    : RESIST       - RESISTIVITY TYPE
RMC .OHMM     0.25                 : RMC          - RESISTIVITY OF MUD CAKE
RMF .OHMM     0.25                 : RMF          - RESISTIVITY OF MUD FILTRATE
SUFT.C        15                   : SUFT         - SURFACE TEMPERATURE
~A  DEPTH     RESD     PHID     PHIN       GR
# ...
  592.500    5.609    0.142    0.345  109.381
  592.750    5.628    0.148    0.344  110.606
  593.000    5.596    0.147    0.336  111.403
  593.250    5.532    0.127    0.333  112.262
  593.500    5.469    0.112    0.331  112.148
  593.750    5.378    0.106    0.342  111.241
  594.000    5.317    0.134    0.355  109.725
  594.250    5.237    0.130    0.349  109.124
  594.500    5.169    0.143    0.348  109.252
  594.750    5.129    0.137    0.358  109.259
  595.000    6.353    0.140    0.374   89.538
  595.250    6.946    0.144    0.361   81.971
  595.500    7.470    0.135    0.289   72.764
  595.750    7.886    0.094    0.251   64.163
  596.000    8.340    0.005    0.214   54.773
  596.250    8.484    0.002    0.192   70.412
  596.500    8.209    0.109    0.245   79.490
  596.750    7.349    0.139    0.285   84.737
  597.000    6.566    0.109    0.328   90.047
  597.250    5.867    0.088    0.307  100.947
  597.500    5.380    0.099    0.296  110.572
  597.750    5.111    0.130    0.307  112.844
  598.000    5.113    0.113    0.329  103.760
  598.250    5.162    0.126    0.343   96.980
  598.500    5.281    0.125    0.353  112.132
  598.750    5.513    0.140    0.329  106.689
  599.000    5.671    0.156    0.315  101.007
  599.250    5.812    0.129    0.310   98.299
  599.500    5.934    0.134    0.311   98.567
  599.750    6.014    0.154    0.316   99.201
  600.000    6.039    0.166    0.320  102.689
  600.250    5.975    0.141    0.322  106.241
  600.500    5.900    0.125    0.315  107.846
  600.750    5.773    0.133    0.309  106.046
  601.000    5.754    0.060    0.306  101.761
  601.250    5.832    0.022    0.318   99.294
  601.500    6.021   -0.007    0.350   97.376
  601.750    6.239    0.013    0.367   96.126
  602.000    6.502    0.077    0.380   95.667
  602.250    6.688    0.088    0.387   98.852
  602.500    6.815    0.103    0.377  105.014
  602.750    6.998    0.118    0.366  110.933
  603.000    7.027    0.110    0.361  115.878
  603.250    6.978    0.102    0.372  122.098
  603.500    6.815    0.099    0.383  130.323
  603.750    6.510    0.129    0.390  148.086
  604.000    6.229    0.142    0.375  156.616
  604.250    5.829    0.088    0.370  149.536
  604.500    5.496    0.095    0.370  139.846
  604.750    5.144    0.097    0.359  130.090
  605.000    4.895    0.089    0.356  114.867
  605.250    4.701    0.098    0.362   96.730
  605.500    4.608    0.104    0.362   90.499
  605.750    4.551    0.103    0.359   87.671
  606.000    4.536    0.095    0.361   96.139
  606.250    4.488    0.110    0.368  105.218
  606.500    4.399    0.122    0.380  108.889
  606.750    4.241    0.116    0.396  111.162
  607.000    4.251    0.105    0.409  113.495
  607.250    4.614    0.117    0.425  115.584
  607.500    5.596    0.097    0.439  114.396
  607.750    7.298    0.089    0.396  109.320
  608.000    8.868    0.093    0.267   97.319
  608.250   10.638    0.023    0.200   84.465
  608.500   12.785    0.046    0.173   61.288
  608.750   14.083    0.040    0.192   45.215
  609.000   14.923    0.036    0.218   37.465
  609.250   15.321    0.046    0.236   36.701
  609.500   15.614    0.042    0.232   39.704
  609.750   15.766    0.053    0.206   39.428
  610.000   15.951    0.048    0.189   32.951
  610.250   15.956    0.040    0.182   26.845
  610.500   15.757    0.044    0.178   25.715
  610.750   15.390    0.040    0.176   26.654
  611.000   14.781    0.033    0.176   27.041
  611.250   13.808    0.025    0.178   26.646
  611.500   11.977    0.020    0.181   25.392
  611.750    9.612    0.032    0.184   22.564
  612.000    7.614    0.042    0.191   23.439
  612.250    5.910    0.067    0.225   22.978
  612.500    4.949    0.105    0.331   20.272
  612.750    4.382    0.171    0.330   24.184
  613.000    4.473    0.159    0.324   91.880
  613.250    4.749    0.147    0.336  101.016
  613.500    5.582    0.153    0.318  108.518
  613.750    6.859    0.136    0.275  112.064
  614.000    7.827    0.107    0.216  114.216
  614.250    8.526    0.076    0.187  113.087
  614.500    8.934    0.084    0.180  107.282
  614.750   12.156    0.087    0.180   97.283
  615.000   14.104    0.071    0.185   82.003
