~VERSION INFORMATION
 VERS.                 2.0:   CWLS LOG ASCII STANDARD -VERSION 2.0
 WRAP.                  NO:   ONE LINE PER DEPTH STEP
~WELL INFORMATION BLOCK
#MNEM.UNIT           DATA                    DESCRIPTION OF MNEMONIC
#---------    -------------------            -------------------------------
# Generated from Intellog Unique Number	CS_67_68/WELL/2181
WELL.         07-34-067-08W4                 : Well_name    - WELL
LOC .         00/07-34-067-08W4/0            : Location     - LOCATION
UWI .         00/07-34-067-08W4/0            : Uwi          - UNIQUE WELL ID
ENTR.         SP                             : Entered      - ENTERED BY
SRVC.         SCHLUMBERGER                   : Scn          - SERVICE COMPANY
STRT.M        340                            : top_depth    - START DEPTH
STOP.M        563                            : bot_depth    - STOP DEPTH
STEP.M        0.25                           : increment    - STEP LENGTH
 NULL. -999.2500:NULL Value
~CURVE INFORMATION BLOCK
#MNEM UNIT       ERCB CURVE CODE    CURVE DESCRIPTION
#-----------   ------------------   ----------------------------------
DEPT.M        00 001 00 00         : DEPTH        - DEPTH
ILD .OHMM     00 120 00 00         : RESD         - DEEP RESISTIVITY (DIL)
DPHI.V/V      00 890 00 00         : PHID         - DENSITY POROSITY (LIMESTONE)
NPHI.V/V      00 330 00 00         : PHIN         - NEUTRON POROSITY (LIMESTONE)
GR  .API      00 310 00 00         : GR           - GAMMA RAY
CALI.MM       00 280 01 00         : CAL          - CALIPER
~PARAMETER INFORMATION
#MNEM.UNIT           DATA             DESCRIPTION OF MNEMONIC
#---------         -----------     ------------------------------
GL  .M        644.13               : gl           - GROUND LEVEL ELEVATION
EREF.M        648.68               : kb           - ELEVATION OF DEPTH REFERENCE
DATM.M        648.68               : datum        - DATUM ELEVATION
TDD .M        572                  : tdd          - TOTAL DEPTH DRILLER
RUN .         ONE                  : Run          - RUN NUMBER
ENG .         BILL                 : Engineer     - RECORDING ENGINEER
WIT .         JIM                  : Witness      - WITNESSED BY
MUD .         GEL                  : Mud_type     - MUD TYPE
MATR.         LIMESTONE            : Logunit      - NEUTRON MATRIX
TMAX.C        23                   : BHT          - MAXIMUM RECORDED TEMPERATURE
BHTD.M        571                  : BHTDEP       - MAXIMUM RECORDED TEMPERATURE
MATR.         1                    : LOGUNIT      - NEUTRON MATRIX
RMT .C        25                   : MDTP         - TEMPERATURE OF MUD
NEUT.         1                    : NEUTRON      - NEUTRON TYPE
RESI.         0                    : RESIST       - RESISTIVITY TYPE
RMC .OHMM     0.25                 : RMC          - RESISTIVITY OF MUD CAKE
RMF .OHMM     0.25                 : RMF          - RESISTIVITY OF MUD FILTRATE
SUFT.C        15                   : SUFT         - SURFACE TEMPERATURE
~A  DEPTH     RESD     PHID     PHIN       GR      CAL
# ...
  376.500    4.269    0.253    0.476   91.554  226.631
  376.750    4.262    0.241    0.472   90.259  223.038
  377.000    4.271    0.227    0.487   90.743  221.798
  377.250    4.321    0.214    0.495   95.156  222.604
  377.500    4.396    0.214    0.482   98.035  224.946
  377.750    4.413    0.232    0.469   99.133  226.572
  378.000    4.439    0.224    0.469   97.101  227.277
  378.250    4.474    0.198    0.481   95.190  227.778
  378.500    4.569    0.197    0.490   93.648  226.743
  378.750    4.640    0.228    0.487   93.272  224.786
  379.000    4.641    0.242    0.482   92.343  222.114
  379.250    4.659    0.237    0.476   91.724  222.100
  379.500    4.617    0.227    0.468   90.673  224.134
  379.750    4.635    0.215    0.470   87.104  225.046
  380.000    4.689    0.220    0.473   89.615  225.443
  380.250    4.690    0.228    0.462   93.352  226.147
  380.500    4.673    0.233    0.465   93.223  226.033
  380.750    4.639    0.238    0.470   91.067  224.896
  381.000    4.641    0.233    0.465   89.587  223.349
  381.250    4.650    0.223    0.441   88.351  222.416
  381.500    4.704    0.216    0.423   89.388  222.610
  381.750    4.723    0.212    0.429   94.047  223.721
  382.000    4.707    0.214    0.460   98.399  224.632
  382.250    4.708    0.228    0.476  100.357  224.517
  382.500    4.727    0.241    0.487   97.771  223.484
  382.750    4.763    0.230    0.496   93.833  222.038
  383.000    4.702    0.222    0.454   92.231  221.105
  383.250    4.589    0.226    0.464   93.820  219.662
  383.500    4.404    0.249    0.507   95.656  218.524
  383.750    4.194    0.262    0.544   97.674  217.898
  384.000    3.927    0.267    0.535   99.202  219.217
  384.250    3.628    0.247    0.534  100.485  219.715
  384.500    3.334    0.244    0.544  101.398  219.090
  384.750    3.193    0.245    0.556  100.471  217.748
  385.000    3.128    0.244    0.570   96.289  215.892
  385.250    3.261    0.262    0.497   87.747  215.167
  385.500    3.375    0.275    0.468   79.451  218.122
  385.750    3.545    0.252    0.436   81.838  220.771
  386.000    3.689    0.238    0.466   86.128  226.284
  386.250    3.868    0.232    0.466   89.437  229.240
  386.500    4.011    0.246    0.465   93.114  231.072
  386.750    4.096    0.260    0.484   96.484  229.627
  387.000    4.214    0.272    0.500   98.564  227.057
  387.250    4.255    0.277    0.503  100.399  226.227
  387.500    4.248    0.275    0.522  102.787  225.295
  387.750    4.233    0.271    0.523  104.807  222.520
  388.000    4.179    0.268    0.513  102.896  218.414
  388.250    4.164    0.277    0.496   97.792  216.969
  388.500    4.165    0.272    0.462   94.470  216.548
  388.750    4.229    0.258    0.430   92.437  216.332
  389.000    4.327    0.251    0.441   95.070  216.116
  389.250    4.377    0.252    0.467  100.159  217.022
  389.500    4.395    0.251    0.472   94.626  217.320
  389.750    4.355    0.244    0.469   94.374  217.716
  390.000    4.331    0.243    0.500  101.427  218.012
  390.250    4.283    0.244    0.524  106.332  218.308
  390.500    4.349    0.228    0.555   93.922  219.319
  390.750    4.656    0.209    0.409   82.188  220.022
  391.000    4.910    0.146    0.381   73.954  220.422
  391.250    5.100    0.116    0.391   66.088  220.102
  391.500    5.248    0.133    0.457   75.290  220.499
  391.750    5.319    0.200    0.487   84.063  220.898
  392.000    5.260    0.247    0.503   89.091  221.091
  392.250    5.067    0.266    0.475   91.539  220.977
  392.500    4.699    0.251    0.486   92.944  220.658
  392.750    4.458    0.232    0.522   94.963  220.543
  393.000    4.360    0.280    0.544   98.456  220.428
  393.250    4.361    0.300    0.557   99.186  220.006
  393.500    4.370    0.290    0.527   99.793  220.302
  393.750    4.371    0.279    0.508  101.260  221.109
  394.000    4.364    0.272    0.502  103.094  221.813
  394.250    4.348    0.270    0.510  102.166  222.212
  394.500    4.357    0.261    0.515  101.484  222.508
  394.750    4.367    0.251    0.498  102.336  224.132
  395.000    4.368    0.244    0.485  102.943  226.271
  395.250    4.344    0.237    0.476  101.524  226.974
  395.500    4.337    0.231    0.476  101.885  226.451
  395.750    4.362    0.225    0.496  102.369  225.927
  396.000    4.397    0.218    0.515  102.730  224.074
  396.250    4.456    0.232    0.530  103.030  220.583
  396.500    4.508    0.243    0.514  103.085  220.364
  396.750    4.560    0.238    0.498  102.648  220.560
  397.000    4.587    0.226    0.480  102.150  220.648
  397.250    4.588    0.219    0.466  102.142  220.535
  397.500    4.555    0.214    0.476  102.320  220.626
  397.750    4.496    0.214    0.504  102.743  220.410
  398.000    4.380    0.227    0.529  103.472  219.784
  398.250    4.283    0.241    0.505  103.650  219.463
  398.500    4.244    0.227    0.483  103.029  220.067
  398.750    4.277    0.210    0.468  101.179  221.692
  399.000    4.294    0.210    0.464   95.708  223.421
  399.250    4.377    0.222    0.469   89.069  223.715
  399.500    4.444    0.229    0.437   84.948  222.678
  399.750    4.547    0.236    0.411   80.766  222.055
  400.000    4.644    0.231    0.421   82.539  221.530
  400.250    4.724    0.208    0.440   88.243  222.133
  400.500    4.779    0.197    0.448   93.823  222.634
  400.750    4.727    0.213    0.444   97.808  223.031
  401.000    4.648    0.232    0.453  101.730  222.506
  401.250    4.537    0.248    0.462  102.459  222.188
  401.500    4.453    0.253    0.457   99.874  221.766
  401.750    4.362    0.249    0.468  101.402  221.347
  402.000    4.290    0.248    0.493  103.543  220.721
  402.250    4.187    0.249    0.505  100.527  220.095
  402.500    4.117    0.253    0.482   96.653  219.469
  402.750    4.026    0.260    0.460   93.637  218.844
  403.000    3.959    0.260    0.485   93.139  218.523
  403.250    3.915    0.270    0.501   83.307  217.898
  403.500    3.887    0.284    0.506   75.626  217.477
  403.750    3.880    0.287    0.419   68.251  218.796
  404.000    3.867    0.272    0.437   75.796  219.501
  404.250    3.964    0.254    0.444   85.734  220.717
  404.500    4.109    0.237    0.435   90.518  222.035
  404.750    4.309    0.223    0.444   94.624  222.227
  405.000    4.417    0.232    0.458   97.994  222.626
  405.250    4.502    0.238    0.469   96.820  222.405
  405.500    4.537    0.245    0.478   95.032  221.883
  405.750    4.521    0.247    0.479   95.946  221.260
  406.000    4.446    0.248    0.477   96.676  220.530
  406.250    4.380    0.252    0.493   91.512  219.907
  406.500    4.299    0.261    0.480   79.715  218.769
  406.750    4.212    0.272    0.463   74.429  218.655
  407.000    4.158    0.274    0.464   80.377  218.744
  407.250    4.174    0.254    0.468   89.273  218.628
  407.500    4.223    0.244    0.455   89.695  218.312
  407.750    4.264    0.239    0.449   81.153  217.583
  408.000    4.241    0.252    0.474   75.499  216.752
  408.250    4.171    0.280    0.485   69.413  216.026
  408.500    3.994    0.294    0.474   64.247  215.193
  408.750    3.847    0.304    0.451   60.373  214.671
  409.000    3.623    0.313    0.441   56.128  214.248
  409.250    3.569    0.319    0.436   55.631  213.625
  409.500    3.497    0.320    0.439   58.263  213.101
  409.750    3.400    0.320    0.432   58.932  212.475
  410.000    3.401    0.301    0.426   55.487  212.055
  410.250    3.506    0.291    0.421   55.050  211.940
  410.500    3.480    0.289    0.434   59.402  211.929
  410.750    3.448    0.298    0.443   61.666  212.015
  411.000    3.404    0.310    0.431   61.352  212.108
  411.250    3.405    0.321    0.471   62.513  212.098
  411.500    3.374    0.307    0.490   66.803  212.495
  411.750    3.349    0.286    0.510   71.031  212.586
  412.000    3.293    0.281    0.505   73.973  212.880
  412.250    3.220    0.296    0.506   76.545  212.970
  412.500    3.197    0.307    0.516   75.309  213.164
  412.750    3.185    0.310    0.484   68.977  213.254
