~VERSION INFORMATION
 VERS.                 2.0:   CWLS LOG ASCII STANDARD -VERSION 2.0
 WRAP.                  NO:   ONE LINE PER DEPTH STEP
~WELL INFORMATION BLOCK
#MNEM.UNIT           DATA                    DESCRIPTION OF MNEMONIC
#---------    -------------------            -------------------------------
# Generated from Intellog Unique Number	CS_73_76/WELL/2813
WELL.         TEXACO WINEFRED LAKE 7-17      : Well_name    - WELL
LOC .         07-17-075-03W4                   : Location     - LOCATION
UWI .         00/07-17-075-03W4/0             : Uwi          - UNIQUE WELL ID
ENTR.         ANDERSEN                       : Entered      - ENTERED BY
SRVC.         COMPUTALOG                     : Scn          - SERVICE COMPANY
STRT.M        260                            : top_depth    - START DEPTH
STOP.M        510                            : bot_depth    - STOP DEPTH
STEP.M        0.25                           : increment    - STEP LENGTH
 NULL. -999.2500:NULL Value
~CURVE INFORMATION BLOCK
#MNEM UNIT       ERCB CURVE CODE    CURVE DESCRIPTION
#-----------   ------------------   ----------------------------------
DEPT.M        00 001 00 00         : DEPTH        - DEPTH
GR  .API      00 310 00 00         : GR           - GAMMA RAY
CALI.MM       00 280 01 00         : CAL          - CALIPER
NPHI.V/V      00 330 00 00         : PHIN         - NEUTRON POROSITY (SANDSTONE)
DPHI.V/V      00 890 00 00         : PHID         - DENSITY POROSITY (SANDSTONE)
ILD .OHMM     00 120 00 00         : RESD         - DEEP RESISTIVITY (DIL)
~PARAMETER INFORMATION
#MNEM.UNIT           DATA             DESCRIPTION OF MNEMONIC
#---------         -----------     ------------------------------
GL  .M        624.1                : gl           - GROUND LEVEL ELEVATION
EREF.M        627.7                : kb           - ELEVATION OF DEPTH REFERENCE
DATM.M        627.7                : datum        - DATUM ELEVATION
TDD .M        526                  : tdd          - TOTAL DEPTH DRILLER
RUN .         ONE                  : Run          - RUN NUMBER
ENG .         BILL                 : Engineer     - RECORDING ENGINEER
WIT .         JIM                  : Witness      - WITNESSED BY
MUD .         GEL                  : Mud_type     - MUD TYPE
MATR.         SANDSTONE            : Logunit      - NEUTRON MATRIX
TMAX.C        20                   : BHT          - MAXIMUM RECORDED TEMPERATURE
BHTD.M        526                  : BHTDEP       - MAXIMUM RECORDED TEMPERATURE
RMT .C        18                   : MDTP         - TEMPERATURE OF MUD
MUDD.KG/M     1100                 : MWT          - MUD DENSITY
NEUT.         1                    : NEUTRON      - NEUTRON TYPE
RESI.         0                    : RESIST       - RESISTIVITY TYPE
RM  .OHMM     4.7                  : RM           - RESISTIVITY OF MUD
RMC .OHMM     3.3                  : RMC          - RESISTIVITY OF MUD CAKE
RMF .OHMM     7.3                  : RMF          - RESISTIVITY OF MUD FILTRATE
SUFT.C        15                   : SUFT         - SURFACE TEMPERATURE
~A  DEPTH       GR      CAL     PHIN     PHID     RESD
# ...
  442.500   49.545  201.433    0.347    0.298    5.923
  442.750   56.181  201.445    0.345    0.299    5.933
  443.000   70.050  200.450    0.342    0.277    5.947
  443.250   81.508  200.458    0.347    0.228    5.850
  443.500   89.955  200.468    0.352    0.217    5.864
  443.750   94.179  199.473    0.349    0.227    5.995
  444.000   95.390  199.485    0.345    0.231    6.006
  444.250   87.560  199.497    0.349    0.230    6.023
  444.500   91.184  199.504    0.353    0.250    5.708
  444.750   91.189  198.510    0.355    0.265    5.309
  445.000   78.537  198.519    0.359    0.248    5.123
  445.250   70.707  198.531    0.362    0.252    4.857
  445.500   61.672  198.539    0.362    0.256    4.871
  445.750   54.444  198.548    0.362    0.284    4.877
  446.000   47.820  198.561    0.365    0.318    4.986
  446.250   37.579  198.568    0.366    0.339    4.995
  446.500   41.804  199.587    0.366    0.331    5.004
  446.750   43.618  199.594    0.362    0.315    5.015
  447.000   41.215  199.602    0.358    0.318    4.845
  447.250   44.233  199.614    0.356    0.327    4.678
  447.500   41.828  199.624    0.356    0.322    4.599
  447.750   38.218  199.633    0.349    0.306    4.441
  448.000   37.622  199.648    0.342    0.297    4.288
  448.250   38.232  199.655    0.341    0.305    4.142
  448.500   40.046  199.665    0.346    0.316    4.002
  448.750   40.052  199.675    0.347    0.329    3.932
  449.000   38.248  199.682    0.344    0.338    3.799
  449.250   37.048  199.694    0.348    0.332    3.737
  449.500   37.054  199.704    0.350    0.327    3.676
  449.750   41.279  199.711    0.354    0.323    3.687
  450.000   62.381  199.726    0.347    0.334    3.625
  450.250   76.853  199.731    0.340    0.335    3.631
  450.500  100.968  199.745    0.329    0.323    3.640
  450.750   85.907  199.753    0.326    0.304    3.648
  451.000   70.844  199.763    0.329    0.288    3.661
  451.250   55.781  199.770    0.335    0.280    3.667
  451.500   37.706  199.782    0.342    0.299    3.612
  451.750   38.918  198.787    0.349    0.334    3.551
  452.000   36.511  198.797    0.349    0.343    3.491
  452.250   36.517  197.802    0.351    0.337    3.371
  452.500   34.112  197.812    0.356    0.347    3.318
  452.750   35.926  197.824    0.351    0.350    3.264
  453.000   44.370  197.831    0.337    0.342    3.270
  453.250   46.186  197.846    0.324    0.324    3.279
  453.500   44.986  197.851    0.316    0.316    3.287
  453.750   42.580  197.865    0.322    0.305    3.295
  454.000   38.969  197.873    0.328    0.303    3.300
  454.250   38.373  197.880    0.337    0.330    3.249
  454.500   42.597  198.894    0.344    0.337    3.256
  454.750   45.618  198.904    0.351    0.330    3.323
  455.000   43.817  198.921    0.358    0.320    3.398
  455.250   41.410  198.926    0.366    0.325    3.404
  455.500   40.212  197.931    0.358    0.323    3.412
  455.750   40.217  197.943    0.356    0.317    3.424
  456.000   38.414  197.953    0.361    0.314    3.428
  456.250   35.408  196.958    0.368    0.331    3.440
  456.500   36.017  196.968    0.373    0.346    3.446
  456.750   36.625  196.980    0.358    0.352    3.446
  457.000   36.631  196.985    0.349    0.348    3.338
  457.250   29.404  196.995    0.350    0.344    3.280
  457.500   25.792  197.009    0.349    0.344    3.227
  457.750   23.989  196.012    0.340    0.342    3.175
  458.000   20.983  196.024    0.325    0.337    3.182
  458.250   24.001  196.032    0.321    0.329    3.130
  458.500   29.432  196.039    0.325    0.321    3.136
  458.750   28.835  196.049    0.330    0.323    3.085
  459.000   27.032  196.063    0.326    0.327    3.094
  459.250   27.041  196.071    0.317    0.336    3.101
  459.500   30.662  196.080    0.306    0.331    3.050
  459.750   37.901  196.090    0.317    0.325    3.058
  460.000   43.333  196.100    0.334    0.338    3.063
  460.250   41.529  196.112    0.342    0.350    3.070
  460.500   43.343  196.119    0.349    0.327    3.079
  460.750   41.541  197.136    0.347    0.320    3.029
  461.000   34.916  197.146    0.344    0.336    3.036
  461.250   33.717  197.156    0.345    0.346    2.987
  461.500   35.531  197.168    0.347    0.357    2.995
  461.750   32.523  196.173    0.347    0.361    3.000
  462.000   29.515  196.178    0.345    0.361    3.011
  462.250   27.712  196.192    0.345    0.361    3.016
  462.500   27.117  196.200    0.347    0.359    3.023
  462.750   29.534  196.207    0.350    0.357    3.030
  463.000   34.363  196.222    0.352    0.353    2.981
  463.250   31.355  196.234    0.355    0.353    2.986
  463.500   25.936  196.239    0.356    0.355    2.993
  463.750   28.352  196.248    0.356    0.359    3.005
  464.000   27.755  196.261    0.349    0.364    3.009
  464.250   23.543  196.268    0.339    0.358    3.014
  464.500   24.753  196.280    0.334    0.362    3.023
  464.750   30.786  196.287    0.338    0.366    3.030
  465.000   37.424  196.297    0.334    0.365    3.094
  465.250   39.839  196.307    0.328    0.353    3.223
  465.500   38.639  196.317    0.331    0.335    3.288
  465.750   38.647  196.329    0.338    0.337    3.358
  466.000   38.050  196.336    0.345    0.341    3.562
  466.250   38.056  196.348    0.351    0.350    3.568
  466.500   49.514  196.360    0.358    0.352    3.713
  466.750   57.355  196.368    0.363    0.333    3.863
  467.000   57.361  196.380    0.364    0.261    4.024
  467.250   57.971  196.387    0.363    0.254    4.110
  467.500   61.592  196.397    0.359    0.255    4.195
  467.750   66.420  197.414    0.357    0.271    4.284
  468.000   65.220  197.426    0.358    0.273    3.987
  468.250   61.609  197.433    0.360    0.270    3.706
  468.500   62.218  198.445    0.367    0.289    3.716
  468.750   51.374  198.455    0.366    0.327    3.795
  469.000   43.545  198.465    0.360    0.341    3.874
  469.250   39.934  198.479    0.354    0.346    3.961
  469.500   50.789  198.487    0.355    0.315    4.042
  469.750   64.658  198.496    0.364    0.253    4.050
  470.000   54.417  198.506    0.375    0.266    3.842
  470.250   39.356  198.516    0.384    0.320    3.707
  470.500   32.129  198.528    0.376    0.344    3.577
  470.750   30.328  198.535    0.366    0.360    3.329
  471.000   28.526  197.540    0.355    0.373    3.214
  471.250   26.119  196.546    0.343    0.363    3.160
  471.500   26.728  196.558    0.335    0.335    3.169
  471.750   27.939  195.561    0.334    0.336    3.175
  472.000   25.534  195.573    0.335    0.335    3.182
  472.250   23.130  195.580    0.337    0.340    3.252
  472.500   23.136  194.590    0.342    0.345    3.321
  472.750   23.142  194.595    0.346    0.345    3.391
  473.000   24.353  194.607    0.345    0.345    3.399
  473.250   24.962  194.617    0.340    0.342    3.474
  473.500   25.570  195.631    0.334    0.337    3.547
  473.750   26.179  195.641    0.337    0.333    3.556
  474.000   26.788  195.648    0.343    0.339    3.629
  474.250   27.396  195.663    0.346    0.343    3.637
  474.500   28.608  195.673    0.339    0.343    3.646
  474.750   30.422  195.680    0.333    0.342    3.654
  475.000   30.427  195.690    0.327    0.335    3.665
  475.250   29.831  195.699    0.314    0.308    3.743
  475.500   29.836  195.709    0.308    0.302    3.752
  475.750   32.858  196.731    0.325    0.304    3.836
  476.000   38.889  196.738    0.340    0.299    3.915
  476.250   47.936  196.745    0.349    0.291    4.000
  476.500   50.353  196.753    0.355    0.297    4.005
  476.750   58.195  196.767    0.360    0.308    4.093
  477.000   65.433  196.775    0.355    0.297    4.102
  477.250   64.234  197.786    0.352    0.250    4.035
  477.500   47.966  197.799    0.349    0.237    3.896
  477.750   43.755  197.808    0.355    0.280    3.831
  478.000   46.773  197.821    0.365    0.318    3.703
  478.250   48.587  197.828    0.368    0.337    3.641
  478.500   43.169  197.838    0.377    0.324    3.581
  478.750   40.763  197.852    0.384    0.342    3.588
