~VERSION INFORMATION
 VERS.                 2.0:   CWLS LOG ASCII STANDARD -VERSION 2.0
 WRAP.                  NO:   ONE LINE PER DEPTH STEP
~WELL INFORMATION BLOCK
#MNEM.UNIT           DATA                    DESCRIPTION OF MNEMONIC
#---------    -------------------            -------------------------------
# Generated from Intellog Unique Number	CW_82_90/WELL/619
WELL.         07-11-082-25W4                 : Well_name    - WELL
LOC .         00/07-11-082-25W4/0            : Location     - LOCATION
UWI .         00/07-11-082-25W4/0            : Uwi          - UNIQUE WELL ID
ENTR.         JAYE                           : Entered      - ENTERED BY
SRVC.         SCHLUMBERGER                   : Scn          - SERVICE COMPANY
DATE.         10 MAR 77                      : Date         - LOG DATE
STRT.M        225.552                        : top_depth    - START DEPTH
STOP.M        450.802                        : bot_depth    - STOP DEPTH
STEP.M        0.25                           : increment    - STEP LENGTH
 NULL. -999.2500:NULL Value
~CURVE INFORMATION BLOCK
#MNEM UNIT       ERCB CURVE CODE    CURVE DESCRIPTION
#-----------   ------------------   ----------------------------------
DEPT.M        00 001 00 00         : DEPTH        - DEPTH
CALI.MM       00 280 01 00         : CAL          - CALIPER
GR  .API      00 310 00 00         : GR           - GAMMA RAY
NPHI.V/V      00 330 00 00         : PHIN         - NEUTRON POROSITY (SANDSTONE)
DPHI.V/V      00 890 00 00         : PHID         - DENSITY POROSITY (SANDSTONE)
ILD .OHMM     00 120 00 00         : RESD         - DEEP RESISTIVITY (DIL)
~PARAMETER INFORMATION
#MNEM.UNIT           DATA             DESCRIPTION OF MNEMONIC
#---------         -----------     ------------------------------
GL  .M        580.339              : gl           - GROUND LEVEL ELEVATION
EREF.M        583.387              : kb           - ELEVATION OF DEPTH REFERENCE
DATM.M        580.339              : datum        - DATUM ELEVATION
TDD .M        452.933              : tdd          - TOTAL DEPTH DRILLER
RUN .         ONE                  : Run          - RUN NUMBER
BASE.         EDMONTON             : Branch       - HOME BASE OF LOGGING UNIT
MATR.         SANDSTONE            : Logunit      - NEUTRON MATRIX
TMAX.C        17.2222              : BHT          - MAXIMUM RECORDED TEMPERATURE
BHTD.M        452.933              : BHTDEP       - MAXIMUM RECORDED TEMPERATURE
RMT .C        9.44444              : MDTP         - TEMPERATURE OF MUD
MUDD.KG/M     1100                 : MWT          - MUD DENSITY
NEUT.         1                    : NEUTRON      - NEUTRON TYPE
RESI.         0                    : RESIST       - RESISTIVITY TYPE
RM  .OHMM     6.3                  : RM           - RESISTIVITY OF MUD
RMC .OHMM     0.25                 : RMC          - RESISTIVITY OF MUD CAKE
RMF .OHMM     0.25                 : RMF          - RESISTIVITY OF MUD FILTRATE
SUFT.C        4                    : SUFT         - SURFACE TEMPERATURE
~A  DEPTH      CAL       GR     PHIN     PHID     RESD
# ...
  262.052  170.886   71.627    0.473    0.338   30.783
  262.302  170.693   74.276    0.467    0.342   30.583
  262.552  170.081   74.731    0.463    0.342   30.447
  262.802  169.678   75.060    0.452    0.347   30.432
  263.052  168.961   73.941    0.445    0.364   30.418
  263.302  168.134   73.954    0.442    0.358   30.402
  263.552  167.726   77.735    0.444    0.361   30.390
  263.802  167.431   78.691    0.447    0.352   30.315
  264.052  167.242   77.827    0.454    0.343   30.058
  264.302  167.271   78.406    0.451    0.336   29.691
  264.552  167.396   79.110    0.451    0.329   29.035
  264.802  168.164   79.687    0.465    0.334   28.622
  265.052  168.502   77.316    0.462    0.344   28.322
  265.302  168.954   79.086    0.465    0.350   28.201
  265.552  169.723   78.726    0.468    0.321   28.020
  265.802  170.168   77.670    0.442    0.321   27.783
  266.052  170.194   77.306    0.440    0.323   27.771
  266.302  169.791   78.639    0.440    0.319   27.593
  266.552  168.960   80.788    0.451    0.322   27.690
  266.802  167.921   78.855    0.452    0.324   28.227
  267.052  167.520   80.817    0.457    0.342   28.833
  267.302  167.224   81.331    0.458    0.341   28.993
  267.552  167.035   84.044    0.458    0.315   28.806
  267.802  166.949   88.014    0.456    0.306   28.227
  268.052  166.866   86.331    0.443    0.318   27.877
  268.302  166.998   80.381    0.443    0.334   27.812
  268.552  167.338   75.308    0.448    0.349   27.797
  268.802  167.364   73.940    0.450    0.338   27.675
  269.052  167.171   77.408    0.441    0.335   27.605
  269.302  166.982   81.000    0.444    0.336   27.428
  269.552  167.114   79.821    0.464    0.326   27.198
  269.802  167.669   72.425    0.476    0.321   26.972
  270.052  168.224   73.068    0.469    0.321   26.221
  270.302  168.990   71.887    0.467    0.328   25.589
  270.552  169.440   71.775    0.463    0.311   25.834
  270.802  169.778   71.601    0.463    0.314   26.128
  271.052  169.698   72.117    0.464    0.338   26.117
  271.302  169.080   73.261    0.466    0.325   25.947
  271.552  168.681   71.642    0.461    0.342   25.682
  271.802  168.383   70.337    0.476    0.346   25.264
  272.052  168.300   70.539    0.490    0.353   25.203
  272.302  168.217   71.180    0.490    0.359   25.186
  272.552  168.239   72.010    0.481    0.364   25.026
  272.802  168.264   72.402    0.485    0.371   24.526
  273.052  167.970   73.042    0.480    0.367   24.081
  273.302  167.778   76.320    0.468    0.362   23.504
  273.552  167.694   79.662    0.463    0.364   23.077
  273.802  167.403   74.089    0.459    0.367   22.570
  274.052  167.530   68.262    0.455    0.356   22.073
  274.302  167.447   69.156    0.454    0.361   21.713
  274.552  165.978   69.356    0.455    0.357   21.446
  274.802  167.067   69.935    0.463    0.354   21.099
  275.052  166.769   71.959    0.464    0.353   20.839
  275.302  166.908   73.228    0.462    0.355   20.706
  275.552  166.824   72.866    0.466    0.351   20.695
  275.802  167.160   68.608    0.482    0.360   20.521
  276.052  167.287   66.551    0.490    0.363   20.553
  276.302  167.422   65.936    0.495    0.374   20.623
  276.552  167.547   66.955    0.498    0.374   20.697
  276.802  168.314   68.161    0.494    0.361   20.810
  277.052  168.126   66.605    0.488    0.335   20.923
  277.302  167.722   66.995    0.486    0.321   20.993
  277.552  167.745   68.767    0.495    0.342   20.942
  277.802  167.874   69.347    0.482    0.342   20.686
  278.052  168.221   70.615    0.454    0.344   20.472
  278.302  168.348   70.064    0.454    0.344   20.301
  278.552  168.264   68.195    0.463    0.346   20.131
  278.802  169.030   69.150    0.469    0.341   19.836
  279.052  169.163   68.221    0.475    0.341   19.716
  279.302  169.506   68.612    0.484    0.333   19.319
  279.552  169.737   70.132    0.492    0.347   19.046
  279.802  170.184   70.774    0.503    0.357   19.046
  280.052  170.851   71.980    0.506    0.342   18.247
  280.302  171.082   70.047    0.495    0.342   18.278
  280.552  171.319   70.689    0.487    0.337   18.488
  280.802  171.343   73.967    0.480    0.329   19.149
  281.052  171.475   72.914    0.470    0.338   19.149
  281.302  171.283   74.309    0.462    0.325   17.567
  281.552  170.672   73.569    0.458    0.314   17.526
  281.802  170.160   73.143    0.457    0.328   17.864
  282.052  169.545   74.852    0.473    0.333   17.507
  282.302  169.038   77.189    0.462    0.346   16.490
  282.552  168.849   77.957    0.465    0.348   15.718
  282.802  168.655   79.414    0.475    0.338   14.804
  283.052  168.678   81.124    0.472    0.323   13.916
  283.302  169.022   83.146    0.471    0.333   13.343
  283.552  169.258   85.859    0.479    0.328   12.667
  283.802  170.024   87.631    0.496    0.314   12.097
  284.052  170.684   87.958    0.512    0.313   11.972
  284.302  172.204   87.282    0.510    0.298   11.943
  284.552  172.540   85.725    0.492    0.301   11.937
  284.802  173.096   88.251    0.481    0.299   11.697
  285.052  173.331   88.013    0.490    0.318   11.599
  285.302  173.359   88.153    0.489    0.328   11.778
  285.552  173.375   91.306    0.491    0.320   11.913
  285.802  173.190   94.270    0.510    0.315   11.955
  286.052  173.106   92.026    0.506    0.301   12.019
  286.302  172.917   91.097    0.476    0.300   12.109
  286.552  172.724   93.118    0.468    0.314   11.819
  286.802  172.003   97.590    0.483    0.329   11.355
  287.052  170.218  100.242    0.485    0.323   10.506
  287.302  169.392  101.322    0.495    0.291    9.362
  287.552  171.859  104.914    0.515    0.274    7.955
  287.802  173.801  108.506    0.524    0.304    6.485
  288.052  172.436  110.278    0.510    0.278    5.489
  288.302  171.931  117.702    0.526    0.261    4.591
  288.552  173.227  125.563    0.541    0.256    4.075
  288.802  173.995  123.944    0.547    0.243    3.922
  289.052  174.130  119.501    0.546    0.230    3.928
  289.302  174.047  114.303    0.541    0.238    4.012
  289.552  173.751  110.109    0.503    0.243    4.454
  289.802  173.236  107.361    0.489    0.237    5.073
  290.052  169.432  104.862    0.490    0.268    5.941
  290.302  168.606  105.252    0.492    0.254    6.861
  290.552  168.738  107.526    0.491    0.252    7.134
  290.802  168.544  109.801    0.486    0.242    6.408
  291.052  168.460  111.826    0.490    0.239    5.755
  291.302  169.229  113.848    0.507    0.246    5.551
  291.552  169.463  114.866    0.510    0.259    5.504
  291.802  169.278  112.994    0.516    0.268    5.579
  292.052  169.510  108.803    0.531    0.271    6.047
  292.302  169.855  103.792    0.535    0.285    6.491
  292.552  169.343   98.595    0.551    0.293    6.735
  292.802  167.988   94.463    0.567    0.299    6.950
  293.052  167.054   91.905    0.555    0.306    7.284
  293.302  167.397   92.295    0.534    0.304    7.575
  293.552  167.739   89.858    0.507    0.294    7.986
  293.802  167.442   89.244    0.504    0.300    8.338
  294.052  167.359   91.770    0.492    0.301    8.861
  294.302  168.124   95.174    0.495    0.291    9.490
  294.552  168.149   99.584    0.510    0.277    9.639
  294.802  168.067  102.548    0.494    0.279    9.462
  295.052  168.193  107.081    0.485    0.275    9.237
  295.302  168.220  105.965    0.481    0.271    8.346
  295.552  168.349  105.728    0.495    0.263    7.630
  295.802  168.369  107.061    0.520    0.257    7.418
  296.052  168.712  103.495    0.509    0.300    7.653
  296.302  169.058  100.119    0.479    0.294    8.838
  296.552  169.078  100.885    0.464    0.221    9.639
  296.802  169.312  104.604    0.452    0.182   10.386
  297.052  169.760  103.863    0.445    0.184   11.082
  297.302  170.315  104.819    0.426    0.186   11.388
  297.552  170.659  109.102    0.453    0.168   11.203
  297.802  171.214  113.761    0.470    0.227   10.934
  298.052  171.554  116.036    0.478    0.234   10.609
  298.302  171.896  114.920    0.466    0.219   10.192
