~VERSION INFORMATION
 VERS.                 2.0:   CWLS LOG ASCII STANDARD -VERSION 2.0
 WRAP.                  NO:   ONE LINE PER DEPTH STEP
~WELL INFORMATION BLOCK
#MNEM.UNIT           DATA                    DESCRIPTION OF MNEMONIC
#---------    -------------------            -------------------------------
# Generated from Intellog Unique Number	CS_71_72/WELL/702
WELL.         PROVIDENT RESOURCES  LTD       : Well_name    - WELL
LOC .         00/06-03-071-17W4/0            : Location     - LOCATION
UWI .         00/06-03-071-17W4/0            : Uwi          - UNIQUE WELL ID
ENTR.         SP                             : Entered      - ENTERED BY
SRVC.         SCHLUMBERGER                   : Scn          - SERVICE COMPANY
STRT.M        277.368                        : top_depth    - START DEPTH
STOP.M        479.618                        : bot_depth    - STOP DEPTH
STEP.M        0.25                           : increment    - STEP LENGTH
 NULL. -999.2500:NULL Value
~CURVE INFORMATION BLOCK
#MNEM UNIT       ERCB CURVE CODE    CURVE DESCRIPTION
#-----------   ------------------   ----------------------------------
DEPT.M        00 001 00 00         : DEPTH        - DEPTH
GR  .API      00 310 00 00         : GR           - GAMMA RAY
DPHI.V/V      00 890 00 00         : PHID         - DENSITY POROSITY (SANDSTONE)
NPHI.V/V      00 330 00 00         : PHIN         - NEUTRON POROSITY (SANDSTONE)
ILD .OHMM     00 120 00 00         : RESD         - DEEP RESISTIVITY (DIL)
~PARAMETER INFORMATION
#MNEM.UNIT           DATA             DESCRIPTION OF MNEMONIC
#---------         -----------     ------------------------------
GL  .M        558.851              : gl           - GROUND LEVEL ELEVATION
EREF.M        562.356              : kb           - ELEVATION OF DEPTH REFERENCE
DATM.M        558.851              : datum        - DATUM ELEVATION
TDD .M        481.584              : tdd          - TOTAL DEPTH DRILLER
RUN .         ONE                  : Run          - RUN NUMBER
ENG .         BILL                 : Engineer     - RECORDING ENGINEER
WIT .         JIM                  : Witness      - WITNESSED BY
MUD .         GEL                  : Mud_type     - MUD TYPE
MATR.         SANDSTONE            : Logunit      - NEUTRON MATRIX
TMAX.C        23.3333              : BHT          - MAXIMUM RECORDED TEMPERATURE
BHTD.M        481.584              : BHTDEP       - MAXIMUM RECORDED TEMPERATURE
MATR.         1                    : LOGUNIT      - NEUTRON MATRIX
RMT .C        25                   : MDTP         - TEMPERATURE OF MUD
NEUT.         1                    : NEUTRON      - NEUTRON TYPE
RESI.         0                    : RESIST       - RESISTIVITY TYPE
RMC .OHMM     0.25                 : RMC          - RESISTIVITY OF MUD CAKE
RMF .OHMM     0.25                 : RMF          - RESISTIVITY OF MUD FILTRATE
SUFT.C        15                   : SUFT         - SURFACE TEMPERATURE
~A  DEPTH       GR     PHID     PHIN     RESD
# ...
  320.868   59.455    0.293    0.370    6.459
  321.118   65.156    0.294    0.426    5.699
  321.368   69.956    0.292    0.440    5.327
  321.618   74.918    0.284    0.436    5.038
  321.868   77.728    0.277    0.448    4.783
  322.118   81.677    0.256    0.458    4.753
  322.368   84.463    0.230    0.461    4.734
  322.618   87.641    0.212    0.446    4.735
  322.868   91.240    0.207    0.450    4.946
  323.118   93.568    0.219    0.459    4.902
  323.368   94.992    0.208    0.466    4.689
  323.618   95.179    0.199    0.466    4.608
  323.868   96.348    0.202    0.465    4.519
  324.118   98.951    0.226    0.476    4.394
  324.368  101.372    0.227    0.485    4.275
  324.618  103.206    0.220    0.493    4.239
  324.868  104.399    0.219    0.494    4.256
  325.118  104.783    0.227    0.486    4.369
  325.368  104.362    0.233    0.476    4.528
  325.618  102.868    0.233    0.462    4.638
  325.868   98.809    0.240    0.448    4.779
  326.118   87.380    0.264    0.438    4.916
  326.368   79.821    0.278    0.428    4.909
  326.618   76.839    0.261    0.434    4.819
  326.868   77.186    0.245    0.441    4.890
  327.118   81.107    0.231    0.445    4.909
  327.368   85.383    0.224    0.449    4.862
  327.618   88.704    0.217    0.450    4.638
  327.868   93.404    0.212    0.451    4.166
  328.118   97.564    0.215    0.456    3.829
  328.368  101.912    0.218    0.454    3.575
  328.618  103.402    0.222    0.434    3.482
  328.868  105.138    0.219    0.472    3.819
  329.118  105.834    0.220    0.496    4.189
  329.368  104.427    0.228    0.517    4.576
  329.618  102.834    0.221    0.507    4.890
  329.868  102.768    0.223    0.492    5.172
  330.118  103.141    0.230    0.474    5.427
  330.368  102.782    0.228    0.447    5.441
  330.618  101.371    0.216    0.438    5.398
  330.868   99.870    0.206    0.455    5.303
  331.118   99.866    0.205    0.450    5.011
  331.368   98.843    0.228    0.445    4.560
  331.618   91.057    0.255    0.449    4.211
  331.868   82.756    0.287    0.447    4.017
  332.118   71.588    0.298    0.415    3.923
  332.368   65.856    0.303    0.391    3.844
  332.618   59.249    0.303    0.393    3.751
  332.868   55.001    0.300    0.396    3.675
  333.118   53.683    0.298    0.400    3.446
  333.368   54.834    0.305    0.407    3.501
  333.618   56.547    0.307    0.423    3.508
  333.868   58.560    0.302    0.437    3.483
  334.118   60.335    0.299    0.421    3.461
  334.368   61.217    0.300    0.424    3.438
  334.618   61.366    0.305    0.421    3.415
  334.868   59.197    0.312    0.423    3.384
  335.118   57.800    0.320    0.418    3.380
  335.368   56.660    0.311    0.406    3.364
  335.618   55.117    0.303    0.399    3.356
  335.868   54.376    0.299    0.389    3.342
  336.118   56.164    0.297    0.389    3.362
  336.368   56.938    0.307    0.391    3.382
  336.618   56.029    0.310    0.393    3.393
  336.868   54.553    0.309    0.399    3.390
  337.118   53.017    0.308    0.403    3.363
  337.368   51.761    0.304    0.398    3.325
  337.618   51.824    0.301    0.390    3.282
  337.868   54.648    0.298    0.392    3.247
  338.118   56.151    0.311    0.400    3.202
  338.368   58.229    0.322    0.405    3.180
  338.618   58.078    0.320    0.405    3.195
  338.868   57.468    0.316    0.406    3.216
  339.118   56.849    0.319    0.407    3.204
  339.368   56.369    0.314    0.409    3.211
  339.618   55.954    0.307    0.411    3.237
  339.868   56.855    0.302    0.412    3.261
  340.118   56.364    0.296    0.416    3.269
  340.368   55.950    0.300    0.422    3.267
  340.618   55.621    0.309    0.424    3.247
  340.868   55.961    0.314    0.425    3.241
  341.118   57.615    0.319    0.423    3.213
  341.368   59.401    0.314    0.419    3.199
  341.618   59.203    0.310    0.413    3.197
  341.868   55.437    0.311    0.412    3.194
  342.118   53.664    0.315    0.412    3.166
  342.368   53.913    0.318    0.416    3.141
  342.618   55.939    0.315    0.427    3.125
  342.868   59.989    0.316    0.433    3.122
  343.118   62.187    0.321    0.438    3.148
  343.368   64.540    0.310    0.431    3.229
  343.618   68.424    0.307    0.422    3.365
  343.868   73.626    0.306    0.433    3.551
  344.118   77.484    0.291    0.450    3.715
  344.368   77.675    0.287    0.464    3.807
  344.618   72.225    0.298    0.461    3.916
  344.868   68.489    0.307    0.452    3.965
  345.118   67.640    0.313    0.446    4.053
  345.368   67.689    0.307    0.446    4.090
  345.618   68.126    0.313    0.456    4.083
  345.868   68.447    0.317    0.460    4.026
  346.118   67.348    0.320    0.459    3.920
  346.368   65.375    0.323    0.463    3.844
  346.618   63.992    0.313    0.467    3.820
  346.868   63.042    0.308    0.461    3.796
  347.118   63.889    0.313    0.451    3.791
  347.368   65.747    0.307    0.445    3.779
  347.618   67.624    0.310    0.448    3.761
  347.868   68.867    0.308    0.464    3.739
  348.118   70.287    0.297    0.481    3.726
  348.368   73.312    0.285    0.489    3.712
  348.618   77.204    0.273    0.475    3.716
  348.868   81.106    0.272    0.472    3.728
  349.118   84.262    0.267    0.479    3.732
  349.368   86.540    0.257    0.472    3.723
  349.618   87.477    0.242    0.473    3.677
  349.868   87.951    0.235    0.479    3.612
  350.118   87.658    0.235    0.483    3.528
  350.368   85.935    0.257    0.481    3.453
  350.618   83.962    0.277    0.466    3.403
  350.868   81.609    0.298    0.474    3.352
  351.118   77.816    0.313    0.474    3.333
  351.368   72.696    0.316    0.466    3.348
  351.618   69.761    0.308    0.468    3.406
  351.868   70.248    0.311    0.467    3.498
  352.118   72.237    0.304    0.470    3.607
  352.368   73.223    0.313    0.467    3.760
  352.618   69.486    0.326    0.456    3.845
  352.868   64.731    0.328    0.454    3.843
  353.118   63.082    0.335    0.452    3.755
  353.368   64.979    0.334    0.439    3.630
  353.618   64.786    0.322    0.431    3.626
  353.868   63.391    0.327    0.424    3.679
  354.118   65.217    0.336    0.420    3.788
  354.368   66.562    0.327    0.430    3.903
  354.618   68.494    0.315    0.429    4.002
  354.868   70.461    0.303    0.427    4.113
  355.118   71.874    0.296    0.432    4.175
  355.368   72.137    0.291    0.439    4.196
  355.618   71.502    0.289    0.445    4.213
  355.868   70.972    0.298    0.450    4.177
  356.118   70.358    0.301    0.452    4.086
  356.368   69.817    0.298    0.449    4.114
  356.618   69.249    0.291    0.439    4.181
  356.868   69.021    0.283    0.434    4.319
  357.118   70.206    0.274    0.433    4.464
  357.368   71.141    0.265    0.432    4.535
  357.618   72.641    0.259    0.431    4.577
  357.868   75.203    0.253    0.431    4.569
  358.118   77.228    0.260    0.436    4.526
  358.368   78.733    0.265    0.440    4.435
  358.618   78.464    0.271    0.447    4.377
  358.868   76.922    0.274    0.445    4.524
  359.118   73.487    0.279    0.447    4.896
  359.368   70.780    0.154    0.436    5.480
  359.618   68.747    0.133    0.412    6.184
  359.868   70.756    0.142    0.351    6.617
  360.118   72.284    0.198    0.270    6.710
  360.368   69.054    0.240    0.259    6.359
  360.618   66.306    0.275    0.331    5.420
  360.868   65.703    0.315    0.403    4.602
  361.118   68.232    0.310    0.435    4.200
  361.368   70.766    0.302    0.447    3.896
  361.618   72.138    0.303    0.450    3.720
  361.868   71.543    0.300    0.448    3.732
  362.118   70.412    0.292    0.445    3.825
  362.368   71.378    0.285    0.443    3.919
  362.618   73.016    0.280    0.441    3.992
  362.868   74.188    0.289    0.440    3.979
  363.118   75.690    0.276    0.447    3.926
  363.368   76.958    0.262    0.436    3.806
  363.618   77.469    0.243    0.432    3.627
  363.868   78.604    0.234    0.433    3.453
  364.118   82.826    0.228    0.437    3.288
