~VERSION INFORMATION
 VERS.                 2.0:   CWLS LOG ASCII STANDARD -VERSION 2.0
 WRAP.                  NO:   ONE LINE PER DEPTH STEP
~WELL INFORMATION BLOCK
#MNEM.UNIT           DATA                    DESCRIPTION OF MNEMONIC
#---------    -------------------            -------------------------------
# Generated from Intellog Unique Number	CW_79_81/WELL/2450
WELL.         06-08-081-22W4                 : Well_name    - WELL
LOC .         00/06-08-081-22W4/0            : Location     - LOCATION
UWI .         00/06-08-081-22W4/0            : Uwi          - UNIQUE WELL ID
ENTR.         MAX                            : Entered      - ENTERED BY
SRVC.         SCHLUMBERGER                   : Scn          - SERVICE COMPANY
STRT.M        225                            : top_depth    - START DEPTH
STOP.M        444.75                         : bot_depth    - STOP DEPTH
STEP.M        0.25                           : increment    - STEP LENGTH
 NULL. -999.2500:NULL Value
~CURVE INFORMATION BLOCK
#MNEM UNIT       ERCB CURVE CODE    CURVE DESCRIPTION
#-----------   ------------------   ----------------------------------
DEPT.M        00 001 00 00         : DEPTH        - DEPTH
ILD .OHMM     00 120 00 00         : RESD         - DEEP RESISTIVITY (DIL)
NPHI.V/V      00 330 00 00         : PHIN         - NEUTRON POROSITY (SANDSTONE)
DPHI.V/V      00 890 00 00         : PHID         - DENSITY POROSITY (SANDSTONE)
GR  .API      00 310 00 00         : GR           - GAMMA RAY
CALI.MM       00 280 01 00         : CAL          - CALIPER
~PARAMETER INFORMATION
#MNEM.UNIT           DATA             DESCRIPTION OF MNEMONIC
#---------         -----------     ------------------------------
GL  .M        597.6                : gl           - GROUND LEVEL ELEVATION
EREF.M        600.9                : kb           - ELEVATION OF DEPTH REFERENCE
DATM.M        597.6                : datum        - DATUM ELEVATION
TDD .M        450                  : tdd          - TOTAL DEPTH DRILLER
RUN .         ONE                  : Run          - RUN NUMBER
ENG .         BILL                 : Engineer     - RECORDING ENGINEER
WIT .         JIM                  : Witness      - WITNESSED BY
MUD .         GEL                  : Mud_type     - MUD TYPE
MATR.         SANDSTONE            : Logunit      - NEUTRON MATRIX
TMAX.C        24                   : BHT          - MAXIMUM RECORDED TEMPERATURE
BHTD.M        450                  : BHTDEP       - MAXIMUM RECORDED TEMPERATURE
MATR.         1                    : LOGUNIT      - NEUTRON MATRIX
RMT .C        16.1                 : MDTP         - TEMPERATURE OF MUD
NEUT.         1                    : NEUTRON      - NEUTRON TYPE
RESI.         0                    : RESIST       - RESISTIVITY TYPE
RMC .OHMM     3.66                 : RMC          - RESISTIVITY OF MUD CAKE
RMF .OHMM     5.1                  : RMF          - RESISTIVITY OF MUD FILTRATE
SUFT.C        -10                  : SUFT         - SURFACE TEMPERATURE
~A  DEPTH     RESD     PHIN     PHID       GR      CAL
# ...
  371.000   10.739    0.455    0.209   85.523  221.922
  371.250   10.669    0.465    0.208   86.614  221.572
  371.500   10.620    0.466    0.210   87.526  221.021
  371.750   10.630    0.460    0.212   89.643  221.466
  372.000   10.639    0.455    0.213   89.421  223.573
  372.250   10.570    0.447    0.217   87.310  225.196
  372.500   10.501    0.450    0.213   87.153  225.339
  372.750   10.471    0.456    0.206   87.888  224.783
  373.000   10.480    0.460    0.202   88.269  224.125
  373.250   10.475    0.453    0.203   86.672  223.777
  373.500   10.406    0.441    0.207   85.710  223.819
  373.750   10.413    0.436    0.208   86.206  223.859
  374.000   10.477    0.429    0.205   86.707  223.896
  374.250   10.448    0.426    0.202   86.612  223.741
  374.500   10.287    0.430    0.201   85.981  223.489
  374.750   10.059    0.449    0.205   85.387  223.532
  375.000    9.992    0.459    0.209   84.667  223.565
  375.250   10.000    0.448    0.207   83.269  223.610
  375.500    9.953    0.436    0.205   83.114  225.135
  375.750    9.925    0.431    0.205   83.968  227.747
  376.000    9.916    0.434    0.204   85.416  230.457
  376.250    9.838    0.444    0.196   87.313  231.853
  376.500    9.771    0.452    0.197   89.566  232.715
  376.750    9.708    0.455    0.196   90.540  233.159
  377.000    9.645    0.460    0.198   91.516  233.297
  377.250    9.548    0.463    0.206   91.775  233.333
  377.500    9.452    0.460    0.216   91.260  233.371
  377.750    9.460    0.441    0.212   90.527  233.342
  378.000    9.468    0.422    0.198   90.305  232.971
  378.250    9.271    0.438    0.191   89.616  231.420
  378.500    9.078    0.445    0.195   89.640  231.063
  378.750    8.923    0.446    0.198   90.494  231.299
  379.000    8.818    0.443    0.193   91.466  231.634
  379.250    8.735    0.445    0.182   90.873  231.604
  379.500    8.610    0.445    0.192   90.158  231.233
  379.750    8.555    0.448    0.219   91.609  231.269
  380.000    8.592    0.451    0.220   91.808  231.009
  380.250    8.941    0.454    0.218   90.880  230.453
  380.500   10.046    0.452    0.219   88.648  229.209
  380.750   13.847    0.431    0.222   83.995  226.165
  381.000   16.808    0.426    0.237   80.802  224.554
  381.250   16.821    0.438    0.245   78.217  223.798
  381.500   17.388    0.443    0.240   75.984  223.640
  381.750   18.997    0.442    0.227   73.751  223.680
  382.000   21.856    0.434    0.210   71.756  223.620
  382.250   25.477    0.420    0.202   70.636  223.270
  382.500   27.102    0.413    0.229   69.674  223.321
  382.750   27.124    0.411    0.247   66.609  223.349
  383.000   26.409    0.414    0.258   65.681  223.386
  383.250   25.008    0.421    0.262   66.060  223.426
  383.500   23.459    0.431    0.262   66.856  223.468
  383.750   22.485    0.441    0.258   66.875  223.687
  384.000   22.503    0.421    0.245   65.663  224.541
  384.250   24.377    0.382    0.210   63.548  225.376
  384.500   27.951    0.355    0.189   62.861  225.909
  384.750   29.897    0.339    0.170   62.411  225.947
  385.000   28.063    0.334    0.152   62.198  225.197
  385.250   23.611    0.343    0.160   64.008  223.104
  385.500   19.914    0.370    0.229   67.001  222.313
  385.750   18.932    0.410    0.241   68.207  223.544
  386.000   18.408    0.418    0.241   67.993  224.473
  386.250   18.554    0.409    0.224   68.017  224.709
  386.500   19.224    0.392    0.192   68.577  224.254
  386.750   19.873    0.369    0.153   68.362  223.509
  387.000   20.196    0.352    0.137   67.143  223.563
  387.250   18.366    0.365    0.149   68.116  223.991
  387.500   15.957    0.384    0.181   71.407  224.125
  387.750   14.642    0.402    0.203   73.213  224.361
  388.000   14.617    0.409    0.204   72.109  224.698
  388.250   16.417    0.371    0.180   68.060  224.664
  388.500   19.927    0.279    0.125   63.138  224.294
  388.750   22.052    0.274    0.108   61.735  224.334
  389.000   21.811    0.295    0.120   63.541  224.377
  389.250   20.035    0.324    0.155   66.534  224.415
  389.500   17.564    0.353    0.199   69.586  224.548
  389.750   14.446    0.387    0.228   72.019  224.993
  390.000   12.828    0.416    0.240   69.815  225.034
  390.250   12.560    0.434    0.241   69.599  225.074
  390.500   12.434    0.444    0.231   69.919  225.411
  390.750   12.444    0.444    0.222   69.234  225.452
  391.000   12.635    0.436    0.217   67.538  225.094
  391.250   13.273    0.431    0.213   66.373  224.657
  391.500   14.119    0.426    0.207   66.398  224.291
  391.750   14.756    0.421    0.197   66.899  223.939
  392.000   15.506    0.403    0.181   66.865  223.872
  392.250   16.557    0.385    0.166   66.650  223.907
  392.500   17.989    0.372    0.155   66.138  223.848
  392.750   19.698    0.362    0.145   64.644  223.501
  393.000   19.863    0.364    0.143   64.174  223.547
  393.250   18.608    0.366    0.154   65.383  223.583
  393.500   17.735    0.380    0.172   66.772  223.620
  393.750   16.992    0.393    0.189   68.102  223.658
  394.000   16.251    0.397    0.198   69.610  223.698
  394.250   15.367    0.395    0.196   72.161  223.666
  394.500   14.921    0.410    0.196   72.926  223.303
  394.750   14.400    0.412    0.191   73.429  222.936
  395.000   13.896    0.417    0.189   74.816  221.984
  395.250   13.459    0.420    0.193   76.978  220.841
  395.500   13.059    0.422    0.200   79.556  219.995
  395.750   12.530    0.425    0.205   82.548  220.370
  396.000   12.165    0.423    0.213   85.539  222.060
  396.250   11.913    0.425    0.212   88.177  222.892
  396.500   11.729    0.423    0.205   90.456  223.127
  396.750   11.611    0.423    0.197   91.310  222.965
  397.000   11.515    0.427    0.191   89.554  222.708
  397.250   11.344    0.427    0.179   83.540  222.767
  397.500   11.265    0.401    0.156   81.831  222.801
  397.750   11.030    0.400    0.131   83.277  222.833
  398.000   10.860    0.416    0.115   86.328  222.577
  398.250   10.751    0.433    0.118   88.252  222.422
  398.500   10.662    0.442    0.141   87.741  222.462
  398.750   10.487    0.440    0.175   84.919  222.591
  399.000   10.338    0.426    0.162   84.946  223.037
  399.250   10.270    0.419    0.154   87.817  224.272
  399.500   10.092    0.419    0.166   91.226  225.201
  399.750    9.846    0.421    0.180   93.626  226.227
  400.000    9.607    0.417    0.189   94.718  227.748
  400.250    9.464    0.405    0.191   95.954  230.006
  400.500    9.399    0.402    0.177   98.450  229.223
  400.750    9.615    0.415    0.176   97.524  226.490
  401.000    9.729    0.422    0.191   96.599  228.213
  401.250    9.772    0.418    0.201   96.623  230.828
  401.500    9.761    0.407    0.201   97.359  232.252
  401.750    9.699    0.401    0.197   97.042  231.654
  402.000    9.708    0.399    0.194   95.336  230.459
  402.250   10.001    0.401    0.192   95.830  228.516
  402.500   10.975    0.401    0.187   94.192  228.657
  402.750   13.216    0.388    0.179   88.991  229.887
  403.000   17.355    0.365    0.167   82.127  230.617
  403.250   22.494    0.354    0.144   79.131  227.940
  403.500   26.054    0.364    0.126   80.640  224.284
  403.750   25.509    0.380    0.117   82.561  225.103
  404.000   24.980    0.381    0.125   82.347  225.638
  404.250   24.731    0.374    0.135   83.320  225.874
  404.500   24.748    0.368    0.137   86.191  225.909
  404.750   24.659    0.370    0.128   89.417  226.044
  405.000   24.124    0.377    0.146   91.176  226.498
  405.250   20.203    0.382    0.197   90.487  226.934
  405.500   18.585    0.387    0.205   88.015  227.073
  405.750   19.238    0.386    0.201   82.338  227.109
  406.000   22.439    0.381    0.200   73.992  227.243
  406.250   29.713    0.374    0.213   63.443  226.867
  406.500   37.513    0.370    0.260   53.327  222.787
  406.750   49.659    0.376    0.281   44.089  220.453
  407.000   60.054    0.390    0.280   39.485  219.893
  407.250   70.864    0.395    0.273   37.965  219.533
