~VERSION INFORMATION
 VERS.                 2.0:   CWLS LOG ASCII STANDARD -VERSION 2.0
 WRAP.                  NO:   ONE LINE PER DEPTH STEP
~WELL INFORMATION BLOCK
#MNEM.UNIT           DATA                    DESCRIPTION OF MNEMONIC
#---------    -------------------            -------------------------------
# Generated from Intellog Unique Number	CW_70_72/WELL/2898
NULL.         -999.25                        : NULL_VALUE
WELL.         SUN GAMBLER                    : Well_name    - WELL              
LOC .         06-07-070-20W4                 : Location     - LOCATION          
UWI .         00/06-07-070-20W4/0            : Uwi          - UNIQUE WELL ID    
ENTR.         MAX                            : Entered      - ENTERED BY        
SRVC.         SCHLUMBERGER                   : Scn          - SERVICE COMPANY   
DATE.         06 MAR 79                      : Date         - LOG DATE
STRT.M        380                            : top_depth    - START DEPTH       
STOP.M        550                            : bot_depth    - STOP DEPTH        
STEP.M        0.25                           : increment    - STEP LENGTH       
~CURVE INFORMATION BLOCK
#MNEM UNIT       ERCB CURVE CODE    CURVE DESCRIPTION
#-----------   ------------------   ----------------------------------
DEPT.M        00 001 00 00         : DEPTH        - DEPTH                       
ILD .OHMM     00 120 00 00         : RESD         - DEEP RESISTIVITY (DIL)      
NPHI.V/V      00 330 00 00         : PHIN         - NEUTRON POROSITY (SANDSTONE)
DPHI.V/V      00 890 00 00         : PHID         - DENSITY POROSITY (SANDSTONE)
CALI.MM       00 280 01 00         : CAL          - CALIPER                     
GR  .API      00 310 00 00         : GR           - GAMMA RAY                   
~PARAMETER INFORMATION       
#MNEM.UNIT           DATA             DESCRIPTION OF MNEMONIC
#---------         -----------     ------------------------------
GL  .M        634.1                : gl           - GROUND LEVEL ELEVATION      
EREF.M        637.7                : kb           - ELEVATION OF DEPTH REFERENCE
DATM.M        634.1                : datum        - DATUM ELEVATION             
TDD .M        576                  : tdd          - TOTAL DEPTH DRILLER         
RUN .         ONE                  : Run          - RUN NUMBER                  
ENG .         BILL                 : Engineer     - RECORDING ENGINEER          
WIT .         JIM                  : Witness      - WITNESSED BY                
MUD .         GEL                  : Mud_type     - MUD TYPE                    
MATR.         SANDSTONE            : Logunit      - NEUTRON MATRIX              
TMAX.C        26                   : BHT          - MAXIMUM RECORDED TEMPERATURE
BHTD.M        576                  : BHTDEP       - MAXIMUM RECORDED TEMPERATURE
RMT .C        14                   : MDTP         - TEMPERATURE OF MUD          
MUDD.KG/M     1100                 : MWT          - MUD DENSITY                 
NEUT.         1                    : NEUTRON      - NEUTRON TYPE                
RESI.         0                    : RESIST       - RESISTIVITY TYPE            
RM  .OHMM     3.6                  : RM           - RESISTIVITY OF MUD          
RMC .OHMM     0.25                 : RMC          - RESISTIVITY OF MUD CAKE     
RMF .OHMM     3.6                  : RMF          - RESISTIVITY OF MUD FILTRATE 
SUFT.C        -5                   : SUFT         - SURFACE TEMPERATURE         
~A  DEPTH     RESD     PHIN     PHID      CAL       GR
  380.000    2.588    0.528    0.212  184.360  102.101
  380.250    2.707    0.526    0.195  184.848  104.471
  380.500    2.756    0.482    0.190  184.347  107.138
  380.750    2.805    0.479    0.190  182.855  105.946
  381.000    2.908    0.455    0.199  177.902  104.459
  381.250    2.934    0.468    0.193  175.915  104.752
  381.500    2.959    0.497    0.182  177.394  104.154
  381.750    2.905    0.498    0.205  177.882  103.556
  382.000    2.853    0.493    0.197  177.876  102.958
  382.250    2.826    0.493    0.208  180.837  100.876
  382.500    2.800    0.482    0.205  182.809   99.092
  382.750    2.850    0.479    0.205  183.295   94.636
  383.000    2.955    0.502    0.206  181.804   91.961
  383.250    3.008    0.502    0.216  182.292   91.066
  383.500    3.175    0.490    0.211  182.287   76.815
  383.750    3.444    0.467    0.211  177.828   58.409
  384.000    4.559    0.346    0.186  167.928   53.656
  384.250    5.035    0.348    0.262  165.447   57.214
  384.500    6.033    0.373    0.306  164.945   61.959
  384.750    6.543    0.408    0.292  164.937   67.891
  385.000    6.309    0.426    0.280  164.931   68.777
  385.250    5.920    0.433    0.279  164.925   66.398
  385.500    5.309    0.432    0.284  164.917   66.987
  385.750    4.804    0.421    0.283  165.405   69.655
  386.000    4.760    0.408    0.266  166.389   81.226
  386.250    4.673    0.401    0.260  168.360   85.971
  386.500    4.588    0.396    0.245  167.859   91.310
  386.750    4.423    0.401    0.234  165.873   94.570
  387.000    4.382    0.417    0.216  166.360   93.675
  387.250    4.302    0.433    0.188  170.311   94.562
  387.500    4.263    0.423    0.227  169.810   95.448
  387.750    4.262    0.407    0.243  166.340   95.148
  388.000    4.378    0.397    0.247  165.839   94.549
  388.250    4.497    0.415    0.244  166.327   93.655
  388.500    4.662    0.420    0.236  168.792   92.464
  388.750    4.832    0.407    0.254  171.755   89.195
  389.000    5.055    0.383    0.269  171.254   80.584
  389.250    5.384    0.327    0.288  164.816   67.520
  389.500    6.166    0.354    0.266  159.368   66.329
  389.750    6.277    0.385    0.239  161.832   74.041
  390.000    6.162    0.397    0.258  161.333   80.864
  390.250    5.888    0.388    0.269  160.831   88.577
  390.500    5.426    0.383    0.252  161.812   91.541
  390.750    5.045    0.385    0.223  162.302   90.943
  391.000    4.865    0.394    0.227  163.283   90.939
  391.250    4.819    0.403    0.219  163.274   86.483
  391.500    4.862    0.397    0.225  162.775   86.479
  391.750    5.086    0.391    0.231  161.780   86.772
  392.000    5.177    0.396    0.250  160.783   82.315
  392.250    5.176    0.419    0.265  159.293   78.749
  392.500    4.813    0.418    0.277  157.800   80.823
  392.750    4.435    0.411    0.275  158.784   89.723
  393.000    4.087    0.401    0.268  160.262   97.138
  393.250    3.766    0.427    0.240  164.707  103.962
  393.500    3.598    0.463    0.172  170.635  111.675
  393.750    3.438    0.493    0.167  174.091  112.858
  394.000    3.168    0.492    0.148  176.558  108.402
  394.250    3.000    0.507    0.137  176.551  104.836
  394.500    2.815    0.518    0.162  179.512  106.611
  394.750    2.739    0.511    0.187  181.980  108.983
  395.000    2.665    0.500    0.199  182.961  112.244
  395.250    2.592    0.500    0.187  181.471  110.756
  395.500    2.545    0.498    0.178  179.980  111.345
  395.750    2.568    0.517    0.216  183.436  116.980
  396.000    2.735    0.518    0.225  182.934  119.648
  396.250    3.307    0.485    0.226  178.475  108.959
  396.500    4.260    0.435    0.229  165.112   95.302
  396.750    4.621    0.398    0.230  160.157   84.909
  397.000    5.150    0.383    0.234  159.658   72.141
  397.250    5.739    0.370    0.259  161.135   68.576
  397.500    6.169    0.359    0.297  161.128   66.198
  397.750    6.752    0.371    0.292  160.132   66.787
  398.000    7.593    0.370    0.282  159.628   68.861
  398.250    9.099    0.359    0.310  159.623   71.825
  398.500   11.000    0.366    0.324  160.606   69.446
  398.750   12.040    0.382    0.319  160.598   66.474
  399.000   13.541    0.391    0.305  160.593   66.469
  399.250   15.367    0.385    0.276  160.586   65.575
  399.500   16.518    0.373    0.255  161.074   63.493
  399.750   16.966    0.360    0.247  161.066   64.973
  400.000   16.659    0.365    0.233  161.553   77.732
  400.250   15.491    0.386    0.228  162.042   85.742
  400.500   12.018    0.410    0.243  162.035   92.564
  400.750    9.240    0.443    0.256  161.038   90.483
  401.000    7.433    0.447    0.266  159.549   80.090
  401.250    6.975    0.434    0.262  159.542   78.899
  401.500    6.427    0.430    0.262  160.029   81.269
  401.750    5.764    0.436    0.254  161.012   80.077
  402.000    5.608    0.429    0.246  161.006   77.403
  402.250    5.606    0.440    0.255  160.009   75.618
  402.500    5.972    0.451    0.249  159.011   73.239
  402.750    6.716    0.455    0.271  158.017   68.189
  403.000    7.691    0.451    0.291  156.525   65.811
  403.250    9.299    0.448    0.321  156.024   65.213
  403.500   11.980    0.442    0.327  156.018   65.209
  403.750   12.645    0.426    0.329  156.011   65.501
  404.000   12.415    0.435    0.328  156.003   65.201
  404.250   11.440    0.439    0.323  156.492   66.680
  404.500    9.456    0.441    0.310  156.979   67.864
  404.750    8.253    0.444    0.274  159.446   69.641
  405.000    6.760    0.448    0.256  162.406   73.495
  405.250    6.174    0.449    0.269  161.904   72.896
  405.500    5.741    0.437    0.264  161.404   71.112
  405.750    5.535    0.429    0.255  162.387   71.702
  406.000    5.288    0.416    0.252  163.864   76.150
  406.250    5.007    0.423    0.244  165.836   82.379
  406.500    4.741    0.431    0.231  167.808   86.826
  406.750    4.330    0.443    0.241  171.263   91.275
  407.000    3.779    0.463    0.214  177.193   96.910
  407.250    3.546    0.474    0.239  189.553  103.436
  407.500    3.513    0.458    0.255  185.589  105.806
  407.750    3.742    0.438    0.253  175.193  105.802
  408.000    4.095    0.431    0.243  174.198  108.469
  408.250    4.402    0.421    0.233  171.718  113.214
  408.500    4.401    0.416    0.207  172.701  113.506
  408.750    4.205    0.448    0.233  175.167  105.192
  409.000    3.840    0.463    0.261  173.675   95.096
  409.250    3.443    0.435    0.273  165.258   98.951
  409.500    3.088    0.422    0.266  165.253  108.445
  409.750    2.871    0.460    0.221  176.129  112.892
  410.000    2.646    0.495    0.240  186.510  112.295
  410.250    2.505    0.510    0.245  188.481  108.135
  410.500    2.574    0.517    0.285  185.507  101.008
  410.750    2.766    0.492    0.286  174.123   96.849
  411.000    3.055    0.442    0.248  167.189   95.063
  411.250    3.762    0.432    0.233  165.699   94.763
  411.500    4.269    0.422    0.247  166.681   95.352
  411.750    4.715    0.409    0.251  166.674   94.755
  412.000    4.977    0.423    0.242  165.678   91.486
  412.250    5.206    0.428    0.226  164.188   86.139
  412.500    5.495    0.413    0.203  163.687   79.605
  412.750    5.748    0.316    0.185  164.668   76.039
  413.000    6.406    0.292    0.119  165.157   77.222
  413.250    7.270    0.331    0.199  166.633   78.405
  413.500    7.401    0.388    0.240  167.616   78.698
  413.750    7.200    0.419    0.243  166.126   79.881
  414.000    7.068    0.429    0.249  165.625   82.251
  414.250    6.878    0.433    0.254  165.618   85.512
  414.500    6.003    0.408    0.247  167.590   87.883
  414.750    5.099    0.427    0.240  167.582   91.737
  415.000    4.614    0.455    0.241  165.597   93.811
  415.250    4.252    0.480    0.228  167.569   92.917
  415.500    4.026    0.495    0.218  170.528   91.131
  415.750    4.061    0.468    0.243  170.523   90.237
  416.000    4.210    0.430    0.243  167.053   89.936
  416.250    4.566    0.423    0.222  165.068   89.041
