~VERSION INFORMATION
 VERS.                 2.0:   CWLS LOG ASCII STANDARD -VERSION 2.0
 WRAP.                  NO:   ONE LINE PER DEPTH STEP
~WELL INFORMATION BLOCK
#MNEM.UNIT           DATA                    DESCRIPTION OF MNEMONIC
#---------    -------------------            -------------------------------
# Generated from Intellog Unique Number	CW_73_75/WELL/554
WELL.         GULF POC DROWNED 06-26         : Well_name    - WELL
LOC .         00/06-26-075-21W4/0            : Location     - LOCATION
UWI .         00/06-26-075-21W4/0            : Uwi          - UNIQUE WELL ID
ENTR.         JAYE                           : Entered      - ENTERED BY
SRVC.         SCHLUMBERGER                   : Scn          - SERVICE COMPANY
DATE.         2 MAR 78                       : Date         - LOG DATE
STRT.M        393.192                        : top_depth    - START DEPTH
STOP.M        594.442                        : bot_depth    - STOP DEPTH
STEP.M        0.25                           : increment    - STEP LENGTH
 NULL. -999.2500:NULL Value
~CURVE INFORMATION BLOCK
#MNEM UNIT       ERCB CURVE CODE    CURVE DESCRIPTION
#-----------   ------------------   ----------------------------------
DEPT.M        00 001 00 00         : DEPTH        - DEPTH
ILD .OHMM     00 120 00 00         : RESD         - DEEP RESISTIVITY (DIL)
NPHI.V/V      00 330 00 00         : PHIN         - NEUTRON POROSITY (SANDSTONE)
DPHI.V/V      00 890 00 00         : PHID         - DENSITY POROSITY (SANDSTONE)
GR  .API      00 310 00 00         : GR           - GAMMA RAY
CALI.MM       00 280 01 00         : CAL          - CALIPER
~PARAMETER INFORMATION
#MNEM.UNIT           DATA             DESCRIPTION OF MNEMONIC
#---------         -----------     ------------------------------
GL  .M        698.297              : gl           - GROUND LEVEL ELEVATION
EREF.M        702.412              : kb           - ELEVATION OF DEPTH REFERENCE
DATM.M        698.297              : datum        - DATUM ELEVATION
TDD .M        595.884              : tdd          - TOTAL DEPTH DRILLER
RUN .         ONE                  : Run          - RUN NUMBER
ENG .         VERRAIRES            : Engineer     - RECORDING ENGINEER
WIT .         BRINKMAN             : Witness      - WITNESSED BY
BASE.         EDM                  : Branch       - HOME BASE OF LOGGING UNIT
MUD .         GEL CHEM             : Mud_type     - MUD TYPE
MATR.         SANDSTONE            : Logunit      - NEUTRON MATRIX
TMAX.C        28.3333              : BHT          - MAXIMUM RECORDED TEMPERATURE
BHTD.M        590.702              : BHTDEP       - MAXIMUM RECORDED TEMPERATURE
RMT .C        15.5556              : MDTP         - TEMPERATURE OF MUD
MUDD.KG/M     1104                 : MWT          - MUD DENSITY
NEUT.         1                    : NEUTRON      - NEUTRON TYPE
RESI.         0                    : RESIST       - RESISTIVITY TYPE
RM  .OHMM     3.39                 : RM           - RESISTIVITY OF MUD
RMC .OHMM     0                    : RMC          - RESISTIVITY OF MUD CAKE
RMF .OHMM     4.56                 : RMF          - RESISTIVITY OF MUD FILTRATE
SUFT.C        -17.7778             : SUFT         - SURFACE TEMPERATURE
~A  DEPTH     RESD     PHIN     PHID       GR      CAL
# ...
  429.692    6.359    0.420    0.256   91.361  162.857
  429.942    6.254    0.466    0.259   90.208  170.199
  430.192    6.196    0.479    0.243   83.745  167.515
  430.442    6.116    0.473    0.308   82.156  162.004
  430.692    6.070    0.459    0.285   84.274  159.108
  430.942    6.014    0.457    0.298   84.415  157.778
  431.192    5.947    0.456    0.303   80.051  156.560
  431.442    5.870    0.453    0.307   79.391  155.857
  431.692    5.837    0.446    0.311   82.063  156.202
  431.942    5.826    0.440    0.309   87.821  156.751
  432.192    5.826    0.429    0.296   96.361  157.725
  432.442    5.793    0.443    0.279  101.254  160.164
  432.692    5.782    0.439    0.257  105.223  162.909
  432.942    5.771    0.440    0.254  107.957  166.076
  433.192    5.781    0.456    0.247   99.579  167.570
  433.442    5.781    0.474    0.282   88.918  166.346
  433.692    5.748    0.488    0.308   75.972  163.036
  433.942    5.780    0.462    0.334   61.422  160.868
  434.192    5.790    0.427    0.323   61.069  158.910
  434.442    5.876    0.434    0.301   64.174  156.849
  434.692    5.953    0.443    0.295   60.735  153.954
  434.942    5.985    0.431    0.315   61.062  152.629
  435.192    5.985    0.427    0.326   63.303  153.600
  435.442    5.951    0.437    0.312   65.235  155.720
  435.692    5.885    0.443    0.302   67.907  158.157
  435.942    5.820    0.442    0.300   64.591  159.232
  436.192    5.713    0.440    0.309   61.771  158.949
  436.442    5.649    0.437    0.330   62.159  158.454
  436.692    5.566    0.437    0.339   64.276  158.285
  436.942    5.484    0.454    0.325   71.084  158.516
  437.192    5.423    0.461    0.324   71.164  159.076
  437.442    5.343    0.456    0.321   70.751  159.518
  437.692    5.293    0.451    0.325   76.448  160.179
  437.942    5.234    0.469    0.297   82.331  160.524
  438.192    5.263    0.489    0.257   82.412  160.661
  438.442    5.391    0.501    0.282   77.675  159.748
  438.692    5.667    0.488    0.282   75.040  157.376
  438.942    6.057    0.450    0.262   75.180  155.318
  439.192    7.116    0.417    0.231   72.298  156.707
  439.442    8.969    0.323    0.132   63.858  158.933
  439.692   11.994    0.268    0.074   55.172  161.259
  439.942   15.146    0.214    0.022   49.141  163.903
  440.192   16.339    0.276    0.051   52.245  163.729
  440.442   15.200    0.363    0.201   62.141  163.026
  440.692   12.559    0.394    0.285   69.567  161.070
  440.942    9.032    0.438    0.320   72.980  158.386
  441.192    6.943    0.468    0.294   73.864  156.432
  441.442    6.009    0.466    0.286   73.448  154.786
  441.692    5.518    0.458    0.276   68.529  153.979
  441.942    5.229    0.457    0.294   63.671  155.063
  442.192    5.190    0.452    0.306   59.676  155.817
  442.442    5.247    0.464    0.314   55.125  156.686
  442.692    5.335    0.465    0.320   51.502  158.288
  442.942    5.415    0.445    0.332   49.731  159.674
  443.192    5.455    0.433    0.311   49.192  161.065
  443.442    5.495    0.435    0.295   50.877  161.615
  443.692    5.515    0.445    0.309   56.144  161.646
  443.942    5.474    0.451    0.325   60.851  160.948
  444.192    5.443    0.452    0.338   65.624  160.140
  444.442    5.403    0.454    0.327   67.803  159.965
  444.692    5.362    0.461    0.309   66.524  159.575
  444.942    5.332    0.461    0.326   64.629  158.986
  445.192    5.322    0.454    0.336   66.252  158.284
  445.442    5.302    0.444    0.343   67.319  157.995
  445.692    5.302    0.461    0.350   66.535  157.715
  445.942    5.321    0.466    0.334   66.183  157.533
  446.192    5.331    0.476    0.328   67.004  157.671
  446.442    5.330    0.490    0.329   68.504  158.014
  446.692    5.330    0.489    0.332   70.559  158.781
  446.942    5.369    0.477    0.322   73.848  159.225
  447.192    5.369    0.468    0.312   78.376  159.363
  447.442    5.329    0.477    0.304   81.111  159.703
  447.692    5.398    0.468    0.276   83.533  160.780
  447.942    5.408    0.451    0.250   87.934  162.589
  448.192    5.397    0.453    0.236   92.707  163.876
  448.442    5.357    0.475    0.252   94.083  164.637
  448.692    5.317    0.476    0.250   89.347  164.667
  448.942    5.248    0.488    0.232   92.266  163.967
  449.192    5.219    0.509    0.246   91.112  163.058
  449.442    5.199    0.502    0.260   88.352  161.942
  449.692    5.218    0.481    0.264   85.840  161.341
  449.942    5.316    0.469    0.264   88.142  161.059
  450.192    5.445    0.470    0.230   92.481  161.403
  450.442    5.567    0.466    0.217  101.452  162.058
  450.692    5.639    0.459    0.205  104.678  164.076
  450.942    5.681    0.471    0.222  102.227  167.243
  451.192    5.670    0.472    0.201  101.752  169.783
  451.442    5.596    0.470    0.199  103.685  171.281
  451.692    5.544    0.472    0.202  106.479  172.776
  451.942    5.473    0.484    0.213  107.054  174.268
  452.192    5.402    0.491    0.199  104.664  175.027
  452.442    5.381    0.498    0.205  104.559  174.745
  452.692    5.361    0.502    0.233  107.540  171.330
  452.942    5.381    0.501    0.236  111.757  168.535
  453.192    5.461    0.490    0.216  113.750  166.477
  453.442    5.635    0.476    0.202  113.893  165.463
  453.692    5.761    0.463    0.199  113.417  165.700
  453.942    5.624    0.453    0.185  108.186  167.507
  454.192    5.429    0.472    0.184  106.477  169.111
  454.442    5.280    0.490    0.194  108.162  169.763
  454.692    4.786    0.499    0.206  109.105  170.008
  454.942    4.379    0.514    0.224  107.025  169.517
  455.192    4.119    0.535    0.252  104.080  167.559
  455.442    3.789    0.546    0.273  104.903  165.604
  455.692    3.486    0.561    0.284  103.128  165.110
  455.942    3.079    0.580    0.302   97.158  167.020
  456.192    2.770    0.594    0.300   90.818  171.863
  456.442    2.770    0.577    0.296   97.937  174.506
  456.692    3.000    0.552    0.294   98.388  176.522
  456.942    3.610    0.527    0.284   94.946  173.417
  457.192    4.558    0.506    0.285   90.705  167.174
  457.442    5.208    0.501    0.270   94.056  163.342
  457.692    5.681    0.505    0.268   98.581  162.325
  457.942    6.039    0.502    0.276  104.773  161.937
  458.192    5.961    0.527    0.265   98.310  161.657
  458.442    5.797    0.526    0.267   91.228  161.685
  458.692    5.565    0.521    0.279   88.839  162.029
  458.942    5.353    0.535    0.265   89.538  162.481
  459.192    5.283    0.532    0.274   89.308  162.613
  459.442    5.234    0.517    0.282   89.204  162.961
  459.692    5.205    0.509    0.279   88.973  164.137
  459.942    5.147    0.502    0.272   91.151  166.991
  460.192    5.071    0.517    0.265   90.430  170.157
  460.442    5.005    0.526    0.264   88.410  170.816
  460.692    4.959    0.523    0.265   83.924  169.072
  460.942    4.940    0.511    0.279   80.299  166.803
  461.192    4.940    0.489    0.295   77.353  165.167
  461.442    4.921    0.482    0.303   74.408  164.250
  461.692    4.849    0.480    0.304   71.155  162.920
  461.942    4.724    0.480    0.303   69.383  161.385
  462.192    4.646    0.487    0.300   68.598  159.641
  462.442    4.535    0.485    0.300   68.432  158.104
  462.692    4.419    0.489    0.314   67.523  157.084
  462.942    4.274    0.508    0.330   67.480  156.075
  463.192    4.156    0.508    0.336   68.302  155.583
  463.442    4.057    0.466    0.320   69.368  155.409
  463.692    4.049    0.452    0.320   69.509  155.330
  463.942    4.117    0.445    0.310   67.800  155.671
  464.192    4.450    0.430    0.150   64.792  156.330
  464.442    5.578    0.412    0.103   62.961  157.509
  464.692    7.363    0.300    0.072   64.028  159.425
  464.942   10.013    0.225    0.074   67.132  160.709
  465.192   12.274    0.234    0.087   69.805  161.894
  465.442   13.869    0.270    0.098   70.130  162.127
  465.692   11.566    0.309    0.138   70.829  160.386
  465.942    9.399    0.353    0.208   70.845  157.803
