~VERSION INFORMATION
 VERS.                 2.0:   CWLS LOG ASCII STANDARD -VERSION 2.0
 WRAP.                  NO:   ONE LINE PER DEPTH STEP
~WELL INFORMATION BLOCK
#MNEM.UNIT           DATA                    DESCRIPTION OF MNEMONIC
#---------    -------------------            -------------------------------
# Generated from Intellog Unique Number	CW_73_75/WELL/199
WELL.         GLEN ISLE ET AL MITSUE 02-01   : Well_name    - WELL
LOC .         00/02-01-074-05W5/0            : Location     - LOCATION
UWI .         00/02-01-074-05W5/0            : Uwi          - UNIQUE WELL ID
ENTR.         JAYE                           : Entered      - ENTERED BY
SRVC.         WESTERN ATLAS                  : Scn          - SERVICE COMPANY
DATE.         8 DEC 88                       : Date         - LOG DATE
STRT.M        370                            : top_depth    - START DEPTH
STOP.M        630                            : bot_depth    - STOP DEPTH
STEP.M        0.25                           : increment    - STEP LENGTH
 NULL. -999.2500:NULL Value
~CURVE INFORMATION BLOCK
#MNEM UNIT       ERCB CURVE CODE    CURVE DESCRIPTION
#-----------   ------------------   ----------------------------------
DEPT.M        00 001 00 00         : DEPTH        - DEPTH
GR  .API      00 310 00 00         : GR           - GAMMA RAY
NPHI.V/V      00 330 00 00         : PHIN         - NEUTRON POROSITY (SANDSTONE)
DPHI.V/V      00 890 00 00         : PHID         - DENSITY POROSITY (SANDSTONE)
ILD .OHMM     00 120 00 00         : RESD         - DEEP RESISTIVITY (DIL)
CALI.MM       00 280 01 00         : CAL          - CALIPER
~PARAMETER INFORMATION
#MNEM.UNIT           DATA             DESCRIPTION OF MNEMONIC
#---------         -----------     ------------------------------
GL  .M        589.5                : gl           - GROUND LEVEL ELEVATION
EREF.M        593.84               : kb           - ELEVATION OF DEPTH REFERENCE
DATM.M        589.5                : datum        - DATUM ELEVATION
TDD .M        1650                 : tdd          - TOTAL DEPTH DRILLER
RUN .         ONE                  : Run          - RUN NUMBER
ENG .         YEAGER               : Engineer     - RECORDING ENGINEER
WIT .         PUTZ                 : Witness      - WITNESSED BY
BASE.         LEDUC                : Branch       - HOME BASE OF LOGGING UNIT
MATR.         SANDSTONE            : Logunit      - NEUTRON MATRIX
TMAX.C        51                   : BHT          - MAXIMUM RECORDED TEMPERATURE
BHTD.M        1650.3               : BHTDEP       - MAXIMUM RECORDED TEMPERATURE
RMT .C        51                   : MDTP         - TEMPERATURE OF MUD
MUDD.KG/M     1125                 : MWT          - MUD DENSITY
NEUT.         1                    : NEUTRON      - NEUTRON TYPE
RESI.         0                    : RESIST       - RESISTIVITY TYPE
RM  .OHMM     6.27                 : RM           - RESISTIVITY OF MUD
RMC .OHMM     4.87                 : RMC          - RESISTIVITY OF MUD CAKE
RMF .OHMM     8.75                 : RMF          - RESISTIVITY OF MUD FILTRATE
SUFT.C        0                    : SUFT         - SURFACE TEMPERATURE
~A  DEPTH       GR     PHIN     PHID     RESD      CAL
# ...
  552.500   83.298    0.306    0.218    5.607  275.313
  552.750   81.191    0.310    0.241    5.689  276.199
  553.000   78.281    0.321    0.262    5.793  276.787
  553.250   74.201    0.330    0.271    5.888  276.953
  553.500   66.315    0.325    0.275    6.209  277.840
  553.750   62.055    0.317    0.283    6.476  278.618
  554.000   67.933    0.313    0.289    6.691  279.912
  554.250   70.006    0.329    0.292    6.653  281.727
  554.500   65.865    0.334    0.289    6.627  281.287
  554.750   62.219    0.323    0.271    6.687  280.635
  555.000   56.850    0.322    0.270    6.563  280.695
  555.250   54.555    0.317    0.266    6.359  281.069
  555.500   56.687    0.304    0.255    6.185  281.451
  555.750   65.143    0.301    0.243    5.939  281.207
  556.000   68.931    0.307    0.233    5.587  280.761
  556.250   59.570    0.313    0.238    5.394  280.215
  556.500   60.964    0.322    0.251    5.208  279.461
  556.750   59.836    0.330    0.243    5.028  279.121
  557.000   60.980    0.339    0.235    4.890  278.672
  557.250   67.288    0.352    0.234    4.835  278.640
  557.500   71.938    0.341    0.217    4.772  279.319
  557.750   68.292    0.328    0.209    4.650  280.307
  558.000   83.262    0.319    0.206    4.407  281.295
  558.250   79.125    0.323    0.212    4.162  282.697
  558.500   77.137    0.334    0.236    3.967  284.092
  558.750   80.620    0.344    0.228    3.739  284.776
  559.000   84.347    0.362    0.274    3.597  284.129
  559.250   90.100    0.385    0.317    3.543  282.458
  559.500   84.858    0.366    0.414    3.497  280.781
  559.750   78.323    0.378    0.449    3.528  279.820
  560.000   70.806    0.386    0.460    3.728  279.173
  560.250   75.577    0.366    0.453    4.414  277.600
  560.500   70.211    0.354    0.356    5.264  275.824
  560.750   71.786    0.311    0.264    6.165  273.127
  561.000   83.563    0.289    0.196    6.561  270.528
  561.250   73.280    0.283    0.151    6.583  269.783
  561.500   81.434    0.290    0.110    6.438  270.052
  561.750   75.576    0.298    0.139    6.238  270.834
  562.000   74.815    0.300    0.176    6.134  271.518
  562.250   76.759    0.308    0.219    6.010  271.893
  562.500   77.907    0.321    0.276    5.888  272.060
  562.750   72.233    0.332    0.271    5.780  271.922
  563.000   76.942    0.318    0.241    5.704  272.099
  563.250   75.573    0.306    0.206    5.661  271.959
  563.500   79.794    0.313    0.194    5.649  272.021
  563.750   81.733    0.321    0.215    5.710  272.195
  564.000   86.135    0.327    0.228    5.956  272.567
  564.250   79.908    0.327    0.208    6.143  272.944
  564.500   78.965    0.324    0.193    6.279  273.215
  564.750   68.867    0.326    0.198    6.163  274.310
  565.000   66.698    0.323    0.209    5.950  275.399
  565.250   69.874    0.319    0.205    5.733  276.488
  565.500   68.253    0.329    0.201    5.627  277.885
  565.750   76.467    0.323    0.194    5.554  278.977
  566.000   73.493    0.326    0.184    5.482  280.069
  566.250   73.234    0.341    0.178    5.430  280.960
  566.500   77.018    0.344    0.176    5.439  281.332
  566.750   82.280    0.336    0.175    5.388  281.395
  567.000   82.502    0.354    0.169    5.377  281.055
  567.250   78.925    0.366    0.171    5.356  279.895
  567.500   87.133    0.378    0.166    5.305  278.221
  567.750   86.376    0.383    0.158    5.150  276.956
  568.000   84.018    0.370    0.161    4.766  276.508
  568.250   77.359    0.375    0.176    4.468  276.272
  568.500   84.590    0.400    0.207    4.370  276.036
  568.750   79.652    0.423    0.230    4.474  274.973
  569.000   71.581    0.433    0.221    4.473  272.886
  569.250   73.837    0.360    0.197    4.505  271.110
  569.500   75.230    0.342    0.206    4.294  270.665
  569.750   77.111    0.356    0.256    3.699  272.373
  570.000   74.323    0.368    0.354    2.755  282.577
  570.250   67.543    0.386    0.505    2.165  297.191
  570.500   69.736    0.387    0.545    1.845  307.088
  570.750   58.837    0.378    0.576    1.598  311.258
  571.000   54.949    0.430    0.781    1.359  312.137
  571.250   50.257    0.452    0.833    1.219  312.415
  571.500   45.501    0.474    0.799    1.166  312.270
  571.750   47.386    0.498    0.774    1.168  311.635
  572.000   38.699    0.602    0.745    1.182  311.183
  572.250   48.079    0.653    0.746    1.240  311.038
  572.500   49.657    0.519    0.833    1.312  311.213
  572.750   51.363    0.520    0.858    1.460  310.765
  573.000   56.557    0.594    0.783    1.612  306.428
  573.250   58.751    0.622    0.726    1.836  302.505
  573.500   55.963    0.673    0.686    2.505  301.649
  573.750   53.977    0.421    0.659    3.099  302.328
  574.000   54.510    0.385    0.617    3.372  303.732
  574.250   53.324    0.386    0.625    3.459  305.536
  574.500   50.839    0.397    0.804    3.445  305.396
  574.750   47.440    0.420    0.764    3.419  301.780
  575.000   53.133    0.423    0.614    3.425  296.621
  575.250   61.963    0.388    0.565    3.418  304.066
  575.500   64.826    0.422    0.633    3.392  307.102
  575.750   59.459    0.417    0.716    3.354  298.462
  576.000   55.015    0.407    0.609    3.316  291.365
  576.250   62.306    0.398    0.549    3.315  288.671
  576.500   68.123    0.417    0.519    3.327  288.219
  576.750   60.603    0.432    0.533    3.388  291.674
  577.000   68.942    0.428    0.591    3.437  294.602
  577.250   71.254    0.409    0.616    3.481  293.342
  577.500   66.439    0.412    0.464    3.531  290.541
  577.750   71.153    0.407    0.399    3.557  285.788
  578.000   68.552    0.382    0.390    3.459  280.224
  578.250   72.643    0.382    0.452    3.249  279.061
  578.500   63.590    0.409    0.524    3.034  280.049
  578.750   71.437    0.451    0.518    2.855  278.892
  579.000   65.391    0.414    0.499    2.706  279.469
  579.250   72.501    0.393    0.513    2.690  278.408
  579.500   70.819    0.410    0.547    2.730  277.759
  579.750   64.529    0.423    0.578    2.795  281.515
  580.000   61.138    0.413    0.575    2.883  282.916
  580.250   62.708    0.395    0.477    2.974  279.404
  580.500   63.175    0.372    0.449    3.062  275.471
  580.750   74.956    0.384    0.490    3.123  272.363
  581.000   77.389    0.403    0.475    3.198  269.051
  581.250   69.626    0.428    0.454    3.275  266.759
  581.500   70.341    0.440    0.468    3.353  270.105
  581.750   70.874    0.443    0.460    3.365  273.655
  582.000   70.608    0.413    0.508    3.358  274.849
  582.250   63.212    0.427    0.598    3.338  274.201
  582.500   66.386    0.436    0.555    3.393  272.114
  582.750   70.732    0.441    0.443    3.449  272.086
  583.000   85.454    0.417    0.433    3.486  272.569
  583.250   74.435    0.390    0.430    3.460  273.240
  583.500   72.570    0.362    0.412    3.365  273.721
  583.750   77.956    0.365    0.390    3.249  274.292
  584.000   72.281    0.373    0.397    3.154  274.569
  584.250   68.146    0.382    0.415    3.101  274.941
  584.500   74.451    0.391    0.427    3.066  275.011
  584.750   76.888    0.402    0.442    3.010  274.256
  585.000   77.665    0.410    0.457    3.009  271.558
  585.250   78.079    0.417    0.597    3.092  264.356
  585.500   78.056    0.379    0.569    3.340  258.480
  585.750   79.508    0.395    0.481    3.984  250.970
  586.000   81.576    0.405    0.451    4.813  242.948
  586.250   84.259    0.394    0.318    6.724  236.150
  586.500   80.488    0.366    0.233    9.873  231.309
  586.750   65.169    0.332    0.253   13.717  229.225
  587.000   33.317    0.319    0.260   15.313  228.572
  587.250   36.680    0.306    0.234   13.460  229.257
  587.500   48.328    0.284    0.191   12.230  230.553
  587.750   47.939    0.252    0.159   11.423  232.460
  588.000   50.130    0.267    0.167   11.295  233.861
  588.250   52.938    0.278    0.173   11.715  233.723
  588.500   57.099    0.276    0.158   12.793  233.590
  588.750   61.005    0.284    0.171   14.255  233.341
