~VERSION INFORMATION
 VERS.                 2.0:   CWLS LOG ASCII STANDARD -VERSION 2.0
 WRAP.                  NO:   ONE LINE PER DEPTH STEP
~WELL INFORMATION BLOCK
#MNEM.UNIT           DATA                    DESCRIPTION OF MNEMONIC
#---------    -------------------            -------------------------------
# Generated from Intellog Unique Number	CS_71_72/WELL/619
WELL.         MAYNARD ENERGY INC.            : Well_name    - WELL
LOC .         00/02-26-072-13W4/0            : Location     - LOCATION
UWI .         00/02-26-072-13W4/0            : Uwi          - UNIQUE WELL ID
ENTR.         SP                             : Entered      - ENTERED BY
SRVC.         SCHLUMBERGER                   : Scn          - SERVICE COMPANY
STRT.M        300                            : top_depth    - START DEPTH
STOP.M        530                            : bot_depth    - STOP DEPTH
STEP.M        0.25                           : increment    - STEP LENGTH
 NULL. -999.2500:NULL Value
~CURVE INFORMATION BLOCK
#MNEM UNIT       ERCB CURVE CODE    CURVE DESCRIPTION
#-----------   ------------------   ----------------------------------
DEPT.M        00 001 00 00         : DEPTH        - DEPTH
ILD .OHMM     00 120 00 00         : RESD         - DEEP RESISTIVITY (DIL)
DPHI.V/V      00 890 00 00         : PHID         - DENSITY POROSITY (LIMESTONE)
NPHI.V/V      00 330 00 00         : PHIN         - NEUTRON POROSITY (LIMESTONE)
GR  .API      00 310 00 00         : GR           - GAMMA RAY
~PARAMETER INFORMATION
#MNEM.UNIT           DATA             DESCRIPTION OF MNEMONIC
#---------         -----------     ------------------------------
GL  .M        653.8                : gl           - GROUND LEVEL ELEVATION
EREF.M        657.5                : kb           - ELEVATION OF DEPTH REFERENCE
DATM.M        653.8                : datum        - DATUM ELEVATION
TDD .M        542                  : tdd          - TOTAL DEPTH DRILLER
RUN .         ONE                  : Run          - RUN NUMBER
ENG .         BILL                 : Engineer     - RECORDING ENGINEER
WIT .         JIM                  : Witness      - WITNESSED BY
MUD .         GEL                  : Mud_type     - MUD TYPE
MATR.         LIMESTONE            : Logunit      - NEUTRON MATRIX
TMAX.C        22                   : BHT          - MAXIMUM RECORDED TEMPERATURE
BHTD.M        542                  : BHTDEP       - MAXIMUM RECORDED TEMPERATURE
MATR.         1                    : LOGUNIT      - NEUTRON MATRIX
RMT .C        144                  : MDTP         - TEMPERATURE OF MUD
NEUT.         1                    : NEUTRON      - NEUTRON TYPE
RESI.         0                    : RESIST       - RESISTIVITY TYPE
RMC .OHMM     0.25                 : RMC          - RESISTIVITY OF MUD CAKE
RMF .OHMM     0.25                 : RMF          - RESISTIVITY OF MUD FILTRATE
SUFT.C        15                   : SUFT         - SURFACE TEMPERATURE
~A  DEPTH     RESD     PHID     PHIN       GR
# ...
  474.000    7.850    0.206    0.375   90.698
  474.250    8.821    0.184    0.351   85.259
  474.500    9.871    0.131    0.340   74.379
  474.750   11.568    0.106    0.329   67.732
  475.000   13.345    0.088    0.325   68.344
  475.250   14.719    0.113    0.335   68.953
  475.500   15.528    0.222    0.347   68.355
  475.750   16.095    0.250    0.352   66.546
  476.000   16.259    0.267    0.355   68.366
  476.250   15.940    0.262    0.364   73.213
  476.500   15.136    0.247    0.369   75.637
  476.750   14.333    0.242    0.380   78.668
  477.000   13.932    0.238    0.386   79.277
  477.250   13.773    0.235    0.378   77.470
  477.500   15.632    0.260    0.375   73.242
  477.750   17.327    0.276    0.372   73.854
  478.000   18.782    0.291    0.372   76.278
  478.250   19.671    0.299    0.377   80.518
  478.500   20.078    0.289    0.373   85.362
  478.750   20.000    0.278    0.370   92.022
  479.000   19.196    0.261    0.367   96.262
  479.250   16.457    0.247    0.364   98.081
  479.500   14.686    0.245    0.361   92.040
  479.750   13.560    0.243    0.362   89.626
  480.000   12.514    0.236    0.364   90.842
  480.250   11.550    0.231    0.371   97.502
  480.500   10.988    0.218    0.376  105.975
  480.750   10.507    0.211    0.379  113.845
  481.000    9.865    0.209    0.386  115.666
  481.250    9.384    0.204    0.390  115.674
  481.500    8.822    0.205    0.389  115.074
  481.750    8.421    0.216    0.383  113.870
  482.000    8.908    0.211    0.370  113.269
  482.250    9.879    0.202    0.365  109.043
  482.500   10.849    0.191    0.362  105.420
  482.750   12.223    0.187    0.360  102.400
  483.000   13.355    0.185    0.360  101.198
  483.250   14.325    0.191    0.360   97.574
  483.500   15.860    0.203    0.361   83.669
  483.750   17.314    0.218    0.368   78.232
  484.000   18.366    0.261    0.373   79.447
  484.250   18.852    0.284    0.369   80.663
  484.500   19.258    0.263    0.367   80.065
  484.750   18.938    0.252    0.361   78.257
  485.000   19.103    0.263    0.360   75.842
  485.250   19.267    0.274    0.355   79.477
  485.500   18.866    0.268    0.350   83.113
  485.750   18.144    0.256    0.341   84.328
  486.000   17.743    0.233    0.339   78.286
  486.250   17.907    0.226    0.337   75.267
  486.500   18.152    0.233    0.337   77.088
  486.750   17.994    0.211    0.338   78.910
  487.000   17.996    0.212    0.350   77.705
  487.250   18.080    0.224    0.353   72.267
  487.500   18.083    0.233    0.358   74.693
  487.750   17.602    0.241    0.361   83.169
  488.000   16.556    0.248    0.357   86.197
  488.250   15.833    0.229    0.355   91.042
  488.500   15.029    0.208    0.353   93.468
  488.750   15.193    0.194    0.355   92.263
  489.000   17.212    0.206    0.362   74.728
  489.250   24.906    0.228    0.365   56.590
  489.500   33.031    0.266    0.370   49.339
  489.750   41.179    0.298    0.385   47.530
  490.000   46.908    0.303    0.393   47.536
  490.250   47.818    0.303    0.394   52.985
  490.500   40.718    0.306    0.388   69.321
  490.750   31.988    0.305    0.382   83.845
  491.000   23.277    0.282    0.391   91.107
  491.250   20.382    0.185    0.399  102.607
  491.500   20.385    0.153    0.424  108.660
  491.750    9.340    0.103    0.440  113.505
  492.000    6.843    0.079    0.451  115.327
  492.250    5.637    0.052    0.469  118.356
  492.500    5.236    0.083    0.481  121.387
  492.750    5.158    0.139    0.477  123.206
  493.000    5.646    0.197    0.442  122.003
  493.250    5.970    0.254    0.412   74.227
  493.500    7.184    0.285    0.390   62.136
  493.750    8.799    0.311    0.390   46.416
  494.000   11.543    0.322    0.393   57.311
  494.250   16.304    0.322    0.393   62.156
  494.500   24.920    0.311    0.387   63.974
  494.750   29.794    0.307    0.383   65.796
  495.000   34.687    0.302    0.381   65.801
  495.250   34.774    0.307    0.378   63.388
  495.500   32.430    0.306    0.377   65.813
  495.750   29.295    0.301    0.378   72.474
  496.000   26.956    0.288    0.375   77.319
  496.250   24.619    0.284    0.370   78.533
  496.500   22.286    0.277    0.364   78.540
  496.750   21.552    0.271    0.362   79.754
  497.000   20.817    0.259    0.360   87.022
  497.250   20.047    0.236    0.360   90.051
  497.500   16.421    0.227    0.359   93.081
  497.750   14.408    0.219    0.359   94.899
  498.000   12.717    0.207    0.356   97.325
  498.250   11.833    0.201    0.355   99.751
  498.500   11.030    0.192    0.355   99.757
  498.750   10.710    0.186    0.363   97.345
  499.000   10.551    0.209    0.367   99.772
  499.250   10.474    0.207    0.372  102.800
  499.500   10.476    0.193    0.379  105.830
  499.750   10.640    0.188    0.374  108.860
  500.000   11.579    0.209    0.367   98.216
  500.250   12.714    0.217    0.364   91.088
  500.500   13.364    0.224    0.361   83.365
  500.750   14.256    0.229    0.361   79.210
  501.000   14.744    0.210    0.362   84.587
  501.250   14.827    0.197    0.362   85.786
  501.500   14.424    0.227    0.358   81.640
  501.750   13.293    0.238    0.351   79.268
  502.000   12.567    0.238    0.345   74.524
  502.250   12.487    0.225    0.344   74.538
  502.500   12.328    0.222    0.345   82.292
  502.750   12.087    0.230    0.355   87.066
  503.000   11.927    0.212    0.364   88.873
  503.250   11.605    0.195    0.369   87.691
  503.500   11.202    0.185    0.379   93.659
  503.750   10.880    0.176    0.383   97.839
  504.000   10.639    0.190    0.374  104.404
  504.250   10.560    0.203    0.368  106.201
  504.500   10.967    0.190    0.377   97.887
  504.750   12.184    0.186    0.385   87.779
  505.000   14.290    0.204    0.390   75.889
  505.250   19.474    0.259    0.392   47.931
  505.500   28.006    0.301    0.386   40.801
  505.750   43.291    0.322    0.375   36.652
  506.000   68.180    0.325    0.369   34.284
  506.250  114.673    0.320    0.366   33.705
  506.500  185.149    0.313    0.361   34.909
  506.750  198.045    0.324    0.362   36.713
  507.000   61.373    0.340    0.370   36.724
  507.250   94.266    0.351    0.379   32.574
  507.500   45.574    0.355    0.384   29.614
  507.750   36.095    0.357    0.379   27.844
  508.000   29.797    0.350    0.375   27.855
  508.250   25.881    0.342    0.372   30.847
  508.500   23.578    0.341    0.367   27.888
  508.750   22.882    0.343    0.367   24.328
  509.000   26.994    0.346    0.369   20.775
  509.250   31.061    0.349    0.372   21.383
  509.500   39.973    0.353    0.373   24.975
  509.750   48.864    0.347    0.375   26.174
  510.000   64.961    0.338    0.375   26.187
  510.250   85.040    0.335    0.375   24.418
  510.500  193.117    0.338    0.375   22.649
  510.750  194.810    0.346    0.374   21.469
  511.000   94.133    0.350    0.374   20.300
  511.250   52.644    0.353    0.372   19.719
  511.500   30.342    0.359    0.368   20.325
  511.750    8.192    0.352    0.368   20.935
  512.000    6.493    0.343    0.373   21.546
  512.250    5.443    0.338    0.368   22.158
  512.500    4.797    0.333    0.363   23.363
  512.750    4.394    0.336    0.362   24.569
  513.000    3.912    0.327    0.362   25.174
  513.250    3.751    0.319    0.362   26.385
  513.500    3.591    0.332    0.362   25.800
  513.750    3.431    0.356    0.363   22.249
  514.000    3.352    0.364    0.364   21.662
  514.250    3.273    0.347    0.361   21.684
  514.500    3.194    0.349    0.361   22.290
  514.750    3.115    0.353    0.362   24.093
  515.000    3.036    0.344    0.366   25.297
  515.250    3.038    0.343    0.368   25.310
  515.500    3.040    0.347    0.370   25.326
  515.750    3.042    0.343    0.369   26.532
  516.000    3.126    0.337    0.367   27.143
  516.250    3.208    0.342    0.364   27.152
  516.500    3.292    0.349    0.363   25.977
  516.750    3.294    0.355    0.364   25.403
  517.000    3.296    0.366    0.372   26.009
  517.250    3.297    0.366    0.374   26.029
