~VERSION INFORMATION
 VERS.                 2.0:   CWLS LOG ASCII STANDARD -VERSION 2.0
 WRAP.                  NO:   ONE LINE PER DEPTH STEP
~WELL INFORMATION BLOCK
#MNEM.UNIT           DATA                    DESCRIPTION OF MNEMONIC
#---------    -------------------            -------------------------------
# Generated from Intellog Unique Number	CX_WELLS/WELL/3239
WELL.         CHEVRON ALGAR                  : Well_name    - WELL
LOC .         00/06-24-083-16W4/0            : Location     - LOCATION
UWI .         00/06-24-083-16W400            : Uwi          - UNIQUE WELL ID
ENTR.         T                              : Entered      - ENTERED BY
SRVC.         SCHLUMBERGER                   : Scn          - SERVICE COMPANY
DATE.         03/04/92                       : Date         - LOG DATE
STRT.F        300                            : top_depth    - START DEPTH
STOP.F        920.079                        : bot_depth    - STOP DEPTH
STEP.F        0.82                           : increment    - STEP LENGTH
 NULL. -999.2500:NULL Value
~CURVE INFORMATION BLOCK
#MNEM UNIT       ERCB CURVE CODE    CURVE DESCRIPTION
#-----------   ------------------   ----------------------------------
DEPT.F        00 001 00 00         : DEPTH        - DEPTH
GR  .API      00 310 00 00         : GR           - GAMMA RAY
NPHI.V/V      00 330 00 00         : PHIN         - NEUTRON POROSITY (SANDSTONE)
DPHI.V/V      00 890 00 00         : PHID         - DENSITY POROSITY (SANDSTONE)
ILD .OHMM     00 120 00 00         : RESD         - DEEP RESISTIVITY (DIL)
~PARAMETER INFORMATION
#MNEM.UNIT           DATA             DESCRIPTION OF MNEMONIC
#---------         -----------     ------------------------------
GL  .F        1713.5               : gl           - GROUND LEVEL ELEVATION
EREF.F        1724.5               : kb           - ELEVATION OF DEPTH REFERENCE
DATM.F        1724.5               : datum        - DATUM ELEVATION
TDD .F        920                  : tdd          - TOTAL DEPTH DRILLER
RUN .         ONE                  : Run          - RUN NUMBER
ENG .         JO                   : Engineer     - RECORDING ENGINEER
WIT .         TIM                  : Witness      - WITNESSED BY
MUD .         GEL                  : Mud_type     - MUD TYPE
MATR.         SANDSTONE            : Logunit      - NEUTRON MATRIX
TMAX.F        85                   : BHT          - MAXIMUM RECORDED TEMPERATURE
BHTD.F        920                  : BHTDEP       - MAXIMUM RECORDED TEMPERATURE
RMT .F        60                   : MDTP         - TEMPERATURE OF MUD
MUDD.LB/G     1                    : MWT          - MUD DENSITY
NEUT.         1                    : NEUTRON      - NEUTRON TYPE
RESI.         4.27                 : RESIST       - RESISTIVITY TYPE
RM  .OHMM     4.27                 : RM           - RESISTIVITY OF MUD
RMC .OHMM     3.86                 : RMC          - RESISTIVITY OF MUD CAKE
RMF .OHMM     3                    : RMF          - RESISTIVITY OF MUD FILTRATE
SUFT.F        32.2                 : SUFT         - SURFACE TEMPERATURE
~A  DEPTH       GR     PHIN     PHID     RESD
# ...
  585.433   84.460    0.551    0.258    7.998
  586.253   86.227    0.562    0.278    7.846
  587.073   87.382    0.573    0.286    7.696
  587.894   87.960    0.569    0.271    7.275
  588.714   87.941    0.545    0.263    6.877
  589.534   87.902    0.528    0.267    6.626
  590.354   86.682    0.491    0.264    6.497
  591.175   86.065    0.485    0.256    6.493
  591.995   83.047    0.517    0.258    6.853
  592.815   81.229    0.526    0.271    7.106
  593.635   78.820    0.530    0.285    7.504
  594.455   75.198    0.516    0.283    8.219
  595.276   70.979    0.498    0.281    8.524
  596.096   69.167    0.483    0.287    9.168
  596.916   67.954    0.470    0.291    9.681
  597.736   65.539    0.458    0.297   10.408
  598.556   64.312    0.461    0.301   10.595
  599.377   63.092    0.471    0.299   10.781
  600.197   61.871    0.472    0.297   10.773
  601.017   61.248    0.473    0.299   10.966
  601.837   60.625    0.473    0.303   11.161
  602.657   59.405    0.471    0.307   11.568
  603.478   58.775    0.464    0.310   11.773
  604.298   58.152    0.460    0.313   12.203
  605.118   58.724    0.469    0.304   12.190
  605.938   59.295    0.481    0.303   12.180
  606.759   60.464    0.493    0.303   12.175
  607.579   61.042    0.501    0.305   11.507
  608.399   62.808    0.488    0.306   11.287
  609.219   64.567    0.481    0.310   11.072
  610.039   66.333    0.476    0.313   11.061
  610.860   66.892    0.481    0.314   10.852
  611.680   67.470    0.486    0.316   10.844
  612.500   67.444    0.487    0.316   11.239
  613.320   67.412    0.496    0.312   11.654
  614.140   67.392    0.507    0.308   15.069
  614.961   67.353    0.514    0.293   16.509
  615.781   67.341    0.516    0.265   19.470
  616.601   67.315    0.462    0.126   21.727
  617.421   66.692    0.443    0.098   18.058
  618.241   66.062    0.314    0.080   12.713
  619.062   63.050    0.272    0.111   12.243
  619.882   60.038    0.301    0.139   18.678
  620.702   58.818    0.373    0.179   20.852
  621.522   61.181    0.486    0.234   25.048
  622.343   63.538    0.505    0.270   25.956
  623.163   64.115    0.469    0.274   23.663
  623.983   64.083    0.256    0.169   19.659
  624.803   63.467    0.217    0.065   17.270
  625.623   61.039    0.215    0.046   15.169
  626.444   62.214    0.276    0.116   13.320
  627.264   66.960    0.424    0.164   12.361
  628.084   71.115    0.477    0.218   11.905
  628.904   71.680    0.491    0.264   11.680
  629.724   71.667    0.485    0.277   11.455
  630.545   71.037    0.480    0.277   11.448
  631.365   71.609    0.485    0.278   11.228
  632.185   72.771    0.491    0.279   11.012
  633.005   73.343    0.484    0.280   11.005
  633.825   73.921    0.475    0.292   10.793
  634.646   74.479    0.475    0.293   10.590
  635.466   74.466    0.477    0.293   10.386
  636.286   72.642    0.481    0.291   10.186
  637.106   70.221    0.482    0.292    9.994
  637.927   69.001    0.480    0.292    9.803
  638.747   68.981    0.479    0.288    9.439
  639.567   70.137    0.476    0.282    9.432
  640.387   71.312    0.476    0.276    9.081
  641.207   73.072    0.476    0.274    8.906
  642.028   73.656    0.479    0.272    8.740
  642.848   75.422    0.481    0.269    8.416
  643.668   78.960    0.488    0.264    8.255
  644.488   80.142    0.491    0.261    8.096
  645.308   83.694    0.498    0.260    8.240
  646.129   87.251    0.513    0.256    8.235
  646.949   89.017    0.524    0.252    8.535
  647.769   85.414    0.513    0.240    8.848
  648.589   81.201    0.502    0.240    8.680
  649.409   82.961    0.496    0.245    8.359
  650.230   84.733    0.501    0.242    8.352
  651.050   86.493    0.517    0.234    8.501
  651.870   87.662    0.522    0.223    8.648
  652.690   87.045    0.519    0.222    8.805
  653.510   86.415    0.516    0.221    8.794
  654.331   86.987    0.511    0.221    8.789
  655.151   86.967    0.506    0.221    8.618
  655.971   88.117    0.502    0.221    8.455
  656.791   88.091    0.498    0.221    8.294
  657.612   89.266    0.497    0.225    7.986
  658.432   89.844    0.497    0.226    7.834
  659.252   90.415    0.501    0.231    7.829
  660.072   91.578    0.506    0.225    7.823
  660.892   92.156    0.508    0.216    7.671
  661.713   92.124    0.511    0.211    7.666
  662.533   92.098    0.515    0.209    7.517
  663.353   91.475    0.518    0.216    7.652
  664.173   89.657    0.519    0.222    8.080
  664.993   87.242    0.516    0.225    8.854
  665.814   83.626    0.510    0.254    9.696
  666.634   79.419    0.506    0.270    9.692
  667.454   78.193    0.505    0.274    9.862
  668.274   77.563    0.504    0.269   10.414
  669.094   76.349    0.503    0.263   10.995
  669.915   74.538    0.503    0.255   11.400
  670.735   70.922    0.505    0.251   12.036
  671.555   67.897    0.509    0.246   12.477
  672.375   67.287    0.509    0.242   12.469
  673.196   66.657    0.501    0.235   12.229
  674.016   66.638    0.479    0.229   11.996
  674.836   68.398    0.458    0.216   11.986
  675.656   71.956    0.448    0.247   11.977
  676.476   74.319    0.476    0.266   11.967
  677.297   76.682    0.480    0.276   11.736
  678.117   78.448    0.477    0.273   11.727
  678.937   79.019    0.476    0.247   11.715
  679.757   78.396    0.475    0.241   11.705
  680.577   74.781    0.475    0.247   11.698
  681.398   71.762    0.473    0.252   11.903
  682.218   72.924    0.466    0.255   11.896
  683.038   74.106    0.458    0.255   12.102
  683.858   77.651    0.458    0.262   12.317
  684.678   78.826    0.465    0.269   12.307
  685.499   80.598    0.474    0.255   12.300
  686.319   80.566    0.481    0.249   12.063
  687.139   79.339    0.488    0.251   11.833
  687.959   78.125    0.492    0.259   11.605
  688.780   78.093    0.494    0.260   11.384
  689.600   79.262    0.494    0.250   11.377
  690.420   80.437    0.495    0.250   11.161
  691.240   82.197    0.499    0.261   11.149
  692.060   82.775    0.502    0.266   11.138
  692.881   83.943    0.502    0.265   10.923
  693.701   85.093    0.500    0.262   10.717
  694.521   85.677    0.497    0.256   10.321
  695.341   86.248    0.493    0.246    9.942
  696.161   87.411    0.491    0.245    8.891
  696.982   87.989    0.485    0.244    8.253
  697.802   89.151    0.484    0.241    7.948
  698.622   90.917    0.479    0.236    8.238
  699.442   92.092    0.483    0.234    8.543
  700.262   94.449    0.493    0.231    9.185
  701.083   97.397    0.502    0.225    9.881
  701.903   97.981    0.507    0.220   10.624
  702.723   97.351    0.507    0.219   10.426
  703.543   94.943    0.507    0.222    9.675
  704.364   90.730    0.509    0.226    8.817
  705.184   87.114    0.511    0.229    7.888
  706.004   88.276    0.512    0.233    7.456
  706.824   89.458    0.508    0.229    7.048
  707.644   92.418    0.501    0.226    6.789
  708.465   95.970    0.501    0.222    6.661
  709.285   98.339    0.507    0.218    7.030
  710.105   99.508    0.512    0.216    7.564
  710.925  100.670    0.518    0.214    8.594
  711.745  101.229    0.511    0.212    8.747
  712.566  101.813    0.504    0.210    8.906
  713.386  102.385    0.501    0.209    8.899
  714.206  103.534    0.499    0.207    8.729
  715.026  103.521    0.498    0.207    8.720
  715.846  104.099    0.504    0.209    8.552
  716.667  104.671    0.509    0.217    8.235
  717.487  104.632    0.512    0.222    8.079
  718.307  104.613    0.517    0.223    8.073
  719.127  104.587    0.520    0.217    8.683
  719.948  104.548    0.519    0.209    9.689
  720.768  104.529    0.516    0.210   10.813
  721.588  104.503    0.510    0.212   11.844
  722.408  104.477    0.494    0.210   11.836
  723.228  103.257    0.467    0.205   11.822
  724.049  101.439    0.462    0.199   11.387
  724.869   99.024    0.460    0.185   11.166
  725.689   98.401    0.460    0.184   10.958
  726.509   98.375    0.457    0.207   10.356
  727.329   97.752    0.455    0.208   10.352
