~VERSION INFORMATION
 VERS.                 2.0:   CWLS LOG ASCII STANDARD -VERSION 2.0
 WRAP.                  NO:   ONE LINE PER DEPTH STEP
~WELL INFORMATION BLOCK
#MNEM.UNIT           DATA                    DESCRIPTION OF MNEMONIC
#---------    -------------------            -------------------------------
# Generated from Intellog Unique Number	CS_73_76/WELL/2165
WELL.         AMOCO KIRBY 6-20               : Well_name    - WELL
LOC .         00/06-20-074-06W4/0            : Location     - LOCATION
UWI .         00/06-20-074-06W4/0            : Uwi          - UNIQUE WELL ID
ENTR.         SP                             : Entered      - ENTERED BY
SRVC.         SCHLUMBERGER                   : Scn          - SERVICE COMPANY
STRT.M        245                            : top_depth    - START DEPTH
STOP.M        475                            : bot_depth    - STOP DEPTH
STEP.M        0.25                           : increment    - STEP LENGTH
 NULL. -999.2500:NULL Value
~CURVE INFORMATION BLOCK
#MNEM UNIT       ERCB CURVE CODE    CURVE DESCRIPTION
#-----------   ------------------   ----------------------------------
DEPT.M        00 001 00 00         : DEPTH        - DEPTH
ILD .OHMM     00 120 00 00         : RESD         - DEEP RESISTIVITY (DIL)
DPHI.V/V      00 890 00 00         : PHID         - DENSITY POROSITY (LIMESTONE)
NPHI.V/V      00 330 00 00         : PHIN         - NEUTRON POROSITY (LIMESTONE)
GR  .API      00 310 00 00         : GR           - GAMMA RAY
~PARAMETER INFORMATION
#MNEM.UNIT           DATA             DESCRIPTION OF MNEMONIC
#---------         -----------     ------------------------------
GL  .M        640.5                : gl           - GROUND LEVEL ELEVATION
EREF.M        643.6                : kb           - ELEVATION OF DEPTH REFERENCE
DATM.M        640.5                : datum        - DATUM ELEVATION
TDD .M        480                  : tdd          - TOTAL DEPTH DRILLER
RUN .         ONE                  : Run          - RUN NUMBER
ENG .         BILL                 : Engineer     - RECORDING ENGINEER
WIT .         JIM                  : Witness      - WITNESSED BY
MUD .         GEL                  : Mud_type     - MUD TYPE
MATR.         LIMESTONE            : Logunit      - NEUTRON MATRIX
TMAX.C        21                   : BHT          - MAXIMUM RECORDED TEMPERATURE
BHTD.M        480                  : BHTDEP       - MAXIMUM RECORDED TEMPERATURE
MATR.         1                    : LOGUNIT      - NEUTRON MATRIX
RMT .C        25                   : MDTP         - TEMPERATURE OF MUD
NEUT.         1                    : NEUTRON      - NEUTRON TYPE
RESI.         0                    : RESIST       - RESISTIVITY TYPE
RMC .OHMM     0.25                 : RMC          - RESISTIVITY OF MUD CAKE
RMF .OHMM     0.25                 : RMF          - RESISTIVITY OF MUD FILTRATE
SUFT.C        15                   : SUFT         - SURFACE TEMPERATURE
~A  DEPTH     RESD     PHID     PHIN       GR
  245.000    2.719    0.256    0.846   87.554
  245.250    2.670    0.267    0.464   89.397
  245.500    2.672    0.273    0.446   90.630
  245.750    2.723    0.266    0.416   90.024
  246.000    2.776    0.265    0.400   88.808
  246.250    2.884    0.267    0.425   88.204
  246.500    3.053    0.267    0.450   84.540
  246.750    3.173    0.267    0.463   82.709
  247.000    3.235    0.270    0.450   80.878
  247.250    3.298    0.263    0.457   83.947
  247.500    3.362    0.249    0.440   91.915
  247.750    3.363    0.250    0.415   95.594
  248.000    3.562    0.255    0.419   94.991
  248.250    3.630    0.233    0.438   91.323
  248.500    3.701    0.214    0.432   82.147
  248.750    3.634    0.198    0.419   79.093
  249.000    3.436    0.186    0.442   87.675
  249.250    3.248    0.198    0.451   91.353
  249.500    3.129    0.237    0.460   95.647
  249.750    3.190    0.246    0.455   90.756
  250.000    3.315    0.247    0.465   85.866
  250.250    3.444    0.250    0.438   85.874
  250.500    3.511    0.248    0.423   88.331
  250.750    3.579    0.253    0.425   89.562
  251.000    3.514    0.257    0.432   85.895
  251.250    3.515    0.256    0.437   87.127
  251.500    3.387    0.255    0.449   90.808
  251.750    3.326    0.257    0.480   93.264
  252.000    3.327    0.261    0.442   85.926
  252.250    3.328    0.258    0.432   82.873
  252.500    3.330    0.248    0.438   81.042
  252.750    3.526    0.251    0.421   81.050
  253.000    3.663    0.254    0.413   81.059
  253.250    4.182    0.253    0.423   81.064
  253.500    5.347    0.258    0.432   81.073
  253.750    7.373    0.259    0.413   72.508
  254.000    9.251    0.210    0.397   60.882
  254.250   11.178    0.145    0.408   70.686
  254.500   12.523    0.174    0.406   77.428
  254.750   13.011    0.242    0.374   82.334
  255.000   13.269    0.288    0.375   82.954
  255.250   13.272    0.305    0.416   82.348
  255.500   13.280    0.279    0.424   84.194
  255.750   13.284    0.269    0.413   86.037
  256.000   13.806    0.270    0.400   88.496
  256.250   13.296    0.269    0.390   90.953
  256.500   13.817    0.268    0.393   89.733
  256.750   14.084    0.270    0.404   87.293
  257.000   14.633    0.281    0.388   79.951
  257.250   15.204    0.297    0.377   64.654
  257.500   15.794    0.312    0.374   57.313
  257.750   16.104    0.334    0.396   51.810
  258.000   16.418    0.346    0.417   47.532
  258.250   16.116    0.351    0.426   47.541
  258.500   15.529    0.353    0.430   52.445
  258.750   14.961    0.337    0.409   56.737
  259.000   14.412    0.327    0.401   55.522
  259.250   13.627    0.324    0.415   51.855
  259.500   13.126    0.318    0.417   64.108
  259.750   12.646    0.298    0.410   71.463
  260.000   12.183    0.285    0.412   75.144
  260.250   11.961    0.274    0.426   76.376
  260.500   11.965    0.266    0.430   80.057
  260.750   11.972    0.270    0.409   77.002
  261.000   11.979    0.277    0.378   83.744
  261.250   12.211    0.285    0.391   89.263
  261.500   12.929    0.309    0.400   81.310
  261.750   13.688    0.315    0.416   75.807
  262.000   14.492    0.315    0.429   79.488
  262.250   15.056    0.312    0.432   74.599
  262.500   14.780    0.320    0.415   73.994
  262.750   13.457    0.335    0.404   66.655
  263.000   12.023    0.344    0.399   58.702
  263.250   10.943    0.353    0.393   55.036
  263.500    9.415    0.334    0.406   66.676
  263.750    8.902    0.286    0.420   78.928
  264.000    8.575    0.261    0.394   81.999
  264.250    8.580    0.244    0.382   85.681
  264.500    8.582    0.230    0.369   89.359
  264.750    9.087    0.226    0.364   93.041
  265.000    9.991    0.207    0.379   91.210
  265.250   11.194    0.189    0.390   77.748
  265.500   12.307    0.192    0.383   65.511
  265.750   13.788    0.273    0.382   55.723
  266.000   14.325    0.304    0.372   54.505
  266.250   14.332    0.314    0.367   60.024
  266.500   14.339    0.315    0.364   57.583
  266.750   13.056    0.296    0.369   51.469
  267.000   12.340    0.277    0.377   50.249
  267.250   10.818    0.287    0.394   51.481
  267.500    9.133    0.295    0.410   58.835
  267.750    8.007    0.264    0.422   78.436
  268.000    7.019    0.241    0.417   88.851
  268.250    6.635    0.201    0.413   98.655
  268.500    5.927    0.167    0.427  101.724
  268.750    5.296    0.163    0.440   99.282
  269.000    4.913    0.201    0.447   98.065
  269.250    4.473    0.229    0.423  105.421
  269.500    4.151    0.231    0.435  105.427
  269.750    3.998    0.231    0.454   96.251
  270.000    3.925    0.226    0.460   93.199
  270.250    3.781    0.240    0.440   98.104
  270.500    3.574    0.241    0.462  103.621
  270.750    3.380    0.238    0.480  106.690
  271.000    3.380    0.246    0.465  106.695
  271.250    3.579    0.268    0.439  106.706
  271.500    3.935    0.276    0.423  106.099
  271.750    5.032    0.280    0.416  103.045
  272.000    6.195    0.264    0.404   92.034
  272.250    7.628    0.263    0.382   84.080
  272.500    8.876    0.258    0.382   80.417
  272.750    9.221    0.254    0.387   81.647
  273.000    9.226    0.245    0.392   81.041
  273.250    9.770    0.245    0.414   81.053
  273.500    9.958    0.247    0.409   81.058
  273.750   10.347    0.243    0.386   81.064
  274.000   10.548    0.244    0.380   81.072
  274.250   10.960    0.232    0.399   78.017
  274.500   11.385    0.228    0.412   76.187
  274.750   12.056    0.233    0.423   80.482
  275.000   12.290    0.234    0.407   87.225
  275.250   13.015    0.266    0.388   94.578
  275.500   13.266    0.340    0.391   98.258
  275.750   13.525    0.352    0.421   81.737
  276.000   13.789    0.359    0.449   76.233
  276.250   13.798    0.363    0.431   79.300
  276.500   14.066    0.368    0.419   84.206
  276.750   13.808    0.373    0.402   85.440
  277.000   13.815    0.376    0.393   83.609
  277.250   13.562    0.370    0.391   84.232
  277.500   13.568    0.356    0.388   86.073
  277.750   13.320    0.334    0.390   84.244
  278.000   13.077    0.317    0.386   78.129
  278.250   12.840    0.312    0.377   81.809
  278.500   12.605    0.308    0.385   81.204
  278.750   12.375    0.312    0.406   78.152
  279.000   12.380    0.319    0.432   77.547
  279.250   12.155    0.326    0.429   76.941
  279.500   12.160    0.325    0.431   73.275
  279.750   11.716    0.311    0.399   67.161
  280.000   11.721    0.304    0.379   61.047
  280.250   11.292    0.297    0.383   57.992
  280.500   11.296    0.288    0.395   55.552
  280.750   11.090    0.293    0.383   54.334
  281.000   11.095    0.285    0.361   56.178
  281.250   11.101    0.274    0.363   59.859
  281.500   11.109    0.273    0.367   62.928
  281.750   11.324    0.276    0.367   65.384
  282.000   11.543    0.278    0.380   59.883
  282.250   11.771    0.283    0.393   56.827
  282.500   11.998    0.315    0.393   49.491
  282.750   12.004    0.342    0.397   47.658
  283.000   12.011    0.356    0.402   44.603
  283.250   11.793    0.351    0.407   51.347
  283.500   11.577    0.340    0.401   58.091
  283.750   11.364    0.347    0.394   61.160
  284.000   11.158    0.347    0.404   63.002
  284.250   10.751    0.346    0.408   63.011
  284.500   10.554    0.339    0.406   61.793
  284.750   10.169    0.331    0.413   58.738
  285.000    9.982    0.317    0.399   63.031
  285.250    9.615    0.311    0.366   72.223
  285.500    9.264    0.299    0.373   79.577
  285.750    9.096    0.291    0.382   84.483
  286.000    9.100    0.270    0.390   86.940
  286.250    9.279    0.267    0.370   85.722
  286.500    9.460    0.272    0.385   76.546
  286.750    9.463    0.292    0.393   71.042
  287.000    9.467    0.306    0.403   68.601
  287.250    9.471    0.306    0.406   68.611
  287.500    9.126    0.296    0.414   69.229
  287.750    8.791    0.296    0.407   71.685
  288.000    8.310    0.296    0.411   79.651
  288.250    7.857    0.291    0.417   87.621
