~VERSION INFORMATION
 VERS.                 2.0:   CWLS LOG ASCII STANDARD -VERSION 2.0
 WRAP.                  NO:   ONE LINE PER DEPTH STEP
~WELL INFORMATION BLOCK
#MNEM.UNIT           DATA                    DESCRIPTION OF MNEMONIC
#---------    -------------------            -------------------------------
# Generated from Intellog Unique Number	CS_77_79/WELL/901
WELL.         CWWE WINEFRED                  : Well_name    - WELL
LOC .         00/07-19-078-03W4/0            : Location     - LOCATION
UWI .         00/07-19-078-03W4/0            : Uwi          - UNIQUE WELL ID
ENTR.         JHS                            : Entered      - ENTERED BY
SRVC.         SCHLUMBERGER                   : Scn          - SERVICE COMPANY
STRT.M        135                            : top_depth    - START DEPTH
STOP.M        415                            : bot_depth    - STOP DEPTH
STEP.M        0.25                           : increment    - STEP LENGTH
 NULL. -999.2500:NULL Value
~CURVE INFORMATION BLOCK
#MNEM UNIT       ERCB CURVE CODE    CURVE DESCRIPTION
#-----------   ------------------   ----------------------------------
DEPT.M        00 001 00 00         : DEPTH        - DEPTH
DPHI.V/V      00 890 00 00         : PHID         - DENSITY POROSITY (LIMESTONE)
NPHI.V/V      00 330 00 00         : PHIN         - NEUTRON POROSITY (LIMESTONE)
GR  .API      00 310 00 00         : GR           - GAMMA RAY
ILD .OHMM     00 120 00 00         : RESD         - DEEP RESISTIVITY (DIL)
RHOB.KG/M3    00 350 00 00         : DENS         - BULK DENSITY
~PARAMETER INFORMATION
#MNEM.UNIT           DATA             DESCRIPTION OF MNEMONIC
#---------         -----------     ------------------------------
GL  .M        556.2                : gl           - GROUND LEVEL ELEVATION
EREF.M        560.15               : kb           - ELEVATION OF DEPTH REFERENCE
DATM.M        560.15               : datum        - DATUM ELEVATION
TDD .M        423                  : tdd          - TOTAL DEPTH DRILLER
RUN .         ONE                  : Run          - RUN NUMBER
ENG .         BILL                 : Engineer     - RECORDING ENGINEER
WIT .         JIM                  : Witness      - WITNESSED BY
MUD .         GEL                  : Mud_type     - MUD TYPE
MATR.         LIMESTONE            : Logunit      - NEUTRON MATRIX
TMAX.C        24                   : BHT          - MAXIMUM RECORDED TEMPERATURE
BHTD.M        423                  : BHTDEP       - MAXIMUM RECORDED TEMPERATURE
MATR.         1                    : LOGUNIT      - NEUTRON MATRIX
RMT .C        25                   : MDTP         - TEMPERATURE OF MUD
NEUT.         1                    : NEUTRON      - NEUTRON TYPE
RESI.         0                    : RESIST       - RESISTIVITY TYPE
RMC .OHMM     0.25                 : RMC          - RESISTIVITY OF MUD CAKE
RMF .OHMM     0.25                 : RMF          - RESISTIVITY OF MUD FILTRATE
SUFT.C        15                   : SUFT         - SURFACE TEMPERATURE
~A  DEPTH     PHID     PHIN       GR     RESD     DENS
# ...
  317.500    0.322    0.340   30.062    2.398 2160.130
  317.750    0.318    0.329   28.849    2.399 2166.630
  318.000    0.321    0.323   29.521    2.355 2160.370
  318.250    0.315    0.323   30.179    2.355 2171.110
  318.500    0.306    0.319   30.834    2.356 2186.030
  318.750    0.304    0.315   32.121    2.357 2190.380
  319.000    0.306    0.321   34.668    2.358 2186.260
  319.250    0.300    0.326   35.322    2.359 2197.000
  319.500    0.296    0.325   35.364    2.405 2203.420
  319.750    0.305    0.325   34.783    2.405 2188.750
  320.000    0.321    0.332   35.429    2.499 2161.370
  320.250    0.316    0.341   37.343    2.548 2169.960
  320.500    0.305    0.339   38.005    2.597 2189.130
  320.750    0.305    0.338   36.790    2.598 2189.230
  321.000    0.309    0.346   36.828    2.550 2180.920
  321.250    0.299    0.362   40.612    2.551 2197.970
  321.500    0.296    0.358   42.521    2.552 2204.430
  321.750    0.315    0.348   41.321    2.505 2170.730
  322.000    0.317    0.355   40.726    2.459 2168.740
  322.250    0.308    0.345   39.514    2.459 2183.650
  322.500    0.297    0.335   39.545    2.414 2202.820
  322.750    0.294    0.325   47.080    2.370 2207.190
  323.000    0.299    0.323   56.494    2.370 2198.860
  323.250    0.298    0.323   55.276    2.327 2201.080
  323.500    0.299    0.315   37.191    2.327 2199.080
  323.750    0.297    0.308   24.106    2.328 2201.320
  324.000    0.291    0.310   22.895    2.285 2212.030
  324.250    0.291    0.329   22.305    2.330 2212.170
  324.500    0.311    0.332   22.975    2.330 2178.410
  324.750    0.347    0.341   24.876    2.332 2117.210
  325.000    0.344    0.334   29.289    2.377 2121.560
  325.250    0.308    0.315   33.072    2.377 2183.010
  325.500    0.285    0.308   36.236    2.424 2223.330
  325.750    0.308    0.343   35.030    2.471 2183.310
  326.000    0.298    0.355   37.569    2.519 2200.340
  326.250    0.292    0.344   42.594    2.520 2211.020
  326.500    0.284    0.330   48.254    2.520 2223.820
  326.750    0.279    0.341   52.669    2.521 2232.410
  327.000    0.300    0.355   47.702    2.428 2196.570
  327.250    0.311    0.362   38.990    2.383 2177.670
  327.500    0.314    0.342   34.652    2.296 2173.580
  327.750    0.310    0.332   32.202    2.211 2180.040
  328.000    0.312    0.348   30.359    2.090 2175.940
  328.250    0.306    0.362   29.142    2.052 2186.640
  328.500    0.299    0.366   32.928    2.052 2199.470
  328.750    0.296    0.362   45.459    2.132 2203.800
  329.000    0.311    0.373   55.498    2.173 2178.550
  329.250    0.318    0.368   53.031    2.216 2165.980
  329.500    0.311    0.348   50.570    2.259 2178.800
  329.750    0.303    0.347   48.730    2.259 2191.600
  330.000    0.311    0.348   42.523    2.218 2179.030
  330.250    0.323    0.343   35.690    2.177 2158.020
  330.500    0.315    0.338   32.597    2.178 2170.840
  330.750    0.304    0.334   37.005    2.137 2190.020
  331.000    0.303    0.344   32.676    2.098 2192.220
  331.250    0.309    0.335   30.833    2.139 2181.780
  331.500    0.304    0.330   37.739    2.140 2190.370
  331.750    0.303    0.333   47.148    2.181 2192.590
  332.000    0.301    0.328   53.437    2.223 2194.860
  332.250    0.288    0.321   65.970    2.267 2218.230
  332.500    0.278    0.319   76.006    2.268 2235.270
  332.750    0.280    0.316   64.167    2.268 2231.180
  333.000    0.289    0.314   37.958    2.269 2216.490
  333.250    0.296    0.319   28.624    2.227 2203.930
  333.500    0.298    0.322   26.170    2.186 2199.830
  333.750    0.296    0.325   28.703    2.187 2204.180
  334.000    0.291    0.320   33.733    2.188 2212.770
  334.250    0.288    0.316   38.768    2.148 2217.170
  334.500    0.288    0.323   44.430    2.148 2217.230
  334.750    0.299    0.329   42.590    2.108 2198.320
  335.000    0.319    0.333   35.131    2.109 2164.620
  335.250    0.328    0.330   30.170    2.110 2149.920
  335.500    0.330    0.336   31.465    2.071 2145.810
  335.750    0.326    0.346   35.240    2.033 2152.290
  336.000    0.321    0.339   40.283    2.034 2160.890
  336.250    0.317    0.325   40.945    2.034 2167.350
  336.500    0.309    0.328   44.096    2.074 2182.260
  336.750    0.301    0.330   53.507    2.114 2195.080
  337.000    0.299    0.326   69.170    2.115 2199.460
  337.250    0.297    0.336   76.702    2.076 2201.680
  337.500    0.310    0.353   64.870    2.038 2180.680
  337.750    0.316    0.349   48.656    2.000 2170.220
  338.000    0.314    0.349   40.571    1.963 2172.460
  338.250    0.318    0.355   38.105    1.927 2166.250
  338.500    0.323    0.363   32.523    1.928 2157.880
  338.750    0.323    0.371   35.681    1.892 2158.010
  339.000    0.339    0.379   45.093    1.893 2130.650
  339.250    0.354    0.376   43.254    1.893 2105.390
  339.500    0.341    0.359   41.414    1.930 2126.670
  339.750    0.323    0.339   50.196    1.931 2158.510
  340.000    0.320    0.333   72.105    1.931 2162.880
  340.250    0.320    0.328  105.262    1.932 2163.000
  340.500    0.310    0.345  117.797    1.970 2180.040
  340.750    0.304    0.345   87.840    1.970 2190.730
  341.000    0.302    0.342   47.257    1.971 2192.980
  341.250    0.325    0.345   41.670    2.009 2155.020
  341.500    0.349    0.351   34.207    2.010 2112.840
  341.750    0.354    0.353   32.371    2.010 2104.520
  342.000    0.326    0.351   38.656    2.011 2153.290
  342.250    0.297    0.332   44.318    2.012 2202.050
  342.500    0.277    0.314   41.859    2.090 2236.030
  342.750    0.288    0.307   38.763    2.091 2217.100
  343.000    0.317    0.318   38.174    2.091 2168.600
  343.250    0.321    0.328   38.217    2.092 2160.250
  343.500    0.330    0.333   33.876    2.054 2145.570
  343.750    0.339    0.333   27.668    1.978 2130.880
  344.000    0.325    0.325   23.330    1.905 2154.270
  344.250    0.315    0.325   20.863    1.835 2171.320
  344.500    0.322    0.334   22.155    1.801 2158.760
  344.750    0.327    0.344   24.684    1.768 2150.420
  345.000    0.322    0.340   28.472    1.803 2159.000
  345.250    0.322    0.333   31.020    1.803 2159.140
  345.500    0.316    0.329   31.669    1.804 2169.830
  345.750    0.307    0.348   29.212    1.804 2184.770
  346.000    0.307    0.352   26.742    1.805 2184.880
  346.250    0.324    0.353   27.410    1.805 2155.390
  346.500    0.328    0.361   28.067    1.772 2149.170
  346.750    0.318    0.364   26.859    1.740 2166.230
  347.000    0.322    0.364   26.889    1.740 2159.990
  347.250    0.339    0.357   27.556    1.708 2130.520
  347.500    0.346    0.349   26.969    1.676 2117.960
  347.750    0.347    0.358   27.011    1.677 2115.950
  348.000    0.345    0.374   28.913    1.646 2120.310
  348.250    0.344    0.381   33.320    1.647 2122.540
  348.500    0.372    0.375   37.733    1.679 2074.020
  348.750    0.400    0.374   37.771    1.679 2025.500
  349.000    0.368    0.371   31.557    1.712 2080.630
  349.250    0.349    0.361   25.968    1.713 2112.480
  349.500    0.346    0.352   26.016    1.746 2118.970
  349.750    0.342    0.341   28.555    1.780 2125.410
  350.000    0.334    0.335   31.088    1.780 2138.240
  350.250    0.326    0.330   31.119    1.781 2153.160
  350.500    0.316    0.330   29.281    1.748 2170.200
  350.750    0.307    0.335   28.691    1.749 2185.160
  351.000    0.311    0.340   28.734    1.716 2178.920
  351.250    0.313    0.339   28.138    1.717 2174.840
  351.500    0.312    0.344   26.929    1.718 2177.050
  351.750    0.315    0.363   28.211    1.718 2170.830
  352.000    0.319    0.352   30.127    1.719 2164.600
  352.250    0.316    0.334   30.166    1.720 2169.010
  352.500    0.316    0.353   30.831    1.753 2169.080
  352.750    0.319    0.360   29.613    1.753 2164.980
  353.000    0.317    0.358   26.526    1.754 2167.250
  353.250    0.320    0.351   27.187    1.788 2163.130
  353.500    0.326    0.340   30.975    1.789 2152.650
  353.750    0.322    0.329   34.752    1.823 2159.130
