~VERSION INFORMATION
 VERS.                 2.0:   CWLS LOG ASCII STANDARD -VERSION 2.0
 WRAP.                  NO:   ONE LINE PER DEPTH STEP
~WELL INFORMATION BLOCK
#MNEM.UNIT           DATA                    DESCRIPTION OF MNEMONIC
#---------    -------------------            -------------------------------
# Generated from Intellog Unique Number	CW_82_90/WELL/529
WELL.         ANDEX WABASCA 06-23            : Well_name    - WELL
LOC .         00/06-23-082-22W4/0            : Location     - LOCATION
UWI .         00/06-23-082-22W4/0            : Uwi          - UNIQUE WELL ID
ENTR.         JAYE                           : Entered      - ENTERED BY
SRVC.         SCHLUMBERGER                   : Scn          - SERVICE COMPANY
DATE.         30 JAN 74                      : Date         - LOG DATE
STRT.M        228.6                          : top_depth    - START DEPTH
STOP.M        435.85                         : bot_depth    - STOP DEPTH
STEP.M        0.25                           : increment    - STEP LENGTH
 NULL. -999.2500:NULL Value
~CURVE INFORMATION BLOCK
#MNEM UNIT       ERCB CURVE CODE    CURVE DESCRIPTION
#-----------   ------------------   ----------------------------------
DEPT.M        00 001 00 00         : DEPTH        - DEPTH
GR  .API      00 310 00 00         : GR           - GAMMA RAY
NPHI.V/V      00 330 00 00         : PHIN         - NEUTRON POROSITY (SANDSTONE)
DPHI.V/V      00 890 00 00         : PHID         - DENSITY POROSITY (SANDSTONE)
CALI.MM       00 280 01 00         : CAL          - CALIPER
ILD .OHMM     00 120 00 00         : RESD         - DEEP RESISTIVITY (DIL)
~PARAMETER INFORMATION
#MNEM.UNIT           DATA             DESCRIPTION OF MNEMONIC
#---------         -----------     ------------------------------
GL  .M        622.554              : gl           - GROUND LEVEL ELEVATION
EREF.M        626.364              : kb           - ELEVATION OF DEPTH REFERENCE
DATM.M        622.554              : datum        - DATUM ELEVATION
TDD .M        448.97               : tdd          - TOTAL DEPTH DRILLER
RUN .         ONE                  : Run          - RUN NUMBER
ENG .         HITCHNER             : Engineer     - RECORDING ENGINEER
WIT .         SAYERS               : Witness      - WITNESSED BY
BASE.         EDMONTON             : Branch       - HOME BASE OF LOGGING UNIT
MUD .         GEL CHEM             : Mud_type     - MUD TYPE
MATR.         SANDSTONE            : Logunit      - NEUTRON MATRIX
TMAX.C        21.6667              : BHT          - MAXIMUM RECORDED TEMPERATURE
BHTD.M        448.97               : BHTDEP       - MAXIMUM RECORDED TEMPERATURE
RMT .C        15                   : MDTP         - TEMPERATURE OF MUD
MUDD.KG/M     1000                 : MWT          - MUD DENSITY
NEUT.         1                    : NEUTRON      - NEUTRON TYPE
RESI.         0                    : RESIST       - RESISTIVITY TYPE
RM  .OHMM     7.42                 : RM           - RESISTIVITY OF MUD
RMC .OHMM     0.25                 : RMC          - RESISTIVITY OF MUD CAKE
RMF .OHMM     7.35                 : RMF          - RESISTIVITY OF MUD FILTRATE
SUFT.C        4                    : SUFT         - SURFACE TEMPERATURE
~A  DEPTH       GR     PHIN     PHID      CAL     RESD
# ...
  265.100   47.815    0.452    0.360  143.746   18.342
  265.350   47.402    0.455    0.359  146.544   19.422
  265.600   46.867    0.474    0.369  147.907   20.985
  265.850   46.889    0.388    0.326  147.107   22.261
  266.100   48.845    0.346    0.286  150.634   23.099
  266.350   49.165    0.365    0.274  152.103   22.774
  266.600   49.117    0.422    0.321  151.510   21.723
  266.850   50.048    0.471    0.377  150.708   19.221
  267.100   47.255    0.495    0.366  149.602   17.419
  267.350   44.770    0.495    0.371  147.983   16.344
  267.600   45.822    0.482    0.364  147.697   16.024
  267.850   50.101    0.442    0.362  149.268   16.178
  268.100   55.174    0.448    0.371  153.206   16.667
  268.350   57.138    0.476    0.379  153.537   16.982
  268.600   57.579    0.505    0.377  153.669   17.112
  268.850   59.057    0.505    0.375  153.073   17.435
  269.100   59.984    0.509    0.370  151.862   17.702
  269.350   55.366    0.499    0.366  151.785   18.036
  269.600   52.577    0.500    0.378  152.017   18.513
  269.850   55.217    0.507    0.376  151.632   18.655
  270.100   55.103    0.519    0.375  150.005   18.764
  270.350   54.386    0.512    0.386  149.209   18.635
  270.600   51.660    0.500    0.390  150.368   18.439
  270.850   49.232    0.495    0.386  149.875   19.205
  271.100   45.531    0.562    0.364  164.109   19.676
  271.350   43.714    0.569    0.377  200.068   19.938
  271.600   41.108    0.556    0.377  210.905   20.203
  271.850   41.122    0.511    0.358  212.577   20.509
  272.100   42.842    0.504    0.351  214.046   21.482
  272.350   41.576    0.514    0.354  214.587   22.127
  272.600   41.468    0.520    0.357  215.437   22.753
  272.850   42.946    0.527    0.363  215.669   23.396
  273.100   42.836    0.534    0.363  216.514   24.058
  273.350   43.461    0.545    0.359  217.570   24.199
  273.600   50.791    0.560    0.360  217.909   23.815
  273.850   55.617    0.565    0.365  217.928   23.306
  274.100   61.487    0.550    0.372  218.365   22.724
  274.350   66.433    0.516    0.380  218.394   22.361
  274.600   71.019    0.492    0.379  217.695   21.805
  274.850   73.593    0.523    0.375  216.177   21.418
  275.100   65.622    0.536    0.367  215.889   21.233
  275.350   57.652    0.545    0.373  214.374   21.085
  275.600   53.826    0.510    0.374  205.953   21.017
  275.850   56.705    0.542    0.372  208.351   21.024
  276.100   62.814    0.564    0.365  205.076   20.994
  276.350   69.654    0.540    0.363  197.276   20.888
  276.600   59.794    0.519    0.371  193.389   20.669
  276.850   56.273    0.538    0.371  194.446   20.601
  277.100   58.481    0.558    0.361  195.192   20.647
  277.350   57.641    0.535    0.357  193.879   20.392
  277.600   54.912    0.565    0.347  189.163   19.992
  277.850   56.146    0.580    0.345  201.343   19.639
  278.100   59.390    0.595    0.368  199.617   19.575
  278.350   58.306    0.573    0.372  185.636   19.475
  278.600   54.237    0.547    0.368  172.069   19.482
  278.850   54.011    0.554    0.356  156.960   19.706
  279.100   52.497    0.554    0.368  155.236   19.570
  279.350   55.315    0.540    0.362  156.597   19.364
  279.600   58.377    0.526    0.379  159.195   19.195
  279.850   60.585    0.527    0.377  161.900   18.889
  280.100   56.759    0.541    0.383  163.267   18.453
  280.350   56.042    0.563    0.382  163.390   17.861
  280.600   58.066    0.579    0.374  159.398   17.289
  280.850   58.630    0.596    0.382  155.408   16.401
  281.100   58.522    0.562    0.384  155.228   15.474
  281.350   58.538    0.558    0.371  157.208   14.815
  281.600   59.586    0.543    0.373  160.528   14.420
  281.850   58.199    0.563    0.375  161.069   14.346
  282.100   56.566    0.570    0.362  157.489   14.670
  282.350   58.049    0.574    0.357  154.432   15.002
  282.600   59.279    0.593    0.377  155.687   14.898
  282.850   58.802    0.598    0.386  163.024   14.423
  283.100   60.767    0.596    0.383  163.979   14.037
  283.350   62.366    0.585    0.394  158.955   13.587
  283.600   63.659    0.567    0.394  161.245   13.176
  283.850   64.039    0.558    0.390  164.873   12.942
  284.100   64.419    0.543    0.371  158.102   12.829
  284.350   64.134    0.535    0.372  150.199   12.625
  284.600   63.044    0.526    0.367  147.966   12.377
  284.850   61.721    0.518    0.357  149.634   12.225
  285.100   58.502    0.534    0.344  154.498   12.319
  285.350   56.747    0.576    0.332  158.126   12.646
  285.600   58.590    0.619    0.326  160.417   12.790
  285.850   59.518    0.614    0.357  159.514   13.419
  286.100   58.557    0.605    0.382  152.332   14.131
  286.350   55.950    0.612    0.379  144.430   14.800
  286.600   57.609    0.629    0.379  143.427   15.190
  286.850   60.733    0.628    0.381  161.469   15.535
  287.100   62.635    0.603    0.378  165.919   15.768
  287.350   62.893    0.568    0.381  164.197   16.303
  287.600   62.358    0.534    0.386  154.231   16.582
  287.850   62.555    0.548    0.377  149.110   16.772
  288.100   61.716    0.567    0.378  147.695   16.869
  288.350   61.730    0.578    0.374  146.173   17.032
  288.600   63.147    0.593    0.371  143.623   17.008
  288.850   64.562    0.582    0.376  141.699   17.077
  289.100   65.917    0.590    0.370  142.236   17.022
  289.350   69.283    0.558    0.362  148.744   17.029
  289.600   73.563    0.581    0.356  150.725   17.098
  289.850   69.251    0.626    0.361  152.089   17.137
  290.100   59.694    0.617    0.353  152.531   16.955
  290.350   60.562    0.580    0.347  152.658   16.563
  290.600   62.710    0.598    0.350  153.195   16.034
  290.850   60.590    0.594    0.345  153.116   15.633
  291.100   59.997    0.590    0.330  153.759   15.160
  291.350   61.959    0.599    0.311  153.990   14.675
  291.600   69.043    0.576    0.288  154.530   14.653
  291.850   74.543    0.526    0.271  154.555   14.473
  292.100   76.934    0.502    0.263  153.241   13.579
  292.350   73.534    0.517    0.289  152.038   11.479
  292.600   69.466    0.545    0.329  152.880   10.870
  292.850   71.614    0.533    0.335  155.790   10.387
  293.100   69.618    0.555    0.302  157.776    8.991
  293.350   67.800    0.568    0.298  158.619    8.268
  293.600   70.070    0.557    0.305  155.145    8.256
  293.850   73.435    0.548    0.311  153.418    8.428
  294.100   73.877    0.546    0.306  154.368    8.386
  294.350   73.646    0.546    0.305  156.249    8.328
  294.600   71.709    0.563    0.301  156.790    8.286
  294.850   69.285    0.561    0.299  155.578    8.289
  295.100   64.790    0.532    0.309  153.233    8.307
  295.350   58.283    0.519    0.328  152.949    9.516
  295.600   56.345    0.551    0.349  154.727   11.602
  295.850   55.200    0.518    0.361  155.066   13.637
  296.100   55.398    0.482    0.371  155.702   15.339
  296.350   55.412    0.482    0.372  156.038   16.331
  296.600   53.475    0.482    0.363  155.552   15.983
  296.850   53.306    0.471    0.358  155.159   15.443
  297.100   52.163    0.460    0.355  154.982   15.562
  297.350   50.896    0.459    0.353  155.107   15.427
  297.600   48.780    0.470    0.352  154.825   14.987
  297.850   48.851    0.493    0.347  154.546   14.667
  298.100   50.084    0.486    0.353  154.158   15.000
  298.350   50.221    0.484    0.358  152.428   15.006
  298.600   52.551    0.464    0.358  150.703   14.902
  298.850   54.759    0.461    0.357  149.184   14.346
  299.100   54.713    0.503    0.350  147.767   14.805
  299.350   52.593    0.504    0.345  146.867   15.113
  299.600   52.607    0.499    0.359  146.477   14.682
  299.850   53.108    0.481    0.356  146.713   14.342
  300.100   51.720    0.496    0.350  147.350   15.076
  300.350   53.258    0.504    0.354  149.957   14.433
  300.600   54.430    0.483    0.362  151.520   14.465
  300.850   55.907    0.490    0.356  154.951   15.121
  301.100   57.688    0.489    0.355  156.308   15.865
  301.350   61.969    0.480    0.352  156.743   16.922
