~VERSION INFORMATION
 VERS.                 2.0:   CWLS LOG ASCII STANDARD -VERSION 2.0
 WRAP.                  NO:   ONE LINE PER DEPTH STEP
~WELL INFORMATION BLOCK
#MNEM.UNIT           DATA                    DESCRIPTION OF MNEMONIC
#---------    -------------------            -------------------------------
# Generated from Intellog Unique Number	CC_88_90/WELL/1057
WELL.         05-26-090-18W4                 : Well_name    - WELL
LOC .         00/05-26-090-18W4/0            : Location     - LOCATION
UWI .         00/05-26-090-18W400            : Uwi          - UNIQUE WELL ID
ENTR.         DW                             : Entered      - ENTERED BY
SRVC.         SCHLUMBERGER                   : Scn          - SERVICE COMPANY
STRT.M        100                            : top_depth    - START DEPTH
STOP.M        211.75                         : bot_depth    - STOP DEPTH
STEP.M        0.25                           : increment    - STEP LENGTH
 NULL. -999.2500:NULL Value
~CURVE INFORMATION BLOCK
#MNEM UNIT       ERCB CURVE CODE    CURVE DESCRIPTION
#-----------   ------------------   ----------------------------------
DEPT.M        00 001 00 00         : DEPTH        - DEPTH
GR  .API      00 310 00 00         : GR           - GAMMA RAY
DPHI.V/V      00 890 00 00         : PHID         - DENSITY POROSITY (SANDSTONE)
NPHI.V/V      00 330 00 00         : PHIN         - NEUTRON POROSITY (SANDSTONE)
ILD .OHMM     00 120 00 00         : RESD         - DEEP RESISTIVITY (DIL)
~PARAMETER INFORMATION
#MNEM.UNIT           DATA             DESCRIPTION OF MNEMONIC
#---------         -----------     ------------------------------
GL  .M        504.31               : gl           - GROUND LEVEL ELEVATION
EREF.M        508.81               : kb           - ELEVATION OF DEPTH REFERENCE
DATM.M        508.81               : datum        - DATUM ELEVATION
TDD .M        214                  : tdd          - TOTAL DEPTH DRILLER
RUN .         ONE                  : Run          - RUN NUMBER
ENG .         BILL                 : Engineer     - RECORDING ENGINEER
WIT .         JIM                  : Witness      - WITNESSED BY
MUD .         GEL                  : Mud_type     - MUD TYPE
MATR.         SANDSTONE            : Logunit      - NEUTRON MATRIX
TMAX.C        17                   : BHT          - MAXIMUM RECORDED TEMPERATURE
BHTD.M        214                  : BHTDEP       - MAXIMUM RECORDED TEMPERATURE
MATR.         1                    : LOGUNIT      - NEUTRON MATRIX
RMT .C        25                   : MDTP         - TEMPERATURE OF MUD
NEUT.         1                    : NEUTRON      - NEUTRON TYPE
RESI.         0                    : RESIST       - RESISTIVITY TYPE
RMC .OHMM     0.25                 : RMC          - RESISTIVITY OF MUD CAKE
RMF .OHMM     0.25                 : RMF          - RESISTIVITY OF MUD FILTRATE
SUFT.C        15                   : SUFT         - SURFACE TEMPERATURE
~A  DEPTH       GR     PHID     PHIN     RESD
# ...
  187.000   21.737    0.290    0.356   15.692
  187.250   22.210    0.283    0.357   15.660
  187.500   22.745    0.278    0.352   16.106
  187.750   23.283    0.278    0.358   16.420
  188.000   23.596    0.283    0.380   16.966
  188.250   23.492    0.289    0.410   18.158
  188.500   24.108    0.295    0.422   19.349
  188.750   26.701    0.301    0.372   21.015
  189.000   28.220    0.304    0.341   22.014
  189.250   28.511    0.304    0.345   23.905
  189.500   28.156    0.302    0.357   27.025
  189.750   27.735    0.302    0.372   30.814
  190.000   28.329    0.306    0.392   35.545
  190.250   29.389    0.310    0.397   39.884
  190.500   30.080    0.316    0.404   43.442
  190.750   32.755    0.324    0.400   50.064
  191.000   36.350    0.326    0.405   57.822
  191.250   40.513    0.307    0.409   64.278
  191.500   46.184    0.275    0.379   73.190
  191.750   46.571    0.270    0.396   84.737
  192.000   44.242    0.273    0.417   93.354
  192.250   41.218    0.285    0.415   97.803
  192.500   39.715    0.295    0.388  100.045
  192.750   39.871    0.291    0.378  101.382
  193.000   38.647    0.289    0.420  101.228
  193.250   36.455    0.292    0.425   98.366
  193.500   35.634    0.299    0.404   93.633
  193.750   35.166    0.308    0.378   90.772
  194.000   36.475    0.309    0.365   85.886
  194.250   40.690    0.299    0.377   75.440
  194.500   45.333    0.293    0.404   64.290
  194.750   50.388    0.290    0.426   54.792
  195.000   56.184    0.282    0.416   48.042
  195.250   60.708    0.272    0.369   46.050
  195.500   62.231    0.262    0.337   49.218
  195.750   60.970    0.253    0.348   53.927
  196.000   58.261    0.249    0.361   57.369
  196.250   55.175    0.254    0.379   63.177
  196.500   52.070    0.266    0.387   66.685
  196.750   51.527    0.274    0.374   60.206
  197.000   53.530    0.277    0.363   46.835
  197.250   57.242    0.285    0.363   36.312
  197.500   62.457    0.297    0.359   30.730
  197.750   66.017    0.290    0.350   24.160
  198.000   70.554    0.277    0.345   21.142
  198.250   74.218    0.255    0.377   21.300
  198.500   75.966    0.244    0.420   23.285
  198.750   73.701    0.252    0.441   25.754
  199.000   64.879    0.256    0.454   26.406
  199.250   57.349    0.278    0.446   26.780
  199.500   58.107    0.282    0.439   27.189
  199.750   62.111    0.289    0.449   23.460
  200.000   65.537    0.208    0.408   17.124
  200.250   71.208    0.079    0.311   12.236
  200.500   80.191    0.092    0.273    8.968
  200.750   88.852    0.124    0.306    7.964
  201.000  103.961    0.161    0.347    7.111
  201.250  112.907    0.185    0.362    5.836
  201.500  114.065    0.191    0.382    4.888
  201.750  115.859    0.194    0.402    4.582
  202.000  117.917    0.196    0.392    4.528
  202.250  120.306    0.197    0.402    4.698
  202.500  123.508    0.196    0.404    5.379
  202.750  117.842    0.196    0.400    6.103
  203.000  107.491    0.193    0.363    7.780
  203.250  102.240    0.187    0.325   10.269
  203.500   99.225    0.189    0.359   11.272
  203.750   94.694    0.215    0.353   10.971
  204.000   89.875    0.227    0.326   10.516
  204.250   90.661    0.240    0.319   10.543
  204.500   93.675    0.178    0.322   11.174
  204.750   90.329    0.059    0.318   11.768
  205.000   81.146    0.036    0.314   11.721
  205.250   75.037    0.041    0.283   11.781
  205.500   72.090    0.074    0.278   11.091
  205.750   69.642    0.154    0.280   10.107
  206.000   68.597    0.226    0.318    9.542
  206.250   68.355    0.254    0.381    9.290
  206.500   66.117    0.275    0.379    8.997
  206.750   65.120    0.269    0.366    8.830
  207.000   63.136    0.268    0.367    8.925
  207.250   61.934    0.287    0.395    9.113
  207.500   62.895    0.295    0.409    9.630
  207.750   64.378    0.283    0.394   10.726
  208.000   64.752    0.276    0.383   11.965
  208.250   64.270    0.270    0.356   12.637
  208.500   63.359    0.265    0.326   12.347
  208.750   62.009    0.254    0.298   10.255
  209.000   61.824    0.243    0.276    7.532
  209.250   62.981    0.235    0.277    5.772
  209.500   63.405    0.229    0.305    4.820
  209.750   63.904    0.224    0.338    4.447
  210.000   64.102    0.218    0.362    4.057
  210.250   63.599    0.210    0.378    3.796
  210.500   63.407    0.196    0.374    3.770
  210.750   64.067    0.204    0.356    3.872
  211.000   64.526    0.258    0.350    4.064
  211.250   64.522    0.277    0.349    4.140
  211.500   64.479    0.279    0.352    4.147
  211.750   64.475    0.278    0.356    4.141
