~VERSION INFORMATION
 VERS.                 2.0:   CWLS LOG ASCII STANDARD -VERSION 2.0
 WRAP.                  NO:   ONE LINE PER DEPTH STEP
~WELL INFORMATION BLOCK
#MNEM.UNIT           DATA                    DESCRIPTION OF MNEMONIC
#---------    -------------------            -------------------------------
# Generated from Intellog Unique Number	CW_70_72/WELL/3012
NULL.         -999.25                         : NULL_VALUE
WELL.         CITADEL ET AL MEYER 06-32      : Well_name    - WELL              
LOC .         06-32-070-25W4                 : Location     - LOCATION          
UWI .         00/06-32-070-25W4/0            : Uwi          - UNIQUE WELL ID    
ENTR.         J                              : Entered      - ENTERED BY        
SRVC.         COMPUTALOG                     : Scn          - SERVICE COMPANY   
DATE.         7 MAR 82                       : Date         - LOG DATE          
STRT.M        490                            : top_depth    - START DEPTH       
STOP.M        690                            : bot_depth    - STOP DEPTH        
STEP.M        0.25                           : increment    - STEP LENGTH       
~CURVE INFORMATION BLOCK
#MNEM UNIT       ERCB CURVE CODE    CURVE DESCRIPTION
#-----------   ------------------   ----------------------------------
DEPT.M        00 001 00 00         : DEPTH        - DEPTH                       
ILD .OHMM     00 120 00 00         : RESD         - DEEP RESISTIVITY (DIL)      
CALI.MM       00 280 01 00         : CAL          - CALIPER                     
GR  .API      00 310 00 00         : GR           - GAMMA RAY                   
NPHI.V/V      00 330 00 00         : PHIN         - NEUTRON POROSITY (SANDSTONE)
DPHI.V/V      00 890 00 00         : PHID         - DENSITY POROSITY (SANDSTONE)
~PARAMETER INFORMATION       
#MNEM.UNIT           DATA             DESCRIPTION OF MNEMONIC
#---------         -----------     ------------------------------
GL  .M        661                  : gl           - GROUND LEVEL ELEVATION      
EREF.M        665                  : kb           - ELEVATION OF DEPTH REFERENCE
DATM.M        661                  : datum        - DATUM ELEVATION             
TDD .M        725                  : tdd          - TOTAL DEPTH DRILLER         
RUN .         ONE                  : Run          - RUN NUMBER                  
ENG .         SVRCEL/BRULE         : Engineer     - RECORDING ENGINEER          
WIT .         CRIPPS/WETHERLY      : Witness      - WITNESSED BY                
BASE.         EDM                  : Branch       - HOME BASE OF LOGGING UNIT   
MUD .         GEL CHEM             : Mud_type     - MUD TYPE                    
MATR.         SANDSTONE            : Logunit      - NEUTRON MATRIX              
TMAX.C        30                   : BHT          - MAXIMUM RECORDED TEMPERATURE
BHTD.M        722                  : BHTDEP       - MAXIMUM RECORDED TEMPERATURE
RMT .C        16.6                 : MDTP         - TEMPERATURE OF MUD          
MUDD.KG/M     1210                 : MWT          - MUD DENSITY                 
NEUT.         1                    : NEUTRON      - NEUTRON TYPE                
RESI.         0                    : RESIST       - RESISTIVITY TYPE            
RM  .OHMM     3.4                  : RM           - RESISTIVITY OF MUD          
RMC .OHMM     3.5                  : RMC          - RESISTIVITY OF MUD CAKE     
RMF .OHMM     3.5                  : RMF          - RESISTIVITY OF MUD FILTRATE 
SUFT.C        0                    : SUFT         - SURFACE TEMPERATURE         
~A  DEPTH     RESD      CAL       GR     PHIN     PHID
  490.000    2.425  224.666  114.857    0.440    0.182
  490.250    2.393  221.831  113.914    0.446    0.191
  490.500    2.362  217.524  108.611    0.435    0.210
  490.750    2.336  215.007  105.774    0.453    0.227
  491.000    2.319  212.280  106.223    0.456    0.241
  491.250    2.310  210.186  106.420    0.474    0.257
  491.500    2.359  207.776  106.111    0.482    0.249
  491.750    2.408  206.417  105.043    0.475    0.243
  492.000    2.464  205.162  102.206    0.430    0.230
  492.250    2.382  204.225   99.811    0.391    0.209
  492.500    2.251  203.922   97.162    0.440    0.199
  492.750    2.189  204.038   95.652    0.534    0.231
  493.000    2.140  206.051   99.641    0.585    0.243
  493.250    2.173  207.325   98.763    0.551    0.247
  493.500    2.343  204.914   90.174    0.471    0.232
  493.750    2.663  199.555   82.280    0.413    0.214
  494.000    2.964  195.352   80.706    0.373    0.197
  494.250    3.160  192.517   78.690    0.356    0.218
  494.500    3.319  189.266   73.324    0.381    0.236
  494.750    3.427  186.648   71.499    0.412    0.253
  495.000    3.579  186.021   72.579    0.442    0.261
  495.250    3.794  184.561   75.495    0.422    0.248
  495.500    3.947  184.361   78.663    0.414    0.225
  495.750    4.122  185.952   82.082    0.399    0.195
  496.000    4.209  188.490   85.250    0.394    0.180
  496.250    4.201  192.190   84.562    0.408    0.170
  496.500    4.024  194.835   83.240    0.377    0.164
  496.750    3.832  197.795   84.638    0.361    0.177
  497.000    3.602  198.862   87.805    0.323    0.180
  497.250    3.373  200.770   93.123    0.352    0.180
  497.500    3.200  203.205   95.975    0.359    0.179
  497.750    3.042  206.272   96.171    0.382    0.180
  498.000    2.952  208.073   97.758    0.417    0.187
  498.250    2.892  210.403  102.506    0.474    0.200
  498.500    2.947  210.309  105.863    0.498    0.227
  498.750    3.148  207.898  104.542    0.493    0.250
  499.000    3.388  203.485   98.546    0.468    0.266
  499.250    3.591  198.438   94.379    0.394    0.281
  499.500    3.850  193.498   89.141    0.420    0.278
  499.750    4.021  189.612   85.481    0.437    0.262
  500.000    3.880  188.148   80.683    0.458    0.247
  500.250    3.730  186.685   75.318    0.437    0.233
  500.500    3.559  184.590   72.481    0.392    0.237
  500.750    3.493  182.495   72.298    0.390    0.245
  501.000    3.390  180.928   75.275    0.396    0.239
  501.250    3.340  180.623   78.380    0.423    0.234
  501.500    3.334  181.581   79.398    0.440    0.234
  501.750    3.359  183.279   78.203    0.407    0.237
  502.000    3.398  186.451   74.355    0.383    0.236
  502.250    3.456  189.833   76.070    0.356    0.231
  502.500    3.657  192.268   76.328    0.362    0.225
  502.750    3.943  192.702   74.123    0.378    0.217
  503.000    4.300  191.133   73.940    0.405    0.182
  503.250    4.823  188.090   76.159    0.227    0.145
  503.500    5.369  186.520   73.954    0.198    0.100
  503.750    5.671  186.637   66.565    0.188    0.091
  504.000    5.513  191.495   67.520    0.222    0.146
  504.250    5.010  196.247   76.693    0.256    0.189
  504.500    4.484  196.260   81.693    0.384    0.204
  504.750    3.991  193.428   89.538    0.414    0.207
  505.000    3.640  191.962   86.511    0.431    0.211
  505.250    3.479  190.819   81.714    0.423    0.221
  505.500    3.473  190.724   79.698    0.401    0.220
  505.750    3.520  190.840   81.665    0.384    0.209
  506.000    3.594  191.587   91.596    0.391    0.200
  506.250    3.621  193.498   94.826    0.388    0.191
  506.500    3.642  194.877   94.582    0.373    0.186
  506.750    3.649  197.627   93.388    0.342    0.178
  507.000    3.649  203.014   92.509    0.342    0.175
  507.250    3.691  204.498   95.549    0.362    0.180
  507.500    3.691  202.405  100.487    0.380    0.185
  507.750    3.650  198.097  101.380    0.388    0.177
  508.000    3.644  194.419  100.502    0.362    0.167
  508.250    3.563  191.798  100.952    0.361    0.170
  508.500    3.249  194.021  104.245    0.394    0.189
  508.750    2.958  198.248  112.027    0.406    0.217
  509.000    2.688  203.316  107.040    0.379    0.233
  509.250    2.356  205.224   91.497    0.397    0.240
  509.500    2.153  195.965   73.362    0.413    0.244
  509.750    1.964  189.233   63.445    0.428    0.257
  510.000    1.881  188.507   56.372    0.403    0.267
  510.250    1.856  190.625   47.972    0.379    0.267
  510.500    1.885  193.906   41.405    0.378    0.263
  510.750    1.935  194.863   40.782    0.363    0.254
  511.000    1.995  196.033   45.275    0.342    0.245
  511.250    2.075  195.940   56.533    0.336    0.236
  511.500    2.196  195.531   67.666    0.355    0.222
  511.750    2.381  195.015   77.218    0.339    0.211
  512.000    2.562  194.712   77.414    0.335    0.201
  512.250    2.773  194.933   79.445    0.354    0.192
  512.500    2.962  194.733   95.443    0.379    0.185
  512.750    3.111  194.537   97.473    0.376    0.178
  513.000    3.255  194.125   98.681    0.340    0.171
  513.250    3.450  193.715  103.808    0.336    0.174
  513.500    3.576  193.410  104.827    0.344    0.179
  513.750    3.693  193.213  103.822    0.342    0.182
  514.000    3.806  193.751  106.169    0.329    0.183
  514.250    3.915  195.659  110.536    0.314    0.179
  514.500    3.997  199.148  114.905    0.336    0.173
  514.750    3.946  202.949  115.355    0.352    0.167
  515.000    3.701  206.227  112.201    0.365    0.170
  515.250    3.382  204.977  107.721    0.354    0.191
  515.500    3.102  204.461  106.398    0.366    0.197
  515.750    2.782  204.050  109.124    0.388    0.178
  516.000    2.566  203.747  113.556    0.442    0.158
  516.250    2.421  203.865  119.442    0.480    0.171
  516.500    2.417  204.508  124.442    0.513    0.186
  516.750    2.665  204.939  132.226    0.499    0.195
  517.000    2.967  205.899  134.255    0.440    0.191
  517.250    3.297  206.335  131.795    0.411    0.184
  517.500    3.456  206.028  123.333    0.404    0.179
  517.750    3.515  205.619  117.145    0.423    0.182
  518.000    3.522  205.315  111.399    0.404    0.196
  518.250    3.444  204.378  107.802    0.432    0.207
  518.500    3.311  203.441  110.148    0.465    0.222
  518.750    3.189  202.082  105.351    0.454    0.230
  519.000    3.130  199.987   95.750    0.423    0.236
  519.250    3.136  197.891   89.310    0.393    0.242
  519.500    3.202  197.164   87.042    0.379    0.229
  519.750    3.281  194.967   87.111    0.360    0.202
  520.000    3.395  188.658   92.997    0.355    0.185
  520.250    3.565  188.351   97.934    0.379    0.189
  520.500    3.716  189.520  101.355    0.386    0.187
  520.750    3.823  191.112  102.942    0.366    0.182
  521.000    3.881  194.181  101.622    0.350    0.174
  521.250    3.896  197.562   96.508    0.376    0.184
  521.500    3.874  200.208   92.724    0.395    0.193
  521.750    3.860  200.640   91.528    0.386    0.201
  522.000    3.725  200.231   90.273    0.380    0.198
  522.250    3.725  199.715   90.404    0.395    0.191
  522.500    3.462  199.516   94.267    0.434    0.194
  522.750    3.398  198.370   97.751    0.448    0.211
  523.000    3.117  197.961   97.821    0.463    0.233
  523.250    2.918  197.655   89.863    0.479    0.261
  523.500    2.837  196.930   83.360    0.489    0.265
  523.750    2.748  196.942   78.816    0.498    0.256
  524.000    2.723  196.110   82.615    0.477    0.256
  524.250    2.673  194.752   83.507    0.395    0.261
  524.500    2.658  194.341   80.985    0.384    0.275
  524.750    2.638  194.250   78.844    0.392    0.286
  525.000    2.643  193.944   80.431    0.408    0.285
  525.250    2.658  193.533   83.787    0.405    0.273
  525.500    2.679  192.809   88.346    0.389    0.259
  525.750    2.709  192.608   87.469    0.387    0.249
  526.000    2.798  191.567   84.379    0.395    0.256
  526.250    2.911  190.735   82.677    0.401    0.264
