~VERSION INFORMATION
 VERS.                 2.0:   CWLS LOG ASCII STANDARD -VERSION 2.0
 WRAP.                  NO:   ONE LINE PER DEPTH STEP
~WELL INFORMATION BLOCK
#MNEM.UNIT           DATA                    DESCRIPTION OF MNEMONIC
#---------    -------------------            -------------------------------
# Generated from Intellog Unique Number	CC_84_87/WELL/1163
NULL.         -999.25                        : NULL_VALUE
WELL.         PCI PCEJ HANGST                : Well_name    - WELL              
LOC .         07-21-084-10W4                 : Location     - LOCATION          
UWI .         00/07-21-084-10W400            : Uwi          - UNIQUE WELL ID    
ENTR.         JHS                            : Entered      - ENTERED BY        
SRVC.         SCHLUMBERGER                   : Scn          - SERVICE COMPANY   
DATE.         21 FEB 86                      : Date         - LOG DATE
STRT.M        150                            : top_depth    - START DEPTH       
STOP.M        389.996                        : bot_depth    - STOP DEPTH        
STEP.M        0.3                            : increment    - STEP LENGTH       
~CURVE INFORMATION BLOCK
#MNEM UNIT       ERCB CURVE CODE    CURVE DESCRIPTION
#-----------   ------------------   ----------------------------------
DEPT.M        00 001 00 00         : DEPTH        - DEPTH                       
DPHI.V/V      00 890 00 00         : PHID         - DENSITY POROSITY (LIMESTONE)
NPHI.V/V      00 330 00 00         : PHIN         - NEUTRON POROSITY (LIMESTONE)
GR  .API      00 310 00 00         : GR           - GAMMA RAY                   
ILD .OHMM     00 120 00 00         : RESD         - DEEP RESISTIVITY (DIL)      
~PARAMETER INFORMATION       
#MNEM.UNIT           DATA             DESCRIPTION OF MNEMONIC
#---------         -----------     ------------------------------
GL  .M        633.5                : gl           - GROUND LEVEL ELEVATION      
EREF.M        637                  : kb           - ELEVATION OF DEPTH REFERENCE
DATM.M        637                  : datum        - DATUM ELEVATION             
TDD .M        399                  : tdd          - TOTAL DEPTH DRILLER         
RUN .         ONE                  : Run          - RUN NUMBER                  
ENG .         BILL                 : Engineer     - RECORDING ENGINEER          
WIT .         JIM                  : Witness      - WITNESSED BY                
MUD .         GEL                  : Mud_type     - MUD TYPE                    
MATR.         LIMESTONE            : Logunit      - NEUTRON MATRIX              
TMAX.C        15                   : BHT          - MAXIMUM RECORDED TEMPERATURE
BHTD.M        399                  : BHTDEP       - MAXIMUM RECORDED TEMPERATURE
MATR.         1                    : LOGUNIT      - NEUTRON MATRIX              
RMT .C        25                   : MDTP         - TEMPERATURE OF MUD          
NEUT.         1                    : NEUTRON      - NEUTRON TYPE                
RESI.         0                    : RESIST       - RESISTIVITY TYPE            
RMC .OHMM     0.25                 : RMC          - RESISTIVITY OF MUD CAKE     
RMF .OHMM     0.25                 : RMF          - RESISTIVITY OF MUD FILTRATE 
SUFT.C        15                   : SUFT         - SURFACE TEMPERATURE         
~A  DEPTH     PHID     PHIN       GR     RESD
# ...
  358.797    0.230    0.413   89.996   11.370
  359.097    0.242    0.408   88.761   11.803
  359.397    0.260    0.412   85.705   13.446
  359.697    0.258    0.391   90.519   14.488
  359.997    0.215    0.368  100.176   14.494
  360.297    0.194    0.364  102.568   12.497
  360.597    0.198    0.358  101.934   11.825
  360.897    0.213    0.351   86.776   12.050
  361.197    0.242    0.359   78.881   13.987
  361.497    0.263    0.373   91.558   13.991
  361.797    0.225    0.372   96.371   12.521
  362.097    0.210    0.371  100.583   11.628
  362.397    0.215    0.378  106.604   11.002
  362.697    0.204    0.385  110.210   10.411
  362.997    0.199    0.379  113.815   10.222
  363.297    0.204    0.388  110.760   10.226
  363.597    0.207    0.390  102.261   10.231
  363.897    0.215    0.378   94.965   10.426
  364.197    0.217    0.389   93.123   10.824
  364.497    0.225    0.376   93.098   11.238
  364.797    0.239    0.370   94.884   11.887
  365.097    0.244    0.375   94.252   11.890
  365.397    0.227    0.365   98.460   11.462
  365.697    0.221    0.353   96.010   11.681
  365.997    0.252    0.361   89.325   12.354
  366.297    0.262    0.358   92.927   13.312
  366.597    0.198    0.338   98.954   13.566
  366.897    0.209    0.363   93.478   14.085
  367.197    0.249    0.398   80.133   14.623
  367.497    0.268    0.386   79.501   14.358
  367.797    0.242    0.343   88.552   13.090
  368.097    0.218    0.332  103.655   12.386
  368.397    0.200    0.350  107.863   12.163
  368.697    0.207    0.380  101.179   12.395
  368.996    0.246    0.370   89.045   13.357
  369.296    0.244    0.374   91.425   13.866
  369.596    0.232    0.389   90.797   14.397
  369.896    0.241    0.393   91.380   14.671
  370.196    0.258    0.398   90.144   14.952
  370.496    0.239    0.400   88.905   14.957
  370.796    0.238    0.400   82.218   14.687
  371.096    0.250    0.397   81.579   14.158
  371.396    0.274    0.387   83.370   13.903
  371.696    0.265    0.369   84.555   13.652
  371.996    0.254    0.386   80.897   14.173
  372.296    0.280    0.422   76.026   17.072
  372.596    0.307    0.444   70.549   18.739
  372.896    0.316    0.422   72.338   18.747
  373.196    0.295    0.387   78.965   17.737
  373.496    0.270    0.356   83.175   15.012
  373.796    0.218    0.363   84.357   13.188
  374.096    0.241    0.389   78.884   13.193
  374.396    0.252    0.384   79.458   13.954
  374.696    0.236    0.361   87.298   15.035
  374.996    0.241    0.371   86.058   13.964
  375.296    0.237    0.386   87.845   13.213
  375.596    0.223    0.373   91.449   13.464
  375.896    0.210    0.356   92.631   13.722
  376.196    0.218    0.360   93.819   13.475
  376.496    0.192    0.368  111.342   12.284
  376.796    0.170    0.406  117.364   10.993
  377.096    0.190    0.427  112.498   10.401
  377.396    0.209    0.411   94.917   10.405
  377.696    0.223    0.377   91.862   11.005
  377.996    0.215    0.359   96.071   11.426
  378.296    0.191    0.358   98.462   10.810
  378.596    0.185    0.376   99.647   11.018
  378.896    0.183    0.406  104.459   13.027
  379.196    0.227    0.428  101.405   17.539
  379.496    0.270    0.437   63.247   24.970
  379.796    0.300    0.433   43.852   36.213
  380.096    0.338    0.420   38.376   54.507
  380.396    0.378    0.404   37.741  114.602
  380.696    0.380    0.403   41.949  140.639
  380.996    0.375    0.446   47.371  140.684
  381.296    0.372    0.444   44.921  130.663
  381.596    0.372    0.420   43.079  110.590
  381.896    0.360    0.438   43.656   79.195
  382.196    0.348    0.430   47.258   76.344
  382.496    0.332    0.408   49.644   74.959
  382.796    0.332    0.420   50.834   55.712
  383.096    0.320    0.404   70.175   27.014
  383.396    0.287    0.358   87.091   19.709
  383.696    0.206    0.370   94.934   17.967
  383.996    0.215    0.383   77.351   19.360
  384.296    0.274    0.383   65.825   19.370
  384.596    0.272    0.354   76.691   18.669
  384.896    0.239    0.364   79.083   17.663
  385.196    0.265    0.411   88.136   17.026
  385.496    0.256    0.423  125.631   16.108
  385.796    0.188    0.423  117.132   11.116
  386.096    0.169    0.402   83.814   11.541
  386.396    0.152    0.408   67.445   18.366
  386.696    0.067    0.215   53.494   26.145
  386.996    0.012    0.191   46.206   38.631
  387.296    0.015    0.179   43.749   44.831
  387.596    0.009    0.175   43.720   50.136
  387.896    0.002    0.172   45.514   53.028
  388.196    0.004    0.169   42.460   57.137
  388.496    0.012    0.165   43.039   66.312
  388.796    0.003    0.157   42.405   86.038
  389.096    0.003    0.145   37.534   99.847
  389.396    0.034    0.148   32.061  131.968
  389.696    0.069    0.164   30.216  184.414
  389.996    0.076    0.171   30.793  184.483
