~VERSION INFORMATION
 VERS.                 2.0:   CWLS LOG ASCII STANDARD -VERSION 2.0
 WRAP.                  NO:   ONE LINE PER DEPTH STEP
~WELL INFORMATION BLOCK
#MNEM.UNIT           DATA                    DESCRIPTION OF MNEMONIC
#---------    -------------------            -------------------------------
# Generated from Intellog Unique Number	CS_69_70/WELL/644
NULL.         -999.25                        : NULL_VALUE
WELL.         MAYNARD ENERGY                 : Well_name    - WELL              
LOC .         00/05-32-070-14W4/0            : Location     - LOCATION          
UWI .         00/05-32-070-14W4/0            : Uwi          - UNIQUE WELL ID    
ENTR.         SP                             : Entered      - ENTERED BY        
SRVC.         SCHLUMBERGER                   : Scn          - SERVICE COMPANY   
STRT.M        325                            : top_depth    - START DEPTH       
STOP.M        528                            : bot_depth    - STOP DEPTH        
STEP.M        0.25                           : increment    - STEP LENGTH       
~CURVE INFORMATION BLOCK
#MNEM UNIT       ERCB CURVE CODE    CURVE DESCRIPTION
#-----------   ------------------   ----------------------------------
DEPT.M        00 001 00 00         : DEPTH        - DEPTH                       
ILD .OHMM     00 120 00 00         : RESD         - DEEP RESISTIVITY (DIL)      
DPHI.V/V      00 890 00 00         : PHID         - DENSITY POROSITY (LIMESTONE)
NPHI.V/V      00 330 00 00         : PHIN         - NEUTRON POROSITY (LIMESTONE)
GR  .API      00 310 00 00         : GR           - GAMMA RAY                   
~PARAMETER INFORMATION       
#MNEM.UNIT           DATA             DESCRIPTION OF MNEMONIC
#---------         -----------     ------------------------------
GL  .M        631.3                : gl           - GROUND LEVEL ELEVATION      
EREF.M        634.74               : kb           - ELEVATION OF DEPTH REFERENCE
DATM.M        631.3                : datum        - DATUM ELEVATION             
TDD .M        536                  : tdd          - TOTAL DEPTH DRILLER         
RUN .         ONE                  : Run          - RUN NUMBER                  
ENG .         BILL                 : Engineer     - RECORDING ENGINEER          
WIT .         JIM                  : Witness      - WITNESSED BY                
MUD .         GEL                  : Mud_type     - MUD TYPE                    
MATR.         LIMESTONE            : Logunit      - NEUTRON MATRIX              
TMAX.C        25                   : BHT          - MAXIMUM RECORDED TEMPERATURE
BHTD.M        536                  : BHTDEP       - MAXIMUM RECORDED TEMPERATURE
MATR.         1                    : LOGUNIT      - NEUTRON MATRIX              
RMT .C        25                   : MDTP         - TEMPERATURE OF MUD          
NEUT.         1                    : NEUTRON      - NEUTRON TYPE                
RESI.         0                    : RESIST       - RESISTIVITY TYPE            
RMC .OHMM     0.25                 : RMC          - RESISTIVITY OF MUD CAKE     
RMF .OHMM     0.25                 : RMF          - RESISTIVITY OF MUD FILTRATE 
SUFT.C        15                   : SUFT         - SURFACE TEMPERATURE         
~A  DEPTH     RESD     PHID     PHIN       GR
# ...
  368.500    4.917    0.295    0.409   83.176
  368.750    4.886    0.291    0.426   78.963
  369.000    4.927    0.284    0.404   74.451
  369.250    5.089    0.296    0.391   71.322
  369.500    5.390    0.306    0.387   69.279
  369.750    5.755    0.324    0.389   69.163
  370.000    6.201    0.338    0.398   68.927
  370.250    6.688    0.328    0.406   68.631
  370.500    7.142    0.321    0.418   68.876
  370.750    7.547    0.316    0.425   70.026
  371.000    7.686    0.311    0.396   72.563
  371.250    7.338    0.308    0.383   73.228
  371.500    6.893    0.309    0.375   73.655
  371.750    6.586    0.299    0.383   71.430
  372.000    6.352    0.289    0.399   67.398
  372.250    6.158    0.281    0.416   64.813
  372.500    5.932    0.274    0.408   62.770
  372.750    5.746    0.299    0.390   59.943
  373.000    5.601    0.308    0.379   57.598
  373.250    5.488    0.327    0.372   54.109
  373.500    5.408    0.341    0.389   52.788
  373.750    5.344    0.337    0.406   56.407
  374.000    5.344    0.325    0.405   59.544
  374.250    5.328    0.311    0.398   59.911
  374.500    5.321    0.309    0.402   58.832
  374.750    5.281    0.318    0.411   57.873
  375.000    5.282    0.326    0.404   61.372
  375.250    5.298    0.336    0.397   63.785
  375.500    5.332    0.321    0.392   69.032
  375.750    5.348    0.304    0.403   73.917
  376.000    5.373    0.292    0.400   76.391
  376.250    5.430    0.283    0.399   80.795
  376.500    5.528    0.276    0.410   83.631
  376.750    5.561    0.271    0.419   83.392
  377.000    5.586    0.267    0.423   88.156
  377.250    5.635    0.265    0.427   91.956
  377.500    5.612    0.269    0.440   93.889
  377.750    5.483    0.258    0.436   93.351
  378.000    5.329    0.249    0.407   92.573
  378.250    5.225    0.238    0.401   94.084
  378.500    5.217    0.236    0.406   94.631
  378.750    5.291    0.250    0.409   93.551
  379.000    5.413    0.261    0.407   91.447
  379.250    5.600    0.268    0.402   88.201
  379.500    5.762    0.270    0.385   86.939
  379.750    5.950    0.257    0.386   84.233
  380.000    5.990    0.247    0.400   82.791
  380.250    5.918    0.238    0.410   86.953
  380.500    5.684    0.232    0.433   88.222
  380.750    5.458    0.238    0.468   89.071
  381.000    5.199    0.253    0.474   95.883
  381.250    4.940    0.263    0.482  101.129
  381.500    4.795    0.252    0.490  103.784
  381.750    4.820    0.243    0.468  106.259
  382.000    5.185    0.237    0.438  101.204
  382.250    5.704    0.238    0.425   97.352
  382.500    6.142    0.233    0.416   98.743
  382.750    6.815    0.227    0.404   99.229
  383.000    7.116    0.231    0.397   94.836
  383.250    7.375    0.234    0.406   91.709
  383.500    7.473    0.245    0.394   90.629
  383.750    7.417    0.260    0.384   87.019
  384.000    7.312    0.273    0.378   82.446
  384.250    7.313    0.257    0.374   85.824
  384.500    7.516    0.234    0.366   91.371
  384.750    7.671    0.213    0.366   94.328
  385.000    7.809    0.201    0.375   96.260
  385.250    7.907    0.212    0.381   93.614
  385.500    7.964    0.224    0.386   90.427
  385.750    7.973    0.232    0.389   88.564
  386.000    7.973    0.234    0.392   91.640
  386.250    7.917    0.240    0.403   94.477
  386.500    7.829    0.254    0.411   89.782
  386.750    7.700    0.266    0.403   83.944
  387.000    7.676    0.252    0.390   85.093
  387.250    7.685    0.230    0.380   92.809
  387.500    7.710    0.214    0.380   96.127
  387.750    7.662    0.219    0.380   96.734
  388.000    7.322    0.245    0.378   86.196
  388.250    7.031    0.280    0.393   78.249
  388.500    6.716    0.306    0.422   71.386
  388.750    6.465    0.306    0.427   68.740
  389.000    6.271    0.299    0.410   72.239
  389.250    6.086    0.294    0.399   73.569
  389.500    5.981    0.294    0.403   73.995
  389.750    5.860    0.324    0.403   73.097
  390.000    5.748    0.342    0.403   73.101
  390.250    5.699    0.344    0.421   73.951
  390.500    5.643    0.346    0.436   75.463
  390.750    5.644    0.335    0.446   76.129
  391.000    5.701    0.322    0.446   76.614
  391.250    5.783    0.313    0.453   71.860
  391.500    5.889    0.314    0.443   68.190
  391.750    5.970    0.331    0.418   65.423
  392.000    6.076    0.338    0.416   69.646
  392.250    6.150    0.332    0.429   72.301
  392.500    6.159    0.320    0.428   73.630
  392.750    6.111    0.312    0.434   74.600
  393.000    6.038    0.305    0.442   75.327
  393.250    6.079    0.300    0.439   75.392
  393.500    6.112    0.298    0.428   74.674
  393.750    6.145    0.303    0.415   71.666
  394.000    6.170    0.306    0.399   66.129
  394.250    6.171    0.309    0.379   60.170
  394.500    6.155    0.310    0.375   55.897
  394.750    6.115    0.298    0.369   54.516
  395.000    6.075    0.289    0.365   55.787
  395.250    6.003    0.291    0.372   55.610
  395.500    5.882    0.304    0.371   54.953
  395.750    5.794    0.316    0.368   54.536
  396.000    5.802    0.321    0.374   55.746
  396.250    5.876    0.315    0.388   57.677
  396.500    6.031    0.310    0.383   60.453
  396.750    6.161    0.299    0.387   65.699
  397.000    6.250    0.254    0.400   76.427
  397.250    6.332    0.230    0.415   86.070
  397.500    6.381    0.223    0.414   91.737
  397.750    6.414    0.239    0.416   83.188
  398.000    6.374    0.271    0.427   74.578
  398.250    6.189    0.304    0.412   65.909
  398.500    5.995    0.317    0.398   57.418
  398.750    5.809    0.324    0.390   50.677
  399.000    5.672    0.331    0.385   49.838
  399.250    5.559    0.343    0.381   50.505
  399.500    5.487    0.344    0.383   50.390
  399.750    5.463    0.336    0.392   49.731
  400.000    5.448    0.332    0.388   48.350
  400.250    5.448    0.328    0.372   47.452
  400.500    5.449    0.328    0.363   47.637
  400.750    5.458    0.325    0.359   48.063
  401.000    5.466    0.324    0.360   49.333
  401.250    5.467    0.324    0.372   49.760
  401.500    5.467    0.326    0.368   49.886
  401.750    5.476    0.320    0.365   50.974
  402.000    5.493    0.316    0.362   51.942
  402.250    5.526    0.312    0.367   52.671
  402.500    5.527    0.310    0.372   51.350
  402.750    5.543    0.320    0.375   52.138
  403.000    5.544    0.315    0.375   53.227
  403.250    5.529    0.311    0.376   54.739
  403.500    5.521    0.317    0.380   55.587
  403.750    5.497    0.331    0.400   56.193
  404.000    5.498    0.331    0.394   57.225
  404.250    5.482    0.321    0.380   57.708
  404.500    5.475    0.317    0.390   59.520
  404.750    5.475    0.321    0.378   61.152
  405.000    5.460    0.325    0.371   62.241
  405.250    5.460    0.325    0.386   61.282
  405.500    5.421    0.321    0.410   59.178
  405.750    5.421    0.321    0.409   57.556
  406.000    5.397    0.318    0.400   56.236
  406.250    5.357    0.314    0.400   55.157
  406.500    5.350    0.313    0.424   57.209
  406.750    5.326    0.312    0.418   61.190
  407.000    5.327    0.321    0.401   64.689
  407.250    5.319    0.334    0.382   66.741
  407.500    5.304    0.337    0.373   64.397
  407.750    5.280    0.329    0.384   60.426
  408.000    5.281    0.319    0.395   59.105
  408.250    5.281    0.311    0.404   58.447
  408.500    5.314    0.302    0.386   58.692
  408.750    5.364    0.295    0.383   61.348
  409.000    5.421    0.289    0.375   64.245
  409.250    5.511    0.287    0.369   67.443
  409.500    5.536    0.293    0.379   69.978
  409.750    5.593    0.297    0.389   71.488
  410.000    5.586    0.303    0.399   68.781
  410.250    5.586    0.309    0.394   64.629
  410.500    5.562    0.308    0.388   63.249
  410.750    5.490    0.298    0.384   64.940
  411.000    5.410    0.289    0.380   67.415
  411.250    5.297    0.291    0.384   67.962
  411.500    5.224    0.303    0.391   64.955
  411.750    5.087    0.324    0.390   61.947
