~VERSION INFORMATION
 VERS.                 2.0:   CWLS LOG ASCII STANDARD -VERSION 2.0
 WRAP.                  NO:   ONE LINE PER DEPTH STEP
~WELL INFORMATION BLOCK
#MNEM.UNIT           DATA                    DESCRIPTION OF MNEMONIC
#---------    -------------------            -------------------------------
# Generated from Intellog Unique Number	CW_70_72/WELL/3010
NULL.         -999.25                        : NULL_VALUE
WELL.         GULF POC CALLS 6-25            : Well_name    - WELL              
LOC .         06-25-070-22W4                 : Location     - LOCATION          
UWI .         00/06-25-070-22W4/0            : Uwi          - UNIQUE WELL ID    
ENTR.         dgm                            : Entered      - ENTERED BY        
SRVC.         SCHLUMBERGER                   : Scn          - SERVICE COMPANY   
DATE.         18 DEC 1982                    : Date         - LOG DATE          
STRT.M        425                            : top_depth    - START DEPTH       
STOP.M        606                            : bot_depth    - STOP DEPTH        
STEP.M        0.25                           : increment    - STEP LENGTH       
~CURVE INFORMATION BLOCK
#MNEM UNIT       ERCB CURVE CODE    CURVE DESCRIPTION
#-----------   ------------------   ----------------------------------
DEPT.M        00 001 00 00         : DEPTH        - DEPTH                       
DPHI.V/V      00 890 00 00         : PHID         - DENSITY POROSITY (SANDSTONE)
NPHI.V/V      00 330 00 00         : PHIN         - NEUTRON POROSITY (SANDSTONE)
GR  .API      00 310 00 00         : GR           - GAMMA RAY                   
CALI.MM       00 280 01 00         : CAL          - CALIPER                     
ILD .OHMM     00 120 00 00         : RESD         - DEEP RESISTIVITY (DIL)      
~PARAMETER INFORMATION       
#MNEM.UNIT           DATA             DESCRIPTION OF MNEMONIC
#---------         -----------     ------------------------------
GL  .M        676.9                : gl           - GROUND LEVEL ELEVATION      
EREF.M        680.17               : kb           - ELEVATION OF DEPTH REFERENCE
DATM.M        680.17               : datum        - DATUM ELEVATION             
TDD .M        635                  : tdd          - TOTAL DEPTH DRILLER         
RUN .         ONE                  : Run          - RUN NUMBER                  
ENG .         WRIGHT               : Engineer     - RECORDING ENGINEER          
WIT .         KERESTES             : Witness      - WITNESSED BY                
BASE.         EDMONTON             : Branch       - HOME BASE OF LOGGING UNIT   
MUD .         GEL CHEM             : Mud_type     - MUD TYPE                    
MATR.         SANDSTONE            : Logunit      - NEUTRON MATRIX              
TMAX.C        23.3                 : BHT          - MAXIMUM RECORDED TEMPERATURE
BHTD.M        635.3                : BHTDEP       - MAXIMUM RECORDED TEMPERATURE
RMT .C        23.3                 : MDTP         - TEMPERATURE OF MUD          
MUDD.KG/M     1140                 : MWT          - MUD DENSITY                 
NEUT.         1                    : NEUTRON      - NEUTRON TYPE                
RESI.         0                    : RESIST       - RESISTIVITY TYPE            
RM  .OHMM     3.422                : RM           - RESISTIVITY OF MUD          
RMC .OHMM     2.675                : RMC          - RESISTIVITY OF MUD CAKE     
RMF .OHMM     3.173                : RMF          - RESISTIVITY OF MUD FILTRATE 
SUFT.C        5                    : SUFT         - SURFACE TEMPERATURE         
~A  DEPTH     PHID     PHIN       GR      CAL     RESD
# ...
  498.000    0.337    0.421   55.815  152.026    2.276
  498.250    0.327    0.403   56.684  151.918    2.463
  498.500    0.322    0.408   59.985  151.602    2.721
  498.750    0.318    0.421   60.293  151.700    3.232
  499.000    0.304    0.409   55.490  151.385    3.804
  499.250    0.144    0.365   54.738  150.965    4.933
  499.500    0.098    0.257   53.987  151.995    5.731
  499.750    0.065    0.195   48.871  155.096    6.670
  500.000    0.051    0.180   48.743  160.369    7.576
  500.250    0.041    0.171   50.859  156.741    7.752
  500.500    0.038    0.166   51.230  149.179    7.813
  500.750    0.039    0.173   48.858  149.795    7.687
  501.000    0.046    0.180   44.864  152.274    7.124
  501.250    0.071    0.177   46.357  154.028    5.913
  501.500    0.165    0.188   51.778  154.541    5.162
  501.750    0.211    0.273   54.580  152.051    4.366
  502.000    0.289    0.317   55.075  150.182    3.679
  502.250    0.305    0.396   55.259  148.210    3.014
  502.500    0.309    0.414   56.128  145.617    2.621
  502.750    0.315    0.410   57.372  144.473    2.362
  503.000    0.323    0.403   58.989  144.571    2.272
  503.250    0.324    0.416   60.856  144.669    2.282
  503.500    0.319    0.415   63.222  143.835    2.331
  503.750    0.314    0.423   62.595  144.038    2.380
  504.000    0.318    0.432   56.170  144.549    2.413
  504.250    0.315    0.432   55.294  144.441    2.436
  504.500    0.309    0.422   58.158  143.814    2.460
  504.750    0.307    0.412   59.589  143.602    2.475
  505.000    0.316    0.433   59.648  143.390    2.504
  505.250    0.320    0.435   57.588  143.385    2.520
  505.500    0.311    0.423   57.086  143.586    2.540
  505.750    0.308    0.408   58.392  143.478    2.550
  506.000    0.310    0.409   61.817  143.473    2.566
  506.250    0.307    0.425   59.944  143.363    2.582
  506.500    0.291    0.422   53.456  143.876    2.578
  506.750    0.267    0.426   51.146  143.974    2.589
  507.000    0.260    0.440   53.886  143.969    2.605
  507.250    0.269    0.428   60.429  144.378    2.621
  507.500    0.284    0.407   63.480  144.165    2.627
  507.750    0.278    0.393   59.611  144.057    2.614
  508.000    0.274    0.396   60.232  144.465    2.619
  508.250    0.278    0.409   65.278  144.149    2.636
  508.500    0.242    0.425   64.651  143.937    2.637
  508.750    0.221    0.436   59.660  143.931    2.613
  509.000    0.242    0.457   58.847  144.548    2.562
  509.250    0.272    0.436   59.841  145.267    2.478
  509.500    0.302    0.422   60.274  145.675    2.452
  509.750    0.287    0.427   62.328  146.291    2.453
  510.000    0.291    0.429   66.439  146.390    2.482
  510.250    0.304    0.428   65.501  145.971    2.487
  510.500    0.322    0.439   58.265  145.861    2.484
  510.750    0.313    0.449   59.072  145.857    2.439
  511.000    0.307    0.441   62.560  145.851    2.382
  511.250    0.315    0.432   59.128  146.674    2.300
  511.500    0.336    0.426   56.319  148.118    2.233
  511.750    0.347    0.430   55.755  148.940    2.218
  512.000    0.344    0.430   53.445  149.349    2.231
  512.250    0.346    0.435   51.135  150.172    2.253
  512.500    0.351    0.436   55.932  150.581    2.263
  512.750    0.356    0.444   56.676  150.990    2.277
  513.000    0.345    0.444   56.299  150.571    2.295
  513.250    0.340    0.431   58.727  148.495    2.304
  513.500    0.330    0.419   60.345  147.661    2.310
  513.750    0.330    0.430   59.406  148.381    2.359
  514.000    0.329    0.437   60.026  147.651    2.396
  514.250    0.320    0.442   62.018  145.265    2.442
  514.500    0.336    0.451   63.573  144.535    2.522
  514.750    0.334    0.449   62.635  145.772    2.629
  515.000    0.353    0.450   60.262  147.630    2.705
  515.250    0.356    0.469   63.626  148.763    2.793
  515.500    0.327    0.490   68.049  148.447    2.928
  515.750    0.309    0.471   71.599  148.753    3.035
  516.000    0.305    0.465   71.408  149.990    3.031
  516.250    0.302    0.474   68.974  151.537    3.038
  516.500    0.293    0.472   67.910  151.635    3.068
  516.750    0.283    0.457   70.026  152.354    3.087
  517.000    0.286    0.441   70.647  153.177    3.088
  517.250    0.290    0.447   70.269  154.104    3.113
  517.500    0.299    0.484   73.134  154.927    3.155
  517.750    0.284    0.450   80.362  155.335    3.223
  518.000    0.257    0.430   78.676  155.537    3.328
  518.250    0.244    0.428   80.480  156.360    3.437
  518.500    0.214    0.434   90.203  156.769    3.596
  518.750    0.220    0.431   89.389  156.453    3.652
  519.000    0.224    0.427   82.465  154.584    3.633
  519.250    0.232    0.431   77.973  153.440    3.482
  519.500    0.254    0.435   74.977  151.779    3.375
  519.750    0.252    0.433   83.765  151.256    3.345
  520.000    0.248    0.436   88.063  152.389    3.429
  520.250    0.245    0.443   88.621  153.212    3.581
  520.500    0.229    0.419   89.552  154.139    3.775
  520.750    0.220    0.419   92.541  155.583    3.863
  521.000    0.214    0.456   96.590  157.855    3.872
  521.250    0.198    0.442   96.961  159.920    3.622
  521.500    0.187    0.430   94.900  158.879    3.233
  521.750    0.194    0.449   91.718  157.114    2.925
  522.000    0.202    0.486   88.659  154.728    2.660
  522.250    0.219    0.511   85.913  154.515    2.489
  522.500    0.237    0.516   84.413  155.235    2.412
  522.750    0.226    0.512   84.285  155.230    2.386
  523.000    0.208    0.501   84.531  155.017    2.414
  523.250    0.207    0.508   85.962  153.253    2.466
  523.500    0.215    0.518   81.906  150.452    2.523
  523.750    0.227    0.504   79.596  150.343    2.600
  524.000    0.230    0.509   84.829  151.788    2.736
  524.250    0.221    0.490   88.068  152.610    3.017
  524.500    0.223    0.485   84.199  151.673    3.439
  524.750    0.213    0.452   80.580  151.356    3.813
  525.000    0.180    0.427   78.582  151.455    4.251
  525.250    0.135    0.352   80.386  151.036    4.600
  525.500    0.150    0.409   87.116  148.546    4.681
  525.750    0.181    0.426   90.604  146.988    4.605
  526.000    0.218    0.421   91.037  145.844    4.332
  526.250    0.235    0.410   87.044  145.631    4.060
  526.500    0.236    0.413   83.487  145.834    3.927
  526.750    0.251    0.425   83.733  146.759    3.835
  527.000    0.258    0.426   86.286  147.479    3.801
  527.250    0.249    0.433   88.838  146.749    3.868
  527.500    0.236    0.431   88.835  146.744    3.957
  527.750    0.212    0.414   87.024  146.739    4.079
  528.000    0.179    0.405   83.965  148.390    4.220
  528.250    0.168    0.410   84.273  150.662    4.358
  528.500    0.158    0.409   87.699  156.143    4.385
  528.750    0.163    0.407   92.122  160.797    4.274
  529.000    0.151    0.430   92.867  159.549    4.066
  529.250    0.189    0.466   82.452  152.504    3.926
  529.500    0.264    0.430   70.853  146.495    3.756
  529.750    0.287    0.405   61.748  145.350    3.695
  530.000    0.284    0.394   84.063  145.967    3.816
  530.250    0.280    0.434   94.534  147.618    4.367
  530.500    0.185    0.408   66.600  149.476    5.101
  530.750    0.148    0.340   54.191  150.609    6.083
  531.000    0.128    0.253   50.696  149.776    7.172
  531.250    0.098    0.237   49.570  148.943    8.649
  531.500    0.097    0.224   51.437  148.730    9.715
  531.750    0.092    0.220   52.930  148.932   10.108
  532.000    0.083    0.220   50.246  149.444   10.208
  532.250    0.073    0.214   48.373  150.267   10.212
  532.500    0.064    0.194   49.491  152.746   10.390
  532.750    0.070    0.187   51.358  154.708   10.165
  533.000    0.078    0.187   51.916  156.152    9.688
  533.250    0.085    0.201   53.347  155.318    8.747
  533.500    0.091    0.221   58.331  152.725    7.809
  533.750    0.105    0.236   59.948  152.098    6.881
  534.000    0.121    0.244   58.012  154.578    6.330
  534.250    0.104    0.245   53.832  155.194    5.833
