~VERSION INFORMATION
 VERS.                 2.0:   CWLS LOG ASCII STANDARD -VERSION 2.0
 WRAP.                  NO:   ONE LINE PER DEPTH STEP
~WELL INFORMATION BLOCK
#MNEM.UNIT           DATA                    DESCRIPTION OF MNEMONIC
#---------    -------------------            -------------------------------
# Generated from Intellog Unique Number	CS_71_72/WELL/820
WELL.         MAYNARD ET AL BEHAN            : Well_name    - WELL
LOC .         00/07-28-072-11W4/0            : Location     - LOCATION
UWI .         00/07-28-072-11W4/0            : Uwi          - UNIQUE WELL ID
ENTR.         SP                             : Entered      - ENTERED BY
SRVC.         SCHLUMBERGER                   : Scn          - SERVICE COMPANY
STRT.M        305                            : top_depth    - START DEPTH
STOP.M        536.25                         : bot_depth    - STOP DEPTH
STEP.M        0.25                           : increment    - STEP LENGTH
 NULL. -999.2500:NULL Value
~CURVE INFORMATION BLOCK
#MNEM UNIT       ERCB CURVE CODE    CURVE DESCRIPTION
#-----------   ------------------   ----------------------------------
DEPT.M        00 001 00 00         : DEPTH        - DEPTH
ILD .OHMM     00 120 00 00         : RESD         - DEEP RESISTIVITY (DIL)
DPHI.V/V      00 890 00 00         : PHID         - DENSITY POROSITY (LIMESTONE)
NPHI.V/V      00 330 00 00         : PHIN         - NEUTRON POROSITY (LIMESTONE)
GR  .API      00 310 00 00         : GR           - GAMMA RAY
~PARAMETER INFORMATION
#MNEM.UNIT           DATA             DESCRIPTION OF MNEMONIC
#---------         -----------     ------------------------------
GL  .M        657.48               : gl           - GROUND LEVEL ELEVATION
EREF.M        660.68               : kb           - ELEVATION OF DEPTH REFERENCE
DATM.M        657.48               : datum        - DATUM ELEVATION
TDD .M        545                  : tdd          - TOTAL DEPTH DRILLER
RUN .         ONE                  : Run          - RUN NUMBER
ENG .         BILL                 : Engineer     - RECORDING ENGINEER
WIT .         JIM                  : Witness      - WITNESSED BY
MUD .         GEL                  : Mud_type     - MUD TYPE
MATR.         LIMESTONE            : Logunit      - NEUTRON MATRIX
TMAX.C        23                   : BHT          - MAXIMUM RECORDED TEMPERATURE
BHTD.M        545                  : BHTDEP       - MAXIMUM RECORDED TEMPERATURE
MATR.         1                    : LOGUNIT      - NEUTRON MATRIX
RMT .C        25                   : MDTP         - TEMPERATURE OF MUD
NEUT.         1                    : NEUTRON      - NEUTRON TYPE
RESI.         0                    : RESIST       - RESISTIVITY TYPE
RMC .OHMM     0.25                 : RMC          - RESISTIVITY OF MUD CAKE
RMF .OHMM     0.25                 : RMF          - RESISTIVITY OF MUD FILTRATE
SUFT.C        15                   : SUFT         - SURFACE TEMPERATURE
~A  DEPTH     RESD     PHID     PHIN       GR
  305.000    2.602    0.253    0.506  100.808
  305.250    2.441    0.247    0.509  103.235
  305.500    2.443    0.250    0.495  102.624
  305.750    2.364    0.251    0.486   98.978
  306.000    2.366    0.246    0.480   96.545
  306.250    2.286    0.242    0.476   94.721
  306.500    2.288    0.238    0.482   93.503
  306.750    2.290    0.235    0.489   92.893
  307.000    2.291    0.240    0.495   92.283
  307.250    2.293    0.231    0.495   92.888
  307.500    2.295    0.218    0.500   93.492
  307.750    2.378    0.197    0.516   92.275
  308.000    2.462    0.186    0.529   92.272
  308.250    2.545    0.205    0.509   96.520
  308.500    2.709    0.220    0.495   97.732
  308.750    2.792    0.223    0.501   99.549
  309.000    2.876    0.229    0.512   99.547
  309.250    2.877    0.243    0.485   99.545
  309.500    2.960    0.255    0.496  101.363
  309.750    2.963    0.261    0.506  102.576
  310.000    2.964    0.254    0.521  104.395
  310.250    2.966    0.250    0.514  103.784
  310.500    2.968    0.249    0.518  106.210
  310.750    2.969    0.250    0.495  106.814
  311.000    2.972    0.251    0.483  104.383
  311.250    3.137    0.246    0.497  101.950
  311.500    3.138    0.236    0.488  100.733
  311.750    3.302    0.232    0.495   99.516
  312.000    3.385    0.223    0.519  100.727
  312.250    3.469    0.218    0.510  101.938
  312.500    3.633    0.206    0.503  101.328
  312.750    3.716    0.192    0.479   98.289
  313.000    3.799    0.179    0.461   96.466
  313.250    3.882    0.164    0.447   92.818
  313.500    3.966    0.177    0.428   97.673
  313.750    3.967    0.199    0.450  100.100
  314.000    3.888    0.210    0.468  103.741
  314.250    3.727    0.215    0.486   98.879
  314.500    3.566    0.221    0.484   98.270
  314.750    3.324    0.230    0.480  100.696
  315.000    3.083    0.230    0.477  101.300
  315.250    3.084    0.238    0.475   95.831
  315.500    3.005    0.249    0.496   94.615
  315.750    3.088    0.252    0.522   95.219
  316.000    3.171    0.241    0.507   97.037
  316.250    3.335    0.248    0.486   96.427
  316.500    3.501    0.260    0.480   94.602
  316.750    3.583    0.264    0.485   97.029
  317.000    3.666    0.272    0.479   96.418
  317.250    3.586    0.275    0.473   92.164
  317.500    3.588    0.259    0.475   91.555
  317.750    3.591    0.249    0.489   89.730
  318.000    3.835    0.231    0.499   83.655
  318.250    4.814    0.200    0.493   78.186
  318.500    5.303    0.166    0.431   73.932
  318.750    6.117    0.196    0.420   75.144
  319.000    7.745    0.237    0.400   83.035
  319.250    9.048    0.266    0.414   86.068
  319.500    9.781    0.281    0.425   87.281
  319.750   10.271    0.276    0.415   86.669
  320.000   10.599    0.272    0.408   86.060
  320.250   10.600    0.270    0.408   85.449
  320.500   10.602    0.267    0.411   85.447
  320.750   10.442    0.267    0.409   84.837
  321.000   10.361    0.280    0.398   86.656
  321.250   10.039    0.267    0.390   85.438
  321.500    9.797    0.251    0.403   83.006
  321.750    9.635    0.244    0.425   83.004
  322.000    9.475    0.239    0.414   84.215
  322.250    9.395    0.243    0.407   81.784
  322.500    9.397    0.244    0.412   79.351
  322.750    9.399    0.247    0.414   81.778
  323.000    9.401    0.248    0.416   83.595
  323.250    9.484    0.238    0.416   84.201
  323.500    9.648    0.234    0.416   82.983
  323.750    9.731    0.231    0.425   81.159
  324.000    9.815    0.232    0.425   79.334
  324.250    9.817    0.243    0.409   76.901
  324.500    9.738    0.250    0.402   78.113
  324.750    9.740    0.253    0.394   79.933
  325.000    9.741    0.239    0.384   83.572
  325.250    9.661    0.233    0.390   84.178
  325.500    9.501    0.225    0.394   83.568
  325.750    9.177    0.220    0.397   82.350
  326.000    8.936    0.225    0.405   83.562
  326.250    8.693    0.236    0.418   84.166
  326.500    8.451    0.248    0.403   82.948
  326.750    8.291    0.253    0.407   82.946
  327.000    8.374    0.261    0.416   84.157
  327.250    8.375    0.258    0.419   85.369
  327.500    8.622    0.249    0.416   87.795
  327.750    8.704    0.242    0.428   89.007
  328.000    8.950    0.234    0.423   87.790
  328.250    9.114    0.244    0.417   81.714
  328.500    9.116    0.250    0.410   85.354
  328.750    9.037    0.252    0.416   85.960
  329.000    8.958    0.239    0.399   90.813
  329.250    8.797    0.230    0.386   92.632
  329.500    8.717    0.237    0.390   95.059
  329.750    8.637    0.242    0.407   95.664
  330.000    8.720    0.242    0.419   91.410
  330.250    9.048    0.243    0.410   86.548
  330.500    9.212    0.245    0.400   85.332
  330.750    9.458    0.249    0.402   89.579
  331.000    9.541    0.250    0.416   92.005
  331.250    9.624    0.246    0.424   93.218
  331.500    9.626    0.243    0.426   95.644
  331.750    9.628    0.238    0.422   93.819
  332.000    9.792    0.236    0.416   95.638
  332.250   10.120    0.248    0.412   96.243
  332.500   10.202    0.252    0.406   95.632
  332.750   10.367    0.253    0.411   93.807
  333.000   10.532    0.254    0.401   92.591
  333.250   10.615    0.249    0.392   91.373
  333.500   10.535    0.244    0.388   90.156
  333.750   10.536    0.236    0.424   90.153
  334.000   10.538    0.228    0.417   91.365
  334.250   10.785    0.222    0.412   93.184
  334.500   10.949    0.219    0.404   92.573
  334.750   11.032    0.214    0.408   87.711
  335.000   11.278    0.217    0.410   82.243
  335.250   11.524    0.233    0.385   77.382
  335.500   11.688    0.247    0.367   73.736
  335.750   11.933    0.277    0.374   69.482
  336.000   12.261    0.291    0.384   68.264
  336.250   12.344    0.296    0.383   66.440
  336.500   12.508    0.280    0.380   62.793
  336.750   12.591    0.275    0.384   58.537
  337.000   12.593    0.286    0.386   57.321
  337.250   12.433    0.291    0.393   57.319
  337.500   12.435    0.282    0.401   60.353
  337.750   12.436    0.274    0.393   66.421
  338.000   12.519    0.260    0.389   69.456
  338.250   12.766    0.248    0.382   71.883
  338.500   12.930    0.273    0.395   74.308
  338.750   13.094    0.286    0.411   75.520
  339.000   13.258    0.293    0.405   68.229
  339.250   13.586    0.286    0.395   65.798
  339.500   13.669    0.285    0.383   61.544
  339.750   13.752    0.287    0.380   67.005
  340.000   13.835    0.303    0.393   70.040
  340.250   13.836    0.318    0.401   73.074
  340.500   13.839    0.345    0.410   62.139
  340.750   13.759    0.345    0.398   59.708
  341.000   13.680    0.296    0.373   63.347
  341.250   13.600    0.280    0.366   66.381
  341.500   13.602    0.267    0.362   72.451
  341.750   13.766    0.251    0.372   73.664
  342.000   14.175    0.238    0.355   66.981
  342.250   14.583    0.258    0.350   59.082
  342.500   15.073    0.286    0.361   56.043
  342.750   15.318    0.297    0.365   50.575
  343.000   15.482    0.302    0.361   48.144
  343.250   14.997    0.297    0.360   46.319
  343.500   14.511    0.305    0.361   51.781
  343.750   13.862    0.320    0.384   55.422
  344.000   13.214    0.329    0.400   62.099
  344.250   12.728    0.316    0.409   68.168
  344.500   12.486    0.305    0.398   73.631
  344.750   12.325    0.289    0.389   77.880
  345.000   12.083    0.296    0.381   68.160
  345.250   11.760    0.303    0.373   65.729
  345.500   11.437    0.296    0.367   68.153
  345.750   11.195    0.278    0.363   70.581
  346.000   11.033    0.272    0.387   73.614
  346.250   10.872    0.263    0.383   74.825
  346.500   10.875    0.262    0.378   74.823
  346.750   11.039    0.264    0.373   73.606
  347.000   11.122    0.263    0.390   72.388
  347.250   11.124    0.274    0.395   67.528
  347.500   11.126    0.278    0.394   66.917
  347.750   11.290    0.279    0.400   70.557
  348.000   11.536    0.275    0.388   72.377
  348.250   11.619    0.269    0.381   69.945
