~VERSION INFORMATION
 VERS.                 2.0:   CWLS LOG ASCII STANDARD -VERSION 2.0
 WRAP.                  NO:   ONE LINE PER DEPTH STEP
~WELL INFORMATION BLOCK
#MNEM.UNIT           DATA                    DESCRIPTION OF MNEMONIC
#---------    -------------------            -------------------------------
# Generated from Intellog Unique Number	CS_73_76/WELL/957
WELL.         DOME PETROLEUM LIMITED         : Well_name    - WELL
LOC .         00/03-14-075-16W4/0            : Location     - LOCATION
UWI .         00/03-14-075-16W4/0            : Uwi          - UNIQUE WELL ID
ENTR.         SP                             : Entered      - ENTERED BY
SRVC.         SCHLUMBERGER                   : Scn          - SERVICE COMPANY
STRT.M        350                            : top_depth    - START DEPTH
STOP.M        555                            : bot_depth    - STOP DEPTH
STEP.M        0.25                           : increment    - STEP LENGTH
 NULL. -999.2500:NULL Value
~CURVE INFORMATION BLOCK
#MNEM UNIT       ERCB CURVE CODE    CURVE DESCRIPTION
#-----------   ------------------   ----------------------------------
DEPT.M        00 001 00 00         : DEPTH        - DEPTH
GR  .API      00 310 00 00         : GR           - GAMMA RAY
NPHI.V/V      00 330 00 00         : PHIN         - NEUTRON POROSITY (LIMESTONE)
DPHI.V/V      00 890 00 00         : PHID         - DENSITY POROSITY (LIMESTONE)
ILD .OHMM     00 120 00 00         : RESD         - DEEP RESISTIVITY (DIL)
~PARAMETER INFORMATION
#MNEM.UNIT           DATA             DESCRIPTION OF MNEMONIC
#---------         -----------     ------------------------------
GL  .M        715.4                : gl           - GROUND LEVEL ELEVATION
EREF.M        719.4                : kb           - ELEVATION OF DEPTH REFERENCE
DATM.M        715.4                : datum        - DATUM ELEVATION
TDD .M        555                  : tdd          - TOTAL DEPTH DRILLER
RUN .         ONE                  : Run          - RUN NUMBER
ENG .         BILL                 : Engineer     - RECORDING ENGINEER
WIT .         JIM                  : Witness      - WITNESSED BY
MUD .         GEL                  : Mud_type     - MUD TYPE
MATR.         LIMESTONE            : Logunit      - NEUTRON MATRIX
TMAX.C        24                   : BHT          - MAXIMUM RECORDED TEMPERATURE
BHTD.M        555                  : BHTDEP       - MAXIMUM RECORDED TEMPERATURE
MATR.         1                    : LOGUNIT      - NEUTRON MATRIX
RMT .C        25                   : MDTP         - TEMPERATURE OF MUD
NEUT.         1                    : NEUTRON      - NEUTRON TYPE
RESI.         0                    : RESIST       - RESISTIVITY TYPE
RMC .OHMM     0.25                 : RMC          - RESISTIVITY OF MUD CAKE
RMF .OHMM     0.25                 : RMF          - RESISTIVITY OF MUD FILTRATE
SUFT.C        15                   : SUFT         - SURFACE TEMPERATURE
~A  DEPTH       GR     PHIN     PHID     RESD
# ...
  437.000   77.034    0.457    0.302    6.992
  437.250   77.642    0.458    0.308    7.254
  437.500   78.251    0.459    0.321    7.526
  437.750   78.252    0.461    0.320    7.666
  438.000   80.683    0.464    0.326    7.808
  438.250   81.899    0.471    0.320    7.666
  438.500   80.686    0.476    0.326    7.666
  438.750   80.080    0.477    0.341    7.526
  439.000   79.474    0.460    0.350    7.388
  439.250   78.868    0.443    0.333    7.665
  439.500   74.619    0.436    0.277    7.953
  439.750   71.584    0.397    0.161    8.561
  440.000   67.942    0.353    0.155    9.765
  440.250   66.121    0.414    0.185    8.583
  440.500   70.374    0.444    0.258    7.688
  440.750   75.841    0.469    0.335    7.413
  441.000   78.271    0.470    0.341    7.421
  441.250   81.917    0.484    0.353    7.852
  441.500   83.740    0.491    0.342    8.306
  441.750   87.993    0.479    0.330    8.313
  442.000   89.208    0.475    0.335    6.302
  442.250   89.818    0.479    0.321    5.439
  442.500   87.997    0.490    0.312    5.246
  442.750   83.748    0.482    0.290    5.348
  443.000   80.712    0.478    0.274    5.659
  443.250   79.499    0.478    0.301    5.987
  443.500   80.715    0.483    0.315    6.453
  443.750   80.717    0.469    0.321    7.086
  444.000   78.290    0.455    0.286    7.359
  444.250   79.505    0.448    0.275    7.366
  444.500   80.721    0.449    0.273    6.720
  444.750   83.152    0.460    0.261    6.019
  445.000   88.012    0.461    0.251    5.491
  445.250   93.479    0.462    0.239    5.104
  445.500   97.731    0.464    0.243    4.833
  445.750  100.769    0.487    0.249    4.660
  446.000  101.378    0.502    0.234    4.495
  446.250  100.165    0.490    0.250    4.498
  446.500   94.701    0.483    0.248    4.421
  446.750   94.095    0.493    0.240    4.343
  447.000   94.704    0.513    0.225    4.266
  447.250   95.920    0.511    0.227    4.039
  447.500   94.707    0.478    0.244    3.895
  447.750   91.672    0.482    0.262    3.757
  448.000   83.778    0.496    0.280    3.760
  448.250   74.063    0.490    0.290    4.052
  448.500   67.385    0.472    0.302    4.883
  448.750   62.528    0.448    0.307    5.564
  449.000   63.744    0.431    0.315    5.995
  449.250   67.997    0.424    0.319    6.705
  449.500   71.642    0.433    0.312    7.227
  449.750   74.679    0.443    0.309    7.791
  450.000   77.110    0.456    0.314    8.092
  450.250   79.541    0.449    0.322    6.253
  450.500   85.615    0.448    0.303    5.599
  450.750   90.475    0.468    0.278    4.657
  451.000   95.942    0.495    0.270    3.802
  451.250  104.445    0.502    0.273    3.405
  451.500  109.913    0.516    0.279    2.832
  451.750  107.485    0.541    0.285    2.270
  452.000  106.272    0.566    0.275    1.995
  452.250  106.273    0.572    0.261    1.923
  452.500  105.668    0.583    0.281    1.854
  452.750  105.062    0.583    0.276    1.820
  453.000  102.634    0.598    0.266    1.888
  453.250   98.384    0.541    0.262    2.109
  453.500   92.920    0.503    0.315    2.831
  453.750   87.456    0.480    0.333    3.404
  454.000   80.778    0.456    0.332    4.325
  454.250   80.779    0.453    0.326    4.920
  454.500   85.639    0.447    0.313    5.296
  454.750   90.499    0.450    0.298    5.701
  455.000   98.395    0.468    0.304    5.494
  455.250  108.113    0.505    0.297    5.494
  455.500   99.612    0.489    0.322    5.494
  455.750   90.505    0.447    0.337    5.700
  456.000   83.219    0.433    0.345    5.914
  456.250   77.755    0.412    0.218    6.605
  456.500   75.934    0.374    0.116    7.514
  456.750   74.721    0.275    0.086    8.868
  457.000   71.079    0.211    0.078   10.860
  457.250   69.258    0.264    0.111   12.818
  457.500   70.474    0.336    0.159   14.582
  457.750   71.083    0.367    0.192   15.697
  458.000   74.121    0.396    0.220   12.817
  458.250   77.767    0.416    0.237   10.275
  458.500   79.590    0.425    0.247    8.705
  458.750   83.235    0.437    0.250    7.652
  459.000   85.058    0.421    0.247    7.375
  459.250   82.631    0.409    0.258    6.978
  459.500   80.810    0.416    0.276    6.603
  459.750   80.812    0.420    0.282    6.603
  460.000   82.028    0.426    0.278    6.482
  460.250   82.636    0.443    0.284    6.482
  460.500   85.676    0.453    0.268    6.602
  460.750   86.891    0.447    0.256    6.850
  461.000   87.499    0.444    0.273    7.107
  461.250   88.108    0.445    0.270    7.239
  461.500   83.251    0.409    0.258    7.510
  461.750   79.609    0.385    0.217    7.937
  462.000   85.076    0.375    0.181    8.084
  462.250   88.722    0.408    0.235    8.084
  462.500   88.116    0.436    0.253    7.936
  462.750   86.902    0.450    0.258    7.106
  463.000   87.511    0.467    0.249    6.601
  463.250   88.727    0.438    0.269    6.246
  463.500   91.766    0.418    0.247    6.020
  463.750   92.982    0.409    0.227    5.802
  464.000   93.590    0.424    0.216    5.802
  464.250   92.377    0.434    0.210    5.910
  464.500   92.379    0.424    0.217    6.019
  464.750   92.380    0.419    0.212    6.019
  465.000   91.167    0.418    0.203    6.131
  465.250   89.346    0.420    0.206    6.131
  465.500   88.133    0.426    0.201    6.361
  465.750   88.742    0.431    0.226    6.479
  466.000   91.780    0.433    0.236    6.599
  466.250   91.174    0.431    0.226    6.722
  466.500   88.139    0.427    0.220    6.846
  466.750   86.926    0.434    0.217    6.846
  467.000   87.535    0.448    0.235    6.846
  467.250   87.536    0.456    0.264    6.721
  467.500   76.606    0.462    0.280    6.478
  467.750   72.964    0.451    0.297    6.129
  468.000   68.715    0.437    0.298    5.907
  468.250   66.894    0.426    0.326    5.800
  468.500   63.252    0.419    0.334    5.590
  468.750   65.076    0.421    0.343    5.488
  469.000   65.684    0.432    0.345    5.192
  469.250   64.471    0.442    0.345    5.097
  469.500   65.688    0.426    0.335    5.097
  469.750   66.904    0.416    0.335    5.097
  470.000   68.119    0.428    0.341    5.097
  470.250   67.513    0.442    0.339    5.097
  470.500   66.908    0.428    0.334    5.097
  470.750   66.302    0.426    0.335    5.097
  471.000   66.303    0.420    0.333    5.097
  471.250   68.127    0.422    0.329    5.097
  471.500   69.950    0.430    0.326    5.096
  471.750   71.166    0.436    0.317    5.096
  472.000   71.775    0.436    0.310    5.287
  472.250   67.525    0.431    0.290    5.486
  472.500   63.883    0.340    0.082    5.797
  472.750   59.026    0.242    0.059    6.127
  473.000   57.206    0.223    0.088    6.356
  473.250   60.851    0.334    0.149    6.842
  473.500   63.889    0.423    0.189    6.969
  473.750   68.749    0.454    0.240    6.474
  474.000   71.786    0.469    0.308    6.240
  474.250   70.574    0.463    0.344    5.796
  474.500   73.004    0.462    0.343    5.587
  474.750   76.042    0.449    0.332    5.384
  475.000   77.865    0.438    0.332    5.190
  475.250   80.296    0.442    0.311    5.095
  475.500   79.083    0.457    0.337    5.095
  475.750   75.441    0.466    0.326    5.189
  476.000   73.620    0.438    0.312    5.286
  476.250   75.444    0.417    0.312    5.484
  476.500   77.267    0.436    0.310    5.484
  476.750   78.483    0.446    0.310    5.384
  477.000   79.092    0.452    0.309    5.285
  477.250   79.701    0.450    0.315    4.820
  477.500   82.132    0.458    0.309    4.396
  477.750   83.347    0.464    0.270    3.936
  478.000   87.600    0.479    0.251    3.656
  478.250   89.423    0.495    0.251    3.396
  478.500   90.639    0.509    0.233    3.396
  478.750   89.426    0.473    0.254    3.524
  479.000   90.035    0.460    0.264    3.656
  479.250   91.251    0.462    0.245    3.863
  479.500   92.467    0.477    0.227    3.935
  479.750   89.432    0.490    0.238    4.008
  480.000   90.041    0.472    0.253    4.083
  480.250   91.864    0.461    0.252    4.083
