~VERSION INFORMATION
 VERS.                 2.0:   CWLS LOG ASCII STANDARD -VERSION 2.0
 WRAP.                  NO:   ONE LINE PER DEPTH STEP
~WELL INFORMATION BLOCK
#MNEM.UNIT           DATA                    DESCRIPTION OF MNEMONIC
#---------    -------------------            -------------------------------
# Generated from Intellog Unique Number	CX_WELLS/WELL/3115
WELL.         CDNOXY NEWBY                   : Well_name    - WELL
LOC .         00/07-06-083-03W4/0            : Location     - LOCATION
UWI .         00/07-06-083-03W400            : Uwi          - UNIQUE WELL ID
ENTR.         TIM                            : Entered      - ENTERED BY
SRVC.         SCHLUMBERGER                   : Scn          - SERVICE COMPANY
STRT.M        100                            : top_depth    - START DEPTH
STOP.M        300                            : bot_depth    - STOP DEPTH
STEP.M        0.25                           : increment    - STEP LENGTH
 NULL. -999.2500:NULL Value
~CURVE INFORMATION BLOCK
#MNEM UNIT       ERCB CURVE CODE    CURVE DESCRIPTION
#-----------   ------------------   ----------------------------------
DEPT.M        00 001 00 00         : DEPTH        - DEPTH
GR  .API      00 310 00 00         : GR           - GAMMA RAY
NPHI.V/V      00 330 00 00         : PHIN         - NEUTRON POROSITY (SANDSTONE)
DPHI.V/V      00 890 00 00         : PHID         - DENSITY POROSITY (SANDSTONE)
ILD .OHMM     00 120 00 00         : RESD         - DEEP RESISTIVITY (OTHER)
~PARAMETER INFORMATION
#MNEM.UNIT           DATA             DESCRIPTION OF MNEMONIC
#---------         -----------     ------------------------------
GL  .M        502.3                : gl           - GROUND LEVEL ELEVATION
EREF.M        507.1                : kb           - ELEVATION OF DEPTH REFERENCE
DATM.M        507.1                : datum        - DATUM ELEVATION
TDD .M        311                  : tdd          - TOTAL DEPTH DRILLER
RUN .         ONE                  : Run          - RUN NUMBER
ENG .         BILL                 : Engineer     - RECORDING ENGINEER
WIT .         JIM                  : Witness      - WITNESSED BY
MUD .         GEL                  : Mud_type     - MUD TYPE
MATR.         SANDSTONE            : Logunit      - NEUTRON MATRIX
TMAX.C        17                   : BHT          - MAXIMUM RECORDED TEMPERATURE
BHTD.M        311                  : BHTDEP       - MAXIMUM RECORDED TEMPERATURE
MATR.         1                    : LOGUNIT      - NEUTRON MATRIX
RMT .C        17                   : MDTP         - TEMPERATURE OF MUD
NEUT.         1                    : NEUTRON      - NEUTRON TYPE
RESI.         4                    : RESIST       - RESISTIVITY TYPE
RMC .OHMM     7.7                  : RMC          - RESISTIVITY OF MUD CAKE
RMF .OHMM     8.4                  : RMF          - RESISTIVITY OF MUD FILTRATE
SUFT.C        4                    : SUFT         - SURFACE TEMPERATURE
~A  DEPTH       GR     PHIN     PHID     RESD
# ...
  187.000   82.990    0.523    0.326    5.959
  187.250   85.467    0.522    0.323    5.848
  187.500   86.694    0.522    0.319    5.632
  187.750   86.055    0.519    0.314    5.527
  188.000   86.663    0.502    0.301    5.527
  188.250   86.647    0.499    0.273    5.631
  188.500   84.765    0.497    0.270    5.957
  188.750   79.759    0.482    0.272    6.302
  189.000   80.371    0.486    0.278    6.543
  189.250   84.714    0.507    0.280    6.794
  189.500   85.941    0.494    0.284    6.922
  189.750   85.933    0.490    0.290    7.053
  190.000   85.290    0.480    0.294    7.186
  190.250   84.032    0.471    0.297    7.186
  190.500   82.766    0.467    0.290    7.186
  190.750   83.373    0.471    0.278    7.185
  191.000   85.231    0.471    0.274    7.185
  191.250   87.709    0.470    0.274    7.184
  191.500   88.940    0.467    0.279    7.184
  191.750   88.297    0.464    0.288    7.744
  192.000   87.658    0.461    0.280    8.040
  192.250   87.646    0.457    0.274    8.192
  192.500   88.877    0.457    0.272    8.039
  192.750   91.350    0.453    0.273    7.889
  193.000   93.832    0.462    0.277    7.598
  193.250   96.305    0.476    0.278    7.318
  193.500   96.290    0.504    0.273    7.181
  193.750   93.157    0.514    0.273    7.047
  194.000   90.649    0.470    0.359    6.915
  194.250   89.386    0.488    0.413    6.786
  194.500   88.120    0.505    0.422    6.536
  194.750   89.974    0.483    0.310    6.178
  195.000   94.949    0.514    0.294    5.519
  195.250  102.413    0.542    0.314    4.930
  195.500  105.514    0.545    0.284    4.242
  195.750  103.624    0.534    0.253    3.790
  196.000  102.366    0.516    0.226    3.935
  196.250  100.476    0.519    0.225    4.404
  196.500   98.590    0.533    0.249    4.747
  196.750   97.951    0.544    0.258    5.414
  197.000   97.940    0.552    0.264    5.836
  197.250   96.673    0.562    0.266    5.836
  197.500   95.415    0.563    0.268    5.413
  197.750   92.275    0.550    0.271    4.746
  198.000   90.393    0.519    0.272    4.402
  198.250   87.884    0.507    0.276    4.008
  198.500   88.496    0.494    0.279    4.320
  198.750   92.843    0.484    0.282    4.835
  199.000   98.437    0.501    0.286    5.311
  199.250  102.781    0.541    0.290    5.212
  199.500  101.518    0.576    0.281    4.656
  199.750   98.386    0.572    0.267    4.006
  200.000   94.011    0.542    0.254    4.160
  200.250   92.749    0.492    0.248    4.655
  200.500   91.486    0.476    0.241    5.513
  200.750   88.977    0.470    0.247    6.055
  201.000   84.591    0.476    0.269    6.170
  201.250   81.454    0.483    0.289    6.054
  201.500   79.576    0.488    0.317    6.054
  201.750   75.817    0.410    0.195    6.054
  202.000   74.555    0.410    0.240    6.054
  202.250   74.543    0.433    0.283    6.053
  202.500   76.393    0.458    0.300    6.053
  202.750   78.243    0.455    0.320    6.053
  203.000   78.859    0.457    0.314    5.829
  203.250   80.090    0.458    0.285    5.720
  203.500   80.689    0.463    0.278    5.720
  203.750   80.682    0.482    0.279    5.720
  204.000   80.658    0.528    0.286    5.828
  204.250   80.650    0.518    0.260    5.938
  204.500   81.258    0.487    0.250    5.938
  204.750   81.238    0.477    0.241    5.937
  205.000   81.226    0.464    0.249    5.937
  205.250   81.207    0.467    0.263    5.826
  205.500   81.814    0.470    0.274    5.826
  205.750   82.422    0.480    0.283    5.936
  206.000   83.033    0.488    0.288    5.936
  206.250   83.014    0.490    0.289    5.717
  206.500   81.128    0.475    0.288    5.610
  206.750   78.619    0.462    0.284    5.403
  207.000   77.361    0.448    0.284    5.203
  207.250   77.337    0.445    0.285    5.203
  207.500   77.945    0.430    0.289    5.203
  207.750   79.799    0.428    0.294    5.106
  208.000   81.034    0.502    0.324    5.011
  208.250   82.888    0.546    0.343    4.826
  208.500   80.375    0.591    0.371    4.393
  208.750   77.870    0.612    0.401    3.709
  209.000   74.738    0.643    0.394    3.314
  209.250   72.229    0.613    0.377    2.905
  209.500   72.836    0.592    0.374    2.645
  209.750   77.807    0.591    0.371    2.547
  210.000   82.150    0.579    0.362    2.547
  210.250   83.381    0.579    0.344    2.547
  210.500   83.370    0.574    0.312    2.595
  210.750   81.480    0.516    0.328    2.694
  211.000   80.218    0.467    0.344    2.959
  211.250   80.821    0.500    0.367    3.251
  211.500   82.060    0.527    0.373    3.375
  211.750   84.538    0.553    0.375    3.707
  212.000   87.015    0.558    0.349    3.996
  212.250   90.731    0.507    0.320    4.149
  212.500   92.593    0.461    0.296    4.389
  212.750   95.071    0.455    0.287    4.148
  213.000   97.549    0.479    0.288    3.848
  213.250   96.906    0.488    0.335    3.569
  213.500   95.020    0.563    0.313    3.311
  213.750   93.134    0.556    0.288    3.189
  214.000   91.252    0.551    0.279    3.014
  214.250   88.116    0.549    0.277    2.958
  214.500   86.858    0.529    0.275    2.957
  214.750   84.972    0.495    0.271    2.902
  215.000   84.956    0.499    0.270    2.902
  215.250   84.937    0.477    0.286    2.902
  215.500   87.406    0.476    0.303    3.013
  215.750   89.265    0.505    0.292    3.128
  216.000   90.499    0.531    0.278    3.436
  216.250   92.973    0.538    0.265    3.567
  216.500   93.581    0.534    0.259    3.635
  216.750   94.192    0.525    0.253    3.567
  217.000   94.796    0.504    0.247    3.308
  217.250   96.027    0.498    0.241    3.186
  217.500   96.007    0.493    0.241    3.247
  217.750   95.999    0.489    0.264    3.308
  218.000   92.867    0.481    0.274    3.308
  218.250   86.618    0.466    0.267    3.246
  218.500   85.975    0.459    0.264    3.370
  218.750   89.703    0.474    0.258    4.222
  219.000   92.181    0.482    0.250    4.466
  219.250   92.788    0.480    0.240    4.637
  219.500   91.526    0.470    0.213    4.637
  219.750   90.263    0.454    0.162    4.550
  220.000   88.378    0.434    0.122    4.550
  220.250   88.362    0.408    0.178    4.905
  220.500   87.723    0.375    0.273    5.490
  220.750   82.097    0.328    0.336    7.554
  221.000   65.868    0.289    0.369    9.115
  221.250   59.000    0.227    0.407   10.011
  221.500   49.634    0.206    0.407    9.286
  221.750   40.269    0.209    0.396   10.591
  222.000   40.249    0.215    0.379   12.778
  222.250   40.861    0.222    0.363   14.573
  222.500   42.707    0.227    0.361   17.917
  222.750   43.322    0.227    0.355   21.215
  223.000   46.419    0.231    0.344   22.026
  223.250   50.148    0.238    0.333   21.615
  223.500   56.984    0.247    0.325   21.212
  223.750   62.582    0.248    0.317   20.048
  224.000   71.916    0.252    0.304   19.308
  224.250   75.009    0.280    0.288   17.250
  224.500   75.001    0.339    0.271   14.566
  224.750   74.982    0.340    0.266   12.771
  225.000   75.589    0.336    0.266   11.626
  225.250   76.197    0.327    0.264   10.988
  225.500   77.428    0.320    0.261   10.988
  225.750   79.286    0.308    0.260   10.987
  226.000   83.010    0.302    0.259   10.986
  226.250   85.484    0.298    0.259   11.194
  226.500   87.961    0.292    0.260   11.406
  226.750   90.439    0.282    0.279   11.842
  227.000   92.916    0.272    0.300   12.066
  227.250   93.528    0.260    0.313   12.065
  227.500   90.395    0.247    0.324   12.064
  227.750   85.393    0.230    0.339   12.064
  228.000   79.144    0.217    0.348   12.525
  228.250   71.025    0.218    0.352   12.762
  228.500   69.136    0.248    0.355   12.761
  228.750   73.487    0.286    0.348   12.760
  229.000   82.198    0.325    0.319   13.001
  229.250   90.909    0.349    0.271   13.248
  229.500   89.023    0.358    0.279   13.498
  229.750   67.811    0.369    0.285   13.753
  230.000   59.688    0.353    0.279    5.689
  230.250   74.636    0.341    0.261    4.627
