~VERSION INFORMATION
 VERS.                 2.0:   CWLS LOG ASCII STANDARD -VERSION 2.0
 WRAP.                  NO:   ONE LINE PER DEPTH STEP
~WELL INFORMATION BLOCK
#MNEM.UNIT           DATA                    DESCRIPTION OF MNEMONIC
#---------    -------------------            -------------------------------
# Generated from Intellog Unique Number	CW_82_90/WELL/3031
WELL.         MIAMI AMACO                    : Well_name    - WELL
LOC .         00/07-01-084-26W4/0            : Location     - LOCATION
UWI .         00/07-01-084-26W4/0            : Uwi          - UNIQUE WELL ID
ENTR.         TIM                            : Entered      - ENTERED BY
SRVC.         COMPUTALOG                     : Scn          - SERVICE COMPANY
DATE.         8 MAR 77                       : Date         - LOG DATE
STRT.F        700                            : top_depth    - START DEPTH
STOP.F        1329.92                        : bot_depth    - STOP DEPTH
STEP.F        0.82                           : increment    - STEP LENGTH
 NULL. -999.2500:NULL Value
~CURVE INFORMATION BLOCK
#MNEM UNIT       ERCB CURVE CODE    CURVE DESCRIPTION
#-----------   ------------------   ----------------------------------
DEPT.F        00 001 00 00         : DEPTH        - DEPTH
GR  .API      00 310 00 00         : GR           - GAMMA RAY
NPHI.V/V      00 330 00 00         : PHIN         - NEUTRON POROSITY (SANDSTONE)
~PARAMETER INFORMATION
#MNEM.UNIT           DATA             DESCRIPTION OF MNEMONIC
#---------         -----------     ------------------------------
GL  .F        1800                 : gl           - GROUND LEVEL ELEVATION
EREF.F        1811                 : kb           - ELEVATION OF DEPTH REFERENCE
DATM.F        1811                 : datum        - DATUM ELEVATION
TDD .F        1336                 : tdd          - TOTAL DEPTH DRILLER
RUN .         ONE                  : Run          - RUN NUMBER
ENG .         KING                 : Engineer     - RECORDING ENGINEER
WIT .         CONNELLY             : Witness      - WITNESSED BY
BASE.         MEDICINE HAT         : Branch       - HOME BASE OF LOGGING UNIT
MUD .         CHEM GEL             : Mud_type     - MUD TYPE
MATR.         SANDSTONE            : Logunit      - NEUTRON MATRIX
TMAX.F        62                   : BHT          - MAXIMUM RECORDED TEMPERATURE
BHTD.F        1336                 : BHTDEP       - MAXIMUM RECORDED TEMPERATURE
RMT .F        60                   : MDTP         - TEMPERATURE OF MUD
MUDD.LB/G     9.5                  : MWT          - MUD DENSITY
NEUT.         0                    : NEUTRON      - NEUTRON TYPE
RESI.         1                    : RESIST       - RESISTIVITY TYPE
RM  .OHMM     4.2                  : RM           - RESISTIVITY OF MUD
RMC .OHMM     0                    : RMC          - RESISTIVITY OF MUD CAKE
RMF .OHMM     3.9                  : RMF          - RESISTIVITY OF MUD FILTRATE
SUFT.F        39.2                 : SUFT         - SURFACE TEMPERATURE
~A  DEPTH       GR     PHIN
# ...
 1169.160   56.226    0.395
 1169.980   55.330    0.395
 1170.800   53.950    0.396
 1171.620   50.697    0.396
 1172.440   46.514    0.396
 1173.260   44.675    0.395
 1174.080   47.077    0.395
 1174.900   56.550    0.395
 1175.720   58.010    0.397
 1176.540   61.355    0.396
 1177.360   61.401    0.396
 1178.180   61.471    0.398
 1179.000   60.551    0.396
 1179.820   58.241    0.393
 1180.640   54.505    0.380
 1181.460   50.309    0.369
 1182.280   47.539    0.359
 1183.100   46.160    0.344
 1183.920   44.816    0.335
 1184.740   44.850    0.328
 1185.560   44.896    0.333
 1186.380   45.874    0.364
 1187.200   48.771    0.370
 1188.020   49.748    0.377
 1188.850   50.266    0.384
 1189.670   47.967    0.378
 1190.490   46.116    0.365
 1191.310   43.794    0.335
 1192.130   41.013    0.330
 1192.950   37.760    0.317
 1193.770   35.450    0.307
 1194.590   34.082    0.314
 1195.410   36.496    0.321
 1196.230   40.301    0.331
 1197.050   40.819    0.370
 1197.870   39.462    0.353
 1198.690   39.037    0.319
 1199.510   40.026    0.333
 1200.330   42.417    0.368
 1201.150   46.234    0.365
 1201.970   45.809    0.360
 1202.790   43.027    0.356
 1203.610   40.246    0.375
 1204.430   36.050    0.394
 1205.250   36.096    0.399
 1206.070   38.982    0.397
 1206.890   41.844    0.392
 1207.710   46.144    0.384
 1208.530   47.144    0.377
 1209.350   46.696    0.371
 1210.170   46.742    0.372
 1210.990   45.846    0.374
 1211.810   45.892    0.363
 1212.630   45.938    0.348
 1213.450   45.042    0.326
 1214.270   42.272    0.311
 1215.090   39.479    0.321
 1215.910   37.640    0.335
 1216.730   40.042    0.344
 1217.550   45.273    0.358
 1218.370   47.216    0.364
 1219.190   46.802    0.361
 1220.010   46.354    0.353
 1220.830   45.929    0.354
 1221.650   45.975    0.364
 1222.470   46.987    0.368
 1223.290   47.976    0.379
 1224.110   48.493    0.384
 1224.930   47.597    0.384
 1225.750   46.229    0.383
 1226.570   46.747    0.382
 1227.400   48.196    0.383
 1228.220   51.081    0.385
 1229.040   53.484    0.386
 1229.860   55.415    0.386
 1230.680   55.473    0.386
 1231.500   53.622    0.379
 1232.320   50.829    0.374
 1233.140   47.117    0.365
 1233.960   43.381    0.374
 1234.780   40.588    0.386
 1235.600   37.806    0.404
 1236.420   38.806    0.413
 1237.240   41.209    0.410
 1238.060   45.509    0.405
 1238.880   54.498    0.402
 1239.700   61.614    0.398
 1240.520   67.799    0.396
 1241.340   61.718    0.396
 1242.160   56.568    0.396
 1242.980   53.786    0.397
 1243.800   56.189    0.401
 1244.620   60.006    0.404
 1245.440   59.121    0.407
 1246.260   57.742    0.413
 1247.080   56.386    0.419
 1247.900   56.903    0.416
 1248.720   58.352    0.409
 1249.540   60.766    0.396
 1250.360   56.559    0.385
 1251.180   46.248    0.380
 1252.000   43.926    0.378
 1252.820   39.730    0.377
 1253.640   36.477    0.376
 1254.460   33.213    0.376
 1255.280   30.431    0.376
 1256.100   27.661    0.376
 1256.920   26.294    0.374
 1257.740   26.340    0.372
 1258.560   26.375    0.372
 1259.380   27.363    0.372
 1260.200   28.823    0.374
 1261.020   30.755    0.375
 1261.840   28.927    0.376
 1262.660   26.146    0.376
 1263.480   24.767    0.376
 1264.300   26.698    0.376
 1265.120   31.928    0.369
 1265.940   38.608    0.355
 1266.770   39.573    0.345
 1267.590   40.574    0.343
 1268.410   41.551    0.343
 1269.230   42.551    0.346
 1270.050   43.540    0.349
 1270.870   44.058    0.354
 1271.690   45.035    0.357
 1272.510   46.035    0.358
 1273.330   47.495    0.358
 1274.150   49.427    0.358
 1274.970   52.761    0.358
 1275.790   57.060    0.359
 1276.610   58.060    0.369
 1277.430   57.153    0.383
 1278.250   54.371    0.387
 1279.070   52.532    0.390
 1279.890   51.636    0.398
 1280.710   52.153    0.401
 1281.530   53.625    0.395
 1282.350   55.085    0.363
 1283.170   55.591    0.342
 1283.990   51.395    0.353
 1284.810   48.602    0.405
 1285.630   43.464    0.416
 1286.450   39.268    0.429
 1287.270   34.130    0.441
 1288.090   33.705    0.447
 1288.910   34.223    0.453
 1289.730   34.740    0.460
 1290.550   34.786    0.456
 1291.370   35.775    0.448
 1292.190   36.787    0.434
 1293.010   36.339    0.429
 1293.830   34.971    0.427
 1294.650   33.132    0.428
 1295.470   32.236    0.424
 1296.290   32.753    0.300
 1297.110   33.271    0.081
 1297.930   32.857    0.036
 1298.750   31.490    0.020
 1299.570   29.179    0.015
 1300.390   28.260    0.007
 1301.210   25.018    0.006
 1302.030   23.168    0.020
 1302.850   19.915    0.029
 1303.670   18.559    0.026
 1304.490   19.076    0.019
 1305.310   18.168    0.011
 1306.140   16.329   -0.000
 1306.960   13.571    0.003
 1307.780   13.594    0.008
 1308.600   14.111    0.012
 1309.420   15.606    0.020
 1310.240   16.101    0.024
 1311.060   17.078    0.023
 1311.880   18.067    0.015
 1312.700   19.055    0.002
 1313.520   20.044   -0.013
 1314.340   21.045   -0.029
 1315.160   21.551   -0.054
 1315.980   22.551   -0.065
 1316.800   23.057   -0.105
 1317.620   23.103   -0.120
 1318.440   23.149   -0.145
 1319.260   23.195   -0.134
 1320.080   22.299   -0.076
 1320.900   22.817   -0.058
 1321.720   24.300    0.000
 1322.540   24.806    0.093
 1323.360   25.806    0.280
 1324.180   24.898    0.356
 1325.000   21.634    0.402
 1325.820   18.864    0.429
 1326.640   17.496    0.422
 1327.460   17.071    0.352
 1328.280   17.117    0.268
 1329.100   16.692    0.076
 1329.920   15.796    0.095
