~VERSION INFORMATION
 VERS.                 2.0:   CWLS LOG ASCII STANDARD -VERSION 2.0
 WRAP.                  NO:   ONE LINE PER DEPTH STEP
~WELL INFORMATION BLOCK
#MNEM.UNIT           DATA                    DESCRIPTION OF MNEMONIC
#---------    -------------------            -------------------------------
# Generated from Intellog Unique Number	CW_70_72/WELL/773
NULL.         -999.25                        : NULL_VALUE
WELL.         CANOXY SMITH 06-29             : Well_name    - WELL              
LOC .         06-29-071-01W5                 : Location     - LOCATION          
UWI .         00/06-29-071-01W5/0            : Uwi          - UNIQUE WELL ID    
ENTR.         JAYE                           : Entered      - ENTERED BY        
SRVC.         SCHLUMBERGER                   : Scn          - SERVICE COMPANY   
DATE.         31 DEC 76                      : Date         - LOG DATE          
STRT.M        387.096                        : top_depth    - START DEPTH       
STOP.M        646.096                        : bot_depth    - STOP DEPTH        
STEP.M        0.25                           : increment    - STEP LENGTH       
~CURVE INFORMATION BLOCK
#MNEM UNIT       ERCB CURVE CODE    CURVE DESCRIPTION
#-----------   ------------------   ----------------------------------
DEPT.M        00 001 00 00         : DEPTH        - DEPTH                       
DPHI.V/V      00 890 00 00         : PHID         - DENSITY POROSITY (SANDSTONE)
NPHI.V/V      00 330 00 00         : PHIN         - NEUTRON POROSITY (SANDSTONE)
GR  .API      00 310 00 00         : GR           - GAMMA RAY                   
CALI.MM       00 280 01 00         : CAL          - CALIPER                     
ILD .OHMM     00 120 00 00         : RESD         - DEEP RESISTIVITY (DIL)      
~PARAMETER INFORMATION       
#MNEM.UNIT           DATA             DESCRIPTION OF MNEMONIC
#---------         -----------     ------------------------------
GL  .M        585.826              : gl           - GROUND LEVEL ELEVATION      
EREF.M        588.874              : kb           - ELEVATION OF DEPTH REFERENCE
DATM.M        585.826              : datum        - DATUM ELEVATION             
TDD .M        660.806              : tdd          - TOTAL DEPTH DRILLER         
RUN .         ONE                  : Run          - RUN NUMBER                  
BASE.         EDM                  : Branch       - HOME BASE OF LOGGING UNIT   
MATR.         SANDSTONE            : Logunit      - NEUTRON MATRIX              
TMAX.C        27.2222              : BHT          - MAXIMUM RECORDED TEMPERATURE
BHTD.M        660.502              : BHTDEP       - MAXIMUM RECORDED TEMPERATURE
RMT .C        8.33333              : MDTP         - TEMPERATURE OF MUD          
MUDD.KG/M     0                    : MWT          - MUD DENSITY                 
NEUT.         1                    : NEUTRON      - NEUTRON TYPE                
RESI.         0                    : RESIST       - RESISTIVITY TYPE            
RM  .OHMM     4.28                 : RM           - RESISTIVITY OF MUD          
RMC .OHMM     0                    : RMC          - RESISTIVITY OF MUD CAKE     
RMF .OHMM     3.46                 : RMF          - RESISTIVITY OF MUD FILTRATE 
SUFT.C        -17.7778             : SUFT         - SURFACE TEMPERATURE         
~A  DEPTH     PHID     PHIN       GR      CAL     RESD
# ...
  606.096    0.122    0.360   80.689  171.708    6.341
  606.346    0.153    0.373   72.237  171.139    7.004
  606.596    0.167    0.341   69.301  168.730    7.663
  606.846    0.164    0.336   70.177  167.243    8.433
  607.096    0.136    0.327   78.630  167.394    9.026
  607.346    0.125    0.312   87.141  169.500    9.571
  607.596    0.124    0.301   95.653  171.802   10.152
  607.846    0.103    0.314   91.261  174.729   10.685
  608.096    0.097    0.327   82.444  175.707   11.673
  608.346    0.104    0.352   72.113  174.318   12.678
  608.596    0.079    0.303   62.750  173.136   14.157
  608.846    0.047    0.280   58.781  171.855   16.074
  609.096    0.012    0.231   60.752  171.187   18.150
  609.346    0.043    0.267   62.175  170.519   18.828
  609.596    0.110    0.314   61.359  170.265   17.847
  609.846    0.177    0.349   59.507  170.005   16.635
  610.096    0.192    0.365   60.389  169.850   15.197
  610.346    0.180    0.367   63.626  169.594   13.781
  610.596    0.175    0.359   69.413  169.236   12.566
  610.846    0.145    0.338   74.471  168.978   11.757
  611.096    0.125    0.326   81.291  168.619   10.938
  611.346    0.135    0.323   85.802  168.464    9.992
  611.596    0.124    0.312   91.225  168.920    9.061
  611.846    0.111    0.305   96.652  170.107    8.340
  612.096    0.115    0.318   99.464  171.591    8.109
  612.346    0.111    0.330   99.190  172.768    8.018
  612.596    0.105    0.346   93.464  172.721    8.568
  612.846    0.105    0.339   86.891  171.533    9.725
  613.096    0.119    0.291   83.162  169.021   12.063
  613.346    0.093    0.272   87.377  168.656   12.425
  613.596    0.076    0.276   92.068  170.146   11.953
  613.846    0.080    0.296   97.127  171.631   11.557
  614.096    0.105    0.308  102.374  173.130   11.283
  614.346    0.109    0.314  102.459  173.786   11.217
  614.596    0.087    0.329   96.191  174.450   11.256
  614.846    0.071    0.336   90.583  174.094   11.421
  615.096    0.044    0.311   93.704  172.500   11.677
  615.346    0.038    0.309   98.157  172.041   11.481
  615.596    0.058    0.321  103.038  173.941   10.722
  615.846    0.078    0.317  106.153  175.839    9.923
  616.096    0.078    0.317  106.971  176.511    9.742
  616.346    0.078    0.334   98.579  176.242   10.103
  616.596    0.085    0.340   76.189  175.476   12.484
  616.846    0.075    0.310   50.710  174.304   16.731
  617.096    0.057    0.246   39.288  173.938   22.673
  617.346    0.054    0.119   31.444  173.574   33.069
  617.596    0.196    0.140   27.960  173.312   71.290
  617.846    0.130    0.145   25.320  172.759  152.298
  618.096    0.028    0.118   22.683  172.189  226.704
  618.346   -0.027    0.093   21.563  171.940  261.210
  618.596   -0.016    0.103   21.289  171.771   90.020
  618.846    0.029    0.139   22.715  171.620   20.534
  619.096    0.095    0.172   24.014  171.153    9.716
  619.346    0.141    0.307   26.591  168.851    6.231
  619.596    0.205    0.341   29.286  167.154    4.397
  619.846    0.224    0.361   32.467  166.381    3.322
  620.096    0.214    0.352   37.103  166.747    2.991
  620.346    0.185    0.301   43.251  167.105    4.009
  620.596    0.089    0.267   52.129  167.668    6.021
  620.846    0.056    0.249   62.520  168.639    9.614
  621.096    0.079    0.239   72.972  169.814   11.990
  621.346    0.063    0.257   96.327  170.894   13.367
  621.596    0.060    0.277  111.202  172.176   11.553
  621.846    0.039    0.298  124.684  173.973    9.262
  622.096    0.124    0.363  135.983  175.866    7.961
  622.346    0.134    0.399  141.285  178.274    6.969
  622.596    0.129    0.419  140.226  181.917    6.569
  622.846    0.120    0.439  127.228  185.763    6.690
  623.096    0.099    0.453  110.291  186.227    7.213
  623.346    0.002    0.403   93.779  180.532    8.040
  623.596   -0.005    0.329   85.568  176.174    8.768
  623.846    0.071    0.249   87.420  172.217    8.622
  624.096    0.080    0.262   92.536  171.651    8.035
  624.346    0.090    0.292  102.322  175.500    7.140
  624.596    0.102    0.349  109.322  176.374    6.451
  624.846    0.131    0.387  101.350  173.653    6.115
  625.096    0.171    0.407   93.504  170.726    5.957
  625.346    0.149    0.307  102.201  170.059    5.925
  625.596    0.146    0.319  117.195  171.041    6.032
  625.846    0.140    0.302  124.557  172.426    6.246
  626.096    0.124    0.291  130.463  173.598    6.835
  626.346    0.106    0.283  132.132  174.776    7.863
  626.596    0.093    0.286  114.527  175.036    8.716
  626.846    0.065    0.298   82.685  174.679    9.293
  627.096    0.039    0.308   68.415  174.004    9.710
  627.346    0.063    0.293   67.963  172.932    9.068
  627.596    0.097    0.278   70.171  171.441    8.470
  627.846    0.151    0.273   74.814  169.237    7.471
  628.096    0.188    0.284   77.624  168.259    6.202
  628.346    0.201    0.301   81.414  168.618    5.441
  628.596    0.191    0.311   85.502  169.591    5.035
  628.846    0.164    0.312   90.438  170.564    4.896
  629.096    0.181    0.307   95.981  171.542    4.878
  629.346    0.164    0.279  102.556  172.304    5.087
  629.596    0.116    0.262  112.463  174.412    5.755
  629.846    0.106    0.257  113.765  176.407    6.367
  630.096    0.083    0.281  108.401  178.201    7.164
  630.346    0.031    0.300  101.465  179.078    7.723
  630.596    0.011    0.321   98.645  179.336    8.469
  630.846   -0.016    0.352  101.828  179.281    8.701
  631.096   -0.053    0.386  107.491  180.768    7.876
  631.346    0.119    0.408  112.127  182.559    7.196
  631.596    0.143    0.328  115.368  183.639    6.883
  631.846    0.116    0.287  118.850  182.459    7.011
  632.096    0.088    0.299  123.667  180.358    7.245
  632.346    0.067    0.313  129.757  178.866    7.528
  632.596    0.047    0.330  130.818  178.717    7.766
  632.846    0.022    0.354  133.633  178.459    7.940
  633.096    0.044    0.332  128.757  178.614    8.028
  633.346    0.070    0.320  122.483  178.653    8.043
  633.596    0.045    0.313  118.574  178.604    8.007
  633.846    0.023    0.303  121.514  178.960    7.903
  634.096    0.043    0.291  126.639  179.324    7.801
  634.346    0.060    0.297  131.151  180.300    7.714
  634.596    0.084    0.332  135.539  180.858    7.698
  634.846    0.080    0.357  130.357  181.526    7.753
  635.096    0.059    0.351  124.025  181.577    7.884
  635.346    0.052    0.327  121.753  181.636    7.997
  635.596    0.046    0.306  123.238  181.686    8.054
  635.846    0.020    0.327  126.540  181.731    7.964
  636.096    0.021    0.355  130.568  181.980    7.690
  636.346    0.016    0.390  134.842  182.040    7.437
  636.596    0.066    0.410  136.143  181.992    7.301
  636.846    0.083    0.382  134.898  181.828    7.258
  637.096    0.080    0.373  130.445  181.369    7.419
  637.346    0.052    0.369  125.932  180.911    7.611
  637.596    0.002    0.360  123.172  180.643    7.623
  637.846   -0.032    0.334  126.599  180.287    7.373
  638.096    0.041    0.331  132.868  180.647    6.965
  638.346    0.063    0.354  138.410  181.003    6.734
  638.596    0.032    0.400  141.109  181.363    6.442
  638.846    0.003    0.413  144.348  181.619    6.117
  639.096    0.039    0.418  149.712  181.574    5.798
  639.346    0.077    0.409  150.831  181.716    5.525
  639.596    0.066    0.400  151.712  182.079    5.113
  639.846    0.044    0.401  151.800  182.021    4.688
  640.096    0.042    0.435  150.920  181.767    3.993
  640.346    0.015    0.452  148.404  181.305    3.457
  640.596   -0.018    0.445  140.741  180.950    3.561
  640.846   -0.020    0.426  140.284  180.897    3.762
  641.096    0.023    0.401  143.528  180.957    4.132
  641.346    0.053    0.411  144.649  180.898    4.614
  641.596    0.066    0.441  141.283  180.741    5.087
  641.846    0.055    0.436  137.437  180.683    5.208
  642.096    0.025    0.428  136.862  180.732    4.991
  642.346   -0.002    0.422  132.891  180.376    4.166
