~VERSION INFORMATION
 VERS.                 2.0:   CWLS LOG ASCII STANDARD -VERSION 2.0
 WRAP.                  NO:   ONE LINE PER DEPTH STEP
~WELL INFORMATION BLOCK
#MNEM.UNIT           DATA                    DESCRIPTION OF MNEMONIC
#---------    -------------------            -------------------------------
# Generated from Intellog Unique Number	CS_67_68/WELL/2162
WELL.         GLOBAL ATMORE                  : Well_name    - WELL
LOC .         00/03-20-067-16W4/0            : Location     - LOCATION
UWI .         00/03-20-067-16W4/0            : Uwi          - UNIQUE WELL ID
ENTR.         SP                             : Entered      - ENTERED BY
SRVC.         SCHLUMBERGER                   : Scn          - SERVICE COMPANY
STRT.M        370                            : top_depth    - START DEPTH
STOP.M        537                            : bot_depth    - STOP DEPTH
STEP.M        0.25                           : increment    - STEP LENGTH
 NULL. -999.2500:NULL Value
~CURVE INFORMATION BLOCK
#MNEM UNIT       ERCB CURVE CODE    CURVE DESCRIPTION
#-----------   ------------------   ----------------------------------
DEPT.M        00 001 00 00         : DEPTH        - DEPTH
ILD .OHMM     00 120 00 00         : RESD         - DEEP RESISTIVITY (DIL)
DPHI.V/V      00 890 00 00         : PHID         - DENSITY POROSITY (LIMESTONE)
NPHI.V/V      00 330 00 00         : PHIN         - NEUTRON POROSITY (LIMESTONE)
GR  .API      00 310 00 00         : GR           - GAMMA RAY
~PARAMETER INFORMATION
#MNEM.UNIT           DATA             DESCRIPTION OF MNEMONIC
#---------         -----------     ------------------------------
GL  .M        627.39               : gl           - GROUND LEVEL ELEVATION
EREF.M        630.39               : kb           - ELEVATION OF DEPTH REFERENCE
DATM.M        630.39               : datum        - DATUM ELEVATION
TDD .M        546                  : tdd          - TOTAL DEPTH DRILLER
RUN .         ONE                  : Run          - RUN NUMBER
ENG .         BILL                 : Engineer     - RECORDING ENGINEER
WIT .         JIM                  : Witness      - WITNESSED BY
MUD .         GEL                  : Mud_type     - MUD TYPE
MATR.         LIMESTONE            : Logunit      - NEUTRON MATRIX
TMAX.C        23                   : BHT          - MAXIMUM RECORDED TEMPERATURE
BHTD.M        543.8                : BHTDEP       - MAXIMUM RECORDED TEMPERATURE
MATR.         1                    : LOGUNIT      - NEUTRON MATRIX
RMT .C        25                   : MDTP         - TEMPERATURE OF MUD
NEUT.         1                    : NEUTRON      - NEUTRON TYPE
RESI.         0                    : RESIST       - RESISTIVITY TYPE
RMC .OHMM     0.25                 : RMC          - RESISTIVITY OF MUD CAKE
RMF .OHMM     0.25                 : RMF          - RESISTIVITY OF MUD FILTRATE
SUFT.C        15                   : SUFT         - SURFACE TEMPERATURE
~A  DEPTH     RESD     PHID     PHIN       GR
# ...
  500.500    5.692    0.171    0.396   89.742
  500.750    7.522    0.153    0.370   88.473
  501.000    8.883    0.142    0.310   78.118
  501.250    9.358    0.130    0.240   68.489
  501.500    7.415    0.096    0.210   60.981
  501.750    6.122    0.062    0.200   70.921
  502.000    5.238    0.028    0.286   90.008
  502.250    4.575    0.092    0.360   97.342
  502.500    4.064    0.125    0.400  102.374
  502.750    3.884    0.142    0.418  106.438
  503.000    3.882    0.152    0.410  110.500
  503.250    3.917    0.163    0.397  108.384
  503.500    3.975    0.178    0.396  106.631
  503.750    4.063    0.173    0.390  105.787
  504.000    4.069    0.158    0.383  104.397
  504.250    4.060    0.151    0.377  101.433
  504.500    4.043    0.144    0.374  100.529
  504.750    4.041    0.150    0.385  103.259
  505.000    4.032    0.157    0.400  107.988
  505.250    4.038    0.163    0.415  105.811
  505.500    3.998    0.150    0.404  102.787
  505.750    3.990    0.129    0.393  102.002
  506.000    3.981    0.155    0.399  102.734
  506.250    3.972    0.169    0.404  104.191
  506.500    3.970    0.181    0.401  106.376
  506.750    3.953    0.186    0.395  109.712
  507.000    3.959    0.179    0.388  111.776
  507.250    3.972    0.174    0.397  112.991
  507.500    3.986    0.172    0.401  111.359
  507.750    4.021    0.176    0.396  104.215
  508.000    4.104    0.178    0.396   99.191
  508.250    4.234    0.168    0.389   99.134
  508.500    4.313    0.171    0.380  102.167
  508.750    4.409    0.179    0.379   99.808
  509.000    4.424    0.159    0.380   99.752
  509.250    4.414    0.142    0.384  106.239
  509.500    4.429    0.152    0.389  110.544
  509.750    4.477    0.168    0.397  112.183
  510.000    4.594    0.179    0.396  111.581
  510.250    4.670    0.180    0.384  111.102
  510.500    4.739    0.184    0.368  111.104
  510.750    4.808    0.193    0.358  107.898
  511.000    4.879    0.177    0.351  113.052
  511.250    4.867    0.165    0.357  117.175
  511.500    4.758    0.157    0.357  117.360
  511.750    4.155    0.161    0.356  115.366
  512.000    3.657    0.167    0.366  114.097
  512.250    3.014    0.149    0.370  110.769
  512.500    2.550    0.125    0.360  105.502
  512.750    2.182    0.123    0.343  103.992
  513.000    2.042    0.141    0.372  111.751
  513.250    1.948    0.161    0.436  115.389
  513.500    1.936    0.181    0.461  116.483
  513.750    1.958    0.210    0.464  119.396
  514.000    1.990    0.193    0.488  122.792
  514.250    2.038    0.187    0.488  126.734
  514.500    2.151    0.200    0.484  131.281
  514.750    2.279    0.189    0.490  122.320
  515.000    2.455    0.182    0.502  119.234
  515.250    2.715    0.189    0.509  120.934
  515.500    2.981    0.192    0.514  120.938
  515.750    3.266    0.186    0.479  116.943
  516.000    3.592    0.137    0.423  112.768
  516.250    3.885    0.118    0.377  111.438
  516.500    4.353    0.141    0.369  111.503
  516.750    4.343    0.158    0.361  112.174
  517.000    4.206    0.152    0.363  112.359
  517.250    3.944    0.126    0.399  111.576
  517.500    3.727    0.066    0.401  109.156
  517.750    3.575    0.038    0.391  103.829
  518.000    3.391    0.068    0.379  113.890
  518.250    3.253    0.106    0.400  122.436
  518.500    3.068    0.132    0.414  125.105
  518.750    2.982    0.149    0.423  127.230
  519.000    2.865    0.166    0.416  127.415
  519.250    2.838    0.173    0.410  125.481
  519.500    2.768    0.167    0.433  128.938
  519.750    2.690    0.171    0.441  131.002
  520.000    2.654    0.151    0.428  133.065
  520.250    2.594    0.153    0.434  131.010
  520.500    2.608    0.167    0.445  128.348
  520.750    2.646    0.159    0.445  125.930
  521.000    2.720    0.166    0.437  124.661
  521.250    2.781    0.168    0.429  123.574
  521.500    2.822    0.152    0.423  123.578
  521.750    2.896    0.156    0.425  123.824
  522.000    3.016    0.162    0.448  124.192
  522.250    3.165    0.161    0.463  125.165
  522.500    3.303    0.159    0.472  127.168
  522.750    3.467    0.161    0.442  128.263
  523.000    3.571    0.163    0.414  124.450
  523.250    3.477    0.153    0.390  118.699
  523.500    3.135    0.139    0.370  112.826
  523.750    2.816    0.132    0.356  114.284
  524.000    2.657    0.151    0.384  126.162
  524.250    2.510    0.167    0.434  134.466
  524.500    2.431    0.172    0.462  136.832
  524.750    2.430    0.175    0.483  135.989
  525.000    2.618    0.175    0.495  135.326
  525.250    3.011    0.173    0.504  135.209
  525.500    3.651    0.179    0.388  129.215
  525.750    4.621    0.169    0.343  102.866
  526.000    5.849    0.128    0.327   87.179
  526.250    7.280    0.131    0.341   78.823
  526.500    8.711    0.167    0.359   85.067
  526.750    9.634    0.195    0.371   88.645
  527.000   10.399    0.215    0.381   81.985
  527.250   11.331    0.228    0.366   71.872
  527.500   12.322    0.237    0.345   65.273
  527.750   13.301    0.228    0.329   64.611
  528.000   14.330    0.211    0.321   64.675
  528.250   15.209    0.217    0.322   63.104
  528.500   15.872    0.230    0.332   60.624
  528.750   16.226    0.245    0.343   60.507
  529.000   15.276    0.243    0.349   65.176
  529.250   14.088    0.213    0.353   68.996
  529.500   12.607    0.197    0.345   72.272
  529.750   11.937    0.191    0.334   71.246
  530.000   11.007    0.196    0.325   71.250
  530.250   10.520    0.207    0.317   72.102
  530.500   10.015    0.201    0.310   75.438
  530.750    9.482    0.192    0.305   78.592
  531.000    8.744    0.190    0.302   78.232
  531.250    7.855    0.183    0.298   80.054
  531.500    8.121    0.163    0.297   87.812
  531.750    7.462    0.147    0.296   96.358
  532.000    6.678    0.131    0.295  109.690
  532.250    6.055    0.122    0.310  125.082
  532.500    5.501    0.121    0.334  142.473
  532.750    5.112    0.119    0.349  181.552
  533.000    4.794    0.117    0.366  195.793
  533.250    4.590    0.128    0.385  210.215
  533.500    4.419    0.135    0.402  160.845
  533.750    4.319    0.145    0.418  146.007
  534.000    4.253    0.154    0.417  139.710
  534.250    4.196    0.166    0.423  136.624
  534.500    4.195    0.176    0.426  145.837
  534.750    4.280    0.181    0.420  154.322
  535.000    4.484    0.160    0.427  162.323
  535.250    5.110    0.150    0.431  166.386
  535.500    6.348    0.122    0.429  152.941
  535.750    9.528    0.092    0.427  131.802
  536.000   12.686    0.000    0.392  103.272
  536.250   14.731    0.000    0.303   80.376
  536.500   15.960    0.000    0.249   69.233
  536.750   16.225    0.000    0.212   56.091
  537.000   16.433    0.000    0.195   47.431
