~VERSION INFORMATION
 VERS.                 2.0:   CWLS LOG ASCII STANDARD -VERSION 2.0
 WRAP.                  NO:   ONE LINE PER DEPTH STEP
~WELL INFORMATION BLOCK
#MNEM.UNIT           DATA                    DESCRIPTION OF MNEMONIC
#---------    -------------------            -------------------------------
# Generated from Intellog Unique Number	CS_67_68/WELL/2177
WELL.         07-23-067-06W4                 : Well_name    - WELL
LOC .         00/07-23-067-06W4/0            : Location     - LOCATION
UWI .         00/07-23-067-06W4/0            : Uwi          - UNIQUE WELL ID
ENTR.         SP                             : Entered      - ENTERED BY
SRVC.         SCHLUMBERGER                   : Scn          - SERVICE COMPANY
STRT.M        325                            : top_depth    - START DEPTH
STOP.M        536                            : bot_depth    - STOP DEPTH
STEP.M        0.25                           : increment    - STEP LENGTH
 NULL. -999.2500:NULL Value
~CURVE INFORMATION BLOCK
#MNEM UNIT       ERCB CURVE CODE    CURVE DESCRIPTION
#-----------   ------------------   ----------------------------------
DEPT.M        00 001 00 00         : DEPTH        - DEPTH
ILD .OHMM     00 120 00 00         : RESD         - DEEP RESISTIVITY (DIL)
DPHI.V/V      00 890 00 00         : PHID         - DENSITY POROSITY (LIMESTONE)
NPHI.V/V      00 330 00 00         : PHIN         - NEUTRON POROSITY (LIMESTONE)
GR  .API      00 310 00 00         : GR           - GAMMA RAY
CALI.MM       00 280 01 00         : CAL          - CALIPER
~PARAMETER INFORMATION
#MNEM.UNIT           DATA             DESCRIPTION OF MNEMONIC
#---------         -----------     ------------------------------
GL  .M        653.7                : gl           - GROUND LEVEL ELEVATION
EREF.M        657                  : kb           - ELEVATION OF DEPTH REFERENCE
DATM.M        657                  : datum        - DATUM ELEVATION
TDD .M        545                  : tdd          - TOTAL DEPTH DRILLER
RUN .         ONE                  : Run          - RUN NUMBER
ENG .         BILL                 : Engineer     - RECORDING ENGINEER
WIT .         JIM                  : Witness      - WITNESSED BY
MUD .         GEL                  : Mud_type     - MUD TYPE
MATR.         LIMESTONE            : Logunit      - NEUTRON MATRIX
TMAX.C        23                   : BHT          - MAXIMUM RECORDED TEMPERATURE
BHTD.M        545                  : BHTDEP       - MAXIMUM RECORDED TEMPERATURE
MATR.         1                    : LOGUNIT      - NEUTRON MATRIX
RMT .C        25                   : MDTP         - TEMPERATURE OF MUD
NEUT.         1                    : NEUTRON      - NEUTRON TYPE
RESI.         0                    : RESIST       - RESISTIVITY TYPE
RMC .OHMM     0.25                 : RMC          - RESISTIVITY OF MUD CAKE
RMF .OHMM     0.25                 : RMF          - RESISTIVITY OF MUD FILTRATE
SUFT.C        15                   : SUFT         - SURFACE TEMPERATURE
~A  DEPTH     RESD     PHID     PHIN       GR      CAL
# ...
  471.000    2.811    0.328    0.485   78.546  187.672
  471.250    3.367    0.335    0.473   78.604  180.016
  471.500    3.783    0.317    0.465   78.171  170.218
  471.750    4.101    0.311    0.455   79.147  163.276
  472.000    4.154    0.294    0.448   81.163  162.250
  472.250    3.985    0.279    0.472   83.179  161.121
  472.500    3.793    0.284    0.489   83.359  163.360
  472.750    3.464    0.316    0.507   81.702  168.454
  473.000    3.134    0.328    0.472   80.659  165.796
  473.250    2.938    0.333    0.480   79.064  161.811
  473.500    2.765    0.328    0.499   78.938  164.356
  473.750    2.516    0.317    0.513   82.178  168.634
  474.000    2.083    0.309    0.524   86.152  169.648
  474.250    1.832    0.299    0.527   90.433  169.234
  474.500    1.673    0.277    0.514   93.795  168.921
  474.750    1.534    0.247    0.506   95.076  169.119
  475.000    1.465    0.245    0.528   93.910  169.826
  475.250    1.462    0.249    0.538   97.150  170.026
  475.500    1.495    0.247    0.539   97.269  169.101
  475.750    1.673    0.247    0.541   95.919  168.178
  476.000    1.790    0.247    0.543   95.732  166.233
  476.250    1.916    0.248    0.528   98.176  164.799
  476.500    2.046    0.253    0.510  101.722  164.386
  476.750    2.116    0.250    0.501  102.086  163.155
  477.000    2.155    0.247    0.492   97.798  162.028
  477.250    2.167    0.252    0.485   98.895  159.778
  477.500    2.182    0.243    0.490   98.954  158.752
  477.750    2.244    0.245    0.504   99.011  158.133
  478.000    2.392    0.236    0.481   97.722  157.924
  478.250    2.511    0.215    0.448   93.374  156.999
  478.500    2.597    0.197    0.444   93.737  156.278
  478.750    2.676    0.240    0.461   96.243  155.866
  479.000    2.731    0.261    0.474   96.790  155.146
  479.250    2.751    0.266    0.472   94.706  154.833
  479.500    2.761    0.267    0.471   97.211  154.725
  479.750    2.755    0.254    0.492   99.227  154.514
  480.000    2.687    0.247    0.499  101.365  154.509
  480.250    2.558    0.238    0.496  103.810  154.400
  480.500    2.586    0.242    0.525  106.438  154.496
  480.750    2.720    0.234    0.545  108.882  154.695
  481.000    2.971    0.225    0.540  101.717  154.587
  481.250    3.240    0.215    0.483   96.757  154.479
  481.500    3.599    0.209    0.420  100.119  154.371
  481.750    3.909    0.209    0.460  104.400  154.365
  482.000    4.754    0.216    0.465  102.744  154.052
  482.250    5.771    0.221    0.416   75.935  153.945
  482.500    6.849    0.229    0.387   67.425  153.938
  482.750    7.681    0.047    0.365   63.443  154.137
  483.000    8.095    0.010    0.306   60.930  154.641
  483.250    8.107    0.000    0.264   65.577  155.348
  483.500    8.029    0.000    0.259   72.918  155.750
  483.750    7.643    0.063    0.321   84.542  156.152
  484.000    7.234    0.156    0.353   90.781  156.555
  484.250    7.273    0.191    0.395   83.372  155.935
  484.500    7.479    0.220    0.405   76.207  155.420
  484.750    7.604    0.249    0.402   72.900  155.312
  485.000    7.460    0.271    0.398   67.572  155.612
  485.250    6.724    0.302    0.394   71.730  155.605
  485.500    5.567    0.318    0.385   82.620  155.906
  485.750    4.472    0.301    0.388   90.144  156.410
  486.000    3.634    0.289    0.410   95.097  156.812
  486.250    3.312    0.282    0.411   94.604  156.806
  486.500    3.201    0.278    0.397   84.502  156.595
  486.750    3.285    0.293    0.384   79.848  156.590
  487.000    3.657    0.303    0.386   80.823  156.686
  487.250    3.972    0.294    0.390   85.287  156.577
  487.500    4.548    0.290    0.393   88.527  156.979
  487.750    5.187    0.286    0.383   91.828  157.483
  488.000    5.602    0.280    0.381   94.456  157.682
  488.250    5.983    0.273    0.387   97.512  157.880
  488.500    6.329    0.263    0.399  100.874  157.568
  488.750    6.315    0.262    0.398  102.646  157.562
  489.000    6.172    0.257    0.389  104.723  157.454
  489.250    5.897    0.252    0.385  106.862  157.346
  489.500    5.571    0.248    0.376  103.797  157.340
  489.750    5.313    0.239    0.367  101.836  157.231
  490.000    5.302    0.230    0.377  105.198  157.530
  490.250    5.411    0.234    0.424  107.520  157.627
  490.500    6.668    0.248    0.471  109.904  157.417
  490.750    8.295    0.230    0.413  112.532  157.106
  491.000   10.358    0.212    0.384  100.717  156.692
  491.250   12.223    0.202    0.390   51.141  156.074
  491.500   13.995    0.260    0.373   38.224  155.558
  491.750   15.549    0.293    0.357   30.877  155.348
  492.000   16.635    0.315    0.359   28.364  155.341
  492.250   15.134    0.310    0.358   28.177  155.233
  492.500   11.403    0.296    0.354   33.314  155.430
  492.750    7.184    0.283    0.338   43.653  155.731
  493.000    6.050    0.263    0.312   54.298  155.928
  493.250    5.514    0.236    0.308   65.371  156.025
  493.500    5.026    0.213    0.327   74.242  155.917
  493.750    5.691    0.198    0.338   90.824  155.911
  494.000    6.728    0.197    0.328  100.000  156.007
  494.250    8.244    0.198    0.327   98.711  156.103
  494.500    9.951    0.193    0.350  104.827  156.199
  494.750   10.829    0.188    0.367  101.764  156.192
  495.000   11.241    0.212    0.389   83.645  156.186
  495.250   11.280    0.260    0.400   65.037  155.875
  495.500   11.277    0.300    0.391   60.260  155.257
  495.750   11.358    0.308    0.371   66.621  154.639
  496.000   12.107    0.285    0.343   74.206  154.123
  496.250   13.450    0.267    0.353   78.058  153.505
  496.500   14.581    0.296    0.388   69.792  152.683
  496.750   15.425    0.314    0.403   68.564  152.473
  497.000   15.862    0.314    0.418   74.007  152.263
  497.250   13.845    0.305    0.408   79.022  152.358
  497.500    8.722    0.304    0.400   83.915  152.557
  497.750    6.735    0.295    0.391   90.827  152.855
  498.000    5.524    0.277    0.382   97.799  153.157
  498.250    5.064    0.263    0.375  102.509  153.660
  498.500    5.148    0.243    0.366  106.238  154.164
  498.750    5.225    0.224    0.366  108.132  154.770
  499.000    5.303    0.221    0.377  110.087  155.376
  499.250    5.412    0.225    0.382  111.735  155.982
  499.500    5.535    0.222    0.370  111.119  156.485
  499.750    5.723    0.213    0.358  108.974  156.786
  500.000    5.809    0.207    0.343  106.951  156.780
  500.250    5.918    0.204    0.346  106.151  156.876
  500.500    6.017    0.204    0.357  105.413  156.768
  500.750    6.038    0.207    0.362  100.881  156.864
  501.000    6.036    0.222    0.367   88.148  156.756
  501.250    7.258    0.230    0.353   82.208  157.056
  501.500    8.049    0.237    0.366   77.981  157.152
  501.750    8.809    0.247    0.387   71.491  157.044
  502.000    9.658    0.284    0.386   57.901  156.936
  502.250   10.101    0.303    0.378   47.922  156.827
  502.500    9.707    0.305    0.367   52.080  156.720
  502.750    8.067    0.281    0.350   61.501  156.713
  503.000    7.353    0.236    0.340   75.084  156.708
  503.250    6.881    0.213    0.331   84.688  156.702
  503.500    6.612    0.224    0.363   90.743  156.491
  503.750    6.283    0.250    0.382   83.396  156.383
  504.000    5.684    0.251    0.374   82.841  156.377
  504.250    5.190    0.240    0.360   83.572  156.270
  504.500    4.776    0.239    0.367   86.873  155.651
  504.750    4.563    0.244    0.363   90.847  155.032
  505.000    4.614    0.249    0.359   95.801  154.620
  505.250    4.700    0.240    0.370  101.122  154.206
  505.500    4.788    0.234    0.378  105.586  153.792
  505.750    4.814    0.233    0.377  107.296  153.376
  506.000    4.848    0.221    0.372  107.108  153.065
  506.250    4.866    0.211    0.368  106.248  152.651
  506.500    4.764    0.207    0.363  106.000  152.339
  506.750    4.294    0.209    0.357  106.118  152.027
  507.000    3.899    0.216    0.366   96.996  151.918
  507.250    3.474    0.231    0.383   83.712  152.015
