~VERSION INFORMATION
 VERS.                 2.0:   CWLS LOG ASCII STANDARD -VERSION 2.0
 WRAP.                  NO:   ONE LINE PER DEPTH STEP
~WELL INFORMATION BLOCK
#MNEM.UNIT           DATA                    DESCRIPTION OF MNEMONIC
#---------    -------------------            -------------------------------
# Generated from Intellog Unique Number	CW_73_75/WELL/2732
WELL.         SUNDANCE MCMORGAN  MARTENH 07- : Well_name    - WELL
LOC .         00/07-28-073-24W4/0            : Location     - LOCATION
UWI .         00/07-28-073-24W4/0            : Uwi          - UNIQUE WELL ID
ENTR.         JAYE                           : Entered      - ENTERED BY
SRVC.         SCHLUMBERGER                   : Scn          - SERVICE COMPANY
DATE.         19 MAR 73                      : Date         - LOG DATE
STRT.M        396.24                         : top_depth    - START DEPTH
STOP.M        624.74                         : bot_depth    - STOP DEPTH
STEP.M        0.25                           : increment    - STEP LENGTH
 NULL. -999.2500:NULL Value
~CURVE INFORMATION BLOCK
#MNEM UNIT       ERCB CURVE CODE    CURVE DESCRIPTION
#-----------   ------------------   ----------------------------------
DEPT.M        00 001 00 00         : DEPTH        - DEPTH
ILD .OHMM     00 120 00 00         : RESD         - DEEP RESISTIVITY (DIL)
NPHI.V/V      00 330 00 00         : PHIN         - NEUTRON POROSITY (SANDSTONE)
DPHI.V/V      00 890 00 00         : PHID         - DENSITY POROSITY (SANDSTONE)
GR  .API      00 310 00 00         : GR           - GAMMA RAY
CALI.MM       00 280 01 00         : CAL          - CALIPER
~PARAMETER INFORMATION
#MNEM.UNIT           DATA             DESCRIPTION OF MNEMONIC
#---------         -----------     ------------------------------
GL  .M        654.558              : gl           - GROUND LEVEL ELEVATION
EREF.M        656.844              : kb           - ELEVATION OF DEPTH REFERENCE
DATM.M        654.558              : datum        - DATUM ELEVATION
TDD .M        630.936              : tdd          - TOTAL DEPTH DRILLER
RUN .         ONE                  : Run          - RUN NUMBER
ENG .         MCLEVIN              : Engineer     - RECORDING ENGINEER
WIT .         LOWTHER              : Witness      - WITNESSED BY
BASE.         RD                   : Branch       - HOME BASE OF LOGGING UNIT
MUD .         GEL                  : Mud_type     - MUD TYPE
MATR.         SANDSTONE            : Logunit      - NEUTRON MATRIX
TMAX.C        28.8889              : BHT          - MAXIMUM RECORDED TEMPERATURE
BHTD.M        631.85               : BHTDEP       - MAXIMUM RECORDED TEMPERATURE
RMT .C        21.1111              : MDTP         - TEMPERATURE OF MUD
MUDD.KG/M     1104                 : MWT          - MUD DENSITY
NEUT.         1                    : NEUTRON      - NEUTRON TYPE
RESI.         0                    : RESIST       - RESISTIVITY TYPE
RM  .OHMM     3.04                 : RM           - RESISTIVITY OF MUD
RMC .OHMM     0                    : RMC          - RESISTIVITY OF MUD CAKE
RMF .OHMM     0                    : RMF          - RESISTIVITY OF MUD FILTRATE
SUFT.C        -17.7778             : SUFT         - SURFACE TEMPERATURE
~A  DEPTH     RESD     PHIN     PHID       GR      CAL
# ...
  469.240    6.472    0.429    0.186   41.915  147.011
  469.490    6.402    0.422    0.175   40.707  149.002
  469.740    6.404    0.415    0.190   42.436  152.657
  469.990    6.382    0.416    0.188   44.654  156.306
  470.240    6.337    0.427    0.177   46.749  159.027
  470.490    6.222    0.442    0.170   45.358  160.611
  470.740    5.974    0.461    0.198   44.394  160.841
  470.990    5.757    0.479    0.217   45.145  159.624
  471.240    5.600    0.476    0.220   46.322  158.100
  471.490    5.530    0.469    0.212   47.622  156.158
  471.740    5.604    0.468    0.206   48.252  154.004
  471.990    5.606    0.466    0.206   47.715  154.031
  472.240    5.649    0.464    0.209   46.751  155.410
  472.490    5.641    0.470    0.218   45.056  156.054
  472.740    5.956    0.487    0.228   43.785  156.081
  472.990    6.104    0.504    0.240   42.639  155.069
  473.240    6.083    0.494    0.229   41.674  154.162
  473.490    6.039    0.478    0.230   40.957  154.084
  473.740    5.908    0.467    0.213   41.767  154.013
  473.990    5.758    0.478    0.205   43.923  154.241
  474.240    5.622    0.468    0.224   45.408  148.368
  474.490    5.459    0.477    0.245   46.096  148.493
  474.740    5.339    0.479    0.243   46.662  150.798
  474.990    5.175    0.465    0.254   46.312  153.001
  475.240    5.043    0.478    0.242   45.409  155.097
  475.490    4.933    0.491    0.227   44.692  157.300
  475.740    4.862    0.480    0.211   44.523  159.092
  475.990    4.792    0.465    0.224   45.333  159.943
  476.240    4.740    0.450    0.222   46.756  160.178
  476.490    4.715    0.482    0.216   47.443  160.416
  476.740    4.673    0.491    0.233   47.948  160.337
  476.990    4.648    0.476    0.217   48.025  160.047
  477.240    4.632    0.484    0.220   48.591  158.837
  477.490    4.625    0.471    0.228   49.647  158.235
  477.740    4.609    0.448    0.235   49.968  156.915
  477.990    4.568    0.463    0.243   49.312  155.910
  478.240    4.544    0.489    0.240   49.204  155.620
  478.490    4.537    0.471    0.223   51.238  154.719
  478.740    4.598    0.453    0.205   54.741  154.119
  478.990    4.669    0.443    0.190   60.019  153.627
  479.240    4.749    0.454    0.192   65.171  152.415
  479.490    4.777    0.470    0.203   68.185  150.681
  479.740    4.796    0.477    0.188   65.143  149.564
  479.990    4.807    0.488    0.203   63.077  149.694
  480.240    4.782    0.469    0.228   61.502  150.239
  480.490    4.730    0.444    0.226   60.357  150.786
  480.740    4.714    0.431    0.230   59.516  151.222
  480.990    4.822    0.421    0.216   58.856  151.668
  481.240    5.006    0.434    0.195   57.405  151.898
  481.490    5.385    0.421    0.169   55.646  151.717
  481.740    5.935    0.382    0.143   53.519  151.744
  481.990    6.688    0.354    0.098   54.821  151.872
  482.240    6.893    0.394    0.094   59.669  151.382
  482.490    6.805    0.430    0.162   68.983  150.889
  482.740    6.620    0.457    0.186   76.524  149.778
  482.990    6.440    0.479    0.188   76.970  149.076
  483.240    6.206    0.492    0.203   75.027  148.896
  483.490    5.882    0.501    0.216   72.900  149.546
  483.740    5.554    0.497    0.213   69.672  150.507
  483.990    5.342    0.501    0.205   66.692  151.460
  484.240    5.294    0.500    0.201   64.565  152.838
  484.490    5.549    0.496    0.201   62.500  154.207
  484.740    6.081    0.485    0.192   62.089  155.683
  484.990    7.153    0.437    0.148   63.632  156.955
  485.240    7.912    0.393    0.112   66.463  157.706
  485.490    8.063    0.351    0.085   68.986  158.040
  485.740    7.253    0.373    0.082   72.183  158.586
  485.990    6.648    0.447    0.174   77.339  158.927
  486.240    6.207    0.483    0.198   80.535  159.471
  486.490    5.731    0.497    0.176   83.242  159.498
  486.740    5.351    0.514    0.161   83.502  159.415
  486.990    5.119    0.529    0.124   79.907  159.236
  487.240    5.178    0.523    0.145   75.763  159.265
  487.490    5.528    0.493    0.190   72.414  158.979
  487.740    6.161    0.470    0.171   70.166  158.899
  487.990    6.995    0.438    0.137   67.857  158.930
  488.240    7.942    0.386    0.109   65.731  158.953
  488.490    8.884    0.356    0.080   62.687  159.085
  488.740    9.863    0.326    0.034   61.112  159.526
  488.990   10.850    0.331    0.094   65.044  160.587
  489.240   10.555    0.354    0.109   71.238  161.647
  489.490    9.673    0.362    0.100   72.416  162.297
  489.740    8.589    0.368    0.099   71.698  162.114
  489.990    7.597    0.375    0.114   74.038  161.727
  490.240    6.733    0.392    0.148   77.784  161.337
  490.490    6.194    0.430    0.165   80.737  160.747
  490.740    5.958    0.456    0.143   83.016  160.665
  490.990    5.774    0.436    0.142   86.457  160.590
  491.240    5.712    0.428    0.147   89.900  160.614
  491.490    5.693    0.442    0.137   89.486  160.750
  491.740    5.694    0.465    0.123   86.688  160.772
  491.990    5.718    0.483    0.118   85.418  160.697
  492.240    5.741    0.503    0.114   86.721  161.033
  492.490    5.754    0.510    0.110   89.184  161.369
  492.740    5.755    0.506    0.127   90.420  162.120
  492.990    5.682    0.509    0.119   90.926  162.876
  493.240    5.600    0.501    0.142   90.513  163.416
  493.490    5.509    0.508    0.127   89.733  164.478
  493.740    5.379    0.523    0.121   91.707  165.126
  493.990    5.252    0.516    0.141   94.537  165.568
  494.240    5.214    0.533    0.133   96.816  165.490
  494.490    5.177    0.525    0.135   97.809  164.480
  494.740    5.208    0.535    0.106   86.935  163.468
  494.990    5.387    0.534    0.115   82.240  162.667
  495.240    5.552    0.514    0.136   79.443  161.968
  495.490    5.722    0.527    0.133   78.601  161.997
  495.740    5.831    0.503    0.135   78.434  161.918
  495.990    5.887    0.504    0.140   78.692  162.053
  496.240    5.944    0.500    0.145   80.604  161.766
  496.490    5.991    0.512    0.155   78.847  161.378
  496.740    6.061    0.517    0.152   76.720  161.093
  496.990    6.085    0.517    0.137   76.736  160.598
  497.240    6.109    0.523    0.131   77.119  160.008
  497.490    6.111    0.509    0.135   77.994  159.614
  497.740    6.091    0.494    0.156   78.496  159.229
  497.990    6.093    0.479    0.180   79.245  158.942
  498.240    6.106    0.487    0.193   80.301  158.142
  498.490    6.096    0.479    0.174   81.847  157.136
  498.740    6.087    0.489    0.156   82.290  156.637
  498.990    6.077    0.482    0.152   82.736  156.146
  499.240    6.125    0.476    0.163   82.749  155.448
  499.490    6.253    0.500    0.139   82.766  154.851
  499.740    6.853    0.525    0.121   81.863  154.465
  499.990    7.427    0.434    0.105   79.064  155.114
  500.240    8.019    0.401    0.086   74.980  155.553
  500.490    8.341    0.377    0.066   74.201  156.826
  500.740    8.084    0.386    0.085   75.745  157.574
  500.990    7.548    0.480    0.129   78.942  158.638
  501.240    7.008    0.522    0.157   82.016  160.733
  501.490    6.568    0.503    0.139   85.520  163.247
  501.740    6.213    0.485    0.120   88.288  165.243
  501.990    6.021    0.493    0.115   90.995  166.512
  502.240    5.879    0.482    0.121   94.130  167.989
  502.490    5.805    0.500    0.133   97.573  169.048
  502.740    5.679    0.527    0.147  100.096  170.324
  502.990    5.534    0.530    0.149  101.947  171.074
  503.240    5.373    0.518    0.147   98.659  171.308
  503.490    5.121    0.517    0.132   98.125  171.645
  503.740    4.826    0.514    0.124   98.691  171.774
  503.990    4.456    0.525    0.136   98.950  172.112
  504.240    4.153    0.556    0.139   97.559  172.344
  504.490    4.108    0.588    0.147   95.984  172.679
  504.740    4.218    0.582    0.168   93.430  172.704
  504.990    4.371    0.560    0.152   89.224  171.487
  505.240    4.547    0.533    0.143   85.202  167.889
  505.490    4.730    0.511    0.174   81.729  163.045
