~VERSION INFORMATION
 VERS.                 2.0:   CWLS LOG ASCII STANDARD -VERSION 2.0
 WRAP.                  NO:   ONE LINE PER DEPTH STEP
~WELL INFORMATION BLOCK
#MNEM.UNIT           DATA                    DESCRIPTION OF MNEMONIC
#---------    -------------------            -------------------------------
# Generated from Intellog Unique Number	CS_77_79/WELL/857
WELL.         HB THORNBURY LAKE              : Well_name    - WELL
LOC .         00/05-19-078-12W4/0            : Location     - LOCATION
UWI .         00/05-19-078-12W4/0            : Uwi          - UNIQUE WELL ID
ENTR.         JHS                            : Entered      - ENTERED BY
SRVC.         SCHLUMBERGER                   : Scn          - SERVICE COMPANY
STRT.M        243.84                         : top_depth    - START DEPTH
STOP.M        456.84                         : bot_depth    - STOP DEPTH
STEP.M        0.25                           : increment    - STEP LENGTH
 NULL. -999.2500:NULL Value
~CURVE INFORMATION BLOCK
#MNEM UNIT       ERCB CURVE CODE    CURVE DESCRIPTION
#-----------   ------------------   ----------------------------------
DEPT.M        00 001 00 00         : DEPTH        - DEPTH
RHOB.KG/M3    00 350 00 00         : DENS         - BULK DENSITY
GR  .API      00 310 00 00         : GR           - GAMMA RAY
DPHI.V/V      00 890 00 00         : PHID         - DENSITY POROSITY (SANDSTONE)
NPHI.V/V      00 330 00 00         : PHIN         - NEUTRON POROSITY (SANDSTONE)
ILD .OHMM     00 120 00 00         : RESD         - DEEP RESISTIVITY (DIL)
~PARAMETER INFORMATION
#MNEM.UNIT           DATA             DESCRIPTION OF MNEMONIC
#---------         -----------     ------------------------------
GL  .M        685.19               : gl           - GROUND LEVEL ELEVATION
EREF.M        685.19               : kb           - ELEVATION OF DEPTH REFERENCE
DATM.M        685.19               : datum        - DATUM ELEVATION
TDD .M        466.344              : tdd          - TOTAL DEPTH DRILLER
RUN .         ONE                  : Run          - RUN NUMBER
ENG .         BILL                 : Engineer     - RECORDING ENGINEER
WIT .         JIM                  : Witness      - WITNESSED BY
MUD .         GEL                  : Mud_type     - MUD TYPE
MATR.         SANDSTONE            : Logunit      - NEUTRON MATRIX
TMAX.C        26.6667              : BHT          - MAXIMUM RECORDED TEMPERATURE
BHTD.M        466.344              : BHTDEP       - MAXIMUM RECORDED TEMPERATURE
MATR.         1                    : LOGUNIT      - NEUTRON MATRIX
RMT .C        25                   : MDTP         - TEMPERATURE OF MUD
NEUT.         1                    : NEUTRON      - NEUTRON TYPE
RESI.         0                    : RESIST       - RESISTIVITY TYPE
RMC .OHMM     0.25                 : RMC          - RESISTIVITY OF MUD CAKE
RMF .OHMM     0.25                 : RMF          - RESISTIVITY OF MUD FILTRATE
SUFT.C        15                   : SUFT         - SURFACE TEMPERATURE
~A  DEPTH     DENS       GR     PHID     PHIN     RESD
# ...
  280.340    0.000   57.615    0.251    0.390   20.647
  280.590    0.000   65.733    0.244    0.431   18.813
  280.840    0.000   75.783    0.225    0.452   15.540
  281.090    0.000  107.713    0.209    0.484   12.467
  281.340    0.000  119.570    0.207    0.500    9.522
  281.590    0.000  116.025    0.210    0.497    7.604
  281.840    0.000  109.238    0.179    0.486    6.553
  282.090    0.000  105.666    0.179    0.473    6.511
  282.340    0.000  105.240    0.195    0.454    6.847
  282.590    0.000  105.788    0.209    0.440    7.707
  282.840    0.000  101.913    0.220    0.439    9.684
  283.090    0.000   96.165    0.231    0.457   11.197
  283.340    0.000   91.987    0.215    0.451   12.868
  283.590    0.000   87.057    0.231    0.426   13.657
  283.840    0.000   83.065    0.241    0.416   14.181
  284.090    0.000   87.010    0.258    0.413   14.330
  284.340    0.000   95.925    0.220    0.434   14.181
  284.590    0.000  100.381    0.209    0.444   13.445
  284.840    0.000  102.156    0.215    0.422   13.079
  285.090    0.000   97.666    0.227    0.408   12.444
  285.340    0.000   91.007    0.232    0.404   12.076
  285.590    0.000   84.508    0.242    0.416   12.154
  285.840    0.000   71.538    0.244    0.451   13.026
  286.090    0.000   64.509    0.263    0.454   14.650
  286.340    0.000   64.807    0.305    0.459   16.858
  286.590    0.000   66.731    0.298    0.456   19.087
  286.840    0.000   69.494    0.270    0.442   21.575
  287.090    0.000   73.824    0.275    0.431   23.314
  287.340    0.000   83.476    0.249    0.429   23.883
  287.590    0.000   96.121    0.207    0.433   21.660
  287.840    0.000  104.331    0.191    0.445   17.829
  288.090    0.000  107.420    0.209    0.465   12.605
  288.340    0.000  108.999    0.206    0.470    9.482
  288.590    0.000  111.018    0.189    0.457    8.020
  288.840    0.000  113.288    0.176    0.454    7.043
  289.090    0.000  115.647    0.179    0.473    6.241
  289.340    0.000  116.144    0.171    0.492    5.668
  289.590    0.000  107.644    0.186    0.488    5.525
  289.840    0.000   95.064    0.196    0.467    5.713
  290.090    0.000   86.258    0.200    0.441    6.435
  290.340    0.000   76.673    0.163    0.417    8.426
  290.590    0.000   73.614    0.146    0.392   11.768
  290.840    0.000   80.240    0.130    0.398   13.997
  291.090    0.000   88.179    0.148    0.478   14.381
  291.340    0.000   89.374    0.232    0.472   13.639
  291.590    0.000   87.365    0.220    0.465   12.428
  291.840    0.000   85.069    0.202    0.467   11.547
  292.090    0.000   86.634    0.212    0.468   11.119
  292.340    0.000   89.124    0.205    0.477   10.225
  292.590    0.000   93.248    0.196    0.483    9.643
  292.840    0.000   95.278    0.198    0.498    9.060
  293.090    0.000   97.918    0.185    0.502    8.717
  293.340    0.000   97.967    0.212    0.454    8.302
  293.590    0.000   95.590    0.218    0.436    8.289
  293.840    0.000   90.937    0.206    0.433    8.477
  294.090    0.000   85.851    0.222    0.422    9.016
  294.340    0.000   81.767    0.250    0.425    9.944
  294.590    0.000   78.633    0.250    0.425   11.630
  294.840    0.000   76.686    0.243    0.414   12.610
  295.090    0.000   74.875    0.241    0.419   13.364
  295.340    0.000   72.827    0.250    0.398   13.766
  295.590    0.000   70.466    0.282    0.373   14.155
  295.840    0.000   68.699    0.300    0.362   15.306
  296.090    0.000   65.906    0.315    0.331   16.405
  296.340    0.000   59.569    0.320    0.243   19.110
  296.590    0.000   55.410    0.339    0.207   23.401
  296.840    0.000   46.984    0.339    0.194   31.350
  297.090    0.000   46.299    0.334    0.207   43.124
  297.340    0.000   46.878    0.330    0.241   57.391
  297.590    0.000   47.828    0.322    0.300   61.847
  297.840    0.000   48.466    0.329    0.303   59.510
  298.090    0.000   45.233    0.327    0.291   50.478
  298.340    0.000   38.815    0.339    0.282   45.050
  298.590    0.000   38.605    0.334    0.322   43.455
  298.840    0.000   39.586    0.323    0.376   45.753
  299.090    0.000   43.023    0.306    0.409   47.014
  299.340    0.000   47.140    0.302    0.416   44.881
  299.590    0.000   48.127    0.287    0.431   41.542
  299.840    0.000   47.468    0.274    0.449   39.865
  300.090    0.000   48.279    0.273    0.438   38.304
  300.340    0.000   47.989    0.289    0.427   39.000
  300.590    0.000   45.555    0.308    0.422   39.832
  300.840    0.000   43.417    0.294    0.425   40.571
  301.090    0.000   41.910    0.300    0.432   41.373
  301.340    0.000   42.285    0.313    0.441   42.688
  301.590    0.000   42.847    0.313    0.445   43.764
  301.840    0.000   42.202    0.303    0.438   48.426
  302.090    0.000   42.305    0.296    0.424   55.059
  302.340    0.000   44.478    0.303    0.415   64.163
  302.590    0.000   43.873    0.313    0.407   73.788
  302.840    0.000   41.513    0.318    0.402   77.153
  303.090    0.000   36.844    0.305    0.402   83.098
  303.340    0.000   35.672    0.296    0.404  100.555
  303.590    0.000   37.036    0.297    0.409  125.989
  303.840    0.000   40.370    0.302    0.421  173.184
  304.090    0.000   40.548    0.317    0.433  237.184
  304.340    0.000   40.608    0.304    0.419  288.466
  304.590    0.000   40.347    0.307    0.416  351.246
  304.840    0.000   40.700    0.299    0.398  400.068
  305.090    0.000   41.806    0.272    0.393  452.603
  305.340    0.000   41.901    0.264    0.397  472.144
  305.590    0.000   41.198    0.277    0.403  491.137
  305.840    0.000   41.771    0.280    0.408  515.234
  306.090    0.000   41.393    0.273    0.418  530.181
  306.340    0.000   40.058    0.259    0.440  518.462
  306.590    0.000   38.958    0.274    0.440  504.190
  306.840    0.000   39.656    0.271    0.435  476.413
  307.090    0.000   42.582    0.282    0.442  439.960
  307.340    0.000   44.885    0.273    0.462  375.465
  307.590    0.000   45.102    0.285    0.455  280.233
  307.840    0.000   42.769    0.282    0.434  211.421
  308.090    0.000   38.768    0.277    0.416  180.881
  308.340    0.000   36.687    0.261    0.407  170.707
  308.590    0.000   39.332    0.268    0.406  171.175
  308.840    0.000   41.674    0.288    0.423  178.740
  309.090    0.000   40.043    0.305    0.453  200.924
  309.340    0.000   39.025    0.316    0.450  214.532
  309.590    0.000   39.246    0.311    0.441  208.743
  309.840    0.000   41.006    0.308    0.445  184.463
  310.090    0.000   44.622    0.301    0.469  160.291
  310.340    0.000   47.578    0.308    0.519  128.014
  310.590    0.000   49.955    0.306    0.530   83.753
  310.840    0.000   49.575    0.309    0.509   58.418
  311.090    0.000   49.389    0.345    0.497   48.114
  311.340    0.000   49.901    0.343    0.494   41.608
  311.590    0.000   51.343    0.338    0.502   33.764
  311.840    0.000   50.383    0.337    0.499   31.675
  312.090    0.000   47.728    0.335    0.480   30.291
  312.340    0.000   47.170    0.336    0.469   29.572
  312.590    0.000   45.810    0.334    0.464   28.976
  312.840    0.000   44.775    0.324    0.459   28.139
  313.090    0.000   44.693    0.325    0.459   27.310
  313.340    0.000   44.694    0.335    0.450   26.510
  313.590    0.000   44.705    0.326    0.436   25.665
  313.840    0.000   44.711    0.334    0.436   25.338
  314.090    0.000   44.747    0.325    0.439   24.684
  314.340    0.000   43.727    0.321    0.449   24.229
  314.590    0.000   43.544    0.330    0.454   23.686
  314.840    0.000   44.067    0.315    0.446   23.411
  315.090    0.000   44.829    0.311    0.444   22.752
  315.340    0.000   44.798    0.316    0.434   22.112
  315.590    0.000   44.851    0.324    0.444   21.132
  315.840    0.000   43.895    0.303    0.459   20.479
  316.090    0.000   43.605    0.298    0.463   19.460
  316.340    0.000   43.335    0.317    0.451   18.919
  316.590    0.000   45.115    0.330    0.438   18.466
