~VERSION INFORMATION
 VERS.                 2.0:   CWLS LOG ASCII STANDARD -VERSION 2.0
 WRAP.                  NO:   ONE LINE PER DEPTH STEP
~WELL INFORMATION BLOCK
#MNEM.UNIT           DATA                    DESCRIPTION OF MNEMONIC
#---------    -------------------            -------------------------------
# Generated from Intellog Unique Number	CX_WELLS/WELL/3232
WELL.         CHEVRON ALGAR                  : Well_name    - WELL
LOC .         00/06-14-083-16W4/0            : Location     - LOCATION
UWI .         00/06-14-083-16W400            : Uwi          - UNIQUE WELL ID
ENTR.         T                              : Entered      - ENTERED BY
SRVC.         SCHLUMBERGER                   : Scn          - SERVICE COMPANY
STRT.F        350                            : top_depth    - START DEPTH
STOP.F        879.856                        : bot_depth    - STOP DEPTH
STEP.F        0.82                           : increment    - STEP LENGTH
 NULL. -999.2500:NULL Value
~CURVE INFORMATION BLOCK
#MNEM UNIT       ERCB CURVE CODE    CURVE DESCRIPTION
#-----------   ------------------   ----------------------------------
DEPT.F        00 001 00 00         : DEPTH        - DEPTH
GR  .API      00 310 00 00         : GR           - GAMMA RAY
NPHI.V/V      00 330 00 00         : PHIN         - NEUTRON POROSITY (SANDSTONE)
DPHI.V/V      00 890 00 00         : PHID         - DENSITY POROSITY (SANDSTONE)
ILD .OHMM     00 120 00 00         : RESD         - DEEP RESISTIVITY (DIL)
~PARAMETER INFORMATION
#MNEM.UNIT           DATA             DESCRIPTION OF MNEMONIC
#---------         -----------     ------------------------------
GL  .F        1713.5               : gl           - GROUND LEVEL ELEVATION
EREF.F        1731                 : kb           - ELEVATION OF DEPTH REFERENCE
DATM.F        1731                 : datum        - DATUM ELEVATION
TDD .F        883                  : tdd          - TOTAL DEPTH DRILLER
RUN .         ONE                  : Run          - RUN NUMBER
ENG .         BILL                 : Engineer     - RECORDING ENGINEER
WIT .         JIM                  : Witness      - WITNESSED BY
MUD .         GEL                  : Mud_type     - MUD TYPE
MATR.         SANDSTONE            : Logunit      - NEUTRON MATRIX
TMAX.F        85                   : BHT          - MAXIMUM RECORDED TEMPERATURE
BHTD.F        883                  : BHTDEP       - MAXIMUM RECORDED TEMPERATURE
MATR.         1                    : LOGUNIT      - NEUTRON MATRIX
RMT .F        77                   : MDTP         - TEMPERATURE OF MUD
NEUT.         1                    : NEUTRON      - NEUTRON TYPE
RESI.         3.55                 : RESIST       - RESISTIVITY TYPE
RMC .OHMM     3.55                 : RMC          - RESISTIVITY OF MUD CAKE
RMF .OHMM     3.55                 : RMF          - RESISTIVITY OF MUD FILTRATE
SUFT.F        32                   : SUFT         - SURFACE TEMPERATURE
~A  DEPTH       GR     PHIN     PHID     RESD
# ...
  635.433   73.068    0.500    0.285    8.296
  636.253   73.118    0.495    0.291    8.306
  637.073   71.973    0.489    0.291    8.319
  637.894   67.255    0.487    0.284    8.332
  638.714   69.684    0.487    0.291    8.347
  639.534   73.930    0.497    0.304    8.355
  640.354   71.603    0.500    0.307    8.516
  641.175   71.043    0.496    0.302    8.526
  641.995   71.093    0.501    0.304    8.699
  642.815   71.754    0.505    0.303    8.872
  643.635   71.207    0.506    0.300    8.877
  644.455   68.867    0.506    0.302    8.891
  645.276   68.319    0.507    0.313    8.905
  646.096   69.565    0.508    0.319    8.913
  646.916   70.225    0.511    0.314    8.924
  647.736   68.483    0.514    0.298    8.941
  648.556   67.948    0.518    0.291    8.794
  649.377   71.572    0.511    0.281    8.643
  650.197   77.013    0.500    0.284    8.654
  651.017   78.869    0.504    0.286    8.509
  651.837   79.504    0.517    0.285    8.519
  652.657   80.165    0.518    0.290    8.535
  653.478   78.448    0.487    0.294    8.392
  654.298   77.290    0.494    0.302    8.251
  655.118   75.535    0.507    0.309    8.259
  655.938   76.806    0.517    0.327    7.979
  656.759   80.430    0.513    0.322    7.843
  657.579   82.883    0.500    0.299    7.572
  658.399   83.544    0.501    0.291    7.445
  659.219   85.984    0.511    0.285    7.733
  660.039   89.023    0.514    0.293    8.031
  660.860   91.489    0.510    0.285    8.191
  661.680   92.709    0.513    0.276    7.908
  662.500   93.955    0.517    0.271    7.636
  663.320   91.615    0.517    0.266    7.370
  664.140   90.483    0.519    0.265    7.118
  664.961   90.533    0.520    0.267    6.999
  665.781   89.999    0.524    0.271    6.762
  666.601   88.841    0.521    0.270    6.768
  667.421   88.294    0.521    0.265    6.777
  668.241   87.174    0.523    0.262    6.916
  669.062   86.615    0.527    0.262    6.920
  669.882   86.677    0.535    0.261    7.185
  670.702   87.313    0.543    0.258    7.596
  671.522   91.572    0.541    0.264    8.484
  672.343   90.440    0.537    0.283    9.132
  673.163   88.685    0.534    0.311   10.770
  673.983   85.734    0.543    0.326   12.698
  674.803   73.858    0.562    0.335   14.446
  675.623   73.285    0.534    0.373   14.204
  676.444   69.763    0.504    0.309   13.714
  677.264   66.240    0.489    0.278   12.769
  678.084   63.290    0.467    0.224   11.465
  678.904   61.548    0.283    0.091   10.294
  679.724   62.793    0.294    0.134    9.418
  680.545   66.467    0.407    0.210    9.427
  681.365   66.492    0.434    0.290    9.611
  682.185   67.153    0.460    0.292    9.800
  683.005   67.801    0.488    0.292   10.175
  683.825   67.851    0.511    0.291   10.768
  684.646   68.499    0.506    0.289   10.975
  685.466   68.550    0.481    0.284   11.190
  686.286   68.028    0.481    0.280   11.204
  687.106   67.481    0.472    0.272   11.016
  687.927   66.323    0.455    0.234   10.643
  688.747   61.593    0.420    0.177   10.643
  689.567   58.668    0.377    0.163    9.928
  690.387   66.487    0.364    0.150    9.934
  691.207   77.294    0.430    0.148    9.946
  692.028   82.736    0.451    0.270    9.782
  692.848   86.371    0.457    0.288    9.794
  693.668   87.642    0.454    0.274    9.983
  694.488   85.887    0.452    0.262    9.999
  695.308   83.560    0.469    0.271   10.194
  696.129   81.805    0.478    0.278   10.207
  696.949   78.270    0.476    0.289    9.681
  697.769   75.332    0.479    0.301    9.518
  698.589   71.199    0.480    0.305    9.362
  699.409   70.677    0.475    0.296    9.370
  700.230   71.923    0.474    0.288    9.216
  701.050   72.584    0.478    0.279    9.064
  701.870   72.011    0.482    0.273    8.439
  702.690   71.489    0.486    0.266    7.716
  703.510   73.917    0.485    0.258    7.187
  704.331   80.541    0.485    0.286    6.937
  705.151   83.592    0.483    0.305    6.461
  705.971   81.265    0.477    0.318    6.469
  706.791   79.522    0.471    0.321    6.719
  707.612   80.755    0.487    0.321    6.973
  708.432   86.197    0.516    0.326    7.786
  709.252   90.443    0.533    0.320    9.017
  710.072   92.286    0.549    0.316   10.255
  710.892   90.569    0.540    0.302   10.648
  711.713   89.997    0.524    0.290   10.469
  712.533   87.657    0.532    0.283    9.930
  713.353   85.317    0.542    0.291    9.245
  714.173   82.989    0.535    0.298    8.451
  714.993   81.260    0.520    0.289    7.590
  715.814   80.115    0.508    0.277    7.067
  716.634   82.543    0.459    0.269    6.703
  717.454   88.595    0.471    0.264    6.711
  718.274   90.438    0.485    0.256    6.968
  719.094   92.281    0.506    0.246    7.237
  719.915   95.917    0.517    0.240    7.376
  720.735   97.760    0.514    0.250    7.663
  721.555   96.615    0.515    0.243    7.813
  722.375   94.288    0.517    0.243    7.680
  723.196   94.338    0.514    0.246    7.417
  724.016   95.597    0.509    0.244    7.033
  724.836   96.842    0.505    0.242    7.046
  725.656   99.283    0.504    0.239    7.050
  726.476  100.529    0.498    0.237    7.327
  727.297  100.579    0.492    0.233    7.466
  728.117  104.228    0.482    0.234    8.185
  728.937  104.876    0.481    0.238    9.309
  729.757  103.731    0.488    0.241   10.023
  730.577  100.208    0.490    0.241   10.410
  731.398   97.856    0.484    0.239   10.054
  732.218   94.346    0.481    0.234    9.704
  733.038   93.201    0.488    0.235    9.204
  733.858   93.251    0.495    0.238    8.890
  734.678   93.899    0.472    0.233    8.740
  735.499   93.962    0.461    0.229    8.751
  736.319   94.013    0.461    0.229    9.250
  737.139   94.063    0.460    0.226   10.331
  737.959   93.516    0.459    0.227   10.923
  738.780   93.566    0.462    0.228   11.556
  739.600   93.629    0.470    0.228   11.786
  740.420   95.472    0.485    0.227   11.793
  741.240   97.901    0.497    0.226   11.807
  742.060   95.586    0.491    0.229   12.050
  742.881   94.428    0.476    0.240   12.057
  743.701   91.516    0.448    0.248   12.076
  744.521   90.944    0.455    0.260   12.091
  745.341   89.811    0.468    0.255   12.106
  746.161   86.874    0.473    0.258   12.347
  746.982   82.741    0.462    0.266   12.143
  747.802   78.621    0.451    0.273   12.159
  748.622   78.073    0.445    0.278   11.951
  749.442   77.514    0.437    0.270   11.966
  750.262   76.992    0.428    0.261   11.352
  751.083   77.042    0.437    0.248   11.363
  751.903   76.482    0.446    0.243   10.777
  752.723   75.960    0.452    0.257   10.412
  753.543   75.986    0.456    0.265   10.234
  754.364   77.256    0.461    0.257   10.059
  755.184   78.502    0.459    0.234    9.890
  756.004   78.552    0.456    0.222    9.906
  756.824   78.603    0.454    0.237    9.918
  757.644   78.068    0.445    0.263    9.933
  758.465   77.521    0.436    0.271   10.313
  759.285   76.974    0.441    0.278   11.311
  760.105   76.414    0.446    0.267   12.398
  760.925   74.684    0.457    0.257   12.645
  761.745   73.539    0.459    0.267   11.773
  762.566   72.394    0.462    0.268   11.163
  763.386   73.068    0.456    0.265   10.587
  764.206   73.703    0.440    0.257   10.229
  765.026   72.558    0.416    0.211   10.238
  765.846   67.828    0.391    0.193   10.063
  766.667   66.683    0.368    0.170    9.897
  767.487   67.331    0.354    0.156    9.910
  768.307   69.810    0.363    0.148    9.922
  769.127   71.030    0.390    0.201    9.934
  769.948   72.898    0.420    0.225    9.770
  770.768   75.339    0.453    0.226    9.607
  771.588   77.183    0.476    0.225    9.275
  772.408   79.013    0.488    0.232    8.956
  773.228   81.479    0.492    0.246    8.344
  774.049   82.725    0.479    0.255    8.201
  774.869   83.385    0.464    0.254    7.921
  775.689   83.410    0.465    0.248    7.788
  776.509   81.108    0.467    0.245    7.384
  777.329   79.938    0.474    0.241    7.129
