~VERSION INFORMATION
 VERS.                 2.0:   CWLS LOG ASCII STANDARD -VERSION 2.0
 WRAP.                  NO:   ONE LINE PER DEPTH STEP
~WELL INFORMATION BLOCK
#MNEM.UNIT           DATA                    DESCRIPTION OF MNEMONIC
#---------    -------------------            -------------------------------
# Generated from Intellog Unique Number	CS_69_70/WELL/637
WELL.         CANADA-CITIES SERVICES         : Well_name    - WELL
LOC .         00/05-15-069-11W4/0            : Location     - LOCATION
UWI .         00/05-15-069-11W4/0            : Uwi          - UNIQUE WELL ID
ENTR.         SP                             : Entered      - ENTERED BY
SRVC.         SCHLUMBERGER                   : Scn          - SERVICE COMPANY
STRT.M        300                            : top_depth    - START DEPTH
STOP.M        490                            : bot_depth    - STOP DEPTH
STEP.M        0.25                           : increment    - STEP LENGTH
 NULL. -999.2500:NULL Value
~CURVE INFORMATION BLOCK
#MNEM UNIT       ERCB CURVE CODE    CURVE DESCRIPTION
#-----------   ------------------   ----------------------------------
DEPT.M        00 001 00 00         : DEPTH        - DEPTH
ILD .OHMM     00 120 00 00         : RESD         - DEEP RESISTIVITY (DIL)
DPHI.V/V      00 890 00 00         : PHID         - DENSITY POROSITY (LIMESTONE)
NPHI.V/V      00 330 00 00         : PHIN         - NEUTRON POROSITY (LIMESTONE)
GR  .API      00 310 00 00         : GR           - GAMMA RAY
~PARAMETER INFORMATION
#MNEM.UNIT           DATA             DESCRIPTION OF MNEMONIC
#---------         -----------     ------------------------------
GL  .M        623.6                : gl           - GROUND LEVEL ELEVATION
EREF.M        627.05               : kb           - ELEVATION OF DEPTH REFERENCE
DATM.M        623.6                : datum        - DATUM ELEVATION
TDD .M        604.7                : tdd          - TOTAL DEPTH DRILLER
RUN .         ONE                  : Run          - RUN NUMBER
ENG .         BILL                 : Engineer     - RECORDING ENGINEER
WIT .         JIM                  : Witness      - WITNESSED BY
MUD .         GEL                  : Mud_type     - MUD TYPE
MATR.         LIMESTONE            : Logunit      - NEUTRON MATRIX
TMAX.C        21                   : BHT          - MAXIMUM RECORDED TEMPERATURE
BHTD.M        604.7                : BHTDEP       - MAXIMUM RECORDED TEMPERATURE
MATR.         1                    : LOGUNIT      - NEUTRON MATRIX
RMT .C        25                   : MDTP         - TEMPERATURE OF MUD
NEUT.         1                    : NEUTRON      - NEUTRON TYPE
RESI.         0                    : RESIST       - RESISTIVITY TYPE
RMC .OHMM     0.25                 : RMC          - RESISTIVITY OF MUD CAKE
RMF .OHMM     0.25                 : RMF          - RESISTIVITY OF MUD FILTRATE
SUFT.C        15                   : SUFT         - SURFACE TEMPERATURE
~A  DEPTH     RESD     PHID     PHIN       GR
# ...
  430.500    2.334    0.248    0.480  119.411
  430.750    2.318    0.236    0.477  120.160
  431.000    2.390    0.222    0.474  119.012
  431.250    2.446    0.211    0.461  119.335
  431.500    2.508    0.204    0.450  120.821
  431.750    2.577    0.204    0.451  119.305
  432.000    2.638    0.216    0.461  115.337
  432.250    2.659    0.228    0.455  112.290
  432.500    2.686    0.238    0.440  109.671
  432.750    2.698    0.250    0.425  109.197
  433.000    2.700    0.261    0.416  107.986
  433.250    2.701    0.273    0.425  101.692
  433.500    2.734    0.285    0.429   98.336
  433.750    2.782    0.269    0.415   95.472
  434.000    2.913    0.260    0.405  100.084
  434.250    3.073    0.253    0.395  105.862
  434.500    3.247    0.249    0.388  109.857
  434.750    3.445    0.248    0.373  106.687
  435.000    3.648    0.251    0.369  100.268
  435.250    3.783    0.257    0.382  102.368
  435.500    3.836    0.258    0.400  105.937
  435.750    3.911    0.233    0.389  109.386
  436.000    4.149    0.190    0.351  105.785
  436.250    4.579    0.156    0.304   98.509
  436.500    5.150    0.131    0.277   88.415
  436.750    5.599    0.157    0.258   75.808
  437.000    5.995    0.218    0.299   81.706
  437.250    6.348    0.238    0.342   92.690
  437.500    5.474    0.235    0.367  103.490
  437.750    4.782    0.226    0.376  107.426
  438.000    4.290    0.222    0.365  101.010
  438.250    3.988    0.217    0.367   97.348
  438.500    3.901    0.213    0.385  100.673
  438.750    3.933    0.212    0.392  106.571
  439.000    4.003    0.212    0.384  111.059
  439.250    4.067    0.213    0.379  113.649
  439.500    4.100    0.216    0.386  115.565
  439.750    4.118    0.217    0.393  117.908
  440.000    4.151    0.219    0.391  114.248
  440.250    4.170    0.220    0.392  111.443
  440.500    4.157    0.221    0.403  114.646
  440.750    4.175    0.222    0.411  116.499
  441.000    4.210    0.221    0.406  117.312
  441.250    4.228    0.221    0.398  110.651
  441.500    4.263    0.220    0.392  107.111
  441.750    4.281    0.218    0.387  108.781
  442.000    4.300    0.217    0.389  109.106
  442.250    4.311    0.217    0.382  109.424
  442.500    4.338    0.216    0.377  106.254
  442.750    4.366    0.216    0.376  103.330
  443.000    4.368    0.214    0.385  103.592
  443.250    4.355    0.215    0.391  106.485
  443.500    4.268    0.218    0.386  111.831
  443.750    4.044    0.230    0.395  117.180
  444.000    3.867    0.240    0.410  121.299
  444.250    3.589    0.251    0.407  115.188
  444.500    3.355    0.258    0.400  105.522
  444.750    3.173    0.255    0.397   96.837
  445.000    3.034    0.249    0.402   95.508
  445.250    2.974    0.241    0.408  100.422
  445.500    2.987    0.233    0.402  106.382
  445.750    3.075    0.223    0.398  109.032
  446.000    3.182    0.215    0.395  109.844
  446.250    3.383    0.204    0.396  111.147
  446.500    3.630    0.197    0.403  108.898
  446.750    3.778    0.191    0.408  107.379
  447.000    3.831    0.184    0.411  110.767
  447.250    3.762    0.181    0.405  113.048
  447.500    3.557    0.190    0.400  106.446
  447.750    3.233    0.212    0.403   99.844
  448.000    2.938    0.232    0.435  101.881
  448.250    2.651    0.240    0.458  106.004
  448.500    2.418    0.238    0.463  109.085
  448.750    2.219    0.236    0.466  110.445
  449.000    2.150    0.235    0.472  109.603
  449.250    2.189    0.240    0.485  105.639
  449.500    2.261    0.252    0.509  103.754
  449.750    2.390    0.266    0.497  101.934
  450.000    2.493    0.277    0.462   99.376
  450.250    2.651    0.287    0.436   96.509
  450.500    2.676    0.279    0.417   93.154
  450.750    2.708    0.271    0.418   98.255
  451.000    2.756    0.265    0.423  104.644
  451.250    2.805    0.260    0.423  109.808
  451.500    2.833    0.257    0.423  104.063
  451.750    2.862    0.258    0.427  100.769
  452.000    2.891    0.257    0.434   98.397
  452.250    2.926    0.254    0.397   99.210
  452.500    3.011    0.250    0.375  101.124
  452.750    3.076    0.245    0.365  100.832
  453.000    3.167    0.239    0.366   97.481
  453.250    3.223    0.234    0.372   96.513
  453.500    3.268    0.228    0.381   99.901
  453.750    3.319    0.220    0.389  102.059
  454.000    3.366    0.216    0.397  103.361
  454.250    3.399    0.209    0.401  103.685
  454.500    3.440    0.204    0.394  106.889
  454.750    3.449    0.201    0.393  109.169
  455.000    3.464    0.204    0.413  111.945
  455.250    3.514    0.205    0.417  113.367
  455.500    3.521    0.200    0.409  108.543
  455.750    3.543    0.182    0.403  104.942
  456.000    3.313    0.171    0.401  104.284
  456.250    3.057    0.164    0.404  106.752
  456.500    2.837    0.180    0.418  110.260
  456.750    2.593    0.190    0.436  112.665
  457.000    2.489    0.199    0.443  114.704
  457.250    2.491    0.200    0.449  116.679
  457.500    2.554    0.194    0.438  116.449
  457.750    2.629    0.190    0.433  112.729
  458.000    2.681    0.188    0.428  114.215
  458.250    2.703    0.191    0.427  117.415
  458.500    2.704    0.200    0.427  121.536
  458.750    2.671    0.208    0.428  123.329
  459.000    2.502    0.212    0.462  121.200
  459.250    2.429    0.203    0.459  125.444
  459.500    2.332    0.199    0.444  129.445
  459.750    2.294    0.206    0.438  131.296
  460.000    2.335    0.224    0.434  131.068
  460.250    2.646    0.241    0.490  126.366
  460.500    3.009    0.251    0.507  121.909
  460.750    3.629    0.261    0.466  118.553
  461.000    4.359    0.265    0.395  110.542
  461.250    5.327    0.254    0.365  101.183
  461.500    6.388    0.247    0.351   92.560
  461.750    7.238    0.244    0.345   86.937
  462.000    7.824    0.259    0.347   84.134
  462.250    8.238    0.268    0.355   83.722
  462.500    8.529    0.272    0.363   80.858
  462.750    8.680    0.274    0.365   77.380
  463.000    8.766    0.276    0.366   74.332
  463.250    8.723    0.276    0.363   71.837
  463.500    8.597    0.274    0.358   72.770
  463.750    8.555    0.271    0.353   75.850
  464.000    8.608    0.267    0.347   78.072
  464.250    8.961    0.262    0.340   79.006
  464.500    9.241    0.252    0.335   78.593
  464.750    9.352    0.241    0.330   74.258
  465.000    8.860    0.210    0.319   71.823
  465.250    8.269    0.157    0.308   75.638
  465.500    7.923    0.132    0.308   80.865
  465.750    7.913    0.153    0.322   84.983
  466.000    7.993    0.201    0.333   88.308
  466.250    8.028    0.243    0.339   87.955
  466.500    7.973    0.264    0.345   83.561
  466.750    7.844    0.261    0.354   87.618
  467.000    7.574    0.247    0.350   94.865
  467.250    7.577    0.236    0.345  100.886
  467.500    8.069    0.226    0.341  106.600
  467.750    8.706    0.219    0.340  114.274
  468.000    9.483    0.232    0.333  122.132
  468.250   10.116    0.251    0.331  113.876
  468.500   10.651    0.263    0.341   96.369
  468.750   10.943    0.270    0.348   83.884
  469.000   10.888    0.275    0.346   80.959
  469.250   10.551    0.272    0.351   86.676
  469.500    9.773    0.262    0.357   92.023
  469.750    8.619    0.250    0.352   95.895
  470.000    7.560    0.243    0.350  101.059
  470.250    7.188    0.238    0.362  107.753
  470.500    6.953    0.235    0.372  114.508
  470.750    6.789    0.239    0.380  115.750
  471.000    6.716    0.242    0.368  114.479
  471.250    6.620    0.245    0.361  117.068
  471.500    6.550    0.245    0.358  120.822
  471.750    6.481    0.234    0.349  123.779
  472.000    6.411    0.216    0.331  123.059
  472.250    6.296    0.200    0.305  117.010
  472.500    6.217    0.187    0.296  110.712
  472.750    6.151    0.184    0.310  100.557
  473.000    6.086    0.200    0.325   99.532
  473.250    6.066    0.211    0.336  105.735
  473.500    6.059    0.219    0.333  112.798
  473.750    6.074    0.229    0.328  113.551
