~VERSION INFORMATION
 VERS.                 2.0:   CWLS LOG ASCII STANDARD -VERSION 2.0
 WRAP.                  NO:   ONE LINE PER DEPTH STEP
~WELL INFORMATION BLOCK
#MNEM.UNIT           DATA                    DESCRIPTION OF MNEMONIC
#---------    -------------------            -------------------------------
# Generated from Intellog Unique Number	CS_77_79/WELL/887
WELL.         MESA PORTAGE                   : Well_name    - WELL
LOC .         00/06-33-078-18W4/0            : Location     - LOCATION
UWI .         00/06-33-078-18W4/0            : Uwi          - UNIQUE WELL ID
ENTR.         JHS                            : Entered      - ENTERED BY
SRVC.         SCHLUMBERGER                   : Scn          - SERVICE COMPANY
STRT.M        213.360                        : top_depth    - START DEPTH
STOP.M        396.110                        : bot_depth    - STOP DEPTH
STEP.M        0.25                           : increment    - STEP LENGTH
 NULL. -999.2500:NULL Value
~CURVE INFORMATION BLOCK
#MNEM UNIT       ERCB CURVE CODE    CURVE DESCRIPTION
#-----------   ------------------   ----------------------------------
DEPT.M        00 001 00 00         : DEPTH        - DEPTH
RHOB.KG/M3    00 350 00 00         : DENS         - BULK DENSITY
GR  .API      00 310 00 00         : GR           - GAMMA RAY
DPHI.V/V      00 890 00 00         : PHID         - DENSITY POROSITY (SANDSTONE)
NPHI.V/V      00 330 00 00         : PHIN         - NEUTRON POROSITY (SANDSTONE)
ILD .OHMM     00 120 00 00         : RESD         - DEEP RESISTIVITY (DIL)
~PARAMETER INFORMATION
#MNEM.UNIT           DATA             DESCRIPTION OF MNEMONIC
#---------         -----------     ------------------------------
GL  .M        552.816              : gl           - GROUND LEVEL ELEVATION
EREF.M        555.955              : kb           - ELEVATION OF DEPTH REFERENCE
DATM.M        555.955              : datum        - DATUM ELEVATION
TDD .M        422.148              : tdd          - TOTAL DEPTH DRILLER
RUN .         ONE                  : Run          - RUN NUMBER
ENG .         BILL                 : Engineer     - RECORDING ENGINEER
WIT .         JIM                  : Witness      - WITNESSED BY
MUD .         GEL                  : Mud_type     - MUD TYPE
MATR.         SANDSTONE            : Logunit      - NEUTRON MATRIX
TMAX.C        21.1111              : BHT          - MAXIMUM RECORDED TEMPERATURE
BHTD.M        422.148              : BHTDEP       - MAXIMUM RECORDED TEMPERATURE
MATR.         1                    : LOGUNIT      - NEUTRON MATRIX
RMT .C        25                   : MDTP         - TEMPERATURE OF MUD
NEUT.         1                    : NEUTRON      - NEUTRON TYPE
RESI.         0                    : RESIST       - RESISTIVITY TYPE
RMC .OHMM     0.25                 : RMC          - RESISTIVITY OF MUD CAKE
RMF .OHMM     0.25                 : RMF          - RESISTIVITY OF MUD FILTRATE
SUFT.C        15                   : SUFT         - SURFACE TEMPERATURE
~A  DEPTH     DENS       GR     PHID     PHIN     RESD
# ...
  249.860    0.000   52.335    0.331    0.469   14.243
  250.110    0.000   57.264    0.320    0.463   13.730
  250.360    0.000   61.715    0.341    0.455   13.540
  250.610    0.000   63.669    0.330    0.458   13.505
  250.860   -0.000   62.276    0.330    0.472   13.505
  251.110    0.000   60.217    0.316    0.471   13.514
  251.360    0.000   60.004    0.302    0.465   13.537
  251.610   -0.000   59.404    0.272    0.453   13.282
  251.860   -0.000   56.648    0.246    0.444   13.106
  252.110   -0.000   57.386    0.273    0.461   13.294
  252.360    0.000   60.460    0.323    0.495   13.762
  252.610    0.000   62.523    0.320    0.480   13.902
  252.860    0.000   63.717    0.299    0.478   14.338
  253.110   -0.000   65.732    0.298    0.468   14.565
  253.360   -0.000   67.325    0.286    0.481   14.604
  253.610   -0.000   67.954    0.290    0.497   14.621
  253.860    0.000   67.921    0.280    0.459   14.656
  254.110    0.000   66.362    0.288    0.441   14.342
  254.360    0.000   58.880    0.280    0.431   14.376
  254.610   -0.000   59.225    0.283    0.440   14.377
  254.860   -0.000   62.751    0.264    0.438   14.318
  255.110    0.000   62.684    0.268    0.455   14.143
  255.360    0.000   61.334    0.289    0.487   13.855
  255.610    0.000   61.495    0.299    0.484   13.844
  255.860   -0.000   62.515    0.305    0.473   13.640
  256.110   -0.000   62.748    0.304    0.467   13.651
  256.360   -0.000   61.444    0.295    0.459   13.655
  256.610    0.000   61.271    0.279    0.458   13.879
  256.860    0.000   64.637    0.287    0.446   13.946
  257.110    0.000   65.091    0.303    0.442   13.675
  257.360   -0.000   65.529    0.284    0.461   13.688
  257.610   -0.000   66.717    0.293    0.449   13.617
  257.860    0.000   68.153    0.289    0.452   13.457
  258.110    0.000   66.587    0.293    0.467   13.487
  258.360    0.000   63.034    0.276    0.468   13.199
  258.610   -0.000   62.755    0.272    0.479   13.232
  258.860   -0.000   63.782    0.269    0.477   13.231
  259.110   -0.000   64.010    0.287    0.465   13.206
  259.360    0.000   63.946    0.290    0.464   13.007
  259.610    0.000   65.689    0.281    0.472   13.127
  259.860    0.000   65.177    0.276    0.457   13.262
  260.110   -0.000   64.225    0.299    0.449   13.275
  260.360   -0.000   63.377    0.307    0.458   13.290
  260.610   -0.000   64.766    0.298    0.465   13.031
  260.860    0.000   70.087    0.283    0.476   12.287
  261.110    0.000   76.873    0.271    0.472   11.270
  261.360   -0.000   80.357    0.253    0.458   10.486
  261.610   -0.000   82.124    0.240    0.448    9.655
  261.860   -0.000   81.457    0.248    0.455    8.905
  262.110    0.000   81.032    0.263    0.477    7.615
  262.360    0.000   81.023    0.276    0.517    6.893
  262.610    0.000   80.932    0.291    0.536    6.871
  262.860   -0.000   76.895    0.298    0.542    6.977
  263.110   -0.000   71.526    0.322    0.524    7.246
  263.360   -0.000   69.023    0.313    0.508    7.716
  263.610    0.000   61.999    0.300    0.511    8.461
  263.860    0.000   55.336    0.312    0.491    9.278
  264.110   -0.000   55.846    0.302    0.448    9.965
  264.360   -0.000   57.521    0.296    0.438   10.483
  264.610   -0.000   57.418    0.297    0.482   10.808
  264.860    0.000   55.934    0.284    0.478   10.948
  265.110    0.000   54.947    0.290    0.459   10.837
  265.360    0.000   54.895    0.315    0.450   10.739
  265.610   -0.000   56.893    0.304    0.449   10.395
  265.860   -0.000   59.228    0.293    0.462   10.388
  266.110   -0.000   57.644    0.291    0.480   10.399
  266.360    0.000   55.061    0.283    0.473   10.751
  266.610    0.000   55.746    0.300    0.457   10.783
  266.860    0.000   56.022    0.290    0.447   10.795
  267.110   -0.000   56.652    0.283    0.454   10.799
  267.360   -0.000   56.476    0.269    0.447   10.803
  267.610    0.000   56.034    0.298    0.442   10.812
  267.860    0.000   56.781    0.307    0.448   10.924
  268.110    0.000   56.048    0.289    0.469   11.290
  268.360   -0.000   55.585    0.277    0.493   11.433
  268.610   -0.000   54.872    0.322    0.491   11.686
  268.860   -0.000   54.975    0.340    0.467   11.677
  269.110    0.000   56.029    0.319    0.455   11.492
  269.360    0.000   57.164    0.313    0.451   11.401
  269.610    0.000   60.649    0.301    0.454   11.048
  269.860   -0.000   66.668    0.291    0.446   10.417
  270.110   -0.000   71.538    0.277    0.442    9.928
  270.360   -0.000   75.493    0.249    0.457    9.210
  270.610    0.000   77.128    0.261    0.469    8.706
  270.860    0.000   77.051    0.233    0.462    7.853
  271.110   -0.000   75.512    0.306    0.462    7.290
  271.360   -0.000   77.862    0.322    0.457    6.904
  271.610   -0.000   78.290    0.325    0.483    7.038
  271.860    0.000   74.835    0.352    0.512    7.245
  272.110    0.000   69.949    0.336    0.486    7.699
  272.360    0.000   69.026    0.327    0.475    7.991
  272.610   -0.000   71.155    0.294    0.476    7.890
  272.860   -0.000   74.979    0.286    0.488    7.444
  273.110   -0.000   78.720    0.266    0.506    7.012
  273.360    0.000   81.720    0.238    0.510    6.487
  273.610    0.000   82.291    0.235    0.501    5.948
  273.860   -0.000   82.370    0.240    0.508    5.646
  274.110   -0.000   81.379    0.231    0.512    5.778
  274.360   -0.000   82.448    0.235    0.489    6.038
  274.610    0.000   80.329    0.194    0.472    6.616
  274.860    0.000   69.813    0.178    0.461    7.541
  275.110    0.000   63.715    0.129    0.414    8.399
  275.360   -0.000   65.859    0.113    0.306    9.058
  275.610   -0.000   74.835    0.155    0.329    9.329
  275.860   -0.000   78.284    0.216    0.446    9.124
  276.110    0.000   76.688    0.263    0.482    8.507
  276.360    0.000   75.911    0.270    0.480    7.413
  276.610    0.000   77.658    0.257    0.476    7.078
  276.860   -0.000   79.945    0.259    0.483    6.724
  277.110   -0.000   83.770    0.291    0.503    6.685
  277.360    0.000   84.925    0.275    0.506    6.471
  277.610    0.000   84.709    0.274    0.507    6.397
  277.860    0.000   83.045    0.268    0.503    6.317
  278.110   -0.000   83.114    0.269    0.501    6.131
  278.360   -0.000   83.944    0.275    0.511    6.008
  278.610   -0.000   82.477    0.254    0.532    6.025
  278.860    0.000   83.047    0.284    0.512    6.018
  279.110    0.000   84.075    0.264    0.495    6.168
  279.360    0.000   80.624    0.249    0.484    6.036
  279.610   -0.000   79.290    0.243    0.483    6.158
  279.860   -0.000   81.249    0.228    0.492    6.154
  280.110    0.000   83.231    0.240    0.484    6.156
  280.360    0.000   84.900    0.261    0.488    6.156
  280.610    0.000   84.771    0.275    0.499    6.136
  280.860   -0.000   81.596    0.253    0.496    6.057
  281.110   -0.000   81.592    0.241    0.502    5.936
  281.360   -0.000   77.086    0.256    0.491    5.953
  281.610    0.000   78.885    0.250    0.498    6.346
  281.860    0.000   78.191    0.266    0.513    7.099
  282.110    0.000   70.150    0.228    0.451    8.548
  282.360   -0.000   62.028    0.133    0.324   10.150
  282.610   -0.000   65.428    0.095    0.301   11.585
  282.860   -0.000   72.602    0.151    0.307   12.710
  283.110    0.000   73.659    0.169    0.399   13.089
  283.360    0.000   74.408    0.143    0.374   12.353
  283.610   -0.000   79.740    0.159    0.343   11.430
  283.860   -0.000   79.237    0.211    0.421   10.542
  284.110   -0.000   76.509    0.232    0.450    9.959
  284.360    0.000   75.139    0.204    0.441    9.854
  284.610    0.000   76.121    0.209    0.446    9.657
  284.860    0.000   79.377    0.207    0.443    9.696
  285.110   -0.000   79.387    0.213    0.463    9.852
  285.360   -0.000   77.546    0.215    0.459   10.071
  285.610   -0.000   76.306    0.207    0.444   10.056
  285.860    0.000   77.463    0.217    0.454   10.072
  286.110    0.000   81.116    0.228    0.450    9.775
