~VERSION INFORMATION
 VERS.                 2.0:   CWLS LOG ASCII STANDARD -VERSION 2.0
 WRAP.                  NO:   ONE LINE PER DEPTH STEP
~WELL INFORMATION BLOCK
#MNEM.UNIT           DATA                    DESCRIPTION OF MNEMONIC
#---------    -------------------            -------------------------------
# Generated from Intellog Unique Number	CS_73_76/WELL/2166
WELL.         BOW VALLEY INDUSTRIES LTD.     : Well_name    - WELL
LOC .         00/06-23-074-14W4/0            : Location     - LOCATION
UWI .         00/06-23-074-14W4/0            : Uwi          - UNIQUE WELL ID
ENTR.         SP                             : Entered      - ENTERED BY
SRVC.         SCHLUMBERGER                   : Scn          - SERVICE COMPANY
STRT.M        410                            : top_depth    - START DEPTH
STOP.M        625                            : bot_depth    - STOP DEPTH
STEP.M        0.25                           : increment    - STEP LENGTH
 NULL. -999.2500:NULL Value
~CURVE INFORMATION BLOCK
#MNEM UNIT       ERCB CURVE CODE    CURVE DESCRIPTION
#-----------   ------------------   ----------------------------------
DEPT.M        00 001 00 00         : DEPTH        - DEPTH
GR  .API      00 310 00 00         : GR           - GAMMA RAY
NPHI.V/V      00 330 00 00         : PHIN         - NEUTRON POROSITY (LIMESTONE)
ILD .OHMM     00 120 00 00         : RESD         - DEEP RESISTIVITY (DIL)
DPHI.V/V      00 890 00 00         : PHID         - DENSITY POROSITY (LIMESTONE)
~PARAMETER INFORMATION
#MNEM.UNIT           DATA             DESCRIPTION OF MNEMONIC
#---------         -----------     ------------------------------
GL  .M        770.81               : gl           - GROUND LEVEL ELEVATION
EREF.M        774.16               : kb           - ELEVATION OF DEPTH REFERENCE
DATM.M        770.81               : datum        - DATUM ELEVATION
TDD .M        626                  : tdd          - TOTAL DEPTH DRILLER
RUN .         ONE                  : Run          - RUN NUMBER
ENG .         BILL                 : Engineer     - RECORDING ENGINEER
WIT .         JIM                  : Witness      - WITNESSED BY
MUD .         GEL                  : Mud_type     - MUD TYPE
MATR.         LIMESTONE            : Logunit      - NEUTRON MATRIX
TMAX.C        22                   : BHT          - MAXIMUM RECORDED TEMPERATURE
BHTD.M        626                  : BHTDEP       - MAXIMUM RECORDED TEMPERATURE
MATR.         1                    : LOGUNIT      - NEUTRON MATRIX
RMT .C        25                   : MDTP         - TEMPERATURE OF MUD
NEUT.         1                    : NEUTRON      - NEUTRON TYPE
RESI.         0                    : RESIST       - RESISTIVITY TYPE
RMC .OHMM     0.25                 : RMC          - RESISTIVITY OF MUD CAKE
RMF .OHMM     0.25                 : RMF          - RESISTIVITY OF MUD FILTRATE
SUFT.C        15                   : SUFT         - SURFACE TEMPERATURE
~A  DEPTH       GR     PHIN     RESD     PHID
# ...
  584.000   99.624    0.438    3.885    0.145
  584.250   94.135    0.455    4.030    0.139
  584.500   83.767    0.460    4.420    0.128
  584.750   75.840    0.385    5.416    0.120
  585.000   66.082    0.355    7.016    0.190
  585.250   58.763    0.361    9.608    0.243
  585.500   61.811    0.368   12.681    0.251
  585.750   63.639    0.368   18.701    0.231
  586.000   64.856    0.364   20.508    0.224
  586.250   63.636    0.364   21.271    0.213
  586.500   64.244    0.374   21.266    0.212
  586.750   65.462    0.384   21.254    0.212
  587.000   66.070    0.386   21.249    0.216
  587.250   64.849    0.391   20.853    0.210
  587.500   63.629    0.392   20.846    0.195
  587.750   63.018    0.391   20.453    0.189
  588.000   63.016    0.391   20.448    0.183
  588.250   67.283    0.387   20.065    0.175
  588.500   69.721    0.386   18.973    0.179
  588.750   72.158    0.390   17.288    0.192
  589.000   76.425    0.385   15.466    0.196
  589.250   81.911    0.373   13.832    0.173
  589.500   87.398    0.390   13.576    0.179
  589.750   91.665    0.408   13.076    0.200
  590.000   86.785    0.401   12.833    0.224
  590.250   88.003    0.379   12.593    0.232
  590.500   97.757    0.379   12.131    0.227
  590.750  102.635    0.391   11.261    0.213
  591.000  105.682    0.404   10.260    0.186
  591.250  104.461    0.414   10.069    0.183
  591.500   96.532    0.407   10.839    0.198
  591.750   91.653    0.389   12.108    0.189
  592.000   87.384    0.378   13.779    0.175
  592.250   83.114    0.371   14.561    0.167
  592.500   87.990    0.375   14.556    0.179
  592.750   92.257    0.392   13.021    0.186
  593.000  100.792    0.403   11.647    0.178
  593.250  106.279    0.396    9.854    0.176
  593.500  108.717    0.385    9.148    0.160
  593.750  109.934    0.390    8.336    0.160
  594.000  110.542    0.394    7.883    0.134
  594.250  109.932    0.406    7.318    0.132
  594.500  108.711    0.415    7.315    0.144
  594.750   95.904    0.401    7.312    0.155
  595.000   87.367    0.395    7.310    0.168
  595.250   79.438    0.397    8.631    0.173
  595.500   74.559    0.392   10.578    0.212
  595.750   67.850    0.378   16.492    0.190
  596.000   65.410    0.388   20.211    0.148
  596.250   66.018    0.389   21.757    0.132
  596.500   69.066    0.388   21.347    0.229
  596.750   75.771    0.386   20.186    0.219
  597.000   79.429    0.378   18.741    0.210
  597.250   74.549    0.385   17.722    0.214
  597.500   68.450    0.390   18.045    0.236
  597.750   63.571    0.373   18.720    0.234
  598.000   69.666    0.368   19.063    0.220
  598.250   73.934    0.358   18.705    0.211
  598.500   79.420    0.361   18.018    0.212
  598.750   81.858    0.367   16.726    0.193
  599.000   81.246    0.371   15.239    0.181
  599.250   80.026    0.358   14.957    0.183
  599.500   80.634    0.352   14.676    0.185
  599.750   81.852    0.361   14.944    0.181
  600.000   80.631    0.369   15.219    0.188
  600.250   77.581    0.375   15.498    0.175
  600.500   76.970    0.371   15.492    0.179
  600.750   78.188    0.362   15.488    0.193
  601.000   79.405    0.362   14.376    0.178
  601.250   80.014    0.368   14.108    0.176
  601.500   80.013    0.362   13.842    0.172
  601.750   75.743    0.354   15.181    0.154
  602.000   68.425    0.352   18.264    0.163
  602.250   57.447    0.377   24.552    0.166
  602.500   54.398    0.401   30.651    0.213
  602.750   51.347    0.401   34.879    0.263
  603.000   50.736    0.402   37.545    0.253
  603.250   51.954    0.403   36.844    0.262
  603.500   53.173    0.391   34.198    0.245
  603.750   56.830    0.382   31.748    0.251
  604.000   59.877    0.385   27.878    0.250
  604.250   63.534    0.388   24.939    0.233
  604.500   65.362    0.371   21.496    0.199
  604.750   65.361    0.354   19.228    0.160
  605.000   65.359    0.360   17.848    0.128
  605.250   65.967    0.337   16.879    0.181
  605.500   47.673    0.300   19.933    0.222
  605.750   39.136    0.080   31.656    0.269
  606.000   35.476    0.063   41.774    0.434
  606.250   34.864    0.079   45.810    0.417
  606.500   40.350    0.111   41.744    0.397
  606.750   46.447    0.224   31.030    0.354
  607.000   51.323    0.336   21.818    0.321
  607.250   52.541    0.365   15.920    0.295
  607.500   49.491    0.380   13.224    0.282
  607.750   46.441    0.390   11.612    0.287
  608.000   42.172    0.379   12.044    0.282
  608.250   42.780    0.383   13.209    0.285
  608.500   45.218    0.394   16.488    0.286
  608.750   48.874    0.384   18.084    0.293
  609.000   53.141    0.393   21.755    0.298
  609.250   56.188    0.401   23.419    0.289
  609.500   59.236    0.413   23.410    0.296
  609.750   61.064    0.428   21.727    0.290
  610.000   62.892    0.422   20.547    0.287
  610.250   63.500    0.420   19.074    0.285
  610.500   64.108    0.407   16.750    0.285
  610.750   64.717    0.395   13.162    0.274
  611.000   65.325    0.413   10.152    0.270
  611.250   65.933    0.475    7.831    0.308
  611.500   58.615    0.511    6.041    0.448
  611.750   51.297    0.559    4.327    0.491
  612.000   54.954    0.619    3.729    0.520
  612.250   70.806    0.634    3.728    0.554
  612.500  114.097    0.611    3.868    0.520
  612.750  117.144    0.528    4.012    0.217
  613.000  112.264    0.486    4.239    0.128
  613.250  109.214    0.425    4.480    0.129
  613.500  106.164    0.404    5.490    0.148
  613.750  101.894    0.391    6.604    0.162
  614.000   98.844    0.390    6.851    0.147
  614.250   93.355    0.400    6.977    0.176
  614.500   70.793    0.408    5.584    0.200
  614.750   57.987    0.416    4.814    0.233
  615.000   48.839    0.419    3.999    0.284
  615.250   43.350    0.391    3.260    0.319
  615.500   42.129    0.383    3.083    0.311
  615.750   40.298    0.383    2.810    0.309
  616.000   39.078    0.391    2.608    0.302
  616.250   39.076    0.389    2.513    0.312
  616.500   40.294    0.396    2.558    0.303
  616.750   56.146    0.393    2.704    0.305
  617.000  107.364    0.381    2.910    0.295
  617.250  113.460    0.385    3.251    0.256
  617.500  106.751    0.400    4.453    0.133
  617.750   93.945    0.399    6.098    0.153
  618.000   84.188    0.401    7.755    0.167
  618.250   79.308    0.411    8.663    0.191
  618.500   83.575    0.400    9.325    0.210
  618.750   99.427    0.377    9.150    0.211
  619.000  110.401    0.362    8.979    0.140
  619.250  103.083    0.361    8.811    0.136
  619.500   89.057    0.376    9.140    0.162
  619.750   76.861    0.393    9.481    0.195
  620.000   76.250    0.373   10.018    0.212
  620.250   78.077    0.339   10.393    0.199
  620.500   78.686    0.339   10.585    0.221
  620.750   78.684    0.345   10.777    0.214
  621.000   78.683    0.342   10.775    0.155
  621.250   79.291    0.334   10.376    0.146
  621.500   82.339    0.333   10.373    0.141
  621.750   87.825    0.343   10.564    0.225
  622.000   88.433    0.360   10.759    0.230
  622.250   88.432    0.376   10.954    0.231
  622.500   88.431    0.383   10.951    0.224
  622.750   89.039    0.387   10.948    0.214
  623.000   89.037    0.388   10.942    0.207
  623.250   89.036    0.391   10.740    0.201
  623.500   89.035    0.393   10.735    0.206
  623.750   89.033    0.387   11.557    0.184
  624.000   89.031    0.394   11.340    0.179
  624.250   89.030    0.393   11.336    0.198
  624.500   89.029    0.383   11.332    0.195
  624.750   88.417    0.377   11.120    0.175
  625.000   88.416    0.392   11.117    0.187
