~VERSION INFORMATION
 VERS.                 2.0:   CWLS LOG ASCII STANDARD -VERSION 2.0
 WRAP.                  NO:   ONE LINE PER DEPTH STEP
~WELL INFORMATION BLOCK
#MNEM.UNIT           DATA                    DESCRIPTION OF MNEMONIC
#---------    -------------------            -------------------------------
# Generated from Intellog Unique Number	CW_82_90/WELL/3414
WELL.         CDN SUP LIEGE                  : Well_name    - WELL
LOC .         00/03-18-089-19W4/0            : Location     - LOCATION
UWI .         00/03-18-089-19W400            : Uwi          - UNIQUE WELL ID
ENTR.         MAX                            : Entered      - ENTERED BY
SRVC.         SCHLUMBERGER                   : Scn          - SERVICE COMPANY
STRT.M        110                            : top_depth    - START DEPTH
STOP.M        262                            : bot_depth    - STOP DEPTH
STEP.M        0.25                           : increment    - STEP LENGTH
 NULL. -999.2500:NULL Value
~CURVE INFORMATION BLOCK
#MNEM UNIT       ERCB CURVE CODE    CURVE DESCRIPTION
#-----------   ------------------   ----------------------------------
DEPT.M        00 001 00 00         : DEPTH        - DEPTH
CALI.MM       00 280 01 00         : CAL          - CALIPER
DPHI.V/V      00 890 00 00         : PHID         - DENSITY POROSITY (SANDSTONE)
NPHI.V/V      00 330 00 00         : PHIN         - NEUTRON POROSITY (SANDSTONE)
ILD .OHMM     00 120 00 00         : RESD         - DEEP RESISTIVITY (DIL)
GR  .API      00 310 00 00         : GR           - GAMMA RAY
~PARAMETER INFORMATION
#MNEM.UNIT           DATA             DESCRIPTION OF MNEMONIC
#---------         -----------     ------------------------------
GL  .M        504.11               : gl           - GROUND LEVEL ELEVATION
EREF.M        507.31               : kb           - ELEVATION OF DEPTH REFERENCE
DATM.M        504.11               : datum        - DATUM ELEVATION
TDD .M        262                  : tdd          - TOTAL DEPTH DRILLER
RUN .         ONE                  : Run          - RUN NUMBER
ENG .         BILL                 : Engineer     - RECORDING ENGINEER
WIT .         JIM                  : Witness      - WITNESSED BY
MUD .         GEL                  : Mud_type     - MUD TYPE
MATR.         SANDSTONE            : Logunit      - NEUTRON MATRIX
TMAX.C        17                   : BHT          - MAXIMUM RECORDED TEMPERATURE
BHTD.M        262                  : BHTDEP       - MAXIMUM RECORDED TEMPERATURE
MATR.         1                    : LOGUNIT      - NEUTRON MATRIX
RMT .C        17                   : MDTP         - TEMPERATURE OF MUD
NEUT.         1                    : NEUTRON      - NEUTRON TYPE
RESI.         0                    : RESIST       - RESISTIVITY TYPE
RMC .OHMM     4.17                 : RMC          - RESISTIVITY OF MUD CAKE
RMF .OHMM     4.17                 : RMF          - RESISTIVITY OF MUD FILTRATE
SUFT.C        -10                  : SUFT         - SURFACE TEMPERATURE
~A  DEPTH      CAL     PHID     PHIN     RESD       GR
# ...
  146.500  201.256    0.268    0.510    6.733   74.938
  146.750  192.432    0.265    0.518    5.809   84.677
  147.000  188.519    0.265    0.497    5.447   84.097
  147.250  190.500    0.256    0.480    5.155   77.918
  147.500  203.782    0.238    0.494    5.156   75.275
  147.750  216.084    0.223    0.509    5.254   71.748
  148.000  219.543    0.209    0.504    5.712   67.043
  148.250  219.069    0.203    0.500    6.210   64.399
  148.500  218.102    0.184    0.507    7.474   63.526
  148.750  217.630    0.200    0.501    8.995   66.484
  149.000  218.137    0.239    0.477   10.827   68.854
  149.250  218.154    0.234    0.451   13.031   65.031
  149.500  217.682    0.216    0.455   15.256   61.504
  149.750  216.224    0.219    0.450   16.281   59.745
  150.000  214.769    0.215    0.455   17.537   58.577
  150.250  213.806    0.213    0.449   18.036   57.703
  150.500  213.822    0.215    0.439   18.549   57.419
  150.750  214.332    0.198    0.424   19.255   57.429
  151.000  214.839    0.166    0.404   20.362   57.734
  151.250  214.856    0.145    0.381   21.331   58.334
  151.500  214.380    0.144    0.356   21.338   58.639
  151.750  215.380    0.149    0.370   21.743   58.946
  152.000  214.419    0.156    0.388   22.157   58.959
  152.250  215.909    0.161    0.394   22.790   59.263
  152.500  218.385    0.176    0.380   23.007   59.864
  152.750  220.367    0.176    0.388   22.179   61.053
  153.000  222.350    0.199    0.378   18.440   63.421
  153.250  223.350    0.247    0.399   10.492   67.557
  153.500  223.367    0.253    0.453    7.386   73.169
  153.750  222.891    0.248    0.483    6.198   77.013
  154.000  222.909    0.242    0.505    6.030   77.611
  154.250  222.928    0.238    0.487    6.088   79.097
  154.500  222.457    0.236    0.490    6.147   80.875
  154.750  221.978    0.240    0.493    6.036   83.836
  155.000  221.998    0.227    0.481    5.712   84.434
  155.250  222.015    0.203    0.496    5.875   76.191
  155.500  222.033    0.181    0.516    7.136   70.306
  155.750  222.048    0.245    0.520    8.277   64.715
  156.000  219.609    0.316    0.493   11.029   60.599
  156.250  217.665    0.279    0.468   13.522   59.430
  156.500  215.718    0.247    0.424   15.977   60.033
  156.750  214.750    0.211    0.390   18.877   60.043
  157.000  215.755    0.186    0.332   20.147   59.167
  157.250  215.768    0.240    0.302   19.785   57.410
  157.500  215.294    0.292    0.325   18.895   56.535
  157.750  215.805    0.302    0.431   16.302   56.546
  158.000  213.363    0.316    0.444   15.285   55.966
  158.250  210.926    0.318    0.442   15.151   55.388
  158.500  215.857    0.302    0.433   15.438   55.397
  158.750  214.889    0.274    0.432   15.731   54.819
  159.000  210.976    0.263    0.407   16.180   53.355
  159.250  209.029    0.281    0.399   16.185   51.891
  159.500  207.085    0.254    0.408   16.493   50.135
  159.750  207.592    0.217    0.397   16.805   49.554
  160.000  209.576    0.311    0.403   16.657   48.977
  160.250  210.083    0.325    0.434   16.206   48.397
  160.500  212.066    0.294    0.454   15.622   48.702
  160.750  213.063    0.268    0.439   15.627   49.596
  161.000  214.066    0.254    0.425   16.072   50.490
  161.250  215.068    0.311    0.436   16.078   51.389
  161.500  215.085    0.323    0.462   16.083   50.807
  161.750  215.100    0.333    0.462   16.238   49.639
  162.000  214.135    0.331    0.446   16.547   49.355
  162.250  213.172    0.277    0.444   16.861   50.252
  162.500  216.627    0.194    0.428   17.023   51.439
  162.750  219.594    0.126    0.406   16.872   54.692
  163.000  219.120    0.201    0.409   16.116   58.239
  163.250  218.644    0.241    0.442   15.110   63.851
  163.500  217.192    0.263    0.453   12.679   72.999
  163.750  216.227    0.259    0.452   12.223   73.305
  164.000  216.240    0.244    0.455   12.688   76.264
  164.250  214.785    0.242    0.462   12.575   84.823
  164.500  214.805    0.242    0.468   12.123   84.834
  164.750  214.818    0.238    0.470   11.578   82.781
  165.000  214.835    0.233    0.465   11.059   81.908
  165.250  213.870    0.222    0.449   10.563   83.096
  165.500  218.312    0.193    0.423   10.864   84.581
  165.750  223.244    0.160    0.409   11.488   82.823
  166.000  220.803    0.182    0.434   11.491   80.769
  166.250  216.403    0.197    0.447   11.389   81.666
  166.500  212.979    0.211    0.455   10.979   82.559
  166.750  211.029    0.227    0.452   10.486   83.454
  167.000  210.557    0.235    0.440   10.784   83.466
  167.250  213.520    0.230    0.424   11.616   83.476
  167.500  217.468    0.238    0.407   12.629   82.897
  167.750  219.946    0.268    0.396   13.603   82.022
  168.000  220.942    0.239    0.406   14.252   79.084
  168.250  221.453    0.217    0.395   14.932   74.673
  168.500  220.490    0.165    0.371   15.499   71.737
  168.750  220.012    0.188    0.359   16.238   72.337
  169.000  220.029    0.207    0.380   16.547   75.297
  169.250  219.555    0.241    0.390   16.707   74.717
  169.500  219.081    0.263    0.411   15.809   73.253
  169.750  219.099    0.263    0.420   14.823   73.559
  170.000  220.101    0.263    0.435   14.159   74.158
  170.250  220.121    0.259    0.439   13.524   76.232
  170.500  220.138    0.253    0.438   13.279   76.537
  170.750  219.664    0.244    0.425   13.041   76.547
  171.000  219.681    0.242    0.416   13.045   77.737
  171.250  219.699    0.236    0.424   13.050   80.697
  171.500  218.242    0.237    0.433   13.174   82.476
  171.750  217.277    0.235    0.438   13.302   81.600
  172.000  214.347    0.216    0.418   13.681   79.253
  172.250  212.399    0.158    0.405   13.940   76.906
  172.500  211.923    0.138    0.392   14.877   73.969
  172.750  210.960    0.175    0.380   14.610   73.390
  173.000  210.484    0.217    0.405   13.323   73.694
  173.250  211.484    0.237    0.446   11.601   76.358
  173.500  213.960    0.236    0.457   10.291   80.791
  173.750  213.977    0.245    0.454    9.560   83.159
  174.000  209.571    0.247    0.443   10.685   80.811
  174.250  200.253    0.244    0.423   10.301   74.337
  174.500  199.780    0.260    0.452    9.838   74.347
  174.750  206.184    0.269    0.466    8.973   80.843
  175.000  214.064    0.265    0.465    8.335   80.855
  175.250  219.490    0.259    0.476    7.888   84.108
  175.500  220.486    0.268    0.471    7.193   87.359
  175.750  220.014    0.266    0.511    6.206   93.561
  176.000  219.543    0.253    0.559    5.256   96.224
  176.250  219.558    0.246    0.551    3.404   94.761
  176.500  219.573    0.239    0.537    3.405   93.593
  176.750  219.099    0.228    0.524    3.771   91.835
  177.000  219.119    0.216    0.500    6.216   87.719
  177.250  220.119    0.114    0.483    9.002   82.422
  177.500  220.136    0.098    0.463   10.935   70.935
  177.750  220.647    0.137    0.423   11.779   67.115
  178.000  221.647    0.232    0.446   11.461   69.187
  178.250  222.154    0.235    0.465   10.947   74.800
  178.500  221.186    0.223    0.465   10.456   77.758
  178.750  214.325    0.214    0.461   10.363   76.884
  179.000  204.517    0.214    0.451    9.989   81.023
  179.250  194.217    0.223    0.435    9.630   85.749
  179.500  186.375    0.237    0.428    9.544   89.004
  179.750  186.397    0.244    0.442    9.372   87.834
  180.000  189.847    0.229    0.443    9.729   85.192
  180.250  207.065    0.218    0.434   10.976   82.549
  180.500  213.958    0.230    0.422   11.932   79.610
  180.750  213.484    0.242    0.417   12.618   76.378
  181.000  208.097    0.261    0.426   13.219   74.033
  181.250  205.658    0.265    0.439   13.469   72.862
  181.500  204.693    0.224    0.435   13.853   71.400
  181.750  206.676    0.169    0.424   14.784   69.345
  182.000  213.080    0.256    0.441   15.489   66.704
  182.250  213.097    0.261    0.460   15.494   64.358
  182.500  210.169    0.232    0.464   16.234   63.482
  182.750  206.256    0.190    0.437   17.977   62.903
