~VERSION INFORMATION
 VERS.                 2.0:   CWLS LOG ASCII STANDARD -VERSION 2.0
 WRAP.                  NO:   ONE LINE PER DEPTH STEP
~WELL INFORMATION BLOCK
#MNEM.UNIT           DATA                    DESCRIPTION OF MNEMONIC
#---------    -------------------            -------------------------------
# Generated from Intellog Unique Number	CW_73_75/WELL/773
WELL.         CHEVRON ER AL ROCK 07-26       : Well_name    - WELL
LOC .         00/07-26-075-22W4/0            : Location     - LOCATION
UWI .         00/07-26-075-22W4/0            : Uwi          - UNIQUE WELL ID
ENTR.         JAYE                           : Entered      - ENTERED BY
SRVC.         WESTERN ATLAS                  : Scn          - SERVICE COMPANY
DATE.         6 JAN 74                       : Date         - LOG DATE
STRT.M        387.096                        : top_depth    - START DEPTH
STOP.M        612.596                        : bot_depth    - STOP DEPTH
STEP.M        0.25                           : increment    - STEP LENGTH
 NULL. -999.2500:NULL Value
~CURVE INFORMATION BLOCK
#MNEM UNIT       ERCB CURVE CODE    CURVE DESCRIPTION
#-----------   ------------------   ----------------------------------
DEPT.M        00 001 00 00         : DEPTH        - DEPTH
ILD .OHMM     00 120 00 00         : RESD         - DEEP RESISTIVITY (DIL)
NPHI.V/V      00 330 00 00         : PHIN         - NEUTRON POROSITY (SANDSTONE)
DPHI.V/V      00 890 00 00         : PHID         - DENSITY POROSITY (SANDSTONE)
GR  .API      00 310 00 00         : GR           - GAMMA RAY
CALI.MM       00 280 01 00         : CAL          - CALIPER
~PARAMETER INFORMATION
#MNEM.UNIT           DATA             DESCRIPTION OF MNEMONIC
#---------         -----------     ------------------------------
GL  .M        682.539              : gl           - GROUND LEVEL ELEVATION
EREF.M        685.648              : kb           - ELEVATION OF DEPTH REFERENCE
DATM.M        682.539              : datum        - DATUM ELEVATION
TDD .M        611.124              : tdd          - TOTAL DEPTH DRILLER
RUN .         ONE                  : Run          - RUN NUMBER
ENG .         SIMPSON              : Engineer     - RECORDING ENGINEER
WIT .         WONG/GOLL            : Witness      - WITNESSED BY
BASE.         EDM                  : Branch       - HOME BASE OF LOGGING UNIT
MUD .         FRESH GEL            : Mud_type     - MUD TYPE
MATR.         SANDSTONE            : Logunit      - NEUTRON MATRIX
TMAX.C        30.5556              : BHT          - MAXIMUM RECORDED TEMPERATURE
BHTD.M        612.648              : BHTDEP       - MAXIMUM RECORDED TEMPERATURE
RMT .C        18.8889              : MDTP         - TEMPERATURE OF MUD
MUDD.KG/M     1140                 : MWT          - MUD DENSITY
NEUT.         1                    : NEUTRON      - NEUTRON TYPE
RESI.         0                    : RESIST       - RESISTIVITY TYPE
RM  .OHMM     5.6                  : RM           - RESISTIVITY OF MUD
RMC .OHMM     5.2                  : RMC          - RESISTIVITY OF MUD CAKE
RMF .OHMM     4.57                 : RMF          - RESISTIVITY OF MUD FILTRATE
SUFT.C        -17.7778             : SUFT         - SURFACE TEMPERATURE
~A  DEPTH     RESD     PHIN     PHID       GR      CAL
# ...
  569.596   14.212    0.365    0.227   65.009  200.325
  569.846   11.954    0.358    0.216   74.616  200.326
  570.096    7.869    0.351    0.173   86.109  200.327
  570.346    6.220    0.377    0.145   96.324  200.328
  570.596    5.052    0.405    0.129  104.107  200.432
  570.846    4.530    0.429    0.123  111.891  200.742
  571.096    4.476    0.452    0.146  119.005  200.950
  571.346    4.829    0.481    0.166  125.147  201.053
  571.596    5.823    0.482    0.154  110.981  201.157
  571.846    6.526    0.379    0.143   90.369  201.571
  572.096    6.838    0.354    0.131   75.473  201.880
  572.346    7.150    0.355    0.113   75.048  202.190
  572.596    7.435    0.363    0.147   77.299  202.191
  572.846    7.817    0.386    0.148   78.515  202.192
  573.096    8.416    0.397    0.158   65.382  202.194
  573.346    9.078    0.376    0.185   60.945  202.195
  573.596    9.614    0.351    0.190   63.134  201.887
  573.846   10.016    0.334    0.183   66.479  201.888
  574.096   10.304    0.324    0.175   68.547  201.683
  574.346   10.501    0.336    0.163   69.824  201.581
  574.596   11.000    0.349    0.169   70.555  201.582
  574.846   11.973    0.351    0.123   70.069  201.481
  575.096   12.408    0.333    0.109   64.597  201.482
  575.346   12.304    0.322    0.096   64.172  201.277
  575.596   11.804    0.305    0.056   66.484  201.278
  575.846   11.286    0.388    0.132   70.193  201.279
  576.096   10.750    0.394    0.166   77.004  201.486
  576.346   10.203    0.384    0.194   81.443  201.590
  576.596    9.806    0.383    0.176   76.579  201.694
  576.846    9.530    0.383    0.162   76.276  201.695
  577.096    9.520    0.376    0.145   76.945  201.799
  577.346    9.457    0.364    0.153   79.865  201.903
  577.596    9.430    0.351    0.154   82.723  201.904
  577.846    9.129    0.363    0.132   87.405  201.700
  578.096    8.824    0.362    0.122   91.540  201.701
  578.346    8.593    0.354    0.158   93.001  201.908
  578.596    8.261    0.359    0.157   94.400  202.012
  578.846    7.811    0.368    0.132   97.076  202.425
  579.096    7.647    0.381    0.120   99.143  202.838
  579.346    7.639    0.376    0.121   97.563  203.972
  579.596    7.700    0.366    0.128   96.530  204.384
  579.846    7.933    0.366    0.141   96.653  204.900
  580.096    8.087    0.369    0.145   97.504  204.901
  580.346    8.048    0.371    0.133   98.903  204.799
  580.596    7.665    0.391    0.118  100.059  204.286
  580.846    7.289    0.409    0.108   99.452  203.669
  581.096    6.931    0.399    0.130   99.453  203.464
  581.346    6.637    0.389    0.132  100.365  202.951
  581.596    6.415    0.404    0.131  102.251  202.746
  581.846    6.304    0.416    0.133  103.711  202.644
  582.096    6.389    0.420    0.142  103.894  202.645
  582.346    6.645    0.424    0.153  101.341  202.646
  582.596    7.232    0.433    0.203   96.112  200.176
  582.846    7.688    0.515    0.235   86.932  200.486
  583.096    8.249    0.541    0.259   73.738  200.796
  583.346    9.078    0.562    0.305   61.518  201.518
  583.596   10.194    0.573    0.340   49.358  202.034
  583.846   11.574    0.548    0.316   38.049  202.549
  584.096   13.856    0.369    0.285   37.502  202.962
  584.346   17.049    0.342    0.231   41.030  203.375
  584.596   19.287    0.346    0.242   44.435  203.685
  584.846   20.465    0.354    0.252   46.443  203.892
  585.096   20.255    0.367    0.250   47.294  203.996
  585.346   18.465    0.380    0.228   48.694  203.997
  585.596   15.361    0.375    0.261   51.613  203.896
  585.846   13.111    0.362    0.274   55.505  208.736
  586.096   11.069    0.355    0.270   57.025  207.604
  586.346    9.008    0.350    0.264   51.675  206.679
  586.596    7.702    0.348    0.257   47.785  206.268
  586.846    6.732    0.349    0.244   48.576  203.592
  587.096    6.070    0.352    0.239   51.191  202.667
  587.346    5.636    0.357    0.231   54.961  202.565
  587.596    5.214    0.366    0.261   58.975  202.463
  587.846    4.814    0.381    0.282   64.873  202.361
  588.096    4.527    0.413    0.280   68.705  202.465
  588.346    4.336    0.421    0.278   68.036  202.363
  588.596    4.276    0.425    0.285   68.098  202.570
  588.846    4.382    0.436    0.287   69.558  202.468
  589.096    4.640    0.452    0.303   70.714  202.367
  589.346    4.952    0.471    0.333   70.106  202.059
  589.596    5.360    0.553    0.356   68.100  201.751
  589.846    5.554    0.558    0.370   63.967  201.855
  590.096    5.204    0.521    0.320   56.184  201.753
  590.346    4.796    0.408    0.265   54.604  201.651
  590.596    4.543    0.385    0.255   59.469  201.756
  590.846    4.571    0.398    0.270   84.034  201.551
  591.096    4.995    0.461    0.259  105.923  201.552
  591.346    5.829    0.560    0.256  126.354  201.141
  591.596    6.642    0.528    0.243  125.321  200.936
  591.846    7.125    0.500    0.249  114.742  200.937
  592.096    7.478    0.519    0.264  119.789  201.041
  592.346    7.719    0.541    0.257  122.343  200.939
  592.596    7.461    0.522    0.249  118.939  201.147
  592.846    5.919    0.497    0.246  101.368  201.250
  593.096    4.526    0.473    0.216   85.317  201.560
  593.346    4.187    0.425    0.233   70.846  201.973
  593.596    3.874    0.404    0.273   47.924  202.283
  593.846    3.524    0.395    0.286   40.750  202.387
  594.096    3.272    0.388    0.280   35.583  202.594
  594.346    3.077    0.385    0.274   31.449  202.595
  594.596    2.985    0.380    0.259   29.747  202.699
  594.846    2.993    0.372    0.257   33.517  202.701
  595.096    3.222    0.370    0.267   40.997  202.702
  595.346    3.579    0.377    0.274   58.448  202.600
  595.596    4.162    0.390    0.261   79.000  202.601
  595.846    5.439    0.424    0.250  123.325  202.602
  596.096    6.967    0.543    0.197  127.217  202.397
  596.346    7.725    0.533    0.184  127.096  202.193
  596.596    7.830    0.499    0.215  125.273  201.988
  596.846    7.390    0.466    0.227  123.267  201.680
  597.096    6.401    0.440    0.215  122.417  201.784
  597.346    5.247    0.411    0.196   95.542  201.682
  597.596    4.357    0.397    0.189   79.856  201.889
  597.846    3.893    0.397    0.210   72.621  201.993
  598.096    3.516    0.413    0.256   67.454  202.406
  598.346    3.277    0.419    0.263   60.766  202.407
  598.596    3.138    0.400    0.290   61.131  202.511
  598.846    3.101    0.386    0.265   65.631  202.615
  599.096    3.097    0.416    0.279   70.618  202.616
  599.346    3.139    0.428    0.257   72.260  202.720
  599.596    3.253    0.413    0.256   72.200  202.721
  599.846    3.389    0.388    0.262   74.876  202.620
  600.096    3.525    0.365    0.243   82.294  202.518
  600.346    3.705    0.370    0.238   84.666  202.416
  600.596    3.798    0.370    0.240   84.059  202.211
  600.846    3.779    0.361    0.239   87.586  201.594
  601.096    3.594    0.354    0.190   98.167  201.184
  601.346    3.336    0.363    0.122   94.337  200.876
  601.596    3.069    0.378    0.155   90.324  201.083
  601.846    2.865    0.397    0.180   82.725  201.084
  602.096    2.694    0.411    0.203   75.672  201.188
  602.346    2.638    0.393    0.238   66.188  201.395
  602.596    2.635    0.376    0.273   60.716  201.705
  602.846    2.637    0.365    0.256   58.163  202.015
  603.096    2.639    0.366    0.268   50.563  202.016
  603.346    2.646    0.385    0.252   47.524  201.914
  603.596    2.619    0.390    0.262   49.713  201.709
  603.846    2.568    0.390    0.269   53.545  201.607
  604.096    2.496    0.391    0.261   53.484  201.608
  604.346    2.413    0.384    0.244   45.824  201.095
  604.596    2.328    0.385    0.224   41.629  200.478
  604.846    2.250    0.389    0.254   39.867  199.758
  605.096    2.190    0.394    0.292   37.618  199.142
  605.346    2.132    0.406    0.295   34.700  198.937
  605.596    2.107    0.402    0.295   33.788  198.629
  605.846    2.078    0.395    0.293   34.276  199.248
