~VERSION INFORMATION
 VERS.                 2.0:   CWLS LOG ASCII STANDARD -VERSION 2.0
 WRAP.                  NO:   ONE LINE PER DEPTH STEP
~WELL INFORMATION BLOCK
#MNEM.UNIT           DATA                    DESCRIPTION OF MNEMONIC
#---------    -------------------            -------------------------------
# Generated from Intellog Unique Number	CS_69_70/WELL/812
WELL.         CANADIAN WORLDWIDE ENERGY      : Well_name    - WELL
LOC .         00/07-06-069-09W4/0            : Location     - LOCATION
UWI .         00/07-06-069-09W4/0            : Uwi          - UNIQUE WELL ID
ENTR.         SP                             : Entered      - ENTERED BY
SRVC.         SCHLUMBERGER                   : Scn          - SERVICE COMPANY
STRT.M        475                            : top_depth    - START DEPTH
STOP.M        685                            : bot_depth    - STOP DEPTH
STEP.M        0.25                           : increment    - STEP LENGTH
 NULL. -999.2500:NULL Value
~CURVE INFORMATION BLOCK
#MNEM UNIT       ERCB CURVE CODE    CURVE DESCRIPTION
#-----------   ------------------   ----------------------------------
DEPT.M        00 001 00 00         : DEPTH        - DEPTH
ILD .OHMM     00 120 00 00         : RESD         - DEEP RESISTIVITY (DIL)
DPHI.V/V      00 890 00 00         : PHID         - DENSITY POROSITY (LIMESTONE)
NPHI.V/V      00 330 00 00         : PHIN         - NEUTRON POROSITY (LIMESTONE)
GR  .API      00 310 00 00         : GR           - GAMMA RAY
~PARAMETER INFORMATION
#MNEM.UNIT           DATA             DESCRIPTION OF MNEMONIC
#---------         -----------     ------------------------------
GL  .M        785.99               : gl           - GROUND LEVEL ELEVATION
EREF.M        789.09               : kb           - ELEVATION OF DEPTH REFERENCE
DATM.M        785.99               : datum        - DATUM ELEVATION
TDD .M        680                  : tdd          - TOTAL DEPTH DRILLER
RUN .         ONE                  : Run          - RUN NUMBER
ENG .         BILL                 : Engineer     - RECORDING ENGINEER
WIT .         JIM                  : Witness      - WITNESSED BY
MUD .         GEL                  : Mud_type     - MUD TYPE
MATR.         LIMESTONE            : Logunit      - NEUTRON MATRIX
TMAX.C        25                   : BHT          - MAXIMUM RECORDED TEMPERATURE
BHTD.M        680                  : BHTDEP       - MAXIMUM RECORDED TEMPERATURE
MATR.         1                    : LOGUNIT      - NEUTRON MATRIX
RMT .C        25                   : MDTP         - TEMPERATURE OF MUD
NEUT.         1                    : NEUTRON      - NEUTRON TYPE
RESI.         0                    : RESIST       - RESISTIVITY TYPE
RMC .OHMM     0.25                 : RMC          - RESISTIVITY OF MUD CAKE
RMF .OHMM     0.25                 : RMF          - RESISTIVITY OF MUD FILTRATE
SUFT.C        15                   : SUFT         - SURFACE TEMPERATURE
~A  DEPTH     RESD     PHID     PHIN       GR
# ...
  518.500    5.301    0.283    0.452   91.177
  518.750    5.305    0.287    0.458   89.040
  519.000    5.299    0.272    0.472   90.384
  519.250    5.293    0.253    0.469   94.049
  519.500    5.308    0.243    0.457   96.248
  519.750    5.342    0.239    0.477   94.478
  520.000    5.377    0.253    0.477   87.150
  520.250    5.422    0.272    0.458   83.547
  520.500    5.448    0.289    0.445   84.647
  520.750    5.482    0.294    0.457   84.831
  521.000    5.507    0.289    0.469   84.892
  521.250    5.533    0.290    0.463   85.382
  521.500    5.496    0.297    0.442   85.504
  521.750    5.448    0.293    0.449   83.795
  522.000    5.403    0.296    0.472   82.208
  522.250    5.386    0.307    0.490   81.659
  522.500    5.349    0.306    0.470   81.110
  522.750    5.304    0.299    0.451   79.278
  523.000    5.267    0.297    0.453   75.553
  523.250    5.243    0.301    0.455   73.477
  523.500    5.256    0.296    0.443   75.249
  523.750    5.310    0.292    0.435   77.815
  524.000    5.448    0.302    0.432   81.114
  524.250    5.535    0.316    0.435   83.740
  524.500    5.710    0.327    0.421   85.879
  524.750    5.857    0.325    0.411   88.017
  525.000    6.009    0.312    0.405   90.644
  525.250    6.116    0.299    0.406   95.103
  525.500    6.237    0.286    0.413   90.706
  525.750    6.373    0.294    0.419   82.401
  526.000    6.501    0.301    0.417   76.233
  526.250    6.594    0.298    0.403   81.486
  526.500    6.673    0.288    0.391   85.456
  526.750    6.780    0.279    0.395   88.816
  527.000    6.863    0.273    0.413   91.260
  527.250    6.883    0.272    0.415   92.726
  527.500    6.835    0.276    0.416   91.444
  527.750    6.713    0.265    0.416   94.132
  528.000    6.494    0.260    0.416   96.698
  528.250    6.293    0.254    0.419   97.920
  528.500    6.180    0.252    0.433   98.226
  528.750    6.081    0.251    0.438   96.700
  529.000    6.005    0.253    0.423   96.151
  529.250    5.976    0.243    0.413  102.626
  529.500    5.948    0.225    0.431  108.978
  529.750    6.021    0.209    0.443  114.964
  530.000    6.163    0.220    0.447  111.667
  530.250    6.311    0.233    0.447  102.018
  530.500    6.411    0.240    0.434   84.612
  530.750    6.539    0.264    0.434   73.497
  531.000    6.607    0.284    0.440   68.917
  531.250    6.688    0.304    0.433   67.818
  531.500    6.706    0.315    0.425   72.277
  531.750    6.711    0.301    0.422   79.363
  532.000    6.716    0.295    0.441   84.677
  532.250    6.672    0.278    0.459   89.014
  532.500    6.466    0.256    0.397   92.435
  532.750    6.313    0.230    0.383   89.748
  533.000    6.131    0.229    0.392   77.839
  533.250    5.952    0.243    0.400   67.518
  533.500    5.737    0.270    0.394   60.800
  533.750    5.623    0.308    0.385   56.465
  534.000    5.564    0.327    0.374   56.221
  534.250    5.568    0.318    0.372   59.825
  534.500    5.658    0.307    0.376   63.918
  534.750    5.760    0.303    0.381   68.133
  535.000    5.852    0.296    0.389   67.828
  535.250    5.924    0.305    0.390   64.225
  535.500    5.962    0.311    0.379   59.889
  535.750    5.989    0.319    0.371   57.569
  536.000    6.006    0.325    0.365   60.685
  536.250    5.989    0.304    0.361   62.151
  536.500    5.961    0.285    0.367   63.679
  536.750    5.933    0.277    0.379   63.985
  537.000    5.882    0.276    0.385   64.413
  537.250    5.798    0.285    0.386   65.635
  537.500    5.736    0.299    0.394   66.979
  537.750    5.643    0.319    0.402   69.606
  538.000    5.541    0.332    0.409   73.088
  538.250    5.483    0.336    0.413   76.326
  538.500    5.519    0.321    0.405   79.380
  538.750    5.575    0.308    0.403   82.435
  539.000    5.655    0.299    0.410   88.543
  539.250    5.703    0.286    0.403   96.911
  539.500    5.752    0.267    0.396   98.255
  539.750    5.789    0.263    0.389   87.385
  540.000    5.804    0.290    0.388   79.384
  540.250    5.832    0.308    0.405   71.751
  540.500    5.870    0.295    0.406   69.919
  540.750    5.919    0.273    0.398   72.851
  541.000    5.958    0.259    0.393   77.860
  541.250    5.997    0.247    0.388   83.174
  541.500    6.010    0.248    0.386   87.267
  541.750    6.085    0.256    0.399   80.793
  542.000    6.101    0.266    0.410   75.481
  542.250    6.071    0.279    0.415   70.290
  542.500    5.997    0.292    0.422   71.390
  542.750    5.911    0.303    0.439   74.200
  543.000    5.838    0.311    0.450   73.834
  543.250    5.766    0.307    0.450   76.583
  543.500    5.760    0.296    0.452   79.393
  543.750    5.688    0.284    0.457   78.295
  544.000    5.151    0.274    0.438   82.815
  544.250    4.541    0.270    0.414   89.045
  544.500    3.656    0.258    0.395   94.726
  544.750    2.760    0.248    0.398   99.246
  545.000    2.321    0.242    0.432  103.033
  545.250    2.142    0.235    0.470  107.126
  545.500    2.103    0.244    0.516  109.570
  545.750    2.449    0.253    0.555  112.380
  546.000    2.863    0.246    0.560  113.907
  546.250    3.215    0.241    0.548  115.374
  546.500    3.625    0.245    0.541  111.282
  546.750    4.173    0.250    0.549  104.504
  547.000    4.478    0.253    0.506  100.595
  547.250    4.899    0.252    0.468   96.016
  547.500    5.121    0.243    0.449   91.314
  547.750    5.086    0.234    0.465   88.993
  548.000    4.783    0.230    0.461   90.826
  548.250    4.497    0.230    0.459   93.636
  548.500    4.237    0.232    0.464   95.775
  548.750    4.059    0.237    0.445   95.836
  549.000    3.994    0.245    0.427   94.310
  549.250    4.043    0.249    0.449   91.623
  549.500    4.179    0.252    0.458   87.165
  549.750    4.310    0.254    0.464   83.502
  550.000    4.380    0.259    0.466   86.617
  550.250    4.425    0.272    0.453   88.939
  550.500    4.438    0.261    0.438   88.267
  550.750    4.407    0.252    0.435   87.535
  551.000    4.385    0.263    0.447   87.780
  551.250    4.397    0.263    0.441   88.086
  551.500    4.443    0.251    0.438   87.965
  551.750    4.567    0.239    0.451   87.477
  552.000    4.710    0.246    0.456   85.951
  552.250    4.932    0.256    0.460   83.020
  552.500    5.136    0.267    0.464   81.188
  552.750    5.379    0.276    0.459   79.356
  553.000    5.623    0.289    0.453   81.495
  553.250    5.834    0.289    0.457   83.999
  553.500    5.962    0.298    0.444   81.863
  553.750    6.000    0.306    0.432   80.153
  554.000    6.016    0.314    0.427   79.177
  554.250    5.965    0.316    0.422   78.200
  554.500    5.857    0.319    0.426   76.063
  554.750    5.764    0.330    0.440   70.078
  555.000    5.769    0.340    0.445   68.552
  555.250    5.839    0.343    0.452   69.347
  555.500    5.977    0.329    0.474   71.485
  555.750    6.201    0.315    0.471   74.662
  556.000    6.594    0.297    0.462   75.334
  556.250    6.958    0.290    0.454   73.258
  556.500    7.300    0.299    0.448   71.427
  556.750    7.489    0.305    0.444   69.961
  557.000    7.551    0.303    0.442   68.740
  557.250    7.586    0.301    0.433   68.130
  557.500    7.409    0.301    0.434   69.047
  557.750    7.248    0.302    0.479   70.941
  558.000    7.037    0.305    0.495   72.713
  558.250    6.756    0.310    0.482   73.691
  558.500    6.523    0.320    0.470   75.585
  558.750    6.297    0.329    0.464   77.906
  559.000    5.854    0.337    0.458   80.900
  559.250    5.599    0.338    0.444   82.916
  559.500    5.509    0.332    0.434   80.840
  559.750    5.524    0.326    0.454   77.604
  560.000    5.602    0.323    0.452   76.566
  560.250    5.703    0.329    0.451   76.872
  560.500    5.850    0.324    0.457   79.926
  560.750    6.000    0.300    0.463   83.653
  561.000    6.167    0.283    0.472   86.646
  561.250    6.301    0.275    0.463   89.028
  561.500    6.402    0.269    0.450   89.457
  561.750    6.371    0.265    0.465   87.686
