~VERSION INFORMATION
 VERS.                 2.0:   CWLS LOG ASCII STANDARD -VERSION 2.0
 WRAP.                  NO:   ONE LINE PER DEPTH STEP
~WELL INFORMATION BLOCK
#MNEM.UNIT           DATA                    DESCRIPTION OF MNEMONIC
#---------    -------------------            -------------------------------
# Generated from Intellog Unique Number	CS_77_79/WELL/842
WELL.         DOME PETROLEUM LIMITED         : Well_name    - WELL
LOC .         00/02-25-077-10W4/0            : Location     - LOCATION
UWI .         00/02-25-077-10W4/0            : Uwi          - UNIQUE WELL ID
ENTR.         SP                             : Entered      - ENTERED BY
SRVC.         SCHLUMBERGER                   : Scn          - SERVICE COMPANY
STRT.M        190                            : top_depth    - START DEPTH
STOP.M        430                            : bot_depth    - STOP DEPTH
STEP.M        0.25                           : increment    - STEP LENGTH
 NULL. -999.2500:NULL Value
~CURVE INFORMATION BLOCK
#MNEM UNIT       ERCB CURVE CODE    CURVE DESCRIPTION
#-----------   ------------------   ----------------------------------
DEPT.M        00 001 00 00         : DEPTH        - DEPTH
GR  .API      00 310 00 00         : GR           - GAMMA RAY
DPHI.V/V      00 890 00 00         : PHID         - DENSITY POROSITY (LIMESTONE)
NPHI.V/V      00 330 00 00         : PHIN         - NEUTRON POROSITY (LIMESTONE)
ILD .OHMM     00 120 00 00         : RESD         - DEEP RESISTIVITY (DIL)
~PARAMETER INFORMATION
#MNEM.UNIT           DATA             DESCRIPTION OF MNEMONIC
#---------         -----------     ------------------------------
GL  .M        610.6                : gl           - GROUND LEVEL ELEVATION
EREF.M        614.26               : kb           - ELEVATION OF DEPTH REFERENCE
DATM.M        610.6                : datum        - DATUM ELEVATION
TDD .M        450.3                : tdd          - TOTAL DEPTH DRILLER
RUN .         ONE                  : Run          - RUN NUMBER
ENG .         BILL                 : Engineer     - RECORDING ENGINEER
WIT .         JIM                  : Witness      - WITNESSED BY
MUD .         GEL                  : Mud_type     - MUD TYPE
MATR.         LIMESTONE            : Logunit      - NEUTRON MATRIX
TMAX.C        22                   : BHT          - MAXIMUM RECORDED TEMPERATURE
BHTD.M        450.3                : BHTDEP       - MAXIMUM RECORDED TEMPERATURE
MATR.         1                    : LOGUNIT      - NEUTRON MATRIX
RMT .C        25                   : MDTP         - TEMPERATURE OF MUD
NEUT.         1                    : NEUTRON      - NEUTRON TYPE
RESI.         0                    : RESIST       - RESISTIVITY TYPE
RMC .OHMM     0.25                 : RMC          - RESISTIVITY OF MUD CAKE
RMF .OHMM     0.25                 : RMF          - RESISTIVITY OF MUD FILTRATE
SUFT.C        15                   : SUFT         - SURFACE TEMPERATURE
~A  DEPTH       GR     PHID     PHIN     RESD
# ...
  233.500   69.408    0.291    0.392   16.888
  233.750   65.778    0.263    0.399   16.873
  234.000   63.974    0.219    0.409   16.855
  234.250   62.781    0.248    0.426   16.521
  234.500   62.796    0.268    0.414   16.511
  234.750   59.163    0.291    0.401   15.570
  235.000   71.381    0.279    0.388   14.693
  235.250   89.094    0.255    0.387   12.843
  235.500  101.310    0.233    0.401   11.015
  235.750  115.356    0.219    0.419    8.749
  236.000  119.038    0.205    0.432    7.794
  236.250  115.405    0.201    0.445    7.352
  236.500  113.601    0.223    0.455    7.929
  236.750  111.188    0.245    0.432    8.716
  237.000  103.890    0.243    0.409    9.764
  237.250   93.551    0.231    0.396   10.140
  237.500   91.745    0.227    0.395   11.145
  237.750   96.040    0.229    0.408   11.566
  238.000   96.069    0.246    0.428   11.784
  238.250   96.087    0.262    0.441   12.230
  238.500   94.277    0.283    0.447   12.695
  238.750   88.814    0.278    0.452   13.685
  239.000   88.839    0.273    0.447   13.943
  239.250   88.863    0.261    0.433   14.203
  239.500   83.399    0.242    0.411   14.187
  239.750   85.257    0.259    0.405   14.172
  240.000   90.162    0.274    0.408   14.165
  240.250   92.006    0.289    0.417   12.381
  240.500   93.861    0.284    0.430   11.904
  240.750   96.934    0.273    0.434   11.891
  241.000   96.348    0.264    0.447   11.661
  241.250   90.888    0.256    0.460   11.212
  241.500   88.468    0.241    0.462   10.578
  241.750   87.273    0.240    0.438   10.369
  242.000   88.517    0.265    0.440   10.360
  242.250   95.857    0.282    0.430   10.754
  242.500  107.466    0.287    0.424   10.944
  242.750  109.321    0.286    0.412   11.153
  243.000  104.467    0.286    0.410   11.138
  243.250  100.223    0.289    0.414   11.133
  243.500   96.586    0.287    0.433   11.124
  243.750   93.565    0.281    0.416   11.112
  244.000   93.585    0.275    0.400   11.099
  244.250   96.051    0.264    0.384   11.095
  244.500  102.171    0.252    0.404   10.873
  244.750  107.071    0.244    0.434   10.658
  245.000  110.757    0.238    0.446   10.053
  245.250  110.171    0.241    0.471    9.670
  245.500  107.755    0.285    0.514    9.121
  245.750  101.072    0.354    0.540    9.653
  246.000   89.508    0.394    0.552   11.454
  246.250   64.532    0.442    0.553   13.591
  246.500   49.312    0.473    0.497   15.232
  246.750   45.071    0.319    0.464   18.070
  247.000   51.801    0.283    0.436   19.492
  247.250   54.264    0.278    0.404   21.840
  247.500   53.076    0.284    0.387   24.461
  247.750   53.700    0.296    0.390   24.922
  248.000   54.339    0.303    0.389   26.369
  248.250   53.752    0.311    0.392   27.366
  248.500   53.174    0.322    0.399   28.401
  248.750   53.795    0.325    0.406   28.930
  249.000   54.430    0.328    0.406   28.930
  249.250   55.680    0.330    0.393   29.430
  249.500   55.705    0.332    0.388   28.308
  249.750   55.115    0.335    0.384   28.829
  250.000   54.529    0.336    0.369   29.360
  250.250   55.160    0.337    0.367   29.900
  250.500   55.793    0.337    0.390   30.450
  250.750   53.987    0.338    0.384   30.997
  251.000   54.019    0.343    0.376   30.983
  251.250   55.865    0.347    0.396   30.956
  251.500   57.111    0.347    0.397   30.915
  251.750   55.303    0.347    0.381   30.895
  252.000   54.105    0.343    0.365   30.875
  252.250   53.521    0.342    0.368   30.848
  252.500   52.336    0.344    0.367   30.814
  252.750   53.571    0.346    0.369   30.787
  253.000   54.811    0.349    0.378   30.754
  253.250   56.055    0.349    0.383   30.740
  253.500   55.472    0.348    0.373   30.125
  253.750   54.275    0.346    0.364   30.093
  254.000   54.917    0.345    0.356   30.066
  254.250   56.156    0.344    0.361   30.040
  254.500   58.616    0.344    0.368   30.014
  254.750   57.426    0.346    0.368   29.988
  255.000   56.231    0.350    0.366   29.961
  255.250   56.256    0.352    0.369   29.942
  255.500   56.880    0.351    0.377   29.909
  255.750   56.919    0.351    0.389   29.889
  256.000   56.931    0.350    0.397   29.863
  256.250   56.343    0.349    0.407   29.831
  256.500   58.805    0.349    0.407   29.241
  256.750   60.049    0.352    0.392   28.662
  257.000   60.081    0.355    0.389   28.095
  257.250   58.276    0.358    0.401   27.545
  257.500   57.685    0.360    0.428   26.995
  257.750   58.328    0.363    0.417   25.954
  258.000   59.566    0.363    0.418   25.937
  258.250   63.248    0.366    0.410   25.419
  258.500   65.703    0.369    0.402   25.402
  258.750   70.009    0.366    0.392   24.418
  259.000   72.464    0.364    0.391   23.945
  259.250   75.533    0.362    0.419   23.017
  259.500   70.071    0.367    0.433   22.572
  259.750   64.605    0.368    0.432   22.125
  260.000   61.580    0.367    0.421   22.096
  260.250   60.993    0.362    0.399   22.082
  260.500   63.456    0.358    0.410   22.062
  260.750   64.701    0.352    0.423   22.043
  261.000   60.459    0.355    0.425   22.024
  261.250   58.047    0.362    0.416   21.584
  261.500   57.460    0.371    0.426   21.574
  261.750   58.095    0.373    0.433   21.550
  262.000   59.343    0.374    0.439   21.124
  262.250   59.365    0.374    0.416   21.110
  262.500   59.380    0.373    0.405   21.087
  262.750   57.577    0.372    0.406   21.471
  263.000   57.597    0.371    0.403   22.287
  263.250   58.850    0.371    0.401   23.130
  263.500   58.864    0.375    0.391   23.566
  263.750   58.889    0.375    0.401   23.095
  264.000   57.700    0.369    0.413   22.643
  264.250   57.117    0.365    0.434   22.190
  264.500   56.524    0.360    0.439   21.756
  264.750   56.550    0.360    0.406   20.917
  265.000   55.974    0.361    0.431   20.504
  265.250   55.380    0.366    0.446   20.490
  265.500   55.399    0.369    0.451   20.463
  265.750   55.431    0.369    0.437   20.463
  266.000   55.449    0.370    0.424   21.628
  266.250   56.092    0.368    0.417   23.340
  266.500   55.500    0.366    0.430   23.315
  266.750   54.305    0.365    0.438   23.300
  267.000   53.103    0.363    0.438   23.723
  267.250   53.737    0.361    0.433   23.708
  267.500   56.819    0.365    0.432   23.677
  267.750   58.666    0.369    0.420   23.656
  268.000   58.689    0.372    0.413   23.188
  268.250   58.102    0.368    0.423   23.168
  268.500   58.742    0.367    0.423   23.148
  268.750   61.821    0.364    0.424   23.132
  269.000   63.053    0.361    0.424   22.665
  269.250   64.293    0.367    0.411   22.650
  269.500   64.317    0.375    0.392   22.207
  269.750   61.907    0.371    0.385   21.346
  270.000   62.541    0.369    0.400   20.933
  270.250   62.573    0.369    0.431   20.515
  270.500   62.586    0.373    0.448   20.501
  270.750   61.389    0.366    0.424   20.479
  271.000   60.807    0.358    0.418   20.461
  271.250   60.226    0.356    0.425   20.447
  271.500   60.242    0.371    0.431   20.430
  271.750   60.873    0.380    0.440   20.407
  272.000   59.071    0.375    0.442   20.389
  272.250   60.311    0.371    0.436   19.977
  272.500   60.945    0.373    0.436   19.969
  272.750   59.757    0.370    0.436   19.565
  273.000   60.390    0.362    0.436   19.552
  273.250   60.412    0.352    0.411   19.165
  273.500   58.606    0.351    0.411   19.153
  273.750   58.018    0.354    0.431   19.136
  274.000   60.488    0.355    0.440   19.107
  274.250   61.115    0.355    0.444   19.467
  274.500   61.750    0.358    0.454   19.454
  274.750   62.387    0.351    0.444   19.433
  275.000   63.021    0.346    0.426   19.420
  275.250   61.820    0.346    0.411   19.777
  275.500   61.239    0.353    0.413   19.756
  275.750   61.872    0.347    0.423   20.124
  276.000   62.507    0.341    0.425   20.494
  276.250   64.969    0.341    0.424   20.871
  276.500   66.206    0.330    0.425   21.255
  276.750   69.281    0.289    0.469   21.236
