~VERSION INFORMATION
 VERS.                 2.0:   CWLS LOG ASCII STANDARD -VERSION 2.0
 WRAP.                  NO:   ONE LINE PER DEPTH STEP
~WELL INFORMATION BLOCK
#MNEM.UNIT           DATA                    DESCRIPTION OF MNEMONIC
#---------    -------------------            -------------------------------
# Generated from Intellog Unique Number	CC_84_87/WELL/1053
NULL.         -999.25                        : NULL_VALUE
WELL.         PETROREP ET AL HOUSE           : Well_name    - WELL              
LOC .         04-20-084-15W4                 : Location     - LOCATION          
UWI .         00/04-20-084-15W400            : Uwi          - UNIQUE WELL ID    
ENTR.         JHS                            : Entered      - ENTERED BY        
SRVC.         COMPUTALOG                     : Scn          - SERVICE COMPANY   
DATE.         06 JAN 81                      : Date         - LOG DATE
STRT.M        85                             : top_depth    - START DEPTH       
STOP.M        262.001                        : bot_depth    - STOP DEPTH        
STEP.M        0.3                            : increment    - STEP LENGTH       
~CURVE INFORMATION BLOCK
#MNEM UNIT       ERCB CURVE CODE    CURVE DESCRIPTION
#-----------   ------------------   ----------------------------------
DEPT.M        00 001 00 00         : DEPTH        - DEPTH                       
DPHI.V/V      00 890 00 00         : PHID         - DENSITY POROSITY (LIMESTONE)
NPHI.V/V      00 330 00 00         : PHIN         - NEUTRON POROSITY (LIMESTONE)
GR  .API      00 310 00 00         : GR           - GAMMA RAY                   
ILD .OHMM     00 120 00 00         : RESD         - DEEP RESISTIVITY (DIL)      
~PARAMETER INFORMATION       
#MNEM.UNIT           DATA             DESCRIPTION OF MNEMONIC
#---------         -----------     ------------------------------
GL  .M        529.5                : gl           - GROUND LEVEL ELEVATION      
EREF.M        533.16               : kb           - ELEVATION OF DEPTH REFERENCE
DATM.M        533.16               : datum        - DATUM ELEVATION             
TDD .M        265                  : tdd          - TOTAL DEPTH DRILLER         
RUN .         ONE                  : Run          - RUN NUMBER                  
ENG .         BILL                 : Engineer     - RECORDING ENGINEER          
WIT .         JIM                  : Witness      - WITNESSED BY                
MUD .         GEL                  : Mud_type     - MUD TYPE                    
MATR.         LIMESTONE            : Logunit      - NEUTRON MATRIX              
TMAX.C        13                   : BHT          - MAXIMUM RECORDED TEMPERATURE
BHTD.M        265                  : BHTDEP       - MAXIMUM RECORDED TEMPERATURE
MATR.         1                    : LOGUNIT      - NEUTRON MATRIX              
RMT .C        25                   : MDTP         - TEMPERATURE OF MUD          
NEUT.         1                    : NEUTRON      - NEUTRON TYPE                
RESI.         0                    : RESIST       - RESISTIVITY TYPE            
RMC .OHMM     0.25                 : RMC          - RESISTIVITY OF MUD CAKE     
RMF .OHMM     0.25                 : RMF          - RESISTIVITY OF MUD FILTRATE 
SUFT.C        15                   : SUFT         - SURFACE TEMPERATURE         
~A  DEPTH     PHID     PHIN       GR     RESD
# ...
  137.201    0.287    0.380   78.181   16.200
  137.501    0.298    0.397   81.817   14.482
  137.801    0.309    0.408   81.791   14.207
  138.101    0.309    0.427   76.282   15.299
  138.401    0.311    0.383   76.255   18.767
  138.701    0.319    0.368   76.235   21.369
  139.001    0.329    0.394   62.188   22.169
  139.301    0.324    0.415   62.772   20.955
  139.601    0.314    0.428   65.190   19.442
  139.901    0.313    0.436   71.263   19.434
  140.201    0.318    0.455   63.314   20.540
  140.501    0.318    0.446   60.242   21.309
  140.801    0.323    0.387   68.753   20.906
  141.101    0.332    0.388   74.213   21.289
  141.401    0.339    0.415   69.925   22.086
  141.701    0.340    0.449   68.683   21.268
  142.001    0.331    0.479   82.680   19.733
  142.301    0.331    0.472   83.875   19.358
  142.601    0.333    0.440   74.097   20.085
  142.901    0.338    0.430   67.975   22.035
  143.201    0.343    0.433   70.391   22.860
  143.501    0.342    0.446   67.314   22.010
  143.801    0.338    0.458   68.516   21.597
  144.101    0.341    0.464   69.103   21.188
  144.401    0.337    0.473   67.859   20.405
  144.701    0.330    0.447   72.103   18.931
  145.001    0.323    0.430   65.981   18.228
  145.301    0.326    0.394   64.128   18.564
  145.601    0.326    0.390   67.153   18.903
  145.901    0.315    0.379   72.008   19.251
  146.201    0.301    0.377   61.011   18.538
  146.501    0.290    0.401   75.010   15.966
  146.801    0.289    0.416   79.860   15.091
  147.101    0.297    0.401   77.398   14.805
  147.401    0.312    0.388   71.890   15.943
  147.701    0.319    0.394   67.595   16.233
  148.001    0.310    0.338   70.620   15.345
  148.301    0.295    0.334   79.744   14.236
  148.601    0.295    0.354   81.548   12.965
  148.901    0.302    0.384   87.013   12.255
  149.201    0.298    0.416   88.816   12.024
  149.501    0.240    0.431   68.673   20.242
  149.801    0.086    0.218   60.724   23.049
  150.101    0.127    0.137   57.044   23.035
  150.401    0.159    0.175   57.630   21.776
  150.701    0.293    0.224   69.191   19.106
  151.001    0.335    0.355   73.433   18.059
  151.301    0.344    0.385   78.287   18.051
  151.601    0.351    0.380   72.168   18.382
  151.901    0.354    0.374   75.796   18.372
  152.201    0.349    0.362   73.339   18.025
  152.501    0.343    0.335   74.536   17.359
  152.801    0.347    0.338   73.289   16.105
  153.101    0.350    0.367   68.998   15.223
  153.401    0.341    0.388   65.318   14.935
  153.701    0.324    0.391   65.904   14.928
  154.001    0.318    0.379   65.882   14.376
  154.301    0.322    0.379   79.880   12.614
  154.601    0.319    0.368   89.612    8.851
  154.901    0.259    0.327   83.486    6.817
  155.201    0.232    0.334   92.611    5.552
  155.501    0.218    0.379  148.066    4.438
  155.801    0.228    0.432  144.382    4.118
  156.101    0.247    0.508  139.484    4.116
  156.401    0.259    0.546  133.366    4.774
  156.701    0.252    0.537  129.072    5.749
  157.001    0.233    0.482  131.489    7.457
  157.301    0.235    0.446  122.929    9.855
  157.601    0.266    0.444  110.713   12.548
  157.901    0.278    0.404   99.716   12.541
  158.201    0.267    0.403   89.327   12.304
  158.501    0.257    0.380   79.549   13.498
  158.801    0.271    0.399   84.400   15.086
  159.101    0.295    0.399   91.085   16.550
  159.401    0.298    0.425   86.794   17.172
  159.701    0.282    0.440   88.600   17.814
  160.001    0.270    0.460   86.746   18.139
  160.301    0.270    0.436   90.991   17.468
  160.601    0.285    0.419   96.452   16.511
  160.901    0.276    0.432  101.916   15.319
  161.201    0.256    0.429   92.138   14.481
  161.501    0.249    0.443   76.263   13.435
  161.801    0.263    0.430   79.288   11.787
  162.101    0.263    0.432   90.846   10.735
  162.401    0.244    0.389  113.382    9.960
  162.701    0.247    0.355  123.718    9.591
  163.001    0.252    0.374  118.210    9.065
  163.301    0.258    0.398  107.825    9.062
  163.601    0.241    0.410  122.433    8.890
  163.901    0.235    0.396  149.844    8.562
  164.201    0.242    0.400  143.114    7.943
  164.501    0.252    0.395  130.895    7.793
  164.801    0.248    0.431  124.164    7.645
  165.101    0.250    0.442  123.528    7.363
  165.401    0.247    0.426  122.287    7.090
  165.701    0.255    0.399  121.048    6.578
  166.001    0.254    0.411  122.853    6.454
  166.301    0.263    0.423  119.780    6.572
  166.601    0.249    0.386  114.880    6.692
  166.901    0.259    0.372  108.149    6.815
  167.201    0.267    0.376  111.781    7.070
  167.501    0.292    0.387  116.638    7.473
  167.801    0.271    0.392  114.785    8.047
  168.101    0.243    0.381  108.056    7.606
  168.401    0.222    0.380   97.667    7.057
  168.701    0.253    0.396   96.422    6.308
  169.001    0.297    0.425  100.667    6.306
  169.301    0.323    0.461  109.787    7.314
  169.601    0.313    0.419  109.151    9.666
  169.901    0.263    0.358  106.693    9.137
  170.201    0.237    0.337  104.232    7.581
  170.501    0.253    0.368  106.036    7.165
  170.801    0.279    0.416  119.426    7.031
  171.101    0.284    0.448  101.721    7.713
  171.401    0.267    0.436   95.600    9.286
  171.701    0.269    0.407   94.968   10.000
  172.001    0.283    0.387  104.697    9.995
  172.301    0.289    0.393  116.257    9.448
  172.601    0.289    0.412  115.624    9.444
  172.901    0.285    0.424  108.894    9.617
  173.201    0.278    0.403  111.310    9.090
  173.501    0.258    0.402  111.284    7.684
  173.801    0.244    0.388  109.430    7.262
  174.101    0.233    0.378  116.726    7.126
  174.401    0.241    0.378  129.502    6.736
  174.701    0.239    0.387  129.480    6.858
  175.001    0.243    0.403  117.875    6.856
  175.301    0.235    0.377  106.872    6.243
  175.601    0.242    0.402  119.655    5.793
  175.901    0.256    0.439  128.777    5.682
  176.201    0.264    0.412  126.315    5.895
  176.501    0.273    0.434  115.927    6.117
  176.801    0.267    0.441  103.101    6.586
  177.101    0.249    0.487  118.318    7.640
  177.401    0.247    0.459  120.124    9.030
  177.701    0.283    0.456  108.514   10.476
  178.001    0.306    0.384  107.883   13.588
  178.301    0.330    0.333  120.052   14.906
  178.601    0.344    0.308  113.320   14.355
  178.901    0.335    0.338   96.836   13.569
  179.201    0.328    0.349   90.106   12.129
  179.501    0.300    0.367   89.472   11.679
  179.801    0.294    0.437   90.060   11.675
  180.101    0.295    0.461   91.255   12.112
  180.401    0.295    0.496   89.400   12.565
  180.701    0.281    0.513   79.624   15.415
  181.001    0.219    0.488   71.065   24.538
  181.301    0.050    0.166   63.114   28.467
  181.601    0.017    0.130   65.531   27.929
  181.901    0.039    0.119   72.214   19.966
  182.201    0.115    0.127   80.114   15.093
  182.501    0.203    0.187   83.751   12.999
  182.801    0.257    0.270  100.795   12.061
  183.101    0.288    0.385   98.945   11.614
  183.401    0.287    0.370  103.188   11.827
  183.701    0.288    0.376  104.384   11.821
  184.001    0.288    0.386  104.971   11.383
  184.301    0.284    0.397  107.992   11.168
  184.601    0.282    0.379  107.968   10.756
  184.901    0.278    0.368  104.899   10.355
  185.201    0.283    0.386  105.485   10.351
  185.501    0.279    0.405   98.142   10.348
  185.801    0.279    0.408   93.245   10.342
  186.101    0.275    0.413   94.439   10.338
  186.401    0.268    0.407  102.338   10.142
  186.701    0.265    0.427   99.878   10.137
  187.001    0.265    0.438  115.098   10.133
  187.301    0.259    0.449  120.559   11.755
  187.601    0.202    0.488  107.734   12.424
  187.901    0.170    0.456   88.811   12.189
  188.201    0.187    0.252   89.393   12.183
  188.501    0.247    0.234   97.907   12.877
  188.801    0.268    0.322  104.590   14.127
  189.101    0.196    0.403  105.176   17.329
