~VERSION INFORMATION
 VERS.                 2.0:   CWLS LOG ASCII STANDARD -VERSION 2.0
 WRAP.                  NO:   ONE LINE PER DEPTH STEP
~WELL INFORMATION BLOCK
#MNEM.UNIT           DATA                    DESCRIPTION OF MNEMONIC
#---------    -------------------            -------------------------------
# Generated from Intellog Unique Number	CX_WELLS/WELL/2894
WELL.         NOVALTA NEWBY                  : Well_name    - WELL
LOC .         00/05-22-082-04W4/0            : Location     - LOCATION
UWI .         00/05-22-082-04W400            : Uwi          - UNIQUE WELL ID
ENTR.         T                              : Entered      - ENTERED BY
SRVC.         SCHLUMBERGER                   : Scn          - SERVICE COMPANY
STRT.M        90                             : top_depth    - START DEPTH
STOP.M        260                            : bot_depth    - STOP DEPTH
STEP.M        0.25                           : increment    - STEP LENGTH
 NULL. -999.2500:NULL Value
~CURVE INFORMATION BLOCK
#MNEM UNIT       ERCB CURVE CODE    CURVE DESCRIPTION
#-----------   ------------------   ----------------------------------
DEPT.M        00 001 00 00         : DEPTH        - DEPTH
GR  .API      00 310 00 00         : GR           - GAMMA RAY
NPHI.V/V      00 330 00 00         : PHIN         - NEUTRON POROSITY (SANDSTONE)
DPHI.V/V      00 890 00 00         : PHID         - DENSITY POROSITY (SANDSTONE)
ILD .OHMM     00 120 00 00         : RESD         - DEEP RESISTIVITY (OTHER)
~PARAMETER INFORMATION
#MNEM.UNIT           DATA             DESCRIPTION OF MNEMONIC
#---------         -----------     ------------------------------
GL  .M        456.56               : gl           - GROUND LEVEL ELEVATION
EREF.M        460.2                : kb           - ELEVATION OF DEPTH REFERENCE
DATM.M        460.2                : datum        - DATUM ELEVATION
TDD .M        284                  : tdd          - TOTAL DEPTH DRILLER
RUN .         ONE                  : Run          - RUN NUMBER
ENG .         BILL                 : Engineer     - RECORDING ENGINEER
WIT .         JIM                  : Witness      - WITNESSED BY
MUD .         GEL                  : Mud_type     - MUD TYPE
MATR.         SANDSTONE            : Logunit      - NEUTRON MATRIX
TMAX.C        24                   : BHT          - MAXIMUM RECORDED TEMPERATURE
BHTD.M        284                  : BHTDEP       - MAXIMUM RECORDED TEMPERATURE
MATR.         1                    : LOGUNIT      - NEUTRON MATRIX
RMT .C        19                   : MDTP         - TEMPERATURE OF MUD
NEUT.         1                    : NEUTRON      - NEUTRON TYPE
RESI.         3.4                  : RESIST       - RESISTIVITY TYPE
RMC .OHMM     2                    : RMC          - RESISTIVITY OF MUD CAKE
RMF .OHMM     3.5                  : RMF          - RESISTIVITY OF MUD FILTRATE
SUFT.C        4                    : SUFT         - SURFACE TEMPERATURE
~A  DEPTH       GR     PHIN     PHID     RESD
# ...
  133.500   66.443    0.422    0.332   13.215
  133.750   66.446    0.419    0.309   13.733
  134.000   66.453    0.418    0.304   14.005
  134.250   65.838    0.422    0.319   14.285
  134.500   64.601    0.428    0.338   14.290
  134.750   62.742    0.428    0.354   14.295
  135.000   60.264    0.417    0.359   14.303
  135.250   59.025    0.383    0.360   14.312
  135.500   57.166    0.340    0.362   14.049
  135.750   55.931    0.313    0.368   13.532
  136.000   55.938    0.356    0.376   13.535
  136.250   56.566    0.382    0.369   13.038
  136.500   57.817    0.392    0.357   12.558
  136.750   59.690    0.404    0.347   12.563
  137.000   60.316    0.412    0.339   12.331
  137.250   60.944    0.422    0.340   12.107
  137.500   61.572    0.424    0.341   11.882
  137.750   62.823    0.426    0.344   11.888
  138.000   62.829    0.420    0.344   11.669
  138.250   62.834    0.412    0.342   11.674
  138.500   61.598    0.409    0.342   11.460
  138.750   60.983    0.404    0.342   11.251
  139.000   60.991    0.392    0.342   11.043
  139.250   62.241    0.403    0.342   10.839
  139.500   63.491    0.428    0.342   10.844
  139.750   64.742    0.429    0.342   10.446
  140.000   64.748    0.423    0.343   10.451
  140.250   65.377    0.420    0.343   10.259
  140.500   67.250    0.419    0.343   10.069
  140.750   68.499    0.417    0.343   10.074
  141.000   69.126    0.424    0.343    9.890
  141.250   69.132    0.431    0.344    9.894
  141.500   68.517    0.431    0.348    9.715
  141.750   67.902    0.425    0.350    9.717
  142.000   69.154    0.412    0.353    9.722
  142.250   69.159    0.411    0.353    9.727
  142.500   68.544    0.414    0.353    9.733
  142.750   67.307    0.424    0.350    9.739
  143.000   64.205    0.444    0.349    9.742
  143.250   62.345    0.451    0.347    9.745
  143.500   62.975    0.460    0.347    9.750
  143.750   63.602    0.465    0.347    9.757
  144.000   65.475    0.466    0.347    9.578
  144.250   66.727    0.466    0.348    9.582
  144.500   67.353    0.463    0.349    9.587
  144.750   67.981    0.461    0.349    9.410
  145.000   68.611    0.461    0.346    9.414
  145.250   68.618    0.461    0.346    9.419
  145.500   68.623    0.463    0.348    9.247
  145.750   68.011    0.474    0.349    9.078
  146.000   68.014    0.426    0.351    8.416
  146.250   68.643    0.431    0.344    7.802
  146.500   68.650    0.444    0.338    6.962
  146.750   69.278    0.482    0.340    5.981
  147.000   71.152    0.488    0.350    4.853
  147.250   74.266    0.485    0.346    4.169
  147.500   82.355    0.488    0.312    3.650
  147.750   89.203    0.500    0.298    3.019
  148.000   92.320    0.524    0.292    2.644
  148.250   91.702    0.552    0.291    2.546
  148.500   90.465    0.516    0.286    2.499
  148.750   91.094    0.516    0.283    2.453
  149.000   96.696    0.522    0.280    2.455
  149.250  101.677    0.534    0.274    2.456
  149.500  103.549    0.538    0.268    2.602
  149.750  103.557    0.525    0.263    2.809
  150.000  101.697    0.514    0.258    2.975
  150.250   99.217    0.509    0.257    3.274
  150.500   96.735    0.502    0.253    3.815
  150.750   94.256    0.487    0.251    4.199
  151.000   94.263    0.470    0.247    4.533
  151.250   94.268    0.456    0.246    4.802
  151.500   91.787    0.437    0.243    4.991
  151.750   90.552    0.417    0.243    5.188
  152.000   90.559    0.441    0.244    5.290
  152.250   89.944    0.473    0.244    5.292
  152.500   87.465    0.490    0.246    5.295
  152.750   86.225    0.494    0.247    5.197
  153.000   86.233    0.496    0.248    5.201
  153.250   84.995    0.497    0.253    5.104
  153.500   80.027    0.485    0.264    5.106
  153.750   75.682    0.455    0.276    5.110
  154.000   76.312    0.444    0.286    5.311
  154.250   77.560    0.439    0.301    5.520
  154.500   78.811    0.431    0.302    5.629
  154.750   80.062    0.435    0.295    5.739
  155.000   81.934    0.456    0.284    5.853
  155.250   82.560    0.462    0.278    5.969
  155.500   82.566    0.470    0.274    6.086
  155.750   81.953    0.476    0.270    6.089
  156.000   81.336    0.485    0.270    6.092
  156.250   82.590    0.487    0.270    6.095
  156.500   83.215    0.485    0.267    6.100
  156.750   85.089    0.480    0.262    6.102
  157.000   87.581    0.468    0.258    6.104
  157.250   93.805    0.460    0.252    6.108
  157.500   93.812    0.457    0.247    6.228
  157.750   91.331    0.450    0.244    6.351
  158.000   88.851    0.425    0.245    6.354
  158.250   86.992    0.417    0.250    6.357
  158.500   83.890    0.442    0.252    6.360
  158.750   83.897    0.455    0.251    6.364
  159.000   85.769    0.477    0.246    6.366
  159.250   89.506    0.453    0.239    6.369
  159.500   92.622    0.461    0.231    6.372
  159.750   93.872    0.458    0.229    6.257
  160.000   93.879    0.435    0.228    6.258
  160.250   90.778    0.440    0.230    6.143
  160.500   87.678    0.459    0.235    6.031
  160.750   86.439    0.461    0.239    5.919
  161.000   85.201    0.461    0.243    5.812
  161.250   86.449    0.462    0.247    5.704
  161.500   90.808    0.466    0.249    5.390
  161.750   95.168    0.472    0.250    4.720
  162.000   98.906    0.495    0.250    4.375
  162.250   97.668    0.509    0.249    4.135
  162.500   94.567    0.524    0.249    4.059
  162.750   92.709    0.504    0.248    4.061
  163.000   91.472    0.490    0.248    4.063
  163.250   92.102    0.499    0.248    4.064
  163.500   92.729    0.516    0.248    3.990
  163.750   93.978    0.508    0.248    3.917
  164.000   95.229    0.496    0.250    3.845
  164.250   95.234    0.488    0.253    3.921
  164.500   92.132    0.480    0.255    3.849
  164.750   86.543    0.475    0.257    3.778
  165.000   83.441    0.473    0.258    3.638
  165.250   87.178    0.473    0.260    3.504
  165.500   92.159    0.476    0.260    3.375
  165.750   95.276    0.492    0.260    3.376
  166.000   92.176    0.487    0.261    3.443
  166.250   90.314    0.479    0.261    3.717
  166.500   88.457    0.457    0.256    4.091
  166.750   89.085    0.448    0.252    4.589
  167.000   89.089    0.442    0.244    4.769
  167.250   85.987    0.438    0.231    5.149
  167.500   81.641    0.419    0.167    5.455
  167.750   77.917    0.345    0.085    5.458
  168.000   76.062    0.320    0.085    5.357
  168.250   79.797    0.344    0.111    5.160
  168.500   82.913    0.371    0.167    5.162
  168.750   85.405    0.401    0.198    4.973
  169.000   84.170    0.445    0.228    4.974
  169.250   81.691    0.457    0.251    4.976
  169.500   80.451    0.460    0.277    4.978
  169.750   79.214    0.453    0.296    4.981
  170.000   81.710    0.447    0.268    4.984
  170.250   84.203    0.446    0.253    4.986
  170.500   85.455    0.449    0.242    4.989
  170.750   86.081    0.450    0.242    4.991
  171.000   86.709    0.447    0.245    4.993
  171.250   86.716    0.436    0.242    5.092
  171.500   86.726    0.450    0.240    5.095
  171.750   86.729    0.461    0.234    5.097
  172.000   86.737    0.437    0.236    5.099
  172.250   86.742    0.435    0.241    5.103
  172.500   85.504    0.444    0.244    5.009
  172.750   84.889    0.457    0.245    5.011
  173.000   85.517    0.452    0.245    4.826
  173.250   86.146    0.446    0.247    4.561
  173.500   86.153    0.437    0.249    4.476
  173.750   86.781    0.426    0.249    4.230
  174.000   87.409    0.419    0.248    4.074
  174.250   86.794    0.440    0.247    3.706
  174.500   86.179    0.466    0.251    3.501
  174.750   84.944    0.487    0.259    3.185
  175.000   84.949    0.511    0.266    2.897
  175.250   83.091    0.522    0.273    2.635
  175.500   81.854    0.527    0.281    2.397
  175.750   81.860    0.523    0.287    2.265
  176.000   81.867    0.520    0.285    2.224
  176.250   82.496    0.513    0.275    2.268
  176.500   83.124    0.510    0.269    2.449
  176.750   83.131    0.501    0.264    2.593
