~VERSION INFORMATION
 VERS.                 2.0:   CWLS LOG ASCII STANDARD -VERSION 2.0
 WRAP.                  NO:   ONE LINE PER DEPTH STEP
~WELL INFORMATION BLOCK
#MNEM.UNIT           DATA                    DESCRIPTION OF MNEMONIC
#---------    -------------------            -------------------------------
# Generated from Intellog Unique Number	CW_70_72/WELL/3290
NULL.         -999.25                        : NULL_VALUE
WELL.         SULPETRO ET AL MITSUE 05-18    : Well_name    - WELL              
LOC .         05-18-071-05W5                 : Location     - LOCATION          
UWI .         00/05-18-071-05W5/0            : Uwi          - UNIQUE WELL ID    
ENTR.         JAYE                           : Entered      - ENTERED BY        
SRVC.         SCHLUMBERGER                   : Scn          - SERVICE COMPANY   
DATE.         1 MAR 81                       : Date         - LOG DATE          
STRT.M        650                            : top_depth    - START DEPTH       
STOP.M        895                            : bot_depth    - STOP DEPTH        
STEP.M        0.25                           : increment    - STEP LENGTH       
~CURVE INFORMATION BLOCK
#MNEM UNIT       ERCB CURVE CODE    CURVE DESCRIPTION
#-----------   ------------------   ----------------------------------
DEPT.M        00 001 00 00         : DEPTH        - DEPTH                       
DPHI.V/V      00 890 00 00         : PHID         - DENSITY POROSITY (SANDSTONE)
ILD .OHMM     00 120 00 00         : RESD         - DEEP RESISTIVITY (DIL)      
CALI.MM       00 280 01 00         : CAL          - CALIPER                     
GR  .API      00 310 00 00         : GR           - GAMMA RAY                   
NPHI.V/V      00 330 00 00         : PHIN         - NEUTRON POROSITY (SANDSTONE)
~PARAMETER INFORMATION       
#MNEM.UNIT           DATA             DESCRIPTION OF MNEMONIC
#---------         -----------     ------------------------------
GL  .M        795.4                : gl           - GROUND LEVEL ELEVATION      
EREF.M        798.4                : kb           - ELEVATION OF DEPTH REFERENCE
DATM.M        795.4                : datum        - DATUM ELEVATION             
TDD .M        895                  : tdd          - TOTAL DEPTH DRILLER         
RUN .         ONE                  : Run          - RUN NUMBER                  
ENG .         VALLANCOURT          : Engineer     - RECORDING ENGINEER          
WIT .         THACKER              : Witness      - WITNESSED BY                
BASE.         EDM                  : Branch       - HOME BASE OF LOGGING UNIT   
MUD .         GEL CHEM             : Mud_type     - MUD TYPE                    
MATR.         SANDSTONE            : Logunit      - NEUTRON MATRIX              
TMAX.C        32.8                 : BHT          - MAXIMUM RECORDED TEMPERATURE
BHTD.M        895                  : BHTDEP       - MAXIMUM RECORDED TEMPERATURE
RMT .C        20                   : MDTP         - TEMPERATURE OF MUD          
MUDD.KG/M     1130                 : MWT          - MUD DENSITY                 
NEUT.         1                    : NEUTRON      - NEUTRON TYPE                
RESI.         0                    : RESIST       - RESISTIVITY TYPE            
RM  .OHMM     4.57                 : RM           - RESISTIVITY OF MUD          
RMC .OHMM     0.25                 : RMC          - RESISTIVITY OF MUD CAKE     
RMF .OHMM     3.86                 : RMF          - RESISTIVITY OF MUD FILTRATE 
SUFT.C        5                    : SUFT         - SURFACE TEMPERATURE         
~A  DEPTH     PHID     RESD      CAL       GR     PHIN
# ...
  796.000    0.318    1.669  152.617   67.956    0.467
  796.250    0.314    1.640  155.482   64.517    0.488
  796.500    0.313    1.615  158.446   61.078    0.471
  796.750    0.317    1.593  157.480   64.473    0.456
  797.000    0.318    1.571  151.643   66.253    0.450
  797.250    0.318    1.561  148.296   65.175    0.459
  797.500    0.312    1.572  148.569   66.459    0.440
  797.750    0.304    1.595  153.292   70.042    0.415
  798.000    0.303    1.640  156.678   70.765    0.403
  798.250    0.282    1.731  157.366   69.252    0.396
  798.500    0.234    1.873  154.014   75.258    0.408
  798.750    0.212    2.136  151.081   81.387    0.418
  799.000    0.189    2.422  153.531   83.975    0.416
  799.250    0.180    2.557  157.430   80.101    0.419
  799.500    0.201    2.551  154.182   77.035    0.421
  799.750    0.216    2.488  153.936   74.714    0.399
  800.000    0.235    2.440  150.753   75.093    0.405
  800.250    0.231    2.587  152.088   80.175    0.427
  800.500    0.207    2.679  153.732   86.499    0.413
  800.750    0.196    2.779  155.272   93.442    0.402
  801.000    0.191    2.911  157.537   92.506    0.395
  801.250    0.182    2.997  157.527   89.272    0.387
  801.500    0.215    3.086  155.137   89.451    0.398
  801.750    0.221    3.137  153.678   87.831    0.410
  802.000    0.201    3.194  154.597   85.466    0.390
  802.250    0.187    3.239  156.759   87.570    0.403
  802.500    0.174    3.299  159.851   88.991    0.424
  802.750    0.164    3.365  161.702   85.385    0.403
  803.000    0.175    3.432  162.828   83.206    0.394
  803.250    0.173    3.528  163.024   85.247    0.404
  803.500    0.174    3.599  162.806   89.647    0.414
  803.750    0.182    3.630  162.382   90.944    0.410
  804.000    0.181    3.574  161.648   90.317    0.406
  804.250    0.188    3.376  163.188   88.883    0.406
  804.500    0.206    3.165  164.005   87.262    0.402
  804.750    0.232    2.918  158.202   84.339    0.400
  805.000    0.248    2.705  155.709   80.299    0.409
  805.250    0.250    2.517  155.387   80.106    0.416
  805.500    0.252    2.329  155.065   79.355    0.421
  805.750    0.252    2.184  152.883   77.425    0.417
  806.000    0.251    2.158  150.906   79.404    0.403
  806.250    0.254    2.189  151.414   81.817    0.399
  806.500    0.242    2.314  152.851   83.363    0.410
  806.750    0.231    2.432  153.460   84.225    0.396
  807.000    0.234    2.595  153.656   81.550    0.399
  807.250    0.223    2.832  156.438   81.295    0.404
  807.500    0.192    3.062  159.530   84.143    0.386
  807.750    0.164    3.280  161.794   86.868    0.379
  808.000    0.172    3.410  163.024   90.212    0.387
  808.250    0.197    3.375  160.842   87.537    0.373
  808.500    0.229    3.188  157.935   84.428    0.361
  808.750    0.249    2.972  155.648   80.822    0.375
  809.000    0.253    2.776  154.293   77.216    0.395
  809.250    0.249    2.613  153.765   77.581    0.419
  809.500    0.242    2.487  153.028   78.382    0.403
  809.750    0.239    2.448  152.399   79.058    0.408
  810.000    0.231    2.432  152.490   79.300    0.415
  810.250    0.227    2.453  152.790   80.348    0.424
  810.500    0.230    2.479  152.986   85.182    0.427
  810.750    0.232    2.525  153.079   85.921    0.409
  811.000    0.225    2.561  153.791   82.811    0.392
  811.250    0.218    2.598  154.712   80.695    0.381
  811.500    0.219    2.621  155.736   79.260    0.388
  811.750    0.230    2.643  156.551   78.261    0.398
  812.000    0.233    2.661  156.542   77.261    0.407
  812.250    0.219    2.685  156.634   77.813    0.381
  812.500    0.210    2.668  157.864   81.592    0.390
  812.750    0.200    2.482  158.992   82.827    0.406
  813.000    0.236    2.229  159.289   75.249    0.419
  813.250    0.262    1.931  158.659   67.982    0.436
  813.500    0.287    1.689  157.821   62.763    0.432
  813.750    0.312    1.506  156.568   58.163    0.411
  814.000    0.317    1.357  156.970   57.350    0.397
  814.250    0.315    1.272  157.063   57.033    0.382
  814.500    0.309    1.295  156.536   57.275    0.382
  814.750    0.301    1.346  156.836   59.689    0.389
  815.000    0.294    1.489  155.686   59.993    0.398
  815.250    0.287    1.681  153.815   59.365    0.408
  815.500    0.278    1.926  151.631   59.048    0.386
  815.750    0.268    2.262  151.205   58.856    0.359
  816.000    0.269    2.651  152.332   58.477    0.358
  816.250    0.252    3.250  155.011   57.353    0.377
  816.500    0.146    4.144  158.724   53.809    0.294
  816.750    0.088    5.540  161.196   50.762    0.209
  817.000    0.121    6.553  162.530   52.059    0.238
  817.250    0.213    8.758  160.347   52.114    0.307
  817.500    0.250    9.630  156.199   51.549    0.331
  817.750    0.271    8.470  153.498   53.591    0.305
  818.000    0.286    4.584  155.348   53.212    0.305
  818.250    0.301    3.374  157.201   53.205    0.351
  818.500    0.307    3.053  156.155   56.426    0.380
  818.750    0.237    3.108  153.869   57.102    0.411
  819.000    0.109    3.535  154.375   52.565    0.347
  819.250    0.051    4.051  156.226   48.772    0.144
  819.500    0.124    4.307  159.938   50.876    0.149
  819.750    0.180    4.344  159.617   56.890    0.242
  820.000    0.237    4.173  153.607   61.538    0.361
  820.250    0.214    3.304  151.631   57.063    0.395
  820.500    0.153    2.784  153.792   54.450    0.293
  820.750    0.117    2.645  157.297   54.629    0.254
  821.000    0.145    2.643  159.458   53.133    0.224
  821.250    0.200    2.515  161.207   54.616    0.258
  821.500    0.261    2.213  160.575   60.630    0.358
  821.750    0.307    1.924  156.738   67.884    0.411
  822.000    0.304    1.702  154.658   67.133    0.431
  822.250    0.295    1.566  154.749   63.464    0.425
  822.500    0.291    1.468  155.050   62.900    0.415
  822.750    0.291    1.421  155.349   61.404    0.428
  823.000    0.297    1.384  155.027   61.397    0.430
  823.250    0.311    1.362  155.016   65.486    0.405
  823.500    0.314    1.361  155.211   64.301    0.401
  823.750    0.318    1.381  155.511   63.301    0.419
  824.000    0.327    1.416  155.812   60.875    0.435
  824.250    0.331    1.472  155.696   60.619    0.449
  824.500    0.329    1.524  155.271   61.234    0.442
  824.750    0.325    1.561  155.262   62.468    0.416
  825.000    0.315    1.566  155.251   63.827    0.419
  825.250    0.308    1.559  155.032   65.000    0.428
  825.500    0.297    1.535  155.229   66.669    0.433
  825.750    0.307    1.519  155.632   68.462    0.435
  826.000    0.312    1.507  157.173   67.152    0.437
  826.250    0.308    1.494  158.610   64.167    0.437
  826.500    0.313    1.457  159.633   61.429    0.422
  826.750    0.320    1.400  159.621   59.313    0.412
  827.000    0.324    1.332  159.610   58.313    0.429
  827.250    0.323    1.337  159.187   60.851    0.431
  827.500    0.319    1.389  158.453   63.762    0.407
  827.750    0.311    1.460  157.407   65.990    0.423
  828.000    0.301    1.518  155.844   69.086    0.438
  828.250    0.299    1.566  154.903   70.321    0.446
  828.500    0.310    1.646  154.064   67.025    0.442
  828.750    0.320    1.770  153.950   63.667    0.428
  829.000    0.282    2.062  153.939   61.240    0.423
  829.250    0.153    2.572  156.411   56.952    0.411
  829.500    0.102    3.060  161.675   53.469    0.206
  829.750    0.093    3.116  164.663   53.960    0.194
  830.000    0.250    2.766  161.446   58.608    0.251
  830.250    0.282    2.182  158.333   63.256    0.340
  830.500    0.304    1.927  156.666   66.786    0.395
  830.750    0.317    1.746  156.241   67.897    0.449
  831.000    0.320    1.665  156.541   66.525    0.484
  831.250    0.319    1.715  156.738   64.098    0.460
  831.500    0.304    1.806  156.520   62.478    0.407
  831.750    0.259    1.863  156.509   61.851    0.383
  832.000    0.261    1.904  156.083   66.499    0.387
  832.250    0.288    1.965  155.660   67.548    0.447
