~VERSION INFORMATION
 VERS.                 2.0:   CWLS LOG ASCII STANDARD -VERSION 2.0
 WRAP.                  NO:   ONE LINE PER DEPTH STEP
~WELL INFORMATION BLOCK
#MNEM.UNIT           DATA                    DESCRIPTION OF MNEMONIC
#---------    -------------------            -------------------------------
# Generated from Intellog Unique Number	CW_70_72/WELL/3010
NULL.         -999.25                        : NULL_VALUE
WELL.         GULF POC CALLS 6-25            : Well_name    - WELL              
LOC .         06-25-070-22W4                 : Location     - LOCATION          
UWI .         00/06-25-070-22W4/0            : Uwi          - UNIQUE WELL ID    
ENTR.         dgm                            : Entered      - ENTERED BY        
SRVC.         SCHLUMBERGER                   : Scn          - SERVICE COMPANY   
DATE.         18 DEC 1982                    : Date         - LOG DATE          
STRT.M        425                            : top_depth    - START DEPTH       
STOP.M        606                            : bot_depth    - STOP DEPTH        
STEP.M        0.25                           : increment    - STEP LENGTH       
~CURVE INFORMATION BLOCK
#MNEM UNIT       ERCB CURVE CODE    CURVE DESCRIPTION
#-----------   ------------------   ----------------------------------
DEPT.M        00 001 00 00         : DEPTH        - DEPTH                       
DPHI.V/V      00 890 00 00         : PHID         - DENSITY POROSITY (SANDSTONE)
NPHI.V/V      00 330 00 00         : PHIN         - NEUTRON POROSITY (SANDSTONE)
GR  .API      00 310 00 00         : GR           - GAMMA RAY                   
CALI.MM       00 280 01 00         : CAL          - CALIPER                     
ILD .OHMM     00 120 00 00         : RESD         - DEEP RESISTIVITY (DIL)      
~PARAMETER INFORMATION       
#MNEM.UNIT           DATA             DESCRIPTION OF MNEMONIC
#---------         -----------     ------------------------------
GL  .M        676.9                : gl           - GROUND LEVEL ELEVATION      
EREF.M        680.17               : kb           - ELEVATION OF DEPTH REFERENCE
DATM.M        680.17               : datum        - DATUM ELEVATION             
TDD .M        635                  : tdd          - TOTAL DEPTH DRILLER         
RUN .         ONE                  : Run          - RUN NUMBER                  
ENG .         WRIGHT               : Engineer     - RECORDING ENGINEER          
WIT .         KERESTES             : Witness      - WITNESSED BY                
BASE.         EDMONTON             : Branch       - HOME BASE OF LOGGING UNIT   
MUD .         GEL CHEM             : Mud_type     - MUD TYPE                    
MATR.         SANDSTONE            : Logunit      - NEUTRON MATRIX              
TMAX.C        23.3                 : BHT          - MAXIMUM RECORDED TEMPERATURE
BHTD.M        635.3                : BHTDEP       - MAXIMUM RECORDED TEMPERATURE
RMT .C        23.3                 : MDTP         - TEMPERATURE OF MUD          
MUDD.KG/M     1140                 : MWT          - MUD DENSITY                 
NEUT.         1                    : NEUTRON      - NEUTRON TYPE                
RESI.         0                    : RESIST       - RESISTIVITY TYPE            
RM  .OHMM     3.422                : RM           - RESISTIVITY OF MUD          
RMC .OHMM     2.675                : RMC          - RESISTIVITY OF MUD CAKE     
RMF .OHMM     3.173                : RMF          - RESISTIVITY OF MUD FILTRATE 
SUFT.C        5                    : SUFT         - SURFACE TEMPERATURE         
~A  DEPTH     PHID     PHIN       GR      CAL     RESD
# ...
  534.500    0.119    0.250   54.888  150.427    5.447
  534.750    0.149    0.261   58.438  150.111    5.162
  535.000    0.144    0.282   62.799  149.794    4.957
  535.250    0.148    0.304   66.100  148.650    4.689
  535.500    0.171    0.346   68.466  149.784    4.378
  535.750    0.181    0.352   68.213  149.986    4.188
  536.000    0.201    0.374   63.097  149.048    4.029
  536.250    0.233    0.423   62.221  149.043    3.869
  536.500    0.254    0.437   67.704  149.349    3.764
  536.750    0.247    0.441   72.751  149.136    3.731
  537.000    0.250    0.441   77.360  149.028    3.774
  537.250    0.259    0.430   78.230  148.711    3.876
  537.500    0.251    0.404   76.731  149.017    4.056
  537.750    0.219    0.437   75.605  150.046    4.212
  538.000    0.225    0.464   76.849  150.352    4.293
  538.250    0.252    0.448   84.825  150.037    4.263
  538.500    0.248    0.449   90.495  149.720    4.218
  538.750    0.249    0.460   86.190  149.611    4.150
  539.000    0.262    0.453   73.469  148.779    4.067
  539.250    0.262    0.436   72.406  148.151    4.002
  539.500    0.253    0.445   76.205  148.250    3.973
  539.750    0.247    0.447   78.633  148.969    4.005
  540.000    0.246    0.433   81.747  149.896    4.060
  540.250    0.243    0.415   83.240  150.408    4.131
  540.500    0.237    0.417   82.675  148.954    4.258
  540.750    0.230    0.419   81.799  148.948    4.316
  541.000    0.222    0.417   82.793  150.496    4.466
  541.250    0.220    0.419   81.107  152.768    4.526
  541.500    0.218    0.417   84.906  155.869    4.478
  541.750    0.214    0.416   82.721  159.072    4.397
  542.000    0.205    0.418   82.406  160.827    4.160
  542.250    0.194    0.429   84.585  162.374    3.862
  542.500    0.188    0.464   89.382  163.093    3.513
  542.750    0.194    0.469   94.615  163.088    2.982
  543.000    0.206    0.475   99.038  162.979    2.565
  543.250    0.221    0.463  104.957  162.871    2.290
  543.500    0.249    0.493  111.812  162.555    2.228
  543.750    0.262    0.525  114.427  161.307    2.327
  544.000    0.253    0.541  113.863  160.267    2.560
  544.250    0.238    0.504  109.931  160.262    2.802
  544.500    0.219    0.468  105.315  160.566    3.218
  544.750    0.206    0.449  100.573  160.768    3.656
  545.000    0.198    0.438   99.635  161.177    4.068
  545.250    0.185    0.447  102.374  161.689    4.502
  545.500    0.187    0.469  100.813  160.752    4.917
  545.750    0.194    0.436   96.695  160.643    5.232
  546.000    0.149    0.390   90.270  160.742    5.434
  546.250    0.116    0.412   86.650  161.047    5.396
  546.500    0.119    0.431   91.198  160.628    5.269
  546.750    0.160    0.437   87.205  158.449    5.107
  547.000    0.213    0.416   82.713  152.957    5.062
  547.250    0.166    0.356   89.505  151.296    5.102
  547.500    0.157    0.386   97.731  153.671    5.250
  547.750    0.178    0.436   92.615  156.978    5.371
  548.000    0.180    0.418   87.064  157.801    5.374
  548.250    0.171    0.400   92.983  156.864    5.287
  548.500    0.169    0.402   94.288  156.756    5.240
  548.750    0.173    0.399   98.026  157.992    5.041
  549.000    0.178    0.412  101.264  158.194    5.129
  549.250    0.185    0.407   97.084  157.982    5.160
  549.500    0.194    0.399   93.028  157.666    5.280
  549.750    0.184    0.399   94.895  157.454    5.412
  550.000    0.174    0.395   97.760  158.380    5.455
  550.250    0.168    0.396   91.460  158.892    5.488
  550.500    0.164    0.397   87.404  158.784    5.584
  550.750    0.158    0.402   89.832  159.193    5.671
  551.000    0.162    0.416   93.632  159.394    5.705
  551.250    0.164    0.421   97.556  158.250    5.676
  551.500    0.161    0.404  102.602  153.586    5.522
  551.750    0.176    0.380  106.838  153.167    5.342
  552.000    0.196    0.367  100.974  154.818    5.188
  552.250    0.207    0.384  103.590  152.432    5.113
  552.500    0.194    0.386  103.399  154.911    5.077
  552.750    0.192    0.393  102.025  157.804    5.004
  553.000    0.183    0.413   97.408  159.352    4.979
  553.250    0.168    0.404   95.098  159.243    4.981
  553.500    0.182    0.399   97.401  158.824    5.068
  553.750    0.181    0.406   95.465  154.367    5.263
  554.000    0.174    0.422   92.033  148.979    5.517
  554.250    0.170    0.452   88.912  150.112    6.071
  554.500    0.158    0.433   85.667  154.869    6.744
  554.750    0.116    0.413   83.605  158.175    8.193
  555.000    0.091    0.385   82.855  157.549    8.653
  555.250    0.045    0.343   73.624  156.923    8.371
  555.500    0.031    0.259   66.576  156.400    7.446
  555.750    0.050    0.268   73.244  156.809    6.332
  556.000    0.134    0.415   93.315  157.115    5.814
  556.250    0.198    0.407  106.030  154.832    6.617
  556.500    0.162    0.349   75.042  150.686    7.686
  556.750    0.104    0.309   54.964  153.372    8.895
  557.000    0.030    0.284   57.018  155.540   10.313
  557.250    0.056    0.242   65.056  155.742   10.435
  557.500    0.089    0.278   69.355  156.048    9.761
  557.750    0.126    0.308   72.905  156.353    8.633
  558.000    0.160    0.327   76.081  154.277    7.398
  558.250    0.172    0.349   78.011  146.094    6.654
  558.500    0.180    0.362   77.633  144.432    6.486
  558.750    0.176    0.361   77.007  145.566    6.477
  559.000    0.169    0.355   77.252  148.148    6.468
  559.250    0.160    0.340   79.681  148.868    6.495
  559.500    0.155    0.341   80.675  149.587    6.498
  559.750    0.170    0.360   78.863  150.927    6.345
  560.000    0.167    0.373   79.296  152.164    6.161
  560.250    0.163    0.378   78.981  152.573    6.061
  560.500    0.176    0.378   77.170  149.462    6.121
  560.750    0.173    0.374   80.097  146.559    6.193
  561.000    0.150    0.360   80.841  146.656    6.231
  561.250    0.120    0.330   89.566  148.515    6.246
  561.500    0.136    0.335   97.917  150.891    6.331
  561.750    0.151    0.361  103.338  154.612    6.322
  562.000    0.166    0.404  106.389  158.644    6.290
  562.250    0.185    0.428  104.328  158.535    6.399
  562.500    0.202    0.422   93.290  152.319    6.621
  562.750    0.185    0.406   91.230  149.518    7.058
  563.000    0.182    0.392   89.854  152.928    7.695
  563.250    0.175    0.381   84.552  155.408    8.468
  563.500    0.149    0.355   74.636  156.956    8.910
  563.750    0.101    0.297   70.705  158.089    9.082
  564.000    0.037    0.268   74.505  159.533    8.559
  564.250    0.047    0.264   96.945  159.424    7.571
  564.500    0.178    0.322  103.425  161.490    6.487
  564.750    0.195    0.437  108.222  163.658    5.486
  565.000    0.195    0.462  109.029  164.170    4.580
  565.250    0.187    0.481  111.707  163.854    4.127
  565.500    0.196    0.512  113.013  161.468    4.030
  565.750    0.204    0.502  109.269  156.494    4.062
  566.000    0.179    0.465  107.458  154.315    4.258
  566.250    0.157    0.430  111.694  153.999    4.422
  566.500    0.170    0.417  113.748  154.614    4.516
  566.750    0.155    0.408  109.380  156.680    4.734
  567.000    0.114    0.389  103.953  159.987    4.972
  567.250    0.040    0.361   90.670  160.292    5.350
  567.500    0.033    0.366   94.283  159.769    5.640
  567.750    0.116    0.395  103.382  160.178    5.836
  568.000    0.151    0.412   96.271  160.173    5.938
  568.250    0.150    0.400   94.959  159.961    5.896
  568.500    0.145    0.385   94.954  159.024    5.661
  568.750    0.154    0.375   95.076  157.880    5.793
  569.000    0.160    0.373   96.320  154.148    5.927
  569.250    0.154    0.393  100.120  151.968    6.144
  569.500    0.131    0.399   95.440  155.276    6.262
  569.750    0.085    0.375   98.180  158.480    5.991
  570.000    0.120    0.365  103.164  158.681    5.720
  570.250    0.157    0.367  103.473  160.022    5.649
  570.500    0.128    0.398  100.290  157.740    5.630
  570.750    0.077    0.389   98.790  156.802    5.654
