~VERSION INFORMATION
 VERS.                 2.0:   CWLS LOG ASCII STANDARD -VERSION 2.0
 WRAP.                  NO:   ONE LINE PER DEPTH STEP
~WELL INFORMATION BLOCK
#MNEM.UNIT           DATA                    DESCRIPTION OF MNEMONIC
#---------    -------------------            -------------------------------
# Generated from Intellog Unique Number	CX_WELLS/WELL/2711
WELL.         MAYNARD THORTANY               : Well_name    - WELL
LOC .         00/06-03-080-12W4/0            : Location     - LOCATION
UWI .         00/06-03-080-12W4/0            : Uwi          - UNIQUE WELL ID
ENTR.         T                              : Entered      - ENTERED BY
SRVC.         SCHLUMBERGER                   : Scn          - SERVICE COMPANY
STRT.M        250                            : top_depth    - START DEPTH
STOP.M        495                            : bot_depth    - STOP DEPTH
STEP.M        0.25                           : increment    - STEP LENGTH
 NULL. -999.2500:NULL Value
~CURVE INFORMATION BLOCK
#MNEM UNIT       ERCB CURVE CODE    CURVE DESCRIPTION
#-----------   ------------------   ----------------------------------
DEPT.M        00 001 00 00         : DEPTH        - DEPTH
GR  .API      00 310 00 00         : GR           - GAMMA RAY
NPHI.V/V      00 330 00 00         : PHIN         - NEUTRON POROSITY (SANDSTONE)
DPHI.V/V      00 890 00 00         : PHID         - DENSITY POROSITY (SANDSTONE)
ILD .OHMM     00 120 00 00         : RESD         - DEEP RESISTIVITY (DIL)
~PARAMETER INFORMATION
#MNEM.UNIT           DATA             DESCRIPTION OF MNEMONIC
#---------         -----------     ------------------------------
GL  .M        687                  : gl           - GROUND LEVEL ELEVATION
EREF.M        690                  : kb           - ELEVATION OF DEPTH REFERENCE
DATM.M        690                  : datum        - DATUM ELEVATION
TDD .M        505                  : tdd          - TOTAL DEPTH DRILLER
RUN .         ONE                  : Run          - RUN NUMBER
ENG .         BILL                 : Engineer     - RECORDING ENGINEER
WIT .         JIM                  : Witness      - WITNESSED BY
MUD .         GEL                  : Mud_type     - MUD TYPE
MATR.         SANDSTONE            : Logunit      - NEUTRON MATRIX
TMAX.C        21                   : BHT          - MAXIMUM RECORDED TEMPERATURE
BHTD.M        505                  : BHTDEP       - MAXIMUM RECORDED TEMPERATURE
MATR.         1                    : LOGUNIT      - NEUTRON MATRIX
RMT .C        20                   : MDTP         - TEMPERATURE OF MUD
NEUT.         1                    : NEUTRON      - NEUTRON TYPE
RESI.         3.2                  : RESIST       - RESISTIVITY TYPE
RMC .OHMM     3                    : RMC          - RESISTIVITY OF MUD CAKE
RMF .OHMM     2.1                  : RMF          - RESISTIVITY OF MUD FILTRATE
SUFT.C        3                    : SUFT         - SURFACE TEMPERATURE
~A  DEPTH       GR     PHIN     PHID     RESD
  250.000  113.605    0.463    0.277    3.585
  250.250  113.635    0.463    0.280    3.590
  250.500  113.076    0.462    0.286    3.515
  250.750  113.105    0.462    0.290    3.523
  251.000  112.547    0.469    0.292    3.450
  251.250  112.586    0.476    0.296    3.378
  251.500  112.017    0.475    0.293    3.305
  251.750  111.439    0.472    0.251    3.233
  252.000  109.049    0.476    0.210    3.238
  252.250  106.669    0.478    0.190    3.242
  252.500  104.279    0.489    0.199    3.253
  252.750  103.701    0.497    0.215    3.256
  253.000  103.739    0.498    0.233    3.263
  253.250  103.778    0.497    0.256    3.269
  253.500  104.434    0.493    0.256    3.353
  253.750  105.081    0.489    0.255    3.360
  254.000  106.324    0.487    0.251    3.366
  254.250  106.392    0.482    0.250    3.375
  254.500  107.019    0.476    0.245    3.382
  254.750  108.273    0.467    0.242    3.466
  255.000  109.526    0.461    0.231    3.471
  255.250  109.565    0.455    0.222    3.478
  255.500  107.782    0.445    0.214    3.485
  255.750  104.785    0.435    0.208    3.491
  256.000  104.824    0.432    0.199    3.496
  256.250  107.292    0.431    0.194    3.504
  256.500  109.152    0.431    0.192    3.511
  256.750  109.808    0.433    0.201    3.518
  257.000  110.464    0.433    0.207    3.522
  257.250  110.493    0.433    0.215    3.529
  257.500  110.532    0.430    0.215    3.538
  257.750  110.600    0.430    0.215    3.543
  258.000  110.620    0.430    0.218    3.547
  258.250  110.659    0.430    0.223    3.557
  258.500  111.315    0.430    0.227    3.562
  258.750  111.334    0.431    0.230    3.569
  259.000  111.383    0.433    0.233    3.573
  259.250  111.412    0.440    0.235    3.579
  259.500  111.451    0.445    0.239    3.506
  259.750  111.490    0.444    0.242    3.512
  260.000  112.753    0.441    0.247    3.439
  260.250  112.782    0.439    0.247    3.445
  260.500  114.045    0.438    0.241    3.373
  260.750  114.692    0.434    0.235    3.381
  261.000  114.731    0.430    0.233    3.384
  261.250  114.769    0.427    0.230    3.390
  261.500  113.604    0.419    0.228    3.398
  261.750  111.223    0.412    0.228    3.406
  262.000  109.421    0.406    0.227    3.412
  262.250  107.031    0.394    0.227    3.498
  262.500  102.829    0.389    0.226    3.586
  262.750  101.643    0.379    0.225    3.589
  263.000   99.253    0.367    0.227    3.835
  263.250   95.051    0.355    0.226    3.999
  263.500   92.044    0.342    0.226    4.406
  263.750   87.225    0.328    0.227    4.648
  264.000   81.799    0.322    0.229    5.132
  264.250   77.587    0.326    0.229    6.015
  264.500   78.233    0.332    0.233    7.454
  264.750   81.308    0.341    0.246    9.371
  265.000   82.562    0.346    0.258   10.491
  265.250   82.610    0.353    0.271   11.452
  265.500   82.042    0.351    0.285   12.892
  265.750   81.464    0.349    0.299   14.092
  266.000   80.298    0.348    0.312   15.133
  266.250   79.123    0.354    0.305   15.539
  266.500   79.778    0.366    0.295   15.145
  266.750   82.237    0.377    0.288   14.436
  267.000   90.777    0.388    0.277   13.328
  267.250   97.506    0.394    0.266   11.663
  267.500  101.178    0.404    0.251   11.272
  267.750  105.478    0.412    0.242    9.765
  268.000  107.936    0.419    0.233    9.373
  268.250  112.235    0.423    0.228    8.584
  268.500  114.096    0.426    0.228    7.715
  268.750  114.762    0.430    0.230    6.687
  269.000  114.781    0.430    0.234    5.897
  269.250  114.223    0.421    0.245    5.585
  269.500  113.047    0.416    0.264    5.993
  269.750  112.469    0.377    0.284    6.155
  270.000  110.079    0.296    0.300    6.877
  270.250  104.662    0.276    0.315    9.431
  270.500  100.441    0.276    0.327   11.665
  270.750   91.371    0.281    0.347   18.677
  271.000   82.301    0.292    0.373   20.195
  271.250   73.231    0.309    0.389   21.079
  271.500   64.759    0.326    0.389   20.925
  271.750   57.511    0.334    0.384   20.454
  272.000   52.691    0.324    0.376   19.983
  272.250   47.882    0.323    0.363   19.672
  272.500   45.482    0.326    0.347   19.760
  272.750   48.567    0.331    0.342   19.763
  273.000   51.652    0.335    0.330   19.930
  273.250   52.896    0.338    0.315   19.935
  273.500   55.981    0.340    0.306   19.782
  273.750   58.439    0.340    0.303   19.551
  274.000   60.917    0.340    0.304   19.318
  274.250   61.553    0.340    0.307   19.245
  274.500   62.219    0.341    0.308   19.329
  274.750   62.865    0.344    0.309   19.417
  275.000   62.894    0.346    0.309   19.423
  275.250   64.167    0.349    0.309   19.428
  275.500   64.784    0.355    0.305   19.277
  275.750   67.272    0.359    0.301   19.044
  276.000   68.515    0.367    0.298   18.571
  276.250   72.217    0.376    0.295   17.784
  276.500   74.058    0.381    0.295   17.231
  276.750   77.133    0.389    0.294   16.283
  277.000   80.209    0.394    0.289   15.573
  277.250   83.911    0.391    0.275   14.862
  277.500   85.762    0.382    0.249   14.311
  277.750   88.230    0.382    0.232   13.601
  278.000   92.519    0.383    0.236   13.130
  278.250   96.809    0.384    0.240   12.581
  278.500  101.706    0.387    0.251   12.108
  278.750  102.372    0.389    0.262   11.639
  279.000  101.784    0.383    0.274   11.565
  279.250   99.394    0.376    0.292   11.890
  279.500   95.192    0.372    0.312   12.374
  279.750   92.802    0.372    0.329   13.254
  280.000   91.019    0.375    0.333   14.853
  280.250   91.058    0.379    0.334   16.052
  280.500   92.321    0.382    0.331   17.333
  280.750   91.752    0.385    0.326   17.739
  281.000   89.970    0.381    0.323   17.986
  281.250   88.187    0.378    0.321   18.068
  281.500   87.011    0.378    0.320   17.916
  281.750   86.433    0.377    0.321   17.844
  282.000   86.472    0.377    0.323   17.931
  282.250   86.511    0.377    0.329   18.017
  282.500   87.157    0.377    0.330   18.103
  282.750   88.430    0.378    0.331   18.106
  283.000   89.664    0.381    0.325   18.114
  283.250   92.739    0.386    0.317   17.959
  283.500   97.656    0.393    0.303   17.571
  283.750  101.328    0.393    0.285   17.337
  284.000  106.225    0.386    0.273   17.023
  284.250  109.301    0.380    0.271   16.634
  284.500  103.874    0.375    0.269   16.322
  284.750   99.055    0.375    0.266   16.089
  285.000   93.629    0.375    0.259   15.777
  285.250   90.641    0.378    0.246   15.543
  285.500   91.278    0.383    0.226   15.074
  285.750   93.755    0.391    0.218   14.601
  286.000   96.831    0.397    0.205   13.893
  286.250   99.906    0.401    0.193   12.467
  286.500  104.205    0.405    0.174   12.392
  286.750  106.663    0.410    0.171   11.999
  287.000  109.739    0.415    0.171   11.368
  287.250  112.216    0.422    0.172   10.340
  287.500  113.460    0.424    0.172    8.994
  287.750  116.555    0.429    0.171    8.364
  288.000  117.798    0.435    0.169    7.813
  288.250  119.052    0.436    0.168    7.264
  288.500  121.539    0.436    0.163    7.030
  288.750  122.783    0.436    0.163    6.879
  289.000  124.036    0.436    0.169    6.723
  289.250  124.673    0.437    0.175    6.414
  289.500  125.926    0.442    0.194    6.339
  289.750  126.572    0.448    0.210    6.027
  290.000  127.228    0.457    0.217    5.795
  290.250  127.258    0.463    0.218    5.564
  290.500  127.923    0.453    0.218    5.331
  290.750  128.569    0.439    0.218    5.175
  291.000  129.206    0.427    0.218    5.024
  291.250  128.638    0.422    0.219    4.951
  291.500  126.257    0.416    0.225    5.038
  291.750  123.867    0.411    0.247    5.361
  292.000  121.477    0.406    0.258    5.924
  292.250  118.470    0.403    0.262    6.488
  292.500  114.875    0.401    0.263    9.996
  292.750  113.690    0.401    0.265   11.276
  293.000  111.917    0.401    0.266   12.557
  293.250  109.527    0.402    0.266   13.120
