~VERSION INFORMATION
 VERS.                 2.0:   CWLS LOG ASCII STANDARD -VERSION 2.0
 WRAP.                  NO:   ONE LINE PER DEPTH STEP
~WELL INFORMATION BLOCK
#MNEM.UNIT           DATA                    DESCRIPTION OF MNEMONIC
#---------    -------------------            -------------------------------
# Generated from Intellog Unique Number	CS_67_68/WELL/772
WELL.         BURNT LAKE                     : Well_name    - WELL
LOC .         00/07-16-068-03W4/0            : Location     - LOCATION
UWI .         00/07-16-068-03W4/0            : Uwi          - UNIQUE WELL ID
ENTR.         SP                             : Entered      - ENTERED BY
SRVC.         SCHLUMBERGER                   : Scn          - SERVICE COMPANY
STRT.M        370                            : top_depth    - START DEPTH
STOP.M        605                            : bot_depth    - STOP DEPTH
STEP.M        0.25                           : increment    - STEP LENGTH
 NULL. -999.2500:NULL Value
~CURVE INFORMATION BLOCK
#MNEM UNIT       ERCB CURVE CODE    CURVE DESCRIPTION
#-----------   ------------------   ----------------------------------
DEPT.M        00 001 00 00         : DEPTH        - DEPTH
ILD .OHMM     00 120 00 00         : RESD         - DEEP RESISTIVITY (DIL)
DPHI.V/V      00 890 00 00         : PHID         - DENSITY POROSITY (LIMESTONE)
NPHI.V/V      00 330 00 00         : PHIN         - NEUTRON POROSITY (LIMESTONE)
GR  .API      00 310 00 00         : GR           - GAMMA RAY
~PARAMETER INFORMATION
#MNEM.UNIT           DATA             DESCRIPTION OF MNEMONIC
#---------         -----------     ------------------------------
GL  .M        736.44               : gl           - GROUND LEVEL ELEVATION
EREF.M        740.9                : kb           - ELEVATION OF DEPTH REFERENCE
DATM.M        736.44               : datum        - DATUM ELEVATION
TDD .M        608                  : tdd          - TOTAL DEPTH DRILLER
RUN .         ONE                  : Run          - RUN NUMBER
ENG .         BILL                 : Engineer     - RECORDING ENGINEER
WIT .         JIM                  : Witness      - WITNESSED BY
MUD .         GEL                  : Mud_type     - MUD TYPE
MATR.         LIMESTONE            : Logunit      - NEUTRON MATRIX
TMAX.C        25.5                 : BHT          - MAXIMUM RECORDED TEMPERATURE
BHTD.M        608                  : BHTDEP       - MAXIMUM RECORDED TEMPERATURE
MATR.         1                    : LOGUNIT      - NEUTRON MATRIX
RMT .C        25                   : MDTP         - TEMPERATURE OF MUD
NEUT.         1                    : NEUTRON      - NEUTRON TYPE
RESI.         0                    : RESIST       - RESISTIVITY TYPE
RMC .OHMM     0.25                 : RMC          - RESISTIVITY OF MUD CAKE
RMF .OHMM     0.25                 : RMF          - RESISTIVITY OF MUD FILTRATE
SUFT.C        15                   : SUFT         - SURFACE TEMPERATURE
~A  DEPTH     RESD     PHID     PHIN       GR
# ...
  457.000    6.700    0.306    0.406   62.541
  457.250    6.617    0.308    0.406   62.223
  457.500    6.583    0.305    0.401   65.649
  457.750    6.563    0.298    0.399   66.808
  458.000    6.567    0.291    0.416   64.524
  458.250    6.584    0.282    0.426   63.900
  458.500    6.600    0.276    0.436   65.176
  458.750    6.629    0.292    0.438   65.720
  459.000    6.660    0.302    0.430   65.403
  459.250    6.664    0.311    0.425   63.178
  459.500    6.680    0.299    0.421   62.678
  459.750    6.710    0.294    0.417   63.651
  460.000    6.702    0.294    0.411   64.989
  460.250    6.680    0.298    0.407   65.411
  460.500    6.635    0.302    0.404   65.398
  460.750    6.602    0.306    0.401   65.266
  461.000    6.594    0.314    0.426   63.721
  461.250    6.585    0.319    0.443   60.147
  461.500    6.628    0.313    0.441   60.135
  461.750    6.643    0.312    0.432   59.756
  462.000    6.673    0.314    0.424   57.410
  462.250    6.742    0.323    0.427   57.586
  462.500    6.797    0.333    0.451   58.432
  462.750    6.839    0.333    0.462   58.669
  463.000    6.896    0.331    0.448   57.983
  463.250    6.939    0.328    0.435   56.253
  463.500    7.009    0.328    0.439   54.400
  463.750    7.067    0.330    0.436   55.247
  464.000    7.112    0.334    0.421   55.852
  464.250    7.156    0.333    0.387   56.517
  464.500    7.175    0.323    0.407   57.057
  464.750    7.181    0.316    0.427   58.153
  465.000    7.157    0.310    0.436   59.679
  465.250    7.094    0.327    0.430   57.947
  465.500    6.953    0.324    0.426   55.849
  465.750    6.738    0.319    0.434   57.434
  466.000    6.506    0.317    0.428   58.161
  466.250    6.399    0.322    0.419   56.861
  466.500    6.320    0.328    0.422   56.419
  466.750    6.312    0.331    0.426   58.191
  467.000    6.328    0.331    0.429   60.267
  467.250    6.357    0.330    0.444   60.993
  467.500    6.360    0.326    0.450   60.554
  467.750    6.365    0.325    0.444   59.622
  468.000    6.334    0.333    0.444   59.365
  468.250    6.313    0.335    0.448   59.416
  468.500    6.270    0.336    0.442   59.836
  468.750    6.238    0.325    0.431   60.931
  469.000    6.195    0.313    0.422   63.131
  469.250    6.187    0.302    0.417   65.086
  469.500    6.133    0.292    0.412   66.056
  469.750    6.068    0.284    0.407   65.924
  470.000    5.781    0.287    0.427   68.493
  470.250    5.235    0.292    0.438   73.334
  470.500    4.840    0.281    0.428   78.606
  470.750    4.585    0.270    0.420   83.326
  471.000    4.385    0.259    0.446   90.439
  471.250    4.241    0.246    0.462   96.510
  471.500    4.204    0.237    0.480   97.111
  471.750    4.159    0.246    0.490   95.076
  472.000    4.123    0.261    0.488   92.424
  472.250    4.118    0.274    0.491   89.649
  472.500    4.121    0.287    0.488   85.399
  472.750    4.139    0.284    0.469   83.240
  473.000    4.180    0.271    0.447   85.501
  473.250    4.199    0.265    0.455   86.410
  473.500    4.226    0.266    0.472   86.278
  473.750    4.228    0.270    0.482   86.207
  474.000    4.208    0.269    0.490   87.916
  474.250    4.178    0.264    0.500   85.878
  474.500    4.103    0.263    0.501   83.718
  474.750    4.037    0.264    0.499   82.539
  475.000    4.009    0.270    0.485   82.775
  475.250    4.205    0.285    0.468   81.842
  475.500    4.633    0.311    0.478   81.646
  475.750    5.201    0.331    0.491   83.172
  476.000    5.996    0.341    0.486   86.049
  476.250    6.630    0.346    0.486   84.748
  476.500    7.209    0.350    0.498   83.140
  476.750    7.547    0.353    0.509   76.003
  477.000    7.886    0.356    0.493   69.606
  477.250    8.304    0.359    0.471   64.804
  477.500    8.695    0.361    0.462   63.749
  477.750    9.139    0.363    0.479   61.771
  478.000    9.407    0.363    0.492   58.505
  478.250    9.554    0.361    0.496   56.038
  478.500    9.633    0.356    0.493   55.107
  478.750    9.247    0.352    0.489   55.465
  479.000    8.860    0.359    0.470   56.435
  479.250    8.347    0.354    0.448   56.794
  479.500    8.028    0.349    0.446   57.396
  479.750    7.607    0.347    0.459   58.245
  480.000    7.412    0.350    0.476   57.929
  480.250    7.183    0.354    0.474   54.600
  480.500    7.000    0.357    0.460   54.284
  480.750    6.861    0.358    0.448   56.055
  481.000    6.789    0.359    0.452   57.455
  481.250    6.768    0.357    0.467   58.182
  481.500    6.823    0.351    0.455   57.926
  481.750    7.023    0.349    0.443   56.195
  482.000    7.752    0.356    0.428   53.789
  482.250    8.868    0.353    0.429   52.243
  482.500   10.145    0.334    0.448   54.075
  482.750   11.199    0.290    0.464   54.185
  483.000   11.570    0.199    0.300   52.518
  483.250   11.003    0.123    0.246   49.802
  483.500   10.484    0.201    0.257   48.074
  483.750    9.914    0.252    0.400   55.617
  484.000    9.183    0.292    0.443   59.846
  484.250    8.682    0.319    0.458   63.275
  484.500    8.087    0.348    0.467   63.509
  484.750    7.632    0.363    0.454   61.656
  485.000    7.136    0.350    0.443   60.847
  485.250    6.748    0.340    0.433   60.775
  485.500    6.394    0.334    0.441   60.826
  485.750    6.254    0.344    0.461   60.877
  486.000    6.129    0.356    0.475   62.217
  486.250    6.110    0.363    0.446   66.197
  486.500    6.115    0.356    0.428   69.505
  486.750    6.191    0.337    0.423   73.303
  487.000    6.216    0.318    0.424   76.179
  487.250    6.278    0.302    0.424   77.396
  487.500    6.426    0.291    0.450   76.955
  487.750    6.960    0.286    0.473   75.839
  488.000    7.654    0.285    0.481   74.723
  488.250    7.998    0.275    0.455   70.963
  488.500    8.049    0.245    0.394   67.883
  488.750    7.511    0.225    0.371   67.320
  489.000    7.183    0.269    0.441   69.705
  489.250    6.678    0.296    0.482   70.062
  489.500    6.024    0.322    0.471   71.219
  489.750    5.424    0.340    0.472   73.725
  490.000    4.892    0.326    0.478   75.924
  490.250    4.430    0.320    0.485   77.329
  490.500    4.080    0.315    0.495   79.223
  490.750    3.843    0.313    0.516   81.239
  491.000    3.689    0.310    0.532   82.517
  491.250    3.698    0.312    0.522   82.753
  491.500    3.924    0.317    0.518   80.531
  491.750    4.055    0.314    0.512   77.448
  492.000    3.966    0.304    0.504   78.235
  492.250    3.458    0.298    0.495   82.402
  492.500    2.993    0.297    0.502   86.016
  492.750    2.674    0.300    0.523   88.769
  493.000    2.538    0.285    0.517   89.924
  493.250    2.555    0.275    0.506   89.362
  493.500    2.580    0.275    0.507   90.150
  493.750    2.666    0.281    0.508   92.596
  494.000    2.834    0.275    0.495   93.138
  494.250    3.297    0.269    0.504   90.793
  494.500    4.232    0.276    0.530   85.500
  494.750    5.936    0.301    0.524   77.934
  495.000    8.944    0.328    0.451   70.062
  495.250   12.711    0.373    0.369   66.118
  495.500   15.979    0.371    0.322   63.775
  495.750   19.055    0.357    0.306   61.736
  496.000   20.370    0.350    0.342   59.513
  496.250   21.046    0.359    0.354   58.215
  496.500   21.422    0.367    0.340   57.037
  496.750   21.397    0.375    0.315   55.920
  497.000   21.288    0.390    0.296   54.865
  497.250   20.983    0.402    0.282   57.127
  497.500   20.604    0.411    0.282   58.038
  497.750   19.667    0.404    0.294   59.070
  498.000   18.011    0.395    0.309   60.104
  498.250   16.309    0.383    0.334   61.629
  498.500   15.049    0.375    0.351   63.278
  498.750   13.992    0.371    0.360   63.022
  499.000   13.108    0.372    0.364   59.755
  499.250   12.534    0.376    0.373   61.585
  499.500   11.852    0.370    0.367   63.050
  499.750   11.333    0.367    0.365   62.733
  500.000   10.818    0.370    0.374   61.985
  500.250   10.307    0.382    0.376   61.421
