~VERSION INFORMATION
 VERS.                 2.0:   CWLS LOG ASCII STANDARD -VERSION 2.0
 WRAP.                  NO:   ONE LINE PER DEPTH STEP
~WELL INFORMATION BLOCK
#MNEM.UNIT           DATA                    DESCRIPTION OF MNEMONIC
#---------    -------------------            -------------------------------
# Generated from Intellog Unique Number	CW_79_81/WELL/2456
WELL.         GULF WABASCA                   : Well_name    - WELL
LOC .         00/06-34-081-21W4/0            : Location     - LOCATION
UWI .         00/06-34-081-21W4/0            : Uwi          - UNIQUE WELL ID
ENTR.         MAX                            : Entered      - ENTERED BY
SRVC.         SCHLUMBERGER                   : Scn          - SERVICE COMPANY
STRT.M        204.216                        : top_depth    - START DEPTH
STOP.M        441.716                        : bot_depth    - STOP DEPTH
STEP.M        0.25                           : increment    - STEP LENGTH
 NULL. -999.2500:NULL Value
~CURVE INFORMATION BLOCK
#MNEM UNIT       ERCB CURVE CODE    CURVE DESCRIPTION
#-----------   ------------------   ----------------------------------
DEPT.M        00 001 00 00         : DEPTH        - DEPTH
ILD .OHMM     00 120 00 00         : RESD         - DEEP RESISTIVITY (DIL)
NPHI.V/V      00 330 00 00         : PHIN         - NEUTRON POROSITY (SANDSTONE)
DPHI.V/V      00 890 00 00         : PHID         - DENSITY POROSITY (SANDSTONE)
GR  .API      00 310 00 00         : GR           - GAMMA RAY
CALI.MM       00 280 01 00         : CAL          - CALIPER
~PARAMETER INFORMATION
#MNEM.UNIT           DATA             DESCRIPTION OF MNEMONIC
#---------         -----------     ------------------------------
GL  .M        627.492              : gl           - GROUND LEVEL ELEVATION
EREF.M        630.997              : kb           - ELEVATION OF DEPTH REFERENCE
DATM.M        627.492              : datum        - DATUM ELEVATION
TDD .M        440.436              : tdd          - TOTAL DEPTH DRILLER
RUN .         ONE                  : Run          - RUN NUMBER
ENG .         BILL                 : Engineer     - RECORDING ENGINEER
WIT .         JIM                  : Witness      - WITNESSED BY
MUD .         GEL                  : Mud_type     - MUD TYPE
MATR.         SANDSTONE            : Logunit      - NEUTRON MATRIX
TMAX.C        23.8889              : BHT          - MAXIMUM RECORDED TEMPERATURE
BHTD.M        440.436              : BHTDEP       - MAXIMUM RECORDED TEMPERATURE
MATR.         1                    : LOGUNIT      - NEUTRON MATRIX
RMT .C        16.6667              : MDTP         - TEMPERATURE OF MUD
NEUT.         1                    : NEUTRON      - NEUTRON TYPE
RESI.         0                    : RESIST       - RESISTIVITY TYPE
RMC .OHMM     5.1                  : RMC          - RESISTIVITY OF MUD CAKE
RMF .OHMM     5.24                 : RMF          - RESISTIVITY OF MUD FILTRATE
SUFT.C        -20.5556             : SUFT         - SURFACE TEMPERATURE
~A  DEPTH     RESD     PHIN     PHID       GR      CAL
# ...
  240.716    3.832    0.570    0.288  115.245  171.492
  240.966    4.367    0.570    0.287  112.897  171.171
  241.216    5.519    0.567    0.284  110.427  172.368
  241.466    8.620    0.554    0.283  106.159  173.212
  241.716   12.530    0.532    0.268   98.970  172.869
  241.966   19.002    0.479    0.259   85.361  169.692
  242.216   25.280    0.482    0.256   74.087  165.925
  242.466   28.793    0.487    0.265   66.467  162.354
  242.716   29.940    0.480    0.295   62.800  159.384
  242.966   32.003    0.483    0.354   62.432  156.968
  243.216   35.977    0.494    0.369   62.739  156.633
  243.466   39.282    0.496    0.374   60.623  157.520
  243.716   43.597    0.486    0.374   59.963  157.818
  243.966   48.390    0.478    0.368   59.893  158.105
  244.216   52.676    0.474    0.361   59.692  158.583
  244.466   55.592    0.470    0.366   58.793  159.173
  244.716   58.246    0.468    0.375   58.840  159.675
  244.966   60.885    0.467    0.364   63.441  160.165
  245.216   65.038    0.472    0.365   66.073  160.351
  245.466   69.308    0.479    0.367   67.082  160.237
  245.716   72.496    0.485    0.367   67.664  159.920
  245.966   74.373    0.494    0.364   70.683  159.187
  246.216   75.546    0.507    0.360   74.722  157.171
  246.466   76.121    0.500    0.366   72.856  155.616
  246.716   75.858    0.497    0.374   67.572  156.204
  246.966   75.036    0.499    0.377   64.745  156.892
  247.216   73.391    0.504    0.374   65.512  156.972
  247.466   69.470    0.498    0.369   66.186  157.504
  247.716   65.855    0.481    0.378   65.739  159.696
  247.966   59.317    0.487    0.381   63.872  162.619
  248.216   56.293    0.495    0.386   62.182  164.029
  248.466   54.673    0.500    0.387   60.672  163.707
  248.716   54.277    0.500    0.384   59.885  162.163
  248.966   56.855    0.488    0.379   60.657  160.473
  249.216   59.571    0.477    0.381   59.451  159.716
  249.466   57.840    0.477    0.385   57.824  160.604
  249.716   54.593    0.477    0.388   56.915  161.808
  249.966   50.293    0.479    0.389   56.848  163.316
  250.216   46.088    0.484    0.386   57.258  164.514
  250.466   43.158    0.495    0.371   57.211  163.440
  250.716   43.166    0.498    0.354   56.774  159.716
  250.966   46.795    0.501    0.343   57.538  156.142
  251.216   49.138    0.507    0.357   59.559  156.230
  251.466   49.520    0.499    0.374   60.929  156.729
  251.716   47.311    0.479    0.379   61.044  156.412
  251.966   42.158    0.474    0.366   60.465  156.182
  252.216   40.893    0.480    0.375   59.768  156.684
  252.466   42.124    0.479    0.375   60.292  156.769
  252.716   42.922    0.484    0.373   61.183  156.555
  252.966   39.675    0.491    0.369   61.710  156.428
  253.216   30.226    0.495    0.362   62.172  156.498
  253.466   15.218    0.494    0.355   64.612  156.784
  253.716    7.479    0.492    0.377   68.152  157.709
  253.966    4.330    0.461    0.361   72.514  159.407
  254.216    4.049    0.432    0.343   77.778  162.025
  254.466    4.413    0.431    0.309   84.417  164.336
  254.716    4.819    0.463    0.277   90.695  165.428
  254.966    4.474    0.505    0.289   91.225  164.891
  255.216    4.146    0.495    0.280   84.041  165.842
  255.466    4.333    0.491    0.289   88.398  165.918
  255.716    4.902    0.512    0.296   89.707  164.783
  255.966    6.127    0.539    0.308   87.841  162.633
  256.216    8.689    0.561    0.325   83.813  160.275
  256.466   15.116    0.565    0.331   76.999  159.152
  256.716   22.518    0.514    0.317   63.068  159.240
  256.966   25.669    0.445    0.314   62.160  158.927
  257.216   26.456    0.434    0.331   61.072  157.987
  257.466   25.481    0.454    0.344   60.161  157.459
  257.716   23.615    0.476    0.347   59.849  157.649
  257.966   20.666    0.470    0.350   61.033  158.146
  258.216   17.897    0.459    0.345   63.086  158.225
  258.466   14.368    0.457    0.257   63.131  159.941
  258.716   11.564    0.421    0.219   63.899  160.731
  258.966    9.372    0.390    0.231   65.263  160.401
  259.216    7.825    0.379    0.277   67.587  159.567
  259.466    6.938    0.384    0.334   72.822  160.010
  259.716    7.048    0.423    0.337   78.364  161.806
  259.966    7.695    0.456    0.324   84.397  162.279
  260.216    9.806    0.482    0.329   85.763  160.331
  260.466   12.899    0.489    0.336   78.384  159.406
  260.716   15.540    0.478    0.343   65.913  160.811
  260.966   16.997    0.459    0.361   59.690  163.228
  261.216   16.360    0.452    0.369   59.487  160.781
  261.466   14.078    0.442    0.354   67.457  160.451
  261.716   10.933    0.428    0.343   74.154  162.562
  261.966    9.308    0.420    0.331   79.828  165.287
  262.216    8.928    0.423    0.312   85.265  167.201
  262.466    9.629    0.434    0.288   92.947  166.538
  262.716   10.910    0.451    0.302   98.743  162.841
  262.966   11.656    0.471    0.318   91.841  160.880
  263.216   11.534    0.473    0.323   87.095  160.453
  263.466   10.131    0.463    0.317   85.104  160.335
  263.716    8.165    0.454    0.301   86.888  160.113
  263.966    6.348    0.471    0.282   95.746  161.220
  264.216    5.882    0.490    0.278  105.031  166.379
  264.466    5.927    0.497    0.269  112.752  170.114
  264.716    6.104    0.500    0.265  117.773  171.105
  264.966    6.426    0.499    0.262  119.018  171.794
  265.216    6.884    0.494    0.261  116.549  173.198
  265.466    7.540    0.482    0.264  111.528  175.183
  265.716    8.214    0.465    0.251  111.325  176.530
  265.966    8.399    0.451    0.250  114.010  177.020
  266.216    8.826    0.439    0.253  114.004  175.989
  266.466    9.563    0.429    0.257  111.778  173.640
  266.716   10.650    0.424    0.261  107.751  169.968
  266.966   12.048    0.425    0.268  100.848  164.104
  267.216   12.238    0.404    0.268   93.659  160.812
  267.466   12.060    0.388    0.265   89.871  160.085
  267.716   11.621    0.379    0.270   91.297  158.750
  267.966   11.077    0.377    0.276   95.541  158.019
  268.216   10.397    0.380    0.279   99.788  158.099
  268.466    9.339    0.388    0.281  101.209  158.037
  268.716    8.786    0.399    0.277  103.246  157.262
  268.966    8.218    0.414    0.267  111.685  158.969
  269.216    7.733    0.426    0.267  116.890  163.420
  269.466    6.749    0.431    0.269  118.737  167.565
  269.716    5.567    0.431    0.266  119.323  169.676
  269.966    4.613    0.439    0.248  123.978  169.786
  270.216    4.440    0.453    0.223  129.016  171.987
  270.466    4.507    0.485    0.208  135.533  172.485
  270.716    4.651    0.507    0.195  138.641  172.661
  270.966    4.740    0.506    0.185  140.850  172.737
  271.216    4.660    0.487    0.186  142.695  173.026
  271.466    4.295    0.468    0.216  141.901  173.948
  271.716    3.979    0.462    0.214  137.705  174.036
  271.966    3.750    0.476    0.200  133.683  174.518
  272.216    3.698    0.494    0.201  134.511  176.216
  272.466    3.766    0.509    0.210  134.082  177.108
  272.716    3.957    0.521    0.229  130.958  176.381
  272.966    4.549    0.547    0.272  127.583  172.763
  273.216    6.095    0.562    0.288  123.632  164.391
  273.466    7.880    0.525    0.316  113.138  160.023
  273.716    8.599    0.493    0.320  106.954  158.372
  273.966    8.601    0.462    0.313  106.283  158.457
  274.216    8.631    0.439    0.307  109.506  159.160
  274.466    9.391    0.440    0.305  111.704  159.337
  274.716   10.724    0.454    0.294  109.265  159.838
  274.966   13.396    0.460    0.282  103.796  159.931
  275.216   16.716    0.478    0.313   90.246  160.614
  275.466   22.009    0.493    0.347   76.515  161.298
  275.716   30.884    0.497    0.367   67.154  161.585
  275.966   39.422    0.481    0.380   63.481  161.449
  276.216   42.945    0.479    0.375   64.026  162.373
  276.466   46.893    0.480    0.380   63.842  162.052
  276.716   50.146    0.482    0.383   63.657  160.825
  276.966   51.505    0.489    0.387   64.184  159.696
