~VERSION INFORMATION
 VERS.                 2.0:   CWLS LOG ASCII STANDARD -VERSION 2.0
 WRAP.                  NO:   ONE LINE PER DEPTH STEP
~WELL INFORMATION BLOCK
#MNEM.UNIT           DATA                    DESCRIPTION OF MNEMONIC
#---------    -------------------            -------------------------------
# Generated from Intellog Unique Number	CW_82_90/WELL/502
WELL.         GULF WABASCA 06-14             : Well_name    - WELL
LOC .         00/06-14-083-23W4/0            : Location     - LOCATION
UWI .         00/06-14-083-23W4/0            : Uwi          - UNIQUE WELL ID
ENTR.         JAYE                           : Entered      - ENTERED BY
SRVC.         SCHLUMBERGER                   : Scn          - SERVICE COMPANY
DATE.         9 JAN 74                       : Date         - LOG DATE
STRT.M        222.504                        : top_depth    - START DEPTH
STOP.M        426.754                        : bot_depth    - STOP DEPTH
STEP.M        0.25                           : increment    - STEP LENGTH
 NULL. -999.2500:NULL Value
~CURVE INFORMATION BLOCK
#MNEM UNIT       ERCB CURVE CODE    CURVE DESCRIPTION
#-----------   ------------------   ----------------------------------
DEPT.M        00 001 00 00         : DEPTH        - DEPTH
ILD .OHMM     00 120 00 00         : RESD         - DEEP RESISTIVITY (DIL)
CALI.MM       00 280 01 00         : CAL          - CALIPER
GR  .API      00 310 00 00         : GR           - GAMMA RAY
NPHI.V/V      00 330 00 00         : PHIN         - NEUTRON POROSITY (SANDSTONE)
DPHI.V/V      00 890 00 00         : PHID         - DENSITY POROSITY (SANDSTONE)
~PARAMETER INFORMATION
#MNEM.UNIT           DATA             DESCRIPTION OF MNEMONIC
#---------         -----------     ------------------------------
GL  .M        607.771              : gl           - GROUND LEVEL ELEVATION
EREF.M        609.295              : kb           - ELEVATION OF DEPTH REFERENCE
DATM.M        607.771              : datum        - DATUM ELEVATION
TDD .M        426.72               : tdd          - TOTAL DEPTH DRILLER
ENG .         CHAUDHARY            : Engineer     - RECORDING ENGINEER
WIT .         LONG & CAMPBELL      : Witness      - WITNESSED BY
BASE.         EDMONTON             : Branch       - HOME BASE OF LOGGING UNIT
MUD .         GEL                  : Mud_type     - MUD TYPE
MATR.         SANDSTONE            : Logunit      - NEUTRON MATRIX
TMAX.C        29.4444              : BHT          - MAXIMUM RECORDED TEMPERATURE
BHTD.M        426.72               : BHTDEP       - MAXIMUM RECORDED TEMPERATURE
RMT .C        11.6667              : MDTP         - TEMPERATURE OF MUD
MUDD.KG/M     0                    : MWT          - MUD DENSITY
NEUT.         1                    : NEUTRON      - NEUTRON TYPE
RESI.         0                    : RESIST       - RESISTIVITY TYPE
RM  .OHMM     4.77                 : RM           - RESISTIVITY OF MUD
RMC .OHMM     0                    : RMC          - RESISTIVITY OF MUD CAKE
RMF .OHMM     0                    : RMF          - RESISTIVITY OF MUD FILTRATE
SUFT.C        -17.7778             : SUFT         - SURFACE TEMPERATURE
~A  DEPTH     RESD      CAL       GR     PHIN     PHID
# ...
  332.004   10.655  158.265   66.570    0.445    0.277
  332.254   10.624  158.627   68.121    0.454    0.272
  332.504   10.673  158.982   69.060    0.479    0.262
  332.754   10.663  159.430   68.846    0.476    0.268
  333.004   10.636  160.099   68.015    0.468    0.268
  333.254   10.588  160.443   67.368    0.450    0.255
  333.504   10.580  161.115   67.457    0.444    0.266
  333.754   10.589  161.359   67.115    0.452    0.256
  334.004   10.668  161.404   66.408    0.463    0.206
  334.254   10.691  161.132   66.618    0.470    0.260
  334.504   10.758  161.074   67.010    0.465    0.294
  334.754   10.813  161.215   66.483    0.459    0.304
  335.004   10.742  161.056   66.998    0.454    0.296
  335.254   10.596  160.683   70.193    0.454    0.271
  335.504   10.396  160.419   72.781    0.469    0.266
  335.754    9.998  160.151   71.462    0.474    0.287
  336.004    9.119  160.507   73.256    0.487    0.274
  336.254    8.379  160.759   74.866    0.482    0.251
  336.504    7.702  161.006   77.758    0.481    0.239
  336.754    7.431  161.559   79.919    0.488    0.258
  337.004    7.943  162.121   80.796    0.497    0.254
  337.254    8.853  162.371   79.357    0.492    0.240
  337.504    9.923  163.033   77.066    0.483    0.233
  337.754   11.039  163.695   69.105    0.467    0.200
  338.004   12.786  164.252   60.776    0.374    0.174
  338.254   12.800  165.017   66.598    0.354    0.133
  338.504   12.465  164.334   68.143    0.450    0.178
  338.754   11.332  162.931   67.683    0.477    0.205
  339.004   11.057  163.182   66.186    0.517    0.233
  339.254   10.946  163.231   65.841    0.508    0.301
  339.504   10.857  163.273   66.843    0.497    0.299
  339.754   10.693  162.597   68.272    0.468    0.285
  340.004   10.508  162.217   68.967    0.460    0.266
  340.254   10.217  162.064   68.809    0.466    0.245
  340.504    9.952  162.103   67.679    0.495    0.258
  340.754    9.676  162.251   67.092    0.489    0.260
  341.004    9.372  162.399   67.727    0.480    0.266
  341.254    8.915  162.948   70.376    0.468    0.262
  341.504    8.527  163.715   72.410    0.466    0.256
  341.754    8.008  164.278   73.656    0.496    0.249
  342.004    7.562  164.838   75.760    0.491    0.248
  342.254    7.405  165.191   77.487    0.486    0.235
  342.504    7.480  165.644   81.599    0.485    0.219
  342.754    7.639  166.094   84.914    0.486    0.199
  343.004    7.845  166.344   85.368    0.491    0.217
  343.254    8.144  166.180   84.965    0.492    0.231
  343.504    8.549  165.200   83.893    0.485    0.230
  343.754    8.859  165.040   81.603    0.482    0.232
  344.004    9.114  165.177   82.297    0.483    0.240
  344.254    9.325  165.941   82.018    0.484    0.232
  344.504    9.437  166.192   85.518    0.490    0.219
  344.754    9.498  165.613   84.266    0.493    0.184
  345.004    9.541  163.801   83.620    0.490    0.196
  345.254    9.501  163.122   86.203    0.455    0.212
  345.504    9.389  163.167   89.342    0.462    0.202
  345.754    9.262  163.511   89.002    0.458    0.205
  346.004    9.137  163.454   88.721    0.465    0.216
  346.254    8.998  163.602   88.563    0.473    0.225
  346.504    9.040  163.643   92.001    0.479    0.231
  346.754    9.370  163.381   92.331    0.475    0.228
  347.004    9.779  163.113   82.240    0.462    0.230
  347.254   10.357  162.843   76.469    0.446    0.228
  347.504   11.273  163.301   69.725    0.442    0.215
  347.754   13.642  163.445   61.642    0.433    0.210
  348.004   15.799  163.490   57.033    0.293    0.211
  348.254   18.498  163.018   67.120    0.268    0.072
  348.504   19.776  162.858   75.803    0.258    0.056
  348.754   18.673  162.581   83.265    0.342    0.072
  349.004   16.361  162.738   91.766    0.411    0.237
  349.254   14.497  163.091   89.782    0.463    0.260
  349.504   13.539  163.434   83.951    0.458    0.268
  349.754   14.630  163.579   75.258    0.456    0.252
  350.004   16.978  163.936   67.539    0.463    0.257
  350.254   19.804  163.569   58.359    0.420    0.258
  350.504   24.006  162.990   49.116    0.398    0.216
  350.754   36.212  162.211   49.141    0.378    0.174
  351.004   47.821  161.727   52.524    0.316    0.029
  351.254   46.667  161.054   54.684    0.283    0.030
  351.504   43.902  160.476   56.413    0.233    0.026
  351.754   32.951  160.104   61.802    0.246    0.032
  352.004   23.415  160.258   67.985    0.260    0.079
  352.254   19.818  160.394   72.036    0.396    0.169
  352.504   16.205  160.446   73.768    0.422    0.212
  352.754   13.918  160.697   73.490    0.462    0.246
  353.004   13.071  160.933   72.111    0.489    0.271
  353.254   12.593  160.668   72.262    0.495    0.262
  353.504   13.147  160.817   73.261    0.487    0.264
  353.754   14.362  161.065   73.897    0.471    0.254
  354.004   15.719  161.007   73.493    0.445    0.246
  354.254   18.040  160.744   71.505    0.416    0.240
  354.504   21.084  160.473   69.948    0.373    0.229
  354.754   25.188  160.204   68.874    0.349    0.137
  355.004   25.961  160.454   65.240    0.324    0.091
  355.254   24.205  160.817   61.488    0.333    0.074
  355.504   22.320  160.856   63.585    0.387    0.084
  355.754   20.283  161.199   66.905    0.441    0.221
  356.004   17.970  161.661   68.276    0.482    0.251
  356.254   16.213  162.115   68.844    0.481    0.292
  356.504   14.952  162.780   70.028    0.474    0.274
  356.754   14.221  163.132   70.539    0.455    0.243
  357.004   13.504  163.587   69.105    0.447    0.243
  357.254   13.176  164.350   67.057    0.454    0.252
  357.504   12.904  164.606   68.420    0.457    0.259
  357.754   12.434  164.848   72.597    0.441    0.251
  358.004   12.065  164.896   78.167    0.446    0.235
  358.254   11.435  164.936   82.342    0.488    0.247
  358.504   11.096  164.358   81.271    0.504    0.257
  358.754   10.848  162.236   76.046    0.506    0.254
  359.004   10.918  161.654   77.171    0.489    0.243
  359.254   11.213  161.610   74.513    0.474    0.237
  359.504   11.492  161.642   76.797    0.455    0.207
  359.754   11.909  161.475   81.088    0.456    0.206
  360.004   12.340  160.898   81.540    0.460    0.215
  360.254   12.790  160.230   74.921    0.464    0.229
  360.504   13.085  160.363   70.680    0.458    0.232
  360.754   13.364  161.034   72.714    0.450    0.215
  361.004   13.377  161.069   79.690    0.453    0.225
  361.254   13.053  161.420   79.046    0.459    0.241
  361.504   12.080  161.668   83.095    0.458    0.232
  361.754   11.553  162.343   84.279    0.441    0.219
  362.004   11.294  162.684   81.689    0.444    0.196
  362.254   11.103  163.349   82.742    0.471    0.201
  362.504   11.486  163.391   81.064    0.474    0.184
  362.754   11.857  163.026   84.683    0.466    0.187
  363.004   12.153  162.857   90.381    0.443    0.191
  363.254   12.232  162.593   86.746    0.431    0.188
  363.504   12.179  162.432   86.531    0.444    0.181
  363.754   12.147  162.470   85.090    0.447    0.180
  364.004   12.047  162.823   85.792    0.447    0.164
  364.254   11.399  160.500   87.030    0.465    0.174
  364.504   11.021  160.016   90.474    0.472    0.183
  364.754   10.793  159.861   88.301    0.461    0.196
  365.004   11.043  160.312   89.977    0.456    0.215
  365.254   11.403  160.987   95.301    0.468    0.215
  365.504   11.925  161.440   93.072    0.457    0.208
  365.754   12.355  161.469   88.345    0.469    0.211
  366.004   13.087  161.944   84.403    0.475    0.216
  366.254   13.812  161.555   83.762    0.457    0.232
  366.504   14.236  161.202   80.980    0.441    0.234
  366.754   14.917  161.230   77.466    0.440    0.224
  367.004   16.058  163.232   74.992    0.475    0.212
  367.254   18.297  164.732   71.057    0.479    0.213
  367.504   20.957  165.082   64.127    0.453    0.175
  367.754   27.879  164.707   52.934    0.202    0.175
  368.004   41.077  164.748   56.254    0.193    0.175
  368.254   43.268  164.590   62.438    0.207    0.028
