~VERSION INFORMATION
 VERS.                 2.0:   CWLS LOG ASCII STANDARD -VERSION 2.0
 WRAP.                  NO:   ONE LINE PER DEPTH STEP
~WELL INFORMATION BLOCK
#MNEM.UNIT           DATA                    DESCRIPTION OF MNEMONIC
#---------    -------------------            -------------------------------
# Generated from Intellog Unique Number	CC_80_83/WELL/2296
NULL.         -999.25                        : NULL_VALUE
WELL.         AMOCO B-2A SURMONT             : Well_name    - WELL
LOC .         07-16-083-09W4                 : Location     - LOCATION          
UWI .         00/07-16-083-09W400            : Uwi          - UNIQUE WELL ID    
ENTR.         DW                             : Entered      - ENTERED BY        
SRVC.         SCHLUMBERGER                   : Scn          - SERVICE COMPANY   
DATE.         27 MAR 74                      : Date         - LOG DATE
STRT.M        259.08                         : top_depth    - START DEPTH       
STOP.M        466.35                         : bot_depth    - STOP DEPTH        
STEP.M        0.305                          : increment    - STEP LENGTH       
~CURVE INFORMATION BLOCK
#MNEM UNIT       ERCB CURVE CODE    CURVE DESCRIPTION
#-----------   ------------------   ----------------------------------
DEPT.M        00 001 00 00         : DEPTH        - DEPTH                       
DPHI.V/V      00 890 00 00         : PHID         - DENSITY POROSITY (LIMESTONE)
NPHI.V/V      00 330 00 00         : PHIN         - NEUTRON POROSITY (LIMESTONE)
GR  .API      00 310 00 00         : GR           - GAMMA RAY                   
ILD .OHMM     00 120 00 00         : RESD         - DEEP RESISTIVITY (DIL)      
~PARAMETER INFORMATION       
#MNEM.UNIT           DATA             DESCRIPTION OF MNEMONIC
#---------         -----------     ------------------------------
GL  .M        732.739              : gl           - GROUND LEVEL ELEVATION      
EREF.M        736.397              : kb           - ELEVATION OF DEPTH REFERENCE
DATM.M        736.397              : datum        - DATUM ELEVATION             
TDD .M        466.954              : tdd          - TOTAL DEPTH DRILLER         
RUN .         ONE                  : Run          - RUN NUMBER                  
ENG .         BILL                 : Engineer     - RECORDING ENGINEER          
WIT .         JIM                  : Witness      - WITNESSED BY                
MUD .         GEL                  : Mud_type     - MUD TYPE                    
MATR.         LIMESTONE            : Logunit      - NEUTRON MATRIX              
TMAX.C        23.3333              : BHT          - MAXIMUM RECORDED TEMPERATURE
BHTD.M        466.954              : BHTDEP       - MAXIMUM RECORDED TEMPERATURE
MATR.         1                    : LOGUNIT      - NEUTRON MATRIX              
RMT .C        25                   : MDTP         - TEMPERATURE OF MUD          
NEUT.         1                    : NEUTRON      - NEUTRON TYPE                
RESI.         0                    : RESIST       - RESISTIVITY TYPE            
RMC .OHMM     0.25                 : RMC          - RESISTIVITY OF MUD CAKE     
RMF .OHMM     0.25                 : RMF          - RESISTIVITY OF MUD FILTRATE 
SUFT.C        15                   : SUFT         - SURFACE TEMPERATURE         
~A  DEPTH     PHID     PHIN       GR     RESD
  259.080    0.274    0.561  111.113    3.934
  259.385    0.271    0.571  112.340    3.931
  259.690    0.239    0.577  113.559    3.927
  259.994    0.251    0.570  112.356    3.780
  260.299    0.269    0.554  109.935    3.707
  260.604    0.257    0.583  108.125    3.705
  260.909    0.240    0.596  109.954    3.770
  261.214    0.251    0.599  111.176    3.981
  261.518    0.264    0.586  107.542    4.129
  261.823    0.265    0.593  108.768    4.279
  262.128    0.259    0.552  110.596    4.276
  262.433    0.249    0.569  111.211    4.271
  262.738    0.192    0.545  110.009    4.269
  263.043    0.237    0.558  106.981    4.187
  263.347    0.293    0.588  103.347    4.030
  263.652    0.298    0.583   97.889    3.953
  263.957    0.252    0.584   96.077    3.736
  264.262    0.265    0.570  103.372    3.596
  264.567    0.249    0.569  108.849    3.463
  264.871    0.258    0.570  108.856    3.273
  265.176    0.247    0.572  104.615    3.150
  265.481    0.242    0.585  102.196    3.091
  265.786    0.254    0.575  100.990    3.087
  266.091    0.252    0.611   99.786    3.084
  266.395    0.256    0.584   97.972    3.138
  266.700    0.255    0.536   96.159    3.195
  267.005    0.245    0.573   96.774    3.252
  267.310    0.225    0.598  102.247    3.249
  267.615    0.273    0.598  102.257    3.127
  267.919    0.283    0.604  105.909    3.125
  268.224    0.264    0.642  107.740    3.064
  268.529    0.281    0.618  103.500    3.061
  268.834    0.219    0.631  102.292    3.059
  269.139    0.260    0.629  101.089    3.231
  269.444    0.285    0.616  103.526    3.288
  269.748    0.304    0.630  103.534    3.165
  270.053    0.292    0.646   99.295    3.105
  270.358    0.282    0.602   98.088    2.990
  270.663    0.282    0.583   99.920    2.773
  270.968    0.281    0.594  101.749    2.573
  271.272    0.274    0.611  102.364    2.523
  271.577    0.289    0.585   99.337    2.521
  271.882    0.285    0.563   98.131    2.566
  272.187    0.229    0.591   99.359    2.812
  272.492    0.217    0.589  100.579    3.198
  272.796    0.216    0.574  100.589    3.505
  273.101    0.200    0.540   98.167    3.986
  273.406    0.119    0.515   98.783    4.132
  273.711    0.146    0.499   91.506    4.129
  274.016    0.217    0.518   98.194    3.975
  274.320    0.234    0.537   94.563    3.827
  274.625    0.245    0.580   94.569    3.684
  274.930    0.244    0.565  103.687    3.751
  275.235    0.218    0.532  108.554    3.817
  275.540    0.240    0.533  112.812    3.958
  275.845    0.219    0.556  107.356    3.810
  276.149    0.235    0.566  101.902    3.601
  276.454    0.239    0.594  100.090    3.598
  276.759    0.236    0.595   98.275    3.661
  277.064    0.233    0.543   94.641    3.796
  277.369    0.231    0.542   93.436    4.010
  277.673    0.236    0.553   97.088    4.079
  277.978    0.235    0.545  100.739    4.151
  278.283    0.244    0.579  103.785    4.305
  278.588    0.246    0.579  106.829    4.718
  278.893    0.203    0.538  106.231    4.802
  279.197    0.202    0.532   94.704    4.798
  279.502    0.229    0.562   92.287    4.288
  279.807    0.224    0.535   89.259    4.129
  280.112    0.226    0.520   89.874    4.360
  280.417    0.232    0.498   97.776    4.960
  280.721    0.319    0.467   98.999    8.021
  281.026    0.324    0.473   91.721   20.983
  281.331    0.308    0.476   82.016   26.174
  281.636    0.292    0.447   73.524   25.202
  281.941    0.279    0.439   65.640   22.532
  282.246    0.237    0.439   60.184   17.372
  282.550    0.195    0.467   56.550   13.394
  282.855    0.220    0.484   72.348   10.519
  283.160    0.249    0.487   79.034    8.733
  283.465    0.255    0.476   85.722    7.808
  283.770    0.257    0.467   88.160    7.245
  284.074    0.247    0.446   88.168    8.237
  284.379    0.269    0.434   86.358    9.722
  284.684    0.252    0.460   91.222   12.128
  284.989    0.276    0.544   90.017   13.542
  285.294    0.381    0.587   85.776   15.692
  285.598    0.431    0.642   86.391   19.943
  285.903    0.308    0.484   91.259   26.304
  286.208    0.322    0.484   89.445   31.620
  286.513    0.321    0.494   87.027   30.444
  286.818    0.326    0.463   88.856   19.867
  287.122    0.282    0.497   80.364   15.895
  287.427    0.228    0.545   79.769   13.949
  287.732    0.206    0.441   82.814   13.183
  288.037    0.237    0.428   84.641   14.452
  288.342    0.282    0.434   91.936   27.596
  288.647    0.307    0.418   88.302   29.691
  288.951    0.305    0.401   68.882   28.063
  289.256    0.292    0.382   48.855   22.872
  289.561    0.249    0.410   48.865   17.630
  289.866    0.226    0.418   53.123   15.762
  290.171    0.206    0.425   65.275   15.180
  290.475    0.169    0.417   85.927   15.449
  290.780    0.176    0.445   92.009   17.569
  291.085    0.255    0.455   90.195   22.743
  291.390    0.323    0.440   82.311   25.389
  291.695    0.312    0.456   74.427   25.845
  291.999    0.290    0.462   72.615   23.975
  292.304    0.280    0.447   72.018   21.436
  292.609    0.265    0.453   74.456   19.887
  292.914    0.271    0.451   75.069   20.616
  293.219    0.263    0.443   73.865   22.179
  293.523    0.289    0.431   77.518   23.425
  293.828    0.273    0.428   71.454   22.972
  294.133    0.266    0.431   65.391   21.310
  294.438    0.251    0.436   59.935   21.296
  294.743    0.226    0.443   61.159   21.680
  295.048    0.250    0.452   68.454   23.750
  295.352    0.313    0.462   78.178   25.554
  295.657    0.313    0.470   73.330   26.990
  295.962    0.316    0.481   69.088   27.467
  296.267    0.298    0.492   71.527   25.962
  296.572    0.284    0.475   74.570   23.645
  296.876    0.277    0.465   78.222   22.762
  297.181    0.292    0.486   81.876   23.174
  297.486    0.340    0.441   83.097   25.873
  297.791    0.323    0.446   82.501   28.349
  298.096    0.324    0.461   78.258   28.861
  298.400    0.314    0.471   63.088   29.369
  298.705    0.307    0.470   64.312   28.277
  299.010    0.290    0.448   71.608   23.914
  299.315    0.289    0.439   75.866   19.855
  299.620    0.256    0.453   78.303   17.108
  299.924    0.264    0.469   80.135   14.465
  300.229    0.236    0.480   81.358   13.923
  300.534    0.222    0.492   85.009   14.174
  300.839    0.273    0.500   91.090   14.429
  301.144    0.295    0.469   95.956   14.149
  301.449    0.297    0.465   94.751   12.189
  301.753    0.247    0.498   89.294   10.700
  302.058    0.202    0.522   83.838    8.249
  302.363    0.119    0.504   83.242    6.724
  302.668    0.182    0.513   97.215    5.478
  302.973    0.174    0.527  114.225    4.899
  303.277    0.169    0.539  111.199    4.380
  303.582    0.190    0.555  114.243    3.988
  303.887    0.164    0.541  117.896    3.839
  304.192    0.180    0.533  118.511    3.766
  304.497    0.193    0.556  119.128    4.051
  304.801    0.226    0.566  111.851    4.695
  305.106    0.277    0.532  112.467    8.024
  305.411    0.293    0.457  117.332   18.101
  305.716    0.294    0.454  114.912   20.585
  306.021    0.283    0.465  107.638   20.942
  306.325    0.259    0.452  104.003   20.930
  306.630    0.253    0.450  102.796   20.916
  306.935    0.271    0.447  102.804   22.088
  307.240    0.293    0.449   98.564   25.586
  307.545    0.316    0.443   97.966   27.024
  307.850    0.331    0.433   91.902   26.993
  308.154    0.337    0.455   87.663   26.980
  308.459    0.315    0.450   87.064   25.029
  308.764    0.290    0.433   84.643   21.562
  309.069    0.283    0.438   79.190   16.936
  309.374    0.268    0.438   78.590   12.818
  309.678    0.250    0.449   82.849   10.065
  309.983    0.228    0.461   88.322    9.692
  310.288    0.229    0.503   92.582   10.427
  310.593    0.243    0.494   99.877   12.306
  310.898    0.287    0.468  109.601   16.534
  311.202    0.310    0.448  109.004   20.628
  311.507    0.266    0.448  104.154   23.892
  311.812    0.282    0.455   90.805   24.769
