~VERSION INFORMATION
 VERS.                 2.0:   CWLS LOG ASCII STANDARD -VERSION 2.0
 WRAP.                  NO:   ONE LINE PER DEPTH STEP
~WELL INFORMATION BLOCK
#MNEM.UNIT           DATA                    DESCRIPTION OF MNEMONIC
#---------    -------------------            -------------------------------
# Generated from Intellog Unique Number	CS_67_68/WELL/783
WELL.         INTER-CITY MANUFACTURING       : Well_name    - WELL
LOC .         00/07-34-068-13W4/0            : Location     - LOCATION
UWI .         00/07-34-068-13W4/0            : Uwi          - UNIQUE WELL ID
ENTR.         SP                             : Entered      - ENTERED BY
SRVC.         SCHLUMBERGER                   : Scn          - SERVICE COMPANY
STRT.M        301.752                        : top_depth    - START DEPTH
STOP.M        472.252                        : bot_depth    - STOP DEPTH
STEP.M        0.25                           : increment    - STEP LENGTH
 NULL. -999.2500:NULL Value
~CURVE INFORMATION BLOCK
#MNEM UNIT       ERCB CURVE CODE    CURVE DESCRIPTION
#-----------   ------------------   ----------------------------------
DEPT.M        00 001 00 00         : DEPTH        - DEPTH
GR  .API      00 310 00 00         : GR           - GAMMA RAY
DPHI.V/V      00 890 00 00         : PHID         - DENSITY POROSITY (SANDSTONE)
NPHI.V/V      00 330 00 00         : PHIN         - NEUTRON POROSITY (SANDSTONE)
ILD .OHMM     00 120 00 00         : RESD         - DEEP RESISTIVITY (DIL)
~PARAMETER INFORMATION
#MNEM.UNIT           DATA             DESCRIPTION OF MNEMONIC
#---------         -----------     ------------------------------
GL  .M        587.045              : gl           - GROUND LEVEL ELEVATION
EREF.M        589.788              : kb           - ELEVATION OF DEPTH REFERENCE
DATM.M        587.045              : datum        - DATUM ELEVATION
TDD .M        472.745              : tdd          - TOTAL DEPTH DRILLER
RUN .         ONE                  : Run          - RUN NUMBER
ENG .         BILL                 : Engineer     - RECORDING ENGINEER
WIT .         JIM                  : Witness      - WITNESSED BY
MUD .         GEL                  : Mud_type     - MUD TYPE
MATR.         SANDSTONE            : Logunit      - NEUTRON MATRIX
TMAX.C        22.2222              : BHT          - MAXIMUM RECORDED TEMPERATURE
BHTD.M        472.745              : BHTDEP       - MAXIMUM RECORDED TEMPERATURE
MATR.         1                    : LOGUNIT      - NEUTRON MATRIX
RMT .C        25                   : MDTP         - TEMPERATURE OF MUD
NEUT.         1                    : NEUTRON      - NEUTRON TYPE
RESI.         0                    : RESIST       - RESISTIVITY TYPE
RMC .OHMM     0.25                 : RMC          - RESISTIVITY OF MUD CAKE
RMF .OHMM     0.25                 : RMF          - RESISTIVITY OF MUD FILTRATE
SUFT.C        15                   : SUFT         - SURFACE TEMPERATURE
~A  DEPTH       GR     PHID     PHIN     RESD
  301.752  135.102    0.169    0.565    2.376
  302.002  132.137    0.205    0.575    2.418
  302.252  121.716    0.207    0.560    2.478
  302.502  114.573    0.222    0.552    2.535
  302.752  110.403    0.234    0.556    2.588
  303.002  112.764    0.242    0.563    2.615
  303.252  114.864    0.245    0.582    2.672
  303.502  113.679    0.206    0.599    2.728
  303.752  112.597    0.198    0.592    2.846
  304.002  114.117    0.213    0.602    2.950
  304.252  113.629    0.226    0.621    3.058
  304.502  114.004    0.259    0.613    3.069
  304.752  114.552    0.264    0.606    3.067
  305.002  110.841    0.283    0.619    3.058
  305.252  112.059    0.287    0.617    3.052
  305.502  113.278    0.291    0.606    3.044
  305.752  112.759    0.300    0.616    3.044
  306.002  110.961    0.296    0.619    3.049
  306.252  110.472    0.317    0.610    3.162
  306.502  111.475    0.324    0.618    3.255
  306.752  116.215    0.302    0.589    3.284
  307.002  118.912    0.287    0.603    3.274
  307.252  119.717    0.279    0.609    3.287
  307.502  119.321    0.288    0.599    3.252
  307.752  120.791    0.262    0.606    3.169
  308.002  123.935    0.251    0.613    3.077
  308.252  120.919    0.262    0.616    2.973
  308.502  119.196    0.279    0.608    2.899
  308.752  120.060    0.286    0.603    2.879
  309.002  119.370    0.274    0.605    2.960
  309.252  117.190    0.261    0.596    3.150
  309.502  113.885    0.253    0.566    3.394
  309.752  111.393    0.240    0.538    3.757
  310.002  111.086    0.230    0.493    4.027
  310.252  112.447    0.232    0.452    4.306
  310.502  107.745    0.227    0.429    4.553
  310.752   97.542    0.213    0.416    4.639
  311.002   92.698    0.151    0.395    4.580
  311.252   90.379    0.136    0.444    4.324
  311.502   92.514    0.209    0.457    3.957
  311.752   97.350    0.232    0.473    3.710
  312.002  101.443    0.239    0.457    3.482
  312.252  108.580    0.247    0.438    3.419
  312.502  115.336    0.233    0.458    3.448
  312.752  120.559    0.228    0.468    3.708
  313.002  125.879    0.212    0.468    3.856
  313.252  126.429    0.194    0.475    3.947
  313.502  124.553    0.179    0.467    3.994
  313.752  125.163    0.231    0.460    3.979
  314.002  129.050    0.214    0.467    3.942
  314.252  131.410    0.200    0.476    3.876
  314.502  136.312    0.184    0.491    3.817
  314.752  139.916    0.178    0.481    3.825
  315.002  143.946    0.178    0.477    3.889
  315.252  149.416    0.159    0.495    3.933
  315.502  154.335    0.204    0.508    3.838
  315.752  157.180    0.181    0.519    3.675
  316.002  159.131    0.169    0.511    3.520
  316.252  159.599    0.167    0.504    3.496
  316.502  159.330    0.177    0.515    3.590
  316.752  156.980    0.202    0.496    3.787
  317.002  153.452    0.206    0.473    3.942
  317.252  147.952    0.227    0.463    4.012
  317.502  137.274    0.262    0.459    3.698
  317.752  126.397    0.276    0.456    3.181
  318.002  118.553    0.293    0.461    2.843
  318.252  111.177    0.309    0.464    2.603
  318.502  116.927    0.308    0.456    2.472
  318.752  122.001    0.293    0.455    2.449
  319.002  127.850    0.277    0.455    2.509
  319.252  129.829    0.270    0.445    2.610
  319.502  128.816    0.246    0.449    2.748
  319.752  129.593    0.234    0.454    3.009
  320.002  132.321    0.219    0.460    3.310
  320.252  133.315    0.210    0.465    3.588
  320.502  132.299    0.218    0.463    3.737
  320.752  130.302    0.230    0.463    3.819
  321.002  128.674    0.245    0.463    3.828
  321.252  127.068    0.247    0.459    3.805
  321.502  126.290    0.243    0.464    3.806
  321.752  127.163    0.240    0.473    3.808
  322.002  130.917    0.248    0.474    3.800
  322.252  134.948    0.256    0.464    3.748
  322.502  140.456    0.256    0.458    3.662
  322.752  145.613    0.262    0.465    3.608
  323.002  149.835    0.283    0.482    3.519
  323.252  152.814    0.286    0.502    3.391
  323.502  149.337    0.278    0.481    3.289
  323.752  151.257    0.264    0.475    3.139
  324.002  147.358    0.251    0.476    3.065
  324.252  141.927    0.251    0.473    3.031
  324.502  144.087    0.272    0.475    3.022
  324.752  137.562    0.282    0.476    3.045
  325.002  131.034    0.287    0.472    3.101
  325.252  126.251    0.267    0.461    3.342
  325.502  121.731    0.210    0.425    3.614
  325.752  116.232    0.127    0.377    4.266
  326.002  108.817    0.069    0.198    4.898
  326.252  101.647    0.034    0.242    5.579
  326.502  114.458    0.091    0.305    6.311
  326.752  124.390    0.215    0.375    6.341
  327.002  135.294    0.250    0.428    5.086
  327.252  141.355    0.266    0.457    4.190
  327.502  142.962    0.278    0.483    3.487
  327.752  142.434    0.282    0.494    3.201
  328.002  143.091    0.286    0.500    3.027
  328.252  141.104    0.290    0.490    3.088
  328.502  144.433    0.281    0.486    2.906
  328.752  148.928    0.270    0.483    3.037
  329.002  149.853    0.271    0.484    3.076
  329.252  150.956    0.275    0.487    3.059
  329.502  152.561    0.275    0.492    3.024
  329.752  153.208    0.277    0.499    3.007
  330.002  152.466    0.283    0.492    2.985
  330.252  152.027    0.283    0.480    2.964
  330.502  153.101    0.289    0.473    2.949
  330.752  154.897    0.282    0.489    2.899
  331.002  156.052    0.287    0.502    2.807
  331.252  152.938    0.284    0.514    2.639
  331.502  147.754    0.275    0.522    2.514
  331.752  139.463    0.265    0.517    2.454
  332.002  130.200    0.254    0.498    2.436
  332.252  121.553    0.271    0.476    2.488
  332.502  118.443    0.263    0.463    2.684
  332.752  116.768    0.259    0.462    2.969
  333.002  113.197    0.251    0.455    3.173
  333.252  120.097    0.243    0.469    3.267
  333.502  126.927    0.239    0.500    3.335
  333.752  127.083    0.251    0.522    3.329
  334.002  123.448    0.266    0.511    3.386
  334.252  120.795    0.255    0.502    3.398
  334.502  120.446    0.252    0.499    3.336
  334.752  119.613    0.268    0.514    3.232
  335.002  117.166    0.274    0.521    3.151
  335.252  115.934    0.274    0.511    2.998
  335.502  115.580    0.280    0.512    2.849
  335.752  116.159    0.288    0.531    2.755
  336.002  118.729    0.286    0.545    2.735
  336.252  120.499    0.284    0.549    2.827
  336.502  121.485    0.292    0.530    2.975
  336.752  122.047    0.279    0.510    3.070
  337.002  122.322    0.268    0.495    3.184
  337.252  121.591    0.251    0.515    3.269
  337.502  121.576    0.269    0.528    3.321
  337.752  122.243    0.282    0.518    3.355
  338.002  121.823    0.280    0.518    3.347
  338.252  121.176    0.288    0.506    3.284
  338.502  123.031    0.274    0.495    3.292
  338.752  125.249    0.259    0.489    3.362
  339.002  126.980    0.245    0.505    3.666
  339.252  126.470    0.240    0.499    3.684
  339.502  124.892    0.231    0.499    3.709
  339.752  124.427    0.203    0.495    3.771
  340.002  127.077    0.194    0.484    3.840
  340.252  128.684    0.213    0.478    3.900
  340.502  128.313    0.237    0.486    3.980
  340.752  126.176    0.249    0.494    4.103
  341.002  119.930    0.259    0.497    4.150
  341.252  116.585    0.251    0.486    4.158
  341.502  124.864    0.236    0.488    4.020
  341.752  129.229    0.222    0.502    3.842
  342.002  132.379    0.210    0.527    3.658
  342.252  134.750    0.206    0.553    3.579
  342.502  135.372    0.218    0.557    3.552
  342.752  132.963    0.230    0.502    3.559
  343.002  122.991    0.241    0.480    3.553
  343.252  114.797    0.251    0.460    3.524
  343.502  113.014    0.249    0.458    3.488
  343.752  118.306    0.241    0.470    3.456
  344.002  117.008    0.245    0.471    3.384
  344.252  108.846    0.266    0.467    3.255
  344.502  106.925    0.259    0.475    3.134
  344.752  116.472    0.246    0.478    3.057
  345.002  121.689    0.238    0.477    3.161
