~VERSION INFORMATION
 VERS.                 2.0:   CWLS LOG ASCII STANDARD -VERSION 2.0
 WRAP.                  NO:   ONE LINE PER DEPTH STEP
~WELL INFORMATION BLOCK
#MNEM.UNIT           DATA                    DESCRIPTION OF MNEMONIC
#---------    -------------------            -------------------------------
# Generated from Intellog Unique Number	CC_84_87/WELL/1163
NULL.         -999.25                        : NULL_VALUE
WELL.         PCI PCEJ HANGST                : Well_name    - WELL              
LOC .         07-21-084-10W4                 : Location     - LOCATION          
UWI .         00/07-21-084-10W400            : Uwi          - UNIQUE WELL ID    
ENTR.         JHS                            : Entered      - ENTERED BY        
SRVC.         SCHLUMBERGER                   : Scn          - SERVICE COMPANY   
DATE.         21 FEB 86                      : Date         - LOG DATE
STRT.M        150                            : top_depth    - START DEPTH       
STOP.M        389.996                        : bot_depth    - STOP DEPTH        
STEP.M        0.3                            : increment    - STEP LENGTH       
~CURVE INFORMATION BLOCK
#MNEM UNIT       ERCB CURVE CODE    CURVE DESCRIPTION
#-----------   ------------------   ----------------------------------
DEPT.M        00 001 00 00         : DEPTH        - DEPTH                       
DPHI.V/V      00 890 00 00         : PHID         - DENSITY POROSITY (LIMESTONE)
NPHI.V/V      00 330 00 00         : PHIN         - NEUTRON POROSITY (LIMESTONE)
GR  .API      00 310 00 00         : GR           - GAMMA RAY                   
ILD .OHMM     00 120 00 00         : RESD         - DEEP RESISTIVITY (DIL)      
~PARAMETER INFORMATION       
#MNEM.UNIT           DATA             DESCRIPTION OF MNEMONIC
#---------         -----------     ------------------------------
GL  .M        633.5                : gl           - GROUND LEVEL ELEVATION      
EREF.M        637                  : kb           - ELEVATION OF DEPTH REFERENCE
DATM.M        637                  : datum        - DATUM ELEVATION             
TDD .M        399                  : tdd          - TOTAL DEPTH DRILLER         
RUN .         ONE                  : Run          - RUN NUMBER                  
ENG .         BILL                 : Engineer     - RECORDING ENGINEER          
WIT .         JIM                  : Witness      - WITNESSED BY                
MUD .         GEL                  : Mud_type     - MUD TYPE                    
MATR.         LIMESTONE            : Logunit      - NEUTRON MATRIX              
TMAX.C        15                   : BHT          - MAXIMUM RECORDED TEMPERATURE
BHTD.M        399                  : BHTDEP       - MAXIMUM RECORDED TEMPERATURE
MATR.         1                    : LOGUNIT      - NEUTRON MATRIX              
RMT .C        25                   : MDTP         - TEMPERATURE OF MUD          
NEUT.         1                    : NEUTRON      - NEUTRON TYPE                
RESI.         0                    : RESIST       - RESISTIVITY TYPE            
RMC .OHMM     0.25                 : RMC          - RESISTIVITY OF MUD CAKE     
RMF .OHMM     0.25                 : RMF          - RESISTIVITY OF MUD FILTRATE 
SUFT.C        15                   : SUFT         - SURFACE TEMPERATURE         
~A  DEPTH     PHID     PHIN       GR     RESD
# ...
  306.599    0.242    0.389  110.615    9.897
  306.899    0.210    0.398  104.536   10.087
  307.199    0.206    0.405  103.900   10.091
  307.499    0.230    0.420  108.109    9.908
  307.799    0.249    0.422  106.870    9.202
  308.099    0.231    0.415  105.633    9.037
  308.399    0.237    0.422  105.000    9.039
  308.699    0.239    0.417   98.315    8.713
  308.999    0.233    0.415   97.680    8.244
  309.299    0.231    0.426  105.522    7.800
  309.599    0.228    0.464  113.361    7.111
  309.899    0.228    0.454  116.358    6.855
  310.199    0.220    0.459  118.754    6.857
  310.499    0.231    0.464  118.723    7.120
  310.799    0.242    0.448  105.987    7.671
  311.099    0.260    0.413   99.906    8.421
  311.399    0.274    0.409   98.061    8.582
  311.699    0.276    0.437   99.245    8.273
  311.999    0.274    0.428   99.216    8.588
  312.299    0.271    0.417  101.004    8.591
  312.599    0.240    0.408  108.844    7.832
  312.899    0.228    0.417  103.973    7.140
  313.199    0.240    0.419   93.656    7.414
  313.499    0.242    0.429   87.573    7.556
  313.799    0.241    0.459   91.784    7.558
  314.099    0.245    0.465   96.598    7.285
  314.399    0.249    0.415   97.175    7.425
  314.699    0.250    0.409  100.174    7.566
  314.999    0.255    0.420  104.987    7.855
  315.299    0.244    0.415  102.539    7.714
  315.599    0.232    0.429  100.088    7.299
  315.899    0.228    0.432  106.718    6.906
  316.199    0.230    0.438  111.532    6.656
  316.499    0.243    0.457  109.082    6.660
  316.799    0.268    0.428  103.006    7.174
  317.099    0.264    0.436   87.238    8.642
  317.399    0.261    0.444   85.394    8.972
  317.699    0.266    0.433   89.599    8.811
  317.999    0.267    0.441   87.157    8.492
  318.299    0.274    0.449   91.365    7.887
  318.599    0.270    0.432  100.414    6.929
  318.899    0.270    0.443  104.017    5.864
  319.199    0.272    0.476  110.646    4.963
  319.499    0.275    0.485  111.223    4.048
  319.798    0.268    0.498  111.799    3.622
  320.098    0.256    0.510  116.612    3.832
  320.398    0.240    0.501  115.983    4.285
  320.698    0.230    0.471  105.060    5.066
  320.998    0.235    0.447   97.770    6.102
  321.298    0.236    0.441   92.294    7.215
  321.598    0.212    0.420   93.478    8.219
  321.898    0.211    0.384   94.657    9.022
  322.198    0.225    0.401   90.998    9.367
  322.498    0.130    0.460   84.918   10.475
  322.798    0.036    0.410   77.021   11.286
  323.098    0.054    0.225   73.364   11.718
  323.398    0.144    0.307   83.020   11.507
  323.698    0.213    0.354  102.963   10.107
  323.998    0.231    0.395  102.936    8.716
  324.298    0.224    0.410   99.882    8.882
  324.598    0.221    0.419   98.644    8.562
  324.898    0.225    0.433   99.222    7.662
  325.198    0.231    0.420  104.034    6.731
  325.498    0.234    0.408  108.241    6.859
  325.798    0.226    0.428  108.214    6.861
  326.098    0.209    0.431  106.973    6.492
  326.398    0.207    0.452  104.525    5.102
  326.698    0.223    0.456   98.444    3.792
  326.998    0.305    0.475   98.419    3.269
  327.298    0.307    0.531   94.760    3.332
  327.598    0.262    0.509   86.259    3.867
  327.898    0.250    0.475   83.198    4.572
  328.198    0.251    0.403   81.358    5.209
  328.498    0.251    0.409   81.330    5.612
  328.798    0.238    0.418   83.119    5.615
  329.098    0.229    0.414   88.535    4.932
  329.398    0.248    0.418   93.350    4.022
  329.698    0.260    0.456   96.955    3.280
  329.998    0.260    0.488   96.323    2.530
  330.298    0.256    0.496   92.056    2.726
  330.598    0.257    0.488   87.189    3.810
  330.898    0.215    0.455   85.950    4.943
  331.198    0.175    0.437   89.549    6.065
  331.498    0.222    0.376   90.129    6.415
  331.798    0.253    0.402   92.524    5.635
  332.098    0.261    0.469   99.755    3.889
  332.398    0.254    0.529  110.020    2.785
  332.698    0.254    0.522  108.779    2.684
  332.998    0.260    0.522  106.330    2.493
  333.298    0.266    0.510  108.117    2.737
  333.598    0.239    0.506  102.644    3.296
  333.898    0.240    0.505  102.002    3.552
  334.198    0.247    0.485  101.376    3.619
  334.498    0.244    0.461  101.943    3.900
  334.798    0.239    0.455  102.531    3.363
  335.098    0.226    0.472  100.082    3.557
  335.398    0.167    0.468   96.422    4.446
  335.698    0.157    0.445   97.605    4.616
  335.998    0.216    0.446  106.657    4.131
  336.298    0.242    0.474  110.866    3.369
  336.598    0.250    0.512  110.835    2.748
  336.898    0.251    0.523  114.439    2.600
  337.198    0.243    0.516  115.018    3.074
  337.498    0.232    0.485  112.568    3.374
  337.798    0.236    0.462  107.696    4.064
  338.098    0.252    0.460   95.566    5.273
  338.398    0.271    0.487   85.851    6.591
  338.698    0.269    0.470   88.245    7.939
  338.998    0.253    0.397   89.427    9.742
  339.298    0.252    0.377   91.820   10.114
  339.598    0.251    0.369   96.634    9.221
  339.898    0.238    0.379   98.422    8.252
  340.198    0.220    0.422   95.976    9.401
  340.498    0.220    0.409   87.474   10.911
  340.798    0.243    0.374   80.181   11.977
  341.098    0.262    0.364   80.153   12.434
  341.398    0.257    0.366   87.385   12.673
  341.698    0.268    0.372   90.991   11.990
  341.998    0.252    0.353   92.172    8.586
  342.298    0.240    0.376  108.486    7.828
  342.598    0.230    0.404  116.329    8.918
  342.898    0.210    0.367  114.482    9.432
  343.198    0.188    0.363  113.848    7.275
  343.498    0.186    0.398  110.193    7.279
  343.798    0.193    0.420  114.400    7.990
  344.098    0.199    0.417  114.369    8.142
  344.397    0.193    0.405  111.919    8.298
  344.697    0.176    0.409  112.501    7.851
  344.997    0.169    0.399  115.498    7.568
  345.297    0.181    0.397  113.652    7.295
  345.597    0.193    0.406  116.651    7.433
  345.897    0.184    0.409  112.386    7.165
  346.197    0.187    0.407  109.335    7.721
  346.497    0.190    0.394  110.516    8.475
  346.797    0.184    0.391  113.514    8.169
  347.097    0.190    0.402  114.090    7.311
  347.397    0.196    0.403  110.433    7.450
  347.697    0.205    0.401  103.141    7.592
  347.997    0.199    0.404  101.292    8.491
  348.297    0.170    0.388   98.243    9.673
  348.597    0.179    0.412   88.531   11.651
  348.897    0.215    0.422   68.531   14.837
  349.197    0.299    0.392   61.845   19.250
  349.497    0.309    0.369   68.474   20.744
  349.797    0.280    0.352   80.551   20.750
  350.097    0.249    0.347   82.338   19.271
  350.397    0.260    0.346   79.890   18.577
  350.697    0.260    0.371   77.436   18.582
  350.997    0.265    0.383   78.620   19.654
  351.297    0.277    0.377   76.174   21.575
  351.597    0.281    0.362   74.936   20.415
  351.897    0.259    0.358   78.538   17.601
  352.197    0.267    0.351   74.880   17.610
  352.497    0.284    0.342   60.929   19.691
  352.797    0.305    0.351   53.638   26.514
  353.097    0.311    0.361   59.060   28.041
  353.397    0.282    0.387   74.766   30.783
  353.697    0.305    0.395   60.818   30.794
  353.997    0.320    0.351   55.945   28.073
  354.297    0.282    0.354   66.815   22.895
  354.597    0.265    0.360   71.021   19.022
  354.897    0.268    0.366   67.967   19.385
  355.197    0.308    0.402   58.863   30.850
  355.497    0.332    0.370   52.780   43.111
  355.797    0.329    0.366   56.386   44.759
  356.097    0.329    0.392   57.568   37.189
  356.397    0.324    0.373   69.039   30.895
  356.697    0.267    0.361   81.115   15.547
  356.997    0.234    0.391   98.637   10.728
  357.297    0.206    0.399  101.032    8.914
  357.597    0.186    0.406  102.822    8.752
  357.897    0.194    0.420   97.950    9.972
  358.197    0.219    0.406   93.081   11.360
  358.497    0.222    0.414   92.446   10.950
