~VERSION INFORMATION
 VERS.                 2.0:   CWLS LOG ASCII STANDARD -VERSION 2.0
 WRAP.                  NO:   ONE LINE PER DEPTH STEP
~WELL INFORMATION BLOCK
#MNEM.UNIT           DATA                    DESCRIPTION OF MNEMONIC
#---------    -------------------            -------------------------------
# Generated from Intellog Unique Number	CS_77_79/WELL/3264
WELL.         NUMAC OIL & GAS LTD.           : Well_name    - WELL
LOC .         00/01-12-079-14W4/0            : Location     - LOCATION
UWI .         00/01-12-079-14W4/0            : Uwi          - UNIQUE WELL ID
ENTR.         JOETTE                         : Entered      - ENTERED BY
SRVC.         SCHLUMBERGER                   : Scn          - SERVICE COMPANY
DATE.         08/24/92                       : Date         - LOG DATE
STRT.M        280                            : top_depth    - START DEPTH
STOP.M        510                            : bot_depth    - STOP DEPTH
STEP.M        0.25                           : increment    - STEP LENGTH
 NULL. -999.2500:NULL Value
~CURVE INFORMATION BLOCK
#MNEM UNIT       ERCB CURVE CODE    CURVE DESCRIPTION
#-----------   ------------------   ----------------------------------
DEPT.M        00 001 00 00         : DEPTH        - DEPTH
ILD .OHMM     00 120 00 00         : RESD         - DEEP RESISTIVITY (DIL)
DPHI.V/V      00 890 00 00         : PHID         - DENSITY POROSITY (SANDSTONE)
NPHI.V/V      00 330 00 00         : PHIN         - NEUTRON POROSITY (SANDSTONE)
GR  .API      00 310 00 00         : GR           - GAMMA RAY
~PARAMETER INFORMATION
#MNEM.UNIT           DATA             DESCRIPTION OF MNEMONIC
#---------         -----------     ------------------------------
GL  .M        688.6                : gl           - GROUND LEVEL ELEVATION
EREF.M        692.05               : kb           - ELEVATION OF DEPTH REFERENCE
DATM.M        692.05               : datum        - DATUM ELEVATION
TDD .M        521                  : tdd          - TOTAL DEPTH DRILLER
RUN .         ONE                  : Run          - RUN NUMBER
ENG .         BILL                 : Engineer     - RECORDING ENGINEER
WIT .         JIM                  : Witness      - WITNESSED BY
MUD .         GEL                  : Mud_type     - MUD TYPE
MATR.         SANDSTONE            : Logunit      - NEUTRON MATRIX
TMAX.C        34                   : BHT          - MAXIMUM RECORDED TEMPERATURE
BHTD.M        521                  : BHTDEP       - MAXIMUM RECORDED TEMPERATURE
RMT .C        22.1                 : MDTP         - TEMPERATURE OF MUD
MUDD.KG/M     1070                 : MWT          - MUD DENSITY
NEUT.         1                    : NEUTRON      - NEUTRON TYPE
RESI.         0                    : RESIST       - RESISTIVITY TYPE
RM  .OHMM     3.4                  : RM           - RESISTIVITY OF MUD
RMC .OHMM     5.1                  : RMC          - RESISTIVITY OF MUD CAKE
RMF .OHMM     2.8                  : RMF          - RESISTIVITY OF MUD FILTRATE
SUFT.C        4                    : SUFT         - SURFACE TEMPERATURE
~A  DEPTH     RESD     PHID     PHIN       GR
  280.000    4.400    0.241    0.581  111.149
  280.250    4.489    0.239    0.553  106.944
  280.500    4.666    0.230    0.535  103.942
  280.750    5.132    0.243    0.532  102.177
  281.000    5.436    0.258    0.472  100.390
  281.250    6.090    0.264    0.456   88.900
  281.500    7.083    0.181    0.449   79.221
  281.750    9.392    0.145    0.459   71.374
  282.000   10.721    0.161    0.497   61.099
  282.250   11.576    0.301    0.518   58.108
  282.500   12.029    0.297    0.462   81.840
  282.750   12.280    0.257    0.462   87.348
  283.000   12.291    0.250    0.453  100.760
  283.250   11.634    0.242    0.448  102.030
  283.500   10.604    0.230    0.453   99.635
  283.750    8.970    0.220    0.463   96.634
  284.000    7.040    0.202    0.469   97.893
  284.250    6.181    0.207    0.499  104.020
  284.500    5.635    0.232    0.533  105.290
  284.750    5.435    0.228    0.541  105.323
  285.000    5.146    0.231    0.534  114.474
  285.250    5.055    0.243    0.538  115.126
  285.500    4.968    0.244    0.549  112.743
  285.750    4.794    0.241    0.556  117.037
  286.000    4.712    0.247    0.502  126.199
  286.250    4.715    0.251    0.419  123.209
  286.500    5.588    0.248    0.365  115.969
  286.750    9.819    0.318    0.334  103.872
  287.000   10.997    0.378    0.317   91.765
  287.250   11.870    0.401    0.321   74.194
  287.500   11.452    0.341    0.368   56.027
  287.750   10.836    0.318    0.417   63.963
  288.000    9.699    0.318    0.449   70.708
  288.250    9.349    0.318    0.483   74.384
  288.500    8.849    0.312    0.498   83.535
  288.750    8.534    0.311    0.470   89.651
  289.000    8.230    0.275    0.462   87.278
  289.250    8.088    0.264    0.454   98.262
  289.500    8.098    0.261    0.460  100.724
  289.750    8.420    0.261    0.470  103.804
  290.000    8.587    0.267    0.479  103.860
  290.250    9.100    0.274    0.484  101.476
  290.500    9.281    0.271    0.491   99.700
  290.750    9.644    0.263    0.493  103.376
  291.000    9.644    0.272    0.458  108.885
  291.250   11.883    0.289    0.454  108.334
  291.500   13.317    0.279    0.455   96.833
  291.750   13.843    0.271    0.462   88.390
  292.000   14.122    0.274    0.431   86.007
  292.250   14.135    0.282    0.429   84.838
  292.500   14.157    0.287    0.428   86.097
  292.750   14.438    0.299    0.441   89.773
  293.000   15.008    0.296    0.453   94.685
  293.250   15.895    0.296    0.456   94.112
  293.500   17.152    0.310    0.448   85.051
  293.750   19.216    0.313    0.445   74.169
  294.000   21.135    0.317    0.445   73.629
  294.250   22.822    0.324    0.441   76.079
  294.500   22.843    0.319    0.432   81.588
  294.750   22.871    0.320    0.428   85.894
  295.000   22.468    0.322    0.433   86.557
  295.250   20.878    0.331    0.446   86.602
  295.500   20.130    0.331    0.465   87.849
  295.750   18.024    0.311    0.471   90.322
  296.000   17.377    0.299    0.419   94.021
  296.250   17.070    0.291    0.448   94.055
  296.500   16.780    0.290    0.451   98.349
  296.750   17.771    0.298    0.457   97.787
  297.000   18.822    0.310    0.466   90.547
  297.250   19.196    0.318    0.462   85.128
  297.500   19.225    0.310    0.445   83.959
  297.750   18.892    0.304    0.446   88.860
  298.000   17.882    0.302    0.451   93.166
  298.250   17.246    0.282    0.441   95.639
  298.500   17.262    0.278    0.407  103.575
  298.750   18.294    0.283    0.395   94.514
  299.000   19.004    0.287    0.397   79.383
  299.250   20.139    0.283    0.404   64.240
  299.500   20.158    0.276    0.411   57.618
  299.750   19.453    0.237    0.412   60.080
  300.000   18.749    0.215    0.410   64.374
  300.250   16.466    0.204    0.407   67.455
  300.500   14.730    0.208    0.411   67.499
  300.750   12.700    0.239    0.424   72.423
  301.000   10.943    0.208    0.439   77.314
  301.250   10.169    0.201    0.520   82.822
  301.500    9.268    0.202    0.527   90.151
  301.750    8.296    0.198    0.527  108.431
  302.000    7.148    0.196    0.519  112.107
  302.250    5.935    0.200    0.506  120.043
  302.500    5.311    0.208    0.500  126.788
  302.750    4.752    0.200    0.498  125.012
  303.000    4.499    0.181    0.504  123.832
  303.250    4.589    0.198    0.516  122.055
  303.500    4.953    0.197    0.541  123.921
  303.750    5.246    0.178    0.559  130.644
  304.000    5.558    0.188    0.559  133.117
  304.250    5.563    0.194    0.548  129.520
  304.500    5.468    0.152    0.549  123.494
  304.750    5.270    0.116    0.555  117.468
  305.000    4.716    0.177    0.569  114.478
  305.250    4.220    0.208    0.609  123.628
  305.500    3.707    0.223    0.620  134.612
  305.750    3.643    0.190    0.620  136.489
  306.000    4.157    0.184    0.587  134.094
  306.250    5.311    0.195    0.550  134.746
  306.500    8.821    0.220    0.520  136.005
  306.750    9.879    0.229    0.471  132.408
  307.000   11.074    0.253    0.476  125.168
  307.250   11.508    0.264    0.476  120.356
  307.500   11.962    0.241    0.470  119.198
  307.750   12.207    0.237    0.467  116.196
  308.000   11.991    0.242    0.473  116.241
  308.250   11.568    0.268    0.477  113.858
  308.500   10.950    0.271    0.465  108.439
  308.750   10.172    0.278    0.463  104.831
  309.000    9.447    0.272    0.487  106.708
  309.250    8.613    0.218    0.504  113.430
  309.500    7.564    0.202    0.520  120.153
  309.750    6.645    0.208    0.508  126.876
  310.000    6.653    0.232    0.483  132.395
  310.250    7.592    0.243    0.476  129.416
  310.500    9.167    0.255    0.486  123.379
  310.750   10.464    0.260    0.506  121.591
  311.000   10.881    0.266    0.510  119.838
  311.250   11.097    0.272    0.500  116.836
  311.500   10.908    0.283    0.485  110.192
  311.750   10.523    0.272    0.494   99.917
  312.000   10.146    0.253    0.520  100.569
  312.250    9.788    0.256    0.512  107.898
  312.500    9.803    0.258    0.463  117.060
  312.750    9.997    0.252    0.433  117.712
  313.000   10.792    0.251    0.418  114.722
  313.250   11.211    0.258    0.403  107.482
  313.500   12.101    0.270    0.392  100.242
  313.750   12.817    0.302    0.402   94.812
  314.000   13.071    0.301    0.432   83.323
  314.250   13.335    0.303    0.434   77.297
  314.500   13.356    0.307    0.463   70.675
  314.750   13.124    0.312    0.473   71.327
  315.000   12.893    0.301    0.485   71.372
  315.250   12.207    0.290    0.479   71.417
  315.500   11.554    0.290    0.457   72.069
  315.750   10.933    0.289    0.447   72.114
  316.000    9.605    0.288    0.447   73.980
  316.250    8.920    0.286    0.446   75.228
  316.500    7.984    0.269    0.441   80.140
  316.750    7.415    0.233    0.447   88.077
  317.000    6.637    0.222    0.481   99.049
  317.250    6.053    0.221    0.520  112.460
  317.500    5.834    0.241    0.539  118.576
  317.750    5.733    0.261    0.526  127.120
  318.000    6.303    0.287    0.514  122.308
  318.250    8.206    0.298    0.516  110.212
  318.500   12.179    0.266    0.521   96.901
  318.750   12.421    0.242    0.520   93.315
  319.000   12.919    0.218    0.508   97.609
  319.250   12.691    0.247    0.499  100.071
  319.500   12.703    0.258    0.505  100.723
  319.750   12.023    0.208    0.519   95.304
  320.000   11.384    0.183    0.514   92.314
  320.250   10.976    0.189    0.496   98.441
  320.500   10.389    0.250    0.496  104.545
  320.750    9.657    0.270    0.506  108.839
  321.000    9.141    0.265    0.514  113.145
  321.250    8.649    0.263    0.503  108.940
  321.500    8.339    0.266    0.501  110.199
  321.750    8.045    0.264    0.499  113.279
  322.000    8.052    0.264    0.469  113.931
  322.250    8.859    0.284    0.449  106.691
  322.500    9.557    0.288    0.447   99.451
  322.750   11.116    0.283    0.479   93.415
  323.000   12.222    0.282    0.462   86.782
  323.250   12.705    0.289    0.456   80.756
