~VERSION INFORMATION
 VERS.                 2.0:   CWLS LOG ASCII STANDARD -VERSION 2.0
 WRAP.                  NO:   ONE LINE PER DEPTH STEP
~WELL INFORMATION BLOCK
#MNEM.UNIT           DATA                    DESCRIPTION OF MNEMONIC
#---------    -------------------            -------------------------------
# Generated from Intellog Unique Number	CS_73_76/WELL/1033
WELL.         CANADIAN SUPERIOR OIL          : Well_name    - WELL
LOC .         00/06-05-076-14W4/0            : Location     - LOCATION
UWI .         00/06-05-076-14W4/0            : Uwi          - UNIQUE WELL ID
ENTR.         SP                             : Entered      - ENTERED BY
SRVC.         SCHLUMBERGER                   : Scn          - SERVICE COMPANY
STRT.F        1150                           : top_depth    - START DEPTH
STOP.F        1839.8                         : bot_depth    - STOP DEPTH
STEP.F        0.82                           : increment    - STEP LENGTH
 NULL. -999.2500:NULL Value
~CURVE INFORMATION BLOCK
#MNEM UNIT       ERCB CURVE CODE    CURVE DESCRIPTION
#-----------   ------------------   ----------------------------------
DEPT.F        00 001 00 00         : DEPTH        - DEPTH
GR  .API      00 310 00 00         : GR           - GAMMA RAY
NPHI.V/V      00 330 00 00         : PHIN         - NEUTRON POROSITY (SANDSTONE)
DPHI.V/V      00 890 00 00         : PHID         - DENSITY POROSITY (SANDSTONE)
ILD .OHMM     00 120 00 00         : RESD         - DEEP RESISTIVITY (DIL)
~PARAMETER INFORMATION
#MNEM.UNIT           DATA             DESCRIPTION OF MNEMONIC
#---------         -----------     ------------------------------
GL  .F        2386                 : gl           - GROUND LEVEL ELEVATION
EREF.F        2398                 : kb           - ELEVATION OF DEPTH REFERENCE
DATM.F        2386                 : datum        - DATUM ELEVATION
TDD .F        1806                 : tdd          - TOTAL DEPTH DRILLER
RUN .         ONE                  : Run          - RUN NUMBER
ENG .         BILL                 : Engineer     - RECORDING ENGINEER
WIT .         JIM                  : Witness      - WITNESSED BY
MUD .         GEL                  : Mud_type     - MUD TYPE
MATR.         SANDSTONE            : Logunit      - NEUTRON MATRIX
TMAX.C        22.7778              : BHT          - MAXIMUM RECORDED TEMPERATURE
BHTD.M        550.469              : BHTDEP       - MAXIMUM RECORDED TEMPERATURE
MATR.         1                    : LOGUNIT      - NEUTRON MATRIX
RMT .C        25                   : MDTP         - TEMPERATURE OF MUD
NEUT.         1                    : NEUTRON      - NEUTRON TYPE
RESI.         0                    : RESIST       - RESISTIVITY TYPE
RMC .OHMM     0.25                 : RMC          - RESISTIVITY OF MUD CAKE
RMF .OHMM     0.25                 : RMF          - RESISTIVITY OF MUD FILTRATE
SUFT.C        15                   : SUFT         - SURFACE TEMPERATURE
~A  DEPTH       GR     PHIN     PHID     RESD
 1150.000  105.966    0.611    0.326    3.161
 1150.820  108.899    0.617    0.330    3.166
 1151.640  111.245    0.611    0.332    3.171
 1152.460  113.006    0.598    0.342    3.176
 1153.280  113.596    0.587    0.340    3.066
 1154.100  112.431    0.594    0.331    3.126
 1154.920  108.925    0.601    0.330    3.557
 1155.740  110.686    0.610    0.336    3.372
 1156.560  111.862    0.605    0.341    3.197
 1157.380  111.866    0.599    0.349    3.087
 1158.200  109.530    0.603    0.347    3.035
 1159.020  108.363    0.605    0.344    2.985
 1159.840  107.197    0.607    0.341    2.934
 1160.660  106.031    0.609    0.340    2.885
 1161.480  106.622    0.611    0.343    2.942
 1162.300  106.628    0.612    0.349    2.893
 1163.120  105.460    0.613    0.358    3.006
 1163.940  104.880    0.609    0.345    3.064
 1164.760  100.787    0.607    0.310    3.241
 1165.580   90.840    0.600    0.298    3.556
 1166.400   83.234    0.595    0.285    4.517
 1167.220   78.557    0.550    0.273    5.235
 1168.040   79.147    0.542    0.267    5.849
 1168.860   81.493    0.539    0.380    6.538
 1169.690   82.668    0.545    0.425    6.915
 1170.510   77.990    0.555    0.424    7.449
 1171.330   75.654    0.575    0.420    7.742
 1172.150   78.587    0.590    0.417    7.749
 1172.970   77.421    0.593    0.432    7.621
 1173.790   81.523    0.564    0.443    7.629
 1174.610   87.969    0.558    0.442    7.629
 1175.430   90.900    0.552    0.436    7.944
 1176.250   99.687    0.558    0.406    7.661
 1177.070  111.986    0.587    0.365    7.671
 1177.890  116.675    0.600    0.338    7.684
 1178.710  118.436    0.606    0.338    7.283
 1179.530  115.514    0.596    0.381    6.656
 1180.350  104.980    0.567    0.421    6.426
 1181.170   95.033    0.552    0.451    6.436
 1181.990   91.526    0.542    0.461    6.684
 1182.810   92.118    0.530    0.463    7.073
 1183.630   93.293    0.537    0.454    7.481
 1184.450   95.640    0.547    0.446    8.673
 1185.270  100.327    0.555    0.442   10.048
 1186.090  103.259    0.565    0.436   10.439
 1186.910  105.607    0.570    0.426   10.845
 1187.730  107.954    0.576    0.419   10.859
 1188.550  109.129    0.582    0.411   10.483
 1189.370  108.549    0.585    0.399   10.500
 1190.190  107.968    0.583    0.399   10.511
 1191.010  106.802    0.572    0.418   10.718
 1191.830  103.296    0.572    0.432   10.736
 1192.650  104.473    0.572    0.437   10.757
 1193.470  105.062    0.567    0.433   10.764
 1194.290  102.725    0.567    0.420   10.778
 1195.110  101.559    0.568    0.408   10.796
 1195.930  100.393    0.568    0.409   11.212
 1196.750   95.129    0.561    0.418   11.648
 1197.570   84.010    0.531    0.427   12.098
 1198.390   79.331    0.459    0.439   12.796
 1199.210   76.410    0.444    0.463   13.290
 1200.030   77.000    0.455    0.471   13.557
 1200.850   80.518    0.513    0.455   13.333
 1201.670   83.451    0.540    0.439   12.871
 1202.490   83.455    0.554    0.431   12.201
 1203.310   85.216    0.565    0.422   11.774
 1204.130   93.418    0.574    0.414   10.959
 1204.950   96.937    0.572    0.386    9.837
 1205.770  101.624    0.568    0.384    8.995
 1206.590  108.654    0.567    0.373    8.678
 1207.410  114.513    0.573    0.360    8.077
 1208.230  124.471    0.578    0.340    7.381
 1209.060  129.747    0.592    0.319    6.623
 1209.880  131.508    0.609    0.301    5.838
 1210.700  131.513    0.621    0.300    5.533
 1211.520  131.518    0.628    0.299    5.344
 1212.340  133.866    0.635    0.297    5.159
 1213.160  134.454    0.642    0.307    4.890
 1213.980  134.458    0.652    0.329    4.807
 1214.800  130.953    0.639    0.319    4.902
 1215.620  132.128    0.632    0.310    5.092
 1216.440  135.060    0.633    0.303    5.192
 1217.260  138.577    0.633    0.307    5.204
 1218.080  140.925    0.624    0.316    5.211
 1218.900  142.099    0.626    0.329    5.027
 1219.720  142.105    0.628    0.359    4.765
 1220.540  140.939    0.632    0.369    4.277
 1221.360  139.188    0.631    0.377    3.838
 1222.180  136.851    0.626    0.386    3.988
 1223.000  132.759    0.596    0.391    4.294
 1223.820  131.008    0.591    0.396    5.072
 1224.640  130.426    0.586    0.395    5.665
 1225.460  129.845    0.582    0.390    6.686
 1226.280  127.511    0.578    0.368    8.043
 1227.100  124.588    0.579    0.351    8.661
 1227.920  122.250    0.581    0.349    8.832
 1228.740  117.571    0.581    0.355    8.847
 1229.560  112.893    0.575    0.362    9.024
 1230.380  108.800    0.575    0.389    9.036
 1231.200  105.293    0.580    0.420    9.048
 1232.020  111.738    0.586    0.392    8.896
 1232.840  120.524    0.585    0.362    8.907
 1233.660  125.798    0.587    0.356    9.084
 1234.480  128.730    0.594    0.329    8.931
 1235.300  124.638    0.593    0.321    8.471
 1236.120  119.373    0.585    0.373    8.029
 1236.940  113.525    0.581    0.374    8.040
 1237.760  115.872    0.583    0.359    8.350
 1238.580  116.461    0.591    0.367    8.832
 1239.400  118.222    0.597    0.393    9.521
 1240.220  121.740    0.597    0.392    9.702
 1241.040  130.526    0.597    0.385   10.652
 1241.860  135.216    0.595    0.366   11.062
 1242.680  136.392    0.595    0.358   11.077
 1243.500  136.396    0.593    0.366   11.091
 1244.320  135.232    0.588    0.372   10.905
 1245.140  132.895    0.587    0.373   10.725
 1245.960  129.972    0.588    0.345    9.982
 1246.780  127.634    0.589    0.340    9.462
 1247.600  121.199    0.593    0.336    9.137
 1248.430  107.739    0.595    0.337    9.149
 1249.250   91.353    0.598    0.351    9.158
 1250.070   83.747    0.599    0.380    9.342
 1250.890   78.484    0.593    0.429    9.705
 1251.710   74.389    0.590    0.429   10.083
 1252.530   70.296    0.593    0.423   10.279
 1253.350   65.033    0.595    0.423   10.289
 1254.170   62.695    0.605    0.448   10.690
 1254.990   62.116    0.606    0.449   11.102
 1255.810   64.462    0.586    0.458   11.322
 1256.630   66.226    0.565    0.460   11.762
 1257.450   66.814    0.566    0.459   11.777
 1258.270   67.405    0.578    0.458   12.240
 1259.090   67.996    0.584    0.455   12.478
 1259.910   69.757    0.589    0.448   12.733
 1260.730   75.031    0.593    0.443   12.745
 1261.550   82.061    0.598    0.438   12.762
 1262.370   89.676    0.601    0.430   12.778
 1263.190   95.535    0.594    0.400   12.795
 1264.010  103.151    0.594    0.386   12.584
 1264.830  107.254    0.599    0.379   12.372
 1265.650  113.114    0.606    0.375   11.724
 1266.470  117.217    0.609    0.375    8.928
 1267.290  116.639    0.606    0.376    8.159
 1268.110  116.643    0.603    0.376    7.323
 1268.930  117.819    0.605    0.374    7.198
 1269.750  121.335    0.605    0.370    7.207
 1270.570  124.854    0.603    0.367    7.352
 1271.390  124.858    0.603    0.378    7.497
 1272.210  118.423    0.605    0.357    7.646
 1273.030  111.403    0.603    0.359    7.797
 1273.850  104.384    0.596    0.369    8.103
 1274.670  102.048    0.585    0.375    8.263
 1275.490  103.221    0.575    0.371    8.426
 1276.310  105.568    0.567    0.368    8.751
 1277.130  106.162    0.565    0.359    8.763
 1277.950  106.166    0.575    0.350    8.939
 1278.770  106.756    0.597    0.341    8.632
 1279.590  107.932    0.603    0.335    8.484
 1280.410  108.522    0.600    0.339    8.344
 1281.230  104.427    0.599    0.345    8.204
 1282.050   97.408    0.603    0.352    8.066
 1282.870   93.315    0.606    0.374    8.076
 1283.690   88.051    0.606    0.380    8.087
 1284.510   81.616    0.607    0.399    8.399
 1285.330   75.766    0.577    0.406    9.387
 1286.150   66.989    0.572    0.429   10.492
 1286.980   58.213    0.564    0.449   11.303
 1287.800   55.293    0.558    0.452   12.400
 1288.620   54.127    0.560    0.463   12.879
 1289.440   54.132    0.561    0.462   13.380
 1290.260   54.722    0.559    0.456   13.640
 1291.080   56.483    0.558    0.451   13.910
 1291.900   57.072    0.558    0.446   13.932
