~VERSION INFORMATION
 VERS.                 2.0:   CWLS LOG ASCII STANDARD -VERSION 2.0
 WRAP.                  NO:   ONE LINE PER DEPTH STEP
~WELL INFORMATION BLOCK
#MNEM.UNIT           DATA                    DESCRIPTION OF MNEMONIC
#---------    -------------------            -------------------------------
# Generated from Intellog Unique Number	CS_77_79/WELL/922
WELL.         CANADIAN WORLDWIDE ENERGY      : Well_name    - WELL
LOC .         00/09-06-077-04W4/0            : Location     - LOCATION
UWI .         00/09-06-077-04W4/0            : Uwi          - UNIQUE WELL ID
ENTR.         SP                             : Entered      - ENTERED BY
SRVC.         SCHLUMBERGER                   : Scn          - SERVICE COMPANY
STRT.M        150                            : top_depth    - START DEPTH
STOP.M        392                            : bot_depth    - STOP DEPTH
STEP.M        0.25                           : increment    - STEP LENGTH
 NULL. -999.2500:NULL Value
~CURVE INFORMATION BLOCK
#MNEM UNIT       ERCB CURVE CODE    CURVE DESCRIPTION
#-----------   ------------------   ----------------------------------
DEPT.M        00 001 00 00         : DEPTH        - DEPTH
ILD .OHMM     00 120 00 00         : RESD         - DEEP RESISTIVITY (DIL)
DPHI.V/V      00 890 00 00         : PHID         - DENSITY POROSITY (LIMESTONE)
NPHI.V/V      00 330 00 00         : PHIN         - NEUTRON POROSITY (LIMESTONE)
GR  .API      00 310 00 00         : GR           - GAMMA RAY
~PARAMETER INFORMATION
#MNEM.UNIT           DATA             DESCRIPTION OF MNEMONIC
#---------         -----------     ------------------------------
GL  .M        576.6                : gl           - GROUND LEVEL ELEVATION
EREF.M        579.8                : kb           - ELEVATION OF DEPTH REFERENCE
DATM.M        576.6                : datum        - DATUM ELEVATION
TDD .M        397                  : tdd          - TOTAL DEPTH DRILLER
RUN .         ONE                  : Run          - RUN NUMBER
ENG .         BILL                 : Engineer     - RECORDING ENGINEER
WIT .         JIM                  : Witness      - WITNESSED BY
MUD .         GEL                  : Mud_type     - MUD TYPE
MATR.         LIMESTONE            : Logunit      - NEUTRON MATRIX
TMAX.C        19                   : BHT          - MAXIMUM RECORDED TEMPERATURE
BHTD.M        397                  : BHTDEP       - MAXIMUM RECORDED TEMPERATURE
MATR.         1                    : LOGUNIT      - NEUTRON MATRIX
RMT .C        25                   : MDTP         - TEMPERATURE OF MUD
NEUT.         1                    : NEUTRON      - NEUTRON TYPE
RESI.         0                    : RESIST       - RESISTIVITY TYPE
RMC .OHMM     0.25                 : RMC          - RESISTIVITY OF MUD CAKE
RMF .OHMM     0.25                 : RMF          - RESISTIVITY OF MUD FILTRATE
SUFT.C        15                   : SUFT         - SURFACE TEMPERATURE
~A  DEPTH     RESD     PHID     PHIN       GR
  150.000    3.679    0.241    0.541  105.923
  150.250    3.611    0.249    0.544  105.320
  150.500    3.547    0.258    0.530  105.334
  150.750    3.549    0.268    0.506  110.242
  151.000    3.552    0.268    0.527  109.031
  151.250    3.488    0.268    0.544  103.533
  151.500    3.425    0.264    0.538  101.095
  151.750    3.427    0.263    0.538  106.006
  152.000    3.429    0.270    0.538  106.019
  152.250    3.367    0.271    0.533  102.967
  152.500    3.370    0.270    0.523  100.533
  152.750    3.372    0.268    0.508  103.603
  153.000    3.374    0.269    0.505  105.453
  153.250    3.441    0.270    0.506  102.405
  153.500    3.379    0.273    0.502  103.028
  153.750    3.319    0.276    0.502  102.429
  154.000    3.258    0.282    0.517   99.992
  154.250    3.200    0.286    0.538  104.297
  154.500    3.141    0.293    0.527  105.528
  154.750    3.085    0.284    0.519  103.093
  155.000    3.088    0.271    0.514  100.658
  155.250    3.089    0.269    0.509  100.052
  155.500    3.151    0.272    0.527  101.295
  155.750    3.094    0.285    0.554  102.527
  156.000    3.097    0.294    0.536  104.381
  156.250    3.041    0.294    0.529  105.000
  156.500    3.042    0.272    0.540  109.910
  156.750    3.045    0.269    0.551  112.984
  157.000    3.105    0.277    0.556  112.383
  157.250    3.166    0.270    0.544  106.886
  157.500    3.168    0.261    0.531  103.223
  157.750    3.170    0.259    0.533  105.074
  158.000    3.172    0.257    0.542  106.924
  158.250    3.057    0.266    0.504  105.098
  158.500    3.059    0.268    0.493  103.272
  158.750    3.061    0.261    0.508  106.352
  159.000    3.063    0.250    0.519  104.523
  159.250    3.184    0.240    0.519  100.249
  159.500    3.246    0.232    0.515   97.201
  159.750    3.439    0.218    0.509   94.763
  160.000    3.506    0.200    0.498   98.450
  160.250    3.574    0.173    0.488  103.359
  160.500    3.715    0.230    0.495  106.435
  160.750    3.717    0.243    0.510  104.611
  161.000    3.791    0.242    0.522  104.007
  161.250    3.723    0.237    0.505  105.861
  161.500    3.724    0.236    0.487  106.482
  161.750    3.728    0.237    0.478  107.110
  162.000    3.800    0.231    0.493  107.123
  162.250    4.025    0.221    0.521  106.521
  162.500    4.104    0.216    0.511  107.148
  162.750    4.185    0.220    0.493  107.767
  163.000    4.189    0.225    0.483  110.229
  163.250    4.191    0.233    0.489  112.077
  163.500    4.116    0.231    0.530  111.478
  163.750    4.041    0.209    0.536  107.203
  164.000    3.895    0.218    0.506  102.317
  164.250    3.898    0.232    0.478  102.941
  164.500    4.052    0.239    0.505  108.465
  164.750    4.210    0.227    0.506  109.091
  165.000    4.291    0.210    0.500  106.660
  165.250    5.089    0.196    0.518  104.215
  165.500    9.316    0.196    0.526   97.493
  165.750   14.389    0.182    0.496   87.098
  166.000   27.874    0.121    0.303   68.130
  166.250   44.711    0.147    0.245   44.878
  166.500   56.114    0.242    0.238   29.584
  166.750   43.937    0.239    0.253   24.086
  167.000   27.952    0.234    0.235   29.000
  167.250   12.901    0.234    0.259   33.907
  167.500    7.329    0.207    0.308   44.938
  167.750    5.222    0.188    0.340   90.868
  168.000    4.493    0.219    0.446  108.023
  168.250    4.169    0.235    0.448  107.429
  168.500    3.942    0.238    0.444  104.378
  168.750    4.675    0.225    0.462   95.817
  169.000    6.825    0.220    0.448   84.811
  169.250    8.564    0.204    0.365   78.084
  169.500   10.749    0.104    0.343   77.484
  169.750   12.276    0.123    0.345   87.295
  170.000   12.756    0.171    0.346   92.204
  170.250   12.766    0.182    0.360   93.444
  170.500   11.847    0.183    0.372   94.677
  170.750   11.201    0.191    0.377   98.368
  171.000   10.395    0.187    0.377   99.598
  171.250   10.019    0.181    0.366   98.389
  171.500   10.025    0.173    0.367   97.177
  171.750   10.220    0.188    0.367   98.413
  172.000   11.240    0.197    0.373   95.365
  172.250   11.463    0.212    0.386   95.374
  172.500   10.839    0.221    0.395  101.512
  172.750   10.058    0.218    0.405  105.810
  173.000   10.255    0.202    0.395  103.984
  173.250   13.115    0.194    0.378   94.812
  173.500   15.266    0.225    0.362   86.865
  173.750   18.800    0.240    0.374   82.593
  174.000   24.499    0.251    0.373   75.868
  174.250   30.171    0.219    0.353   61.188
  174.500   33.188    0.205    0.363   50.792
  174.750   35.148    0.229    0.374   43.458
  175.000   35.829    0.261    0.380   39.795
  175.250   32.633    0.291    0.354   44.706
  175.500   29.711    0.316    0.343   53.290
  175.750   27.053    0.293    0.331   64.322
  176.000   24.632    0.264    0.341   64.336
  176.250   21.604    0.259    0.363   66.185
  176.500   20.424    0.270    0.394   68.644
  176.750   20.827    0.262    0.383   71.719
  177.000   22.903    0.253    0.378   68.057
  177.250   26.158    0.278    0.393   61.333
  177.500   27.183    0.291    0.370   47.264
  177.750   27.201    0.292    0.363   52.791
  178.000   26.711    0.305    0.376   60.148
  178.250   24.792    0.281    0.364   67.505
  178.500   24.803    0.258    0.373   73.639
  178.750   26.271    0.259    0.374   68.756
  179.000   27.297    0.292    0.364   56.521
  179.250   26.300    0.315    0.354   44.289
  179.500   23.061    0.312    0.350   49.200
  179.750   17.720    0.306    0.352   60.846
  180.000   14.407    0.292    0.364   68.204
  180.250   12.398    0.234    0.377   74.337
  180.500   10.871    0.216    0.393   86.595
  180.750   10.086    0.223    0.411   95.795
  181.000    9.187    0.239    0.414  100.700
  181.250    9.020    0.239    0.433  109.898
  181.500    8.532    0.232    0.444  111.749
  181.750    8.376    0.221    0.446  108.086
  182.000    8.380    0.220    0.434  101.977
  182.250    8.875    0.222    0.425   96.480
  182.500    9.759    0.218    0.419   93.427
  182.750   12.963    0.211    0.412   87.931
  183.000   16.581    0.243    0.399   81.209
  183.250   18.936    0.282    0.391   75.099
  183.500   20.434    0.306    0.387   67.762
  183.750   21.232    0.307    0.376   67.775
  184.000   21.244    0.298    0.371   74.520
  184.250   21.258    0.281    0.372   83.104
  184.500   22.095    0.277    0.388   88.626
  184.750   22.112    0.277    0.375   78.233
  185.000   20.907    0.281    0.350   69.672
  185.250   18.679    0.279    0.349   66.622
  185.500   15.477    0.271    0.349   75.211
  185.750   12.118    0.252    0.362   83.181
  186.000   10.828    0.215    0.400   92.376
  186.250   10.435    0.207    0.405  100.345
  186.500   10.247    0.214    0.392   99.134
  186.750    9.331    0.202    0.392   97.923
  187.000    8.497    0.145    0.394   96.707
  187.250    7.883    0.106    0.387  105.292
  187.500    7.179    0.125    0.445  114.487
  187.750    6.537    0.166    0.458  115.726
  188.000    6.067    0.161    0.438  118.191
  188.250    5.736    0.166    0.427  120.036
  188.500    5.423    0.179    0.429  121.884
  188.750    5.128    0.185    0.441  120.673
  189.000    4.759    0.187    0.463  118.234
  189.250    4.334    0.193    0.478  119.470
  189.500    4.023    0.205    0.496  126.831
  189.750    3.876    0.215    0.506  132.353
  190.000    3.806    0.225    0.506  129.918
  190.250    3.880    0.232    0.520  126.871
  190.500    4.515    0.236    0.510  125.657
  190.750    5.356    0.225    0.484  123.219
  191.000    6.596    0.216    0.463  114.660
  191.250    7.531    0.184    0.449  113.446
  191.500   10.003    0.229    0.464   96.928
  191.750   13.285    0.254    0.432   71.226
  192.000   17.314    0.295    0.374   55.933
  192.250   27.774    0.312    0.364   46.149
  192.500   34.854    0.326    0.366   46.777
  192.750   36.927    0.338    0.369   46.785
  193.000   36.259    0.332    0.390   46.805
  193.250   35.603    0.344    0.416   46.812
