~VERSION INFORMATION
 VERS.                 2.0:   CWLS LOG ASCII STANDARD -VERSION 2.0
 WRAP.                  NO:   ONE LINE PER DEPTH STEP
~WELL INFORMATION BLOCK
#MNEM.UNIT           DATA                    DESCRIPTION OF MNEMONIC
#---------    -------------------            -------------------------------
# Generated from Intellog Unique Number	CS_73_76/WELL/701
WELL.         ALLIED ROXANA MINERALS LTD     : Well_name    - WELL
LOC .         00/06-35-073-14W4/0            : Location     - LOCATION
UWI .         00/06-35-073-14W4/0            : Uwi          - UNIQUE WELL ID
ENTR.         SP                             : Entered      - ENTERED BY
SRVC.         SCHLUMBERGER                   : Scn          - SERVICE COMPANY
STRT.M        335.28                         : top_depth    - START DEPTH
STOP.M        560.53                         : bot_depth    - STOP DEPTH
STEP.M        0.25                           : increment    - STEP LENGTH
 NULL. -999.2500:NULL Value
~CURVE INFORMATION BLOCK
#MNEM UNIT       ERCB CURVE CODE    CURVE DESCRIPTION
#-----------   ------------------   ----------------------------------
DEPT.M        00 001 00 00         : DEPTH        - DEPTH
GR  .API      00 310 00 00         : GR           - GAMMA RAY
DPHI.V/V      00 890 00 00         : PHID         - DENSITY POROSITY (SANDSTONE)
NPHI.V/V      00 330 00 00         : PHIN         - NEUTRON POROSITY (SANDSTONE)
ILD .OHMM     00 120 00 00         : RESD         - DEEP RESISTIVITY (DIL)
~PARAMETER INFORMATION
#MNEM.UNIT           DATA             DESCRIPTION OF MNEMONIC
#---------         -----------     ------------------------------
GL  .M        683.666              : gl           - GROUND LEVEL ELEVATION
EREF.M        686.714              : kb           - ELEVATION OF DEPTH REFERENCE
DATM.M        683.666              : datum        - DATUM ELEVATION
TDD .M        579.12               : tdd          - TOTAL DEPTH DRILLER
RUN .         ONE                  : Run          - RUN NUMBER
ENG .         BILL                 : Engineer     - RECORDING ENGINEER
WIT .         JIM                  : Witness      - WITNESSED BY
MUD .         GEL                  : Mud_type     - MUD TYPE
MATR.         SANDSTONE            : Logunit      - NEUTRON MATRIX
TMAX.C        15.5556              : BHT          - MAXIMUM RECORDED TEMPERATURE
BHTD.M        490.728              : BHTDEP       - MAXIMUM RECORDED TEMPERATURE
MATR.         1                    : LOGUNIT      - NEUTRON MATRIX
RMT .C        25                   : MDTP         - TEMPERATURE OF MUD
NEUT.         1                    : NEUTRON      - NEUTRON TYPE
RESI.         0                    : RESIST       - RESISTIVITY TYPE
RMC .OHMM     0.25                 : RMC          - RESISTIVITY OF MUD CAKE
RMF .OHMM     0.25                 : RMF          - RESISTIVITY OF MUD FILTRATE
SUFT.C        15                   : SUFT         - SURFACE TEMPERATURE
~A  DEPTH       GR     PHID     PHIN     RESD
# ...
  378.780   93.303    0.234    0.462    6.511
  379.030   95.499    0.217    0.467    6.831
  379.280   94.776    0.233    0.479    6.984
  379.530   94.404    0.225    0.467    6.945
  379.780   92.489    0.207    0.476    7.056
  380.030   88.546    0.206    0.496    7.316
  380.280   85.551    0.215    0.497    7.578
  380.530   83.609    0.226    0.492    7.843
  380.780   83.009    0.227    0.493    7.951
  381.030   86.337    0.190    0.502    7.737
  381.280   90.748    0.180    0.503    7.564
  381.530   94.788    0.194    0.507    7.102
  381.780   96.460    0.206    0.508    6.632
  382.030   93.575    0.205    0.536    6.382
  382.280   88.165    0.211    0.549    6.134
  382.530   84.011    0.212    0.563    6.185
  382.780   81.656    0.223    0.574    6.388
  383.030   79.399    0.241    0.539    6.600
  383.280   76.407    0.260    0.498    6.887
  383.530   73.976    0.274    0.495    7.070
  383.780   74.625    0.276    0.502    7.249
  384.030   76.603    0.271    0.509    7.381
  384.280   80.615    0.262    0.516    7.220
  384.530   83.117    0.253    0.502    6.962
  384.780   86.667    0.245    0.494    6.765
  385.030   88.212    0.237    0.483    6.591
  385.280   88.786    0.246    0.476    6.414
  385.530   88.855    0.247    0.502    6.471
  385.780   85.836    0.247    0.493    6.611
  386.030   83.391    0.230    0.473    6.655
  386.280   83.250    0.215    0.474    6.915
  386.530   80.171    0.218    0.488    7.145
  386.780   80.427    0.232    0.483    7.136
  387.030   79.298    0.244    0.479    7.031
  387.280   75.876    0.251    0.496    7.242
  387.530   71.067    0.265    0.511    7.580
  387.780   63.577    0.302    0.514    7.756
  388.030   55.398    0.320    0.501    8.028
  388.280   51.636    0.313    0.455    8.233
  388.530   53.982    0.295    0.421    8.377
  388.780   54.150    0.290    0.421    8.241
  389.030   53.132    0.300    0.430    8.115
  389.280   51.999    0.304    0.436    7.983
  389.530   50.597    0.314    0.448    7.850
  389.780   49.935    0.317    0.465    7.849
  390.030   50.002    0.326    0.457    7.844
  390.280   52.169    0.338    0.442    7.920
  390.530   53.187    0.327    0.442    7.925
  390.780   54.093    0.331    0.462    7.927
  391.030   53.016    0.326    0.476    7.920
  391.280   51.808    0.318    0.476    8.014
  391.530   50.502    0.316    0.455    8.006
  391.780   51.309    0.318    0.450    8.006
  392.030   54.388    0.324    0.441    8.007
  392.280   57.069    0.328    0.435    8.006
  392.530   58.658    0.327    0.431    8.091
  392.780   59.482    0.325    0.418    8.085
  393.030   59.424    0.319    0.418    8.084
  393.280   59.403    0.321    0.448    8.084
  393.530   59.315    0.325    0.473    8.084
  393.780   58.782    0.316    0.452    8.084
  394.030   58.515    0.310    0.449    8.084
  394.280   58.217    0.308    0.458    8.083
  394.530   58.199    0.320    0.454    8.083
  394.780   58.195    0.330    0.443    8.083
  395.030   58.189    0.335    0.461    8.083
  395.280   58.246    0.338    0.471    8.091
  395.530   57.508    0.332    0.478    7.994
  395.780   57.589    0.326    0.460    8.003
  396.030   56.942    0.331    0.456    8.002
  396.280   57.071    0.335    0.472    8.002
  396.530   58.095    0.337    0.493    8.002
  396.780   59.075    0.331    0.500    8.010
  397.030   60.095    0.327    0.482    7.916
  397.280   62.126    0.320    0.488    7.923
  397.530   63.157    0.333    0.496    7.922
  397.780   64.146    0.330    0.512    7.921
  398.030   67.069    0.331    0.527    7.922
  398.280   69.432    0.330    0.507    7.927
  398.530   72.429    0.322    0.484    7.840
  398.780   77.450    0.325    0.497    7.860
  399.030   80.775    0.324    0.504    7.669
  399.280   84.193    0.335    0.510    7.609
  399.530   83.915    0.342    0.551    7.525
  399.780   76.743    0.346    0.552    7.433
  400.030   70.428    0.339    0.517    7.448
  400.280   66.504    0.334    0.501    7.354
  400.530   66.545    0.338    0.486    7.361
  400.780   69.316    0.330    0.492    7.361
  401.030   75.191    0.329    0.516    7.361
  401.280   73.884    0.336    0.539    7.361
  401.530   67.377    0.344    0.548    7.359
  401.780   62.430    0.345    0.522    7.337
  402.030   60.429    0.340    0.508    7.280
  402.280   58.702    0.343    0.496    7.357
  402.530   59.446    0.343    0.491    7.444
  402.780   62.073    0.339    0.500    7.513
  403.030   62.144    0.342    0.520    7.525
  403.280   62.188    0.338    0.535    7.433
  403.530   61.699    0.334    0.530    7.438
  403.780   60.753    0.335    0.521    7.403
  404.030   59.080    0.339    0.530    7.360
  404.280   58.586    0.334    0.528    7.358
  404.530   58.921    0.323    0.510    7.352
  404.780   60.969    0.317    0.496    7.439
  405.030   63.379    0.322    0.508    7.438
  405.280   64.567    0.326    0.516    7.456
  405.530   63.932    0.324    0.518    7.592
  405.780   63.901    0.318    0.539    7.674
  406.030   64.867    0.320    0.547    7.764
  406.280   66.802    0.319    0.537    7.702
  406.530   67.271    0.322    0.541    7.231
  406.780   66.234    0.324    0.552    6.750
  407.030   66.248    0.312    0.557    6.286
  407.280   66.035    0.302    0.543    6.037
  407.530   64.994    0.289    0.557    6.003
  407.780   60.687    0.293    0.563    5.973
  408.030   57.545    0.299    0.535    6.416
  408.280   58.467    0.300    0.486    6.795
  408.530   61.457    0.294    0.491    7.077
  408.780   63.660    0.297    0.491    7.017
  409.030   66.648    0.286    0.480    6.743
  409.280   69.684    0.284    0.463    6.378
  409.530   71.146    0.272    0.453    6.216
  409.780   72.666    0.261    0.463    5.940
  410.030   71.957    0.246    0.458    5.766
  410.280   70.347    0.235    0.450    5.587
  410.530   70.262    0.233    0.451    5.379
  410.780   72.146    0.232    0.453    5.274
  411.030   76.407    0.234    0.450    5.281
  411.280   81.120    0.233    0.448    5.339
  411.530   83.648    0.228    0.460    5.376
  411.780   82.271    0.220    0.465    5.519
  412.030   81.585    0.220    0.455    5.534
  412.280   81.553    0.211    0.453    5.333
  412.530   82.683    0.204    0.483    5.209
  412.780   84.502    0.200    0.495    5.005
  413.030   86.899    0.207    0.487    4.700
  413.280   84.324    0.213    0.485    4.436
  413.530   82.722    0.229    0.482    4.168
  413.780   82.837    0.244    0.494    3.996
  414.030   83.984    0.249    0.531    3.723
  414.280   84.803    0.240    0.563    3.575
  414.530   85.137    0.233    0.586    3.527
  414.780   82.457    0.243    0.599    3.519
  415.030   77.173    0.252    0.616    3.630
  415.280   70.444    0.247    0.594    4.137
  415.530   66.993    0.264    0.532    4.508
  415.780   60.985    0.271    0.501    5.246
  416.030   55.584    0.290    0.494    5.618
  416.280   54.618    0.300    0.488    6.144
  416.530   56.038    0.306    0.510    6.660
  416.780   56.960    0.314    0.512    6.860
  417.030   57.975    0.319    0.510    6.876
  417.280   58.283    0.312    0.532    6.789
  417.530   58.660    0.307    0.523    6.845
  417.780   59.673    0.315    0.508    6.827
  418.030   60.611    0.311    0.488    6.633
  418.280   61.751    0.308    0.482    6.636
  418.530   63.908    0.297    0.493    6.505
  418.780   67.458    0.297    0.502    5.666
  419.030   70.930    0.291    0.504    4.821
  419.280   76.652    0.259    0.502    4.088
  419.530   83.546    0.213    0.520    3.356
  419.780   88.010    0.204    0.544    2.883
  420.030   86.070    0.213    0.582    2.636
  420.280   83.736    0.212    0.598    2.538
  420.530   80.550    0.227    0.607    3.010
  420.780   77.243    0.244    0.611    3.606
  421.030   70.996    0.278    0.584    4.597
  421.280   64.205    0.287    0.525    5.537
  421.530   62.896    0.294    0.445    6.893
  421.780   64.838    0.301    0.446    7.986
  422.030   68.314    0.310    0.464    7.905
