~VERSION INFORMATION
 VERS.                 2.0:   CWLS LOG ASCII STANDARD -VERSION 2.0
 WRAP.                  NO:   ONE LINE PER DEPTH STEP
~WELL INFORMATION BLOCK
#MNEM.UNIT           DATA                    DESCRIPTION OF MNEMONIC
#---------    -------------------            -------------------------------
# Generated from Intellog Unique Number	CC_80_83/WELL/1046
LOC .         00/03-03-081-10W4/0            : Location     - LOCATION
UWI .         00/03-03-081-10W400            : Uwi          - UNIQUE WELL ID
ENTR.         DW                             : Entered      - ENTERED BY
SRVC.         SCHLUMBERGER                   : Scn          - SERVICE COMPANY
STRT.M        250                            : top_depth    - START DEPTH
STOP.M        484.75                         : bot_depth    - STOP DEPTH
STEP.M        0.25                           : increment    - STEP LENGTH
 NULL. -999.2500:NULL Value
~CURVE INFORMATION BLOCK
#MNEM UNIT       ERCB CURVE CODE    CURVE DESCRIPTION
#-----------   ------------------   ----------------------------------
DEPT.M        00 001 00 00         : DEPTH        - DEPTH
GR  .API      00 310 00 00         : GR           - GAMMA RAY
DPHI.V/V      00 890 00 00         : PHID         - DENSITY POROSITY (SANDSTONE)
NPHI.V/V      00 330 00 00         : PHIN         - NEUTRON POROSITY (SANDSTONE)
ILD .OHMM     00 120 00 00         : RESD         - DEEP RESISTIVITY (DIL)
~PARAMETER INFORMATION
#MNEM.UNIT           DATA             DESCRIPTION OF MNEMONIC
#---------         -----------     ------------------------------
GL  .M        695                  : gl           - GROUND LEVEL ELEVATION
EREF.M        698.2                : kb           - ELEVATION OF DEPTH REFERENCE
DATM.M        698.2                : datum        - DATUM ELEVATION
TDD .M        492                  : tdd          - TOTAL DEPTH DRILLER
RUN .         ONE                  : Run          - RUN NUMBER
ENG .         BILL                 : Engineer     - RECORDING ENGINEER
WIT .         JIM                  : Witness      - WITNESSED BY
MUD .         GEL                  : Mud_type     - MUD TYPE
MATR.         SANDSTONE            : Logunit      - NEUTRON MATRIX
TMAX.C        27                   : BHT          - MAXIMUM RECORDED TEMPERATURE
BHTD.M        492                  : BHTDEP       - MAXIMUM RECORDED TEMPERATURE
MATR.         1                    : LOGUNIT      - NEUTRON MATRIX
RMT .C        25                   : MDTP         - TEMPERATURE OF MUD
NEUT.         1                    : NEUTRON      - NEUTRON TYPE
RESI.         0                    : RESIST       - RESISTIVITY TYPE
RMC .OHMM     0.25                 : RMC          - RESISTIVITY OF MUD CAKE
RMF .OHMM     0.25                 : RMF          - RESISTIVITY OF MUD FILTRATE
SUFT.C        15                   : SUFT         - SURFACE TEMPERATURE
~A  DEPTH       GR     PHID     PHIN     RESD
# ...
  293.500  107.556    0.267    0.409   16.831
  293.750   94.509    0.280    0.420   19.049
  294.000   84.085    0.318    0.435   19.220
  294.250   77.861    0.336    0.446   18.301
  294.500   79.460    0.330    0.415   16.721
  294.750   92.136    0.304    0.365   14.535
  295.000  104.424    0.258    0.381   12.826
  295.250  107.562    0.258    0.446   12.163
  295.500  106.899    0.263    0.472   12.038
  295.750  104.935    0.260    0.437   12.380
  296.000  104.857    0.258    0.412   12.595
  296.250  107.315    0.255    0.420   12.274
  296.500  108.784    0.245    0.408   12.120
  296.750  108.128    0.237    0.405   12.993
  297.000   95.857    0.242    0.435   15.352
  297.250   76.567    0.267    0.453   16.899
  297.500   65.731    0.286    0.441   17.349
  297.750   70.750    0.287    0.417   17.458
  298.000   82.762    0.281    0.403   16.513
  298.250   90.510    0.254    0.438   14.756
  298.500   95.327    0.244    0.436   13.341
  298.750   97.989    0.243    0.417   12.020
  299.000  100.283    0.234    0.410   10.749
  299.250  102.670    0.222    0.406    9.510
  299.500  102.324    0.213    0.411    8.233
  299.750   99.223    0.218    0.433    8.048
  300.000   96.199    0.253    0.445    8.309
  300.250   96.963    0.276    0.429    9.323
  300.500   95.810    0.279    0.416   11.799
  300.750   90.651    0.280    0.421   14.196
  301.000   88.954    0.276    0.418   14.448
  301.250   88.999    0.280    0.414   14.449
  301.500   87.961    0.284    0.410   14.349
  301.750   85.547    0.276    0.398   13.633
  302.000   89.439    0.267    0.384   11.609
  302.250   99.729    0.266    0.384    9.581
  302.500  105.469    0.266    0.415    9.634
  302.750  104.951    0.271    0.473   10.367
  303.000   92.635    0.270    0.481   11.989
  303.250   78.460    0.260    0.464   13.286
  303.500   77.306    0.245    0.448   13.819
  303.750   84.865    0.239    0.432   13.866
  304.000   86.347    0.250    0.426   13.385
  304.250   88.074    0.263    0.428   12.814
  304.500   87.746    0.258    0.458   11.567
  304.750   88.523    0.262    0.475   10.392
  305.000   92.916    0.278    0.466    9.389
  305.250   97.927    0.276    0.452    8.707
  305.500   98.348    0.256    0.448    9.102
  305.750   92.555    0.258    0.469    9.856
  306.000   87.946    0.280    0.483   10.745
  306.250   85.752    0.298    0.474   11.348
  306.500   84.681    0.304    0.456   11.513
  306.750   84.327    0.306    0.447   12.216
  307.000   85.004    0.305    0.447   14.222
  307.250   84.645    0.300    0.448   16.002
  307.500   70.054    0.307    0.436   17.067
  307.750   56.842    0.318    0.386   17.214
  308.000   52.654    0.323    0.372   16.604
  308.250   52.038    0.334    0.406   15.819
  308.500   52.530    0.361    0.415   15.660
  308.750   51.049    0.360    0.475   16.864
  309.000   55.202    0.346    0.467   19.082
  309.250   60.210    0.339    0.413   20.198
  309.500   61.610    0.338    0.400   21.056
  309.750   60.327    0.340    0.427   22.363
  310.000   58.212    0.342    0.440   22.628
  310.250   58.105    0.349    0.452   23.015
  310.500   58.437    0.355    0.460   23.103
  310.750   57.270    0.358    0.450   23.067
  311.000   55.922    0.355    0.431   23.073
  311.250   55.577    0.349    0.425   23.096
  311.500   54.998    0.350    0.435   23.081
  311.750   54.009    0.352    0.429   22.701
  312.000   52.329    0.354    0.422   22.605
  312.250   51.568    0.356    0.419   22.690
  312.500   52.089    0.355    0.418   22.541
  312.750   52.391    0.353    0.424   22.124
  313.000   51.782    0.353    0.432   21.792
  313.250   51.313    0.355    0.432   21.790
  313.500   49.948    0.358    0.429   21.779
  313.750   48.180    0.361    0.423   21.938
  314.000   46.869    0.361    0.427   22.512
  314.250   46.831    0.361    0.437   23.236
  314.500   47.943    0.363    0.437   23.562
  314.750   47.588    0.365    0.430   23.529
  315.000   45.559    0.368    0.422   23.926
  315.250   43.916    0.366    0.418   23.865
  315.500   43.313    0.361    0.418   23.425
  315.750   45.755    0.357    0.418   22.983
  316.000   52.398    0.353    0.422   22.241
  316.250   55.265    0.352    0.439   22.164
  316.500   50.343    0.351    0.439   22.831
  316.750   45.685    0.359    0.428   23.445
  317.000   45.891    0.369    0.424   23.600
  317.250   48.411    0.369    0.421   23.597
  317.500   50.416    0.363    0.410   23.586
  317.750   51.033    0.356    0.415   23.197
  318.000   50.347    0.351    0.400   23.109
  318.250   45.628    0.348    0.394   23.151
  318.500   38.925    0.350    0.410   23.150
  318.750   35.462    0.353    0.419   23.132
  319.000   36.409    0.347    0.408   23.153
  319.250   38.954    0.345    0.408   23.547
  319.500   42.516    0.344    0.406   23.643
  319.750   46.080    0.351    0.409   23.579
  320.000   47.098    0.356    0.413   23.664
  320.250   45.540    0.353    0.405   23.515
  320.500   44.607    0.356    0.399   22.708
  320.750   45.468    0.355    0.409   21.941
  321.000   48.151    0.348    0.418   21.791
  321.250   49.522    0.344    0.421   22.028
  321.500   48.203    0.351    0.423   22.562
  321.750   42.971    0.361    0.423   23.337
  322.000   36.280    0.360    0.422   24.100
  322.250   38.664    0.358    0.427   24.912
  322.500   41.657    0.357    0.425   25.448
  322.750   41.904    0.354    0.428   25.553
  323.000   40.928    0.354    0.429   25.569
  323.250   39.886    0.356    0.421   25.474
  323.500   39.450    0.360    0.424   25.053
  323.750   40.444    0.361    0.434   25.044
  324.000   41.927    0.359    0.440   25.056
  324.250   43.538    0.357    0.441   25.109
  324.500   40.125    0.355    0.445   24.914
  324.750   34.388    0.354    0.450   24.548
  325.000   35.623    0.353    0.442   24.590
  325.250   37.696    0.355    0.421   24.597
  325.500   40.340    0.359    0.424   24.593
  325.750   42.204    0.363    0.436   24.598
  326.000   40.910    0.363    0.446   24.602
  326.250   37.411    0.361    0.444   24.597
  326.500   34.900    0.358    0.423   24.605
  326.750   33.244    0.357    0.416   24.643
  327.000   32.758    0.359    0.414   24.267
  327.250   36.648    0.364    0.414   24.126
  327.500   39.954    0.369    0.417   24.044
  327.750   39.175    0.371    0.413   23.572
  328.000   39.344    0.371    0.395   23.230
  328.250   40.848    0.369    0.391   23.256
  328.500   42.421    0.363    0.416   22.931
  328.750   38.987    0.355    0.427   22.733
  329.000   37.119    0.356    0.418   22.839
  329.250   40.508    0.363    0.409   22.731
  329.500   41.854    0.363    0.398   22.359
  329.750   43.103    0.360    0.392   22.349
  330.000   41.873    0.356    0.395   22.372
  330.250   40.712    0.360    0.408   22.364
  330.500   40.312    0.365    0.414   22.370
  330.750   39.895    0.363    0.408   22.371
  331.000   39.887    0.359    0.407   22.374
  331.250   38.415    0.357    0.408   22.375
  331.500   36.224    0.359    0.406   22.382
  331.750   37.314    0.361    0.417   22.368
  332.000   40.359    0.360    0.433   22.415
  332.250   42.013    0.358    0.433   22.320
  332.500   42.393    0.356    0.423   21.956
  332.750   41.825    0.360    0.423   21.969
  333.000   41.987    0.365    0.435   21.720
  333.250   43.299    0.369    0.443   21.276
  333.500   44.910    0.371    0.424   21.131
  333.750   46.591    0.369    0.413   21.083
  334.000   48.085    0.365    0.450   20.729
  334.250   47.564    0.366    0.456   20.717
  334.500   47.157    0.365    0.446   20.758
  334.750   45.448    0.364    0.431   20.683
  335.000   42.275    0.364    0.429   20.897
  335.250   40.224    0.364    0.440   21.126
  335.500   41.075    0.363    0.439   20.740
  335.750   43.745    0.364    0.429   20.699
  336.000   45.665    0.364    0.434   21.046
  336.250   46.647    0.362    0.436   21.181
  336.500   46.481    0.361    0.429   21.176
  336.750   45.160    0.363    0.433   21.104
