~VERSION INFORMATION
 VERS.                 2.0:   CWLS LOG ASCII STANDARD -VERSION 2.0
 WRAP.                  NO:   ONE LINE PER DEPTH STEP
~WELL INFORMATION BLOCK
#MNEM.UNIT           DATA                    DESCRIPTION OF MNEMONIC
#---------    -------------------            -------------------------------
# Generated from Intellog Unique Number	CS_77_79/WELL/849
WELL.         ICGR LOCHIEL GRAHAM            : Well_name    - WELL
LOC .         00/03-34-078-05W4/0            : Location     - LOCATION
UWI .         00/03-34-078-05W4/0            : Uwi          - UNIQUE WELL ID
ENTR.         JHS                            : Entered      - ENTERED BY
SRVC.         SCHLUMBERGER                   : Scn          - SERVICE COMPANY
STRT.M        100                            : top_depth    - START DEPTH
STOP.M        360                            : bot_depth    - STOP DEPTH
STEP.M        0.25                           : increment    - STEP LENGTH
 NULL. -999.2500:NULL Value
~CURVE INFORMATION BLOCK
#MNEM UNIT       ERCB CURVE CODE    CURVE DESCRIPTION
#-----------   ------------------   ----------------------------------
DEPT.M        00 001 00 00         : DEPTH        - DEPTH
DPHI.V/V      00 890 00 00         : PHID         - DENSITY POROSITY (LIMESTONE)
NPHI.V/V      00 330 00 00         : PHIN         - NEUTRON POROSITY (LIMESTONE)
GR  .API      00 310 00 00         : GR           - GAMMA RAY
ILD .OHMM     00 120 00 00         : RESD         - DEEP RESISTIVITY (DIL)
RHOB.KG/M3    00 350 00 00         : DENS         - BULK DENSITY
~PARAMETER INFORMATION
#MNEM.UNIT           DATA             DESCRIPTION OF MNEMONIC
#---------         -----------     ------------------------------
GL  .M        528.9                : gl           - GROUND LEVEL ELEVATION
EREF.M        532.4                : kb           - ELEVATION OF DEPTH REFERENCE
DATM.M        532.4                : datum        - DATUM ELEVATION
TDD .M        367                  : tdd          - TOTAL DEPTH DRILLER
RUN .         ONE                  : Run          - RUN NUMBER
ENG .         BILL                 : Engineer     - RECORDING ENGINEER
WIT .         JIM                  : Witness      - WITNESSED BY
MUD .         GEL                  : Mud_type     - MUD TYPE
MATR.         LIMESTONE            : Logunit      - NEUTRON MATRIX
TMAX.C        17.2                 : BHT          - MAXIMUM RECORDED TEMPERATURE
BHTD.M        367                  : BHTDEP       - MAXIMUM RECORDED TEMPERATURE
MATR.         1                    : LOGUNIT      - NEUTRON MATRIX
RMT .C        25                   : MDTP         - TEMPERATURE OF MUD
NEUT.         1                    : NEUTRON      - NEUTRON TYPE
RESI.         0                    : RESIST       - RESISTIVITY TYPE
RMC .OHMM     0.25                 : RMC          - RESISTIVITY OF MUD CAKE
RMF .OHMM     0.25                 : RMF          - RESISTIVITY OF MUD FILTRATE
SUFT.C        15                   : SUFT         - SURFACE TEMPERATURE
~A  DEPTH     PHID     PHIN       GR     RESD     DENS
# ...
  246.000    0.280    0.498   79.443   14.213    0.000
  246.250    0.204    0.441   69.100   15.905    0.000
  246.500    0.154    0.365   59.373   16.223    0.000
  246.750    0.080    0.320   55.131   15.097    0.000
  247.000    0.093    0.290   64.914   14.037    0.000
  247.250    0.256    0.452   71.647   13.056    0.000
  247.500    0.278    0.438   77.161   12.373    0.000
  247.750    0.281    0.425   78.413   11.510    0.000
  248.000    0.273    0.416   78.441   10.902    0.000
  248.250    0.263    0.438   80.904    9.595    0.000
  248.500    0.251    0.453   81.531    8.138    0.000
  248.750    0.241    0.471   82.174    8.305    0.000
  249.000    0.251    0.470   84.025    8.626    0.000
  249.250    0.272    0.459   81.007    9.138    0.000
  249.500    0.290    0.436   77.984    9.145    0.000
  249.750    0.272    0.417   81.668    9.158    0.000
  250.000    0.243    0.413   94.509    8.364    0.000
  250.250    0.236    0.431   99.988    7.346    0.000
  250.500    0.223    0.475   97.540    6.948    0.000
  250.750    0.217    0.465   92.655    7.075    0.000
  251.000    0.223    0.446   89.597    7.339    0.000
  251.250    0.233    0.437   87.150    8.045    0.000
  251.500    0.239    0.446   88.361    8.192    0.000
  251.750    0.247    0.463   91.401    8.189    0.000
  252.000    0.260    0.471   85.907    8.186    0.000
  252.250    0.271    0.466   78.581    7.741    0.000
  252.500    0.250    0.457   77.354    7.459    0.000
  252.750    0.221    0.469   87.710    7.054    0.000
  253.000    0.227    0.487   94.410    6.311    0.000
  253.250    0.245    0.500   87.694    5.859    0.000
  253.500    0.256    0.512   85.247    5.645    0.000
  253.750    0.250    0.485   88.897    5.748    0.000
  254.000    0.227    0.475   92.547    5.853    0.000
  254.250    0.221    0.503   94.365    5.959    0.000
  254.500    0.218    0.523   94.969    6.068    0.000
  254.750    0.218    0.540   96.179    6.180    0.000
  255.000    0.223    0.517   96.781    6.064    0.000
  255.250    0.232    0.479   95.554    5.950    0.000
  255.500    0.234    0.471   96.762    5.627    0.000
  255.750    0.227    0.484   98.585    5.422    0.000
  256.000    0.223    0.491  101.016    5.128    0.000
  256.250    0.231    0.500  102.226    4.673    0.000
  256.500    0.247    0.519  101.001    4.420    0.000
  256.750    0.266    0.539   99.162    3.882    0.000
  257.000    0.263    0.523   97.324    3.672    0.000
  257.250    0.256    0.523   97.316    3.473    0.000
  257.500    0.251    0.543   94.259    3.471    0.000
  257.750    0.246    0.563   90.593    3.736    0.000
  258.000    0.258    0.538   88.146    4.748 2268.200
  258.250    0.261    0.501   85.090    5.816 2264.050
  258.500    0.203    0.470   77.765    6.865 2362.910
  258.750    0.186    0.452   77.146    7.388 2391.720
  259.000    0.205    0.468   86.894    7.250 2358.730
  259.250    0.221    0.479   91.763    6.731 2331.920
  259.500    0.227    0.479   88.095    6.367 2321.590
  259.750    0.234    0.491   84.428    5.911 2309.200
  260.000    0.239    0.502   83.812    5.590 2300.940
  260.250    0.215    0.480   89.291    5.486 2342.110
  260.500    0.202    0.469   93.551    5.690 2364.740
  260.750    0.219    0.484   88.665    5.794 2335.870
  261.000    0.261    0.516   81.340    6.010 2263.740
  261.250    0.263    0.520   81.331    6.119 2259.590
  261.500    0.242    0.492   87.420    6.117 2296.650
  261.750    0.239    0.479   93.510    6.115 2300.730
  262.000    0.248    0.480   95.938    6.342 2286.290
  262.250    0.247    0.486   93.491    6.579 2288.320
  262.500    0.242    0.467   91.654    6.823 2296.540
  262.750    0.244    0.451   86.768    7.077 2292.390
  263.000    0.245    0.461   83.103    7.206 2290.290
  263.250    0.242    0.471   82.485    7.204 2296.440
  263.500    0.238    0.482   84.305    7.201 2302.600
  263.750    0.236    0.490   84.298    7.198 2306.690
  264.000    0.229    0.491   84.898    7.330 2319.030
  264.250    0.215    0.490   83.671    7.603 2341.660
  264.500    0.194    0.477   79.394    7.600 2378.720
  264.750    0.148    0.450   75.727    7.597 2456.980
  265.000    0.219    0.438   75.110    7.595 2335.400
  265.250    0.271    0.464   75.712    7.316 2246.780
  265.500    0.294    0.466   79.969    7.047 2207.610
  265.750    0.288    0.454   81.792    7.046 2217.880
  266.000    0.290    0.447   83.003    6.787 2213.740
  266.250    0.289    0.453   83.603    6.301 2215.770
  266.500    0.260    0.457   83.594    5.960 2265.180
  266.750    0.226    0.453   85.414    4.953 2322.840
  267.000    0.211    0.463   87.238    4.271 2349.600
  267.250    0.231    0.483   89.670    3.822 2314.540
  267.500    0.231    0.472   87.831    3.357 2314.520
  267.750    0.247    0.471   82.945    2.895 2287.710
  268.000    0.277    0.542   84.765    2.543 2236.170
  268.250    0.272    0.583   89.026    2.495 2244.390
  268.500    0.264    0.598   85.969    2.404 2258.780
  268.750    0.271    0.574   82.911    2.403 2246.390
  269.000    0.281    0.543   81.073    2.402 2229.880
  269.250    0.286    0.533   78.626    2.401 2221.610
  269.500    0.295    0.529   75.570    2.400 2205.100
  269.750    0.284    0.509   81.658    2.444 2223.610
  270.000    0.275    0.496   84.090    2.582 2240.070
  270.250    0.272    0.506   87.740    2.779 2244.160
  270.500    0.264    0.527   88.951    2.991 2258.550
  270.750    0.245    0.542   85.285    3.341 2291.490
  271.000    0.232    0.530   82.837    3.871 2314.120
  271.250    0.218    0.500   87.706    4.485 2336.760
  271.500    0.211    0.482   89.528    4.918 2349.090
  271.750    0.224    0.465   88.300    5.594 2326.400
  272.000    0.235    0.440   85.852    6.021 2307.840
  272.250    0.218    0.412   84.015    6.361 2336.650
  272.500    0.211    0.422   82.787    6.242 2348.980
  272.750    0.233    0.438   82.169    5.904 2311.870
  273.000    0.239    0.440   88.868    5.482 2301.540
  273.250    0.238    0.468   96.178    4.997 2303.570
  273.500    0.244    0.492   95.559    4.389 2293.240
  273.750    0.239    0.492   88.232    4.228 2301.450
  274.000    0.230    0.475   86.396    3.999 2315.850
  274.250    0.218    0.462   86.996    3.924 2336.420
  274.500    0.218    0.481   93.087    3.850 2336.400
  274.750    0.215    0.478   99.784    3.778 2342.540
  275.000    0.226    0.467   97.949    3.777 2323.980
  275.250    0.220    0.485   96.110    3.707 2334.250
  275.500    0.213    0.504  100.978    3.637 2346.590
  275.750    0.228    0.496  103.409    3.504 2319.770
  276.000    0.238    0.496  102.183    3.503 2303.260
  276.250    0.238    0.510   96.688    3.567 2303.240
  276.500    0.225    0.523   93.020    3.700 2325.860
  276.750    0.213    0.540   87.524    3.982 2346.450
  277.000    0.248    0.503   88.127    4.286 2286.670
  277.250    0.245    0.468   85.675    4.875 2290.750
  277.500    0.244    0.437   85.061    5.445 2292.800
  277.750    0.233    0.424   88.707    5.860 2311.310
  278.000    0.228    0.445   91.140    5.858 2319.520
  278.250    0.224    0.455   93.572    5.644 2327.730
  278.500    0.215    0.438   94.782    5.538 2342.130
  278.750    0.198    0.425   92.336    5.744 2370.940
  279.000    0.162    0.442   83.792    6.298 2432.720
  279.250    0.036    0.432   75.856    7.434 2649.010
  279.500    0.036    0.336   72.800    8.302 2648.990
  279.750    0.104    0.302   72.791    8.935 2531.530
  280.000    0.192    0.321   80.100    8.768 2381.110
  280.250    0.207    0.404   86.189    8.293 2356.350
  280.500    0.218    0.401   81.912    7.420 2337.780
  280.750    0.243    0.380   73.978    6.398 2294.490
  281.000    0.253    0.370   67.872    5.416 2277.990
  281.250    0.244    0.395   75.181    4.670 2292.380
  281.500    0.232    0.423   85.538    4.417 2312.940
  281.750    0.225    0.451   93.456    4.415 2325.280
  282.000    0.229    0.456   89.789    4.664 2319.080
  282.250    0.266    0.384   70.270    4.839 2255.180
