~VERSION INFORMATION
 VERS.                 2.0:   CWLS LOG ASCII STANDARD -VERSION 2.0
 WRAP.                  NO:   ONE LINE PER DEPTH STEP
~WELL INFORMATION BLOCK
#MNEM.UNIT           DATA                    DESCRIPTION OF MNEMONIC
#---------    -------------------            -------------------------------
# Generated from Intellog Unique Number	CX_WELLS/WELL/3803
WELL.         06-26-086-18W4                 : Well_name    - WELL
LOC .         00/06-26-086-18W4/0            : Location     - LOCATION
UWI .         00/06-26-086-18W400            : Uwi          - UNIQUE WELL ID
ENTR.         T                              : Entered      - ENTERED BY
SRVC.         SCHLUMBERGER                   : Scn          - SERVICE COMPANY
DATE.         03/04/92                       : Date         - LOG DATE
STRT.M        75                             : top_depth    - START DEPTH
STOP.M        230                            : bot_depth    - STOP DEPTH
STEP.M        0.25                           : increment    - STEP LENGTH
 NULL. -999.2500:NULL Value
~CURVE INFORMATION BLOCK
#MNEM UNIT       ERCB CURVE CODE    CURVE DESCRIPTION
#-----------   ------------------   ----------------------------------
DEPT.M        00 001 00 00         : DEPTH        - DEPTH
GR  .API      00 310 00 00         : GR           - GAMMA RAY
NPHI.V/V      00 330 00 00         : PHIN         - NEUTRON POROSITY (SANDSTONE)
DPHI.V/V      00 890 00 00         : PHID         - DENSITY POROSITY (SANDSTONE)
ILD .OHMM     00 120 00 00         : RESD         - DEEP RESISTIVITY (DIL)
~PARAMETER INFORMATION
#MNEM.UNIT           DATA             DESCRIPTION OF MNEMONIC
#---------         -----------     ------------------------------
GL  .M        510.9                : gl           - GROUND LEVEL ELEVATION
EREF.M        510.9                : kb           - ELEVATION OF DEPTH REFERENCE
DATM.M        510.9                : datum        - DATUM ELEVATION
TDD .M        245                  : tdd          - TOTAL DEPTH DRILLER
RUN .         ONE                  : Run          - RUN NUMBER
ENG .         JO                   : Engineer     - RECORDING ENGINEER
WIT .         TIM                  : Witness      - WITNESSED BY
MUD .         GEL                  : Mud_type     - MUD TYPE
MATR.         SANDSTONE            : Logunit      - NEUTRON MATRIX
TMAX.C        22                   : BHT          - MAXIMUM RECORDED TEMPERATURE
BHTD.M        245                  : BHTDEP       - MAXIMUM RECORDED TEMPERATURE
RMT .C        20                   : MDTP         - TEMPERATURE OF MUD
MUDD.KG/M     1                    : MWT          - MUD DENSITY
NEUT.         1                    : NEUTRON      - NEUTRON TYPE
RESI.         0                    : RESIST       - RESISTIVITY TYPE
RM  .OHMM     5                    : RM           - RESISTIVITY OF MUD
RMC .OHMM     4.5                  : RMC          - RESISTIVITY OF MUD CAKE
RMF .OHMM     4.5                  : RMF          - RESISTIVITY OF MUD FILTRATE
SUFT.C        4                    : SUFT         - SURFACE TEMPERATURE
~A  DEPTH       GR     PHIN     PHID     RESD
# ...
  118.500   51.973    0.330    0.150   15.966
  118.750   50.832    0.275    0.109   20.763
  119.000   50.330    0.217    0.078   25.532
  119.250   50.354    0.187    0.036   29.684
  119.500   50.412    0.184    0.028   35.197
  119.750   50.470    0.179    0.024   36.560
  120.000   50.505    0.171    0.023   37.298
  120.250   51.134    0.166    0.022   36.655
  120.500   51.169    0.163    0.021   33.452
  120.750   51.797    0.174    0.044   31.074
  121.000   52.426    0.185    0.073   28.341
  121.250   53.638    0.210    0.097   25.361
  121.500   55.444    0.231    0.141   17.820
  121.750   57.249    0.290    0.212   17.178
  122.000   59.044    0.366    0.242   15.377
  122.250   60.243    0.422    0.255   13.769
  122.500   60.873    0.430    0.271   13.277
  122.750   62.084    0.418    0.270   12.578
  123.000   63.296    0.395    0.264   12.357
  123.250   63.342    0.389    0.246   12.140
  123.500   61.641    0.388    0.236   11.939
  123.750   59.940    0.384    0.227   11.726
  124.000   60.569    0.381    0.226   11.741
  124.250   61.209    0.410    0.228   11.756
  124.500   62.432    0.436    0.274   11.557
  124.750   63.644    0.440    0.284   11.569
  125.000   64.285    0.434    0.295   11.584
  125.250   64.891    0.433    0.302   11.388
  125.500   65.531    0.435    0.305   11.399
  125.750   65.589    0.440    0.306   11.210
  126.000   65.612    0.446    0.308   11.210
  126.250   66.265    0.451    0.316   11.038
  126.500   66.882    0.455    0.321   11.249
  126.750   66.940    0.451    0.321   11.264
  127.000   66.975    0.448    0.318   11.286
  127.250   67.045    0.446    0.314   11.297
  127.500   67.080    0.446    0.310   11.312
  127.750   67.114    0.448    0.309   11.323
  128.000   67.172    0.450    0.310   11.337
  128.250   66.648    0.440    0.310   11.142
  128.500   67.254    0.441    0.312   10.954
  128.750   68.465    0.450    0.314   10.964
  129.000   70.271    0.456    0.307   10.779
  129.250   70.900    0.461    0.285   10.789
  129.500   70.376    0.421    0.280   10.803
  129.750   70.399    0.355    0.221   11.025
  130.000   69.874    0.322    0.146   11.247
  130.250   69.921    0.297    0.141   11.474
  130.500   69.967    0.354    0.189   11.930
  130.750   70.025    0.398    0.248   12.396
  131.000   71.249    0.424    0.279   12.884
  131.250   72.448    0.430    0.287   12.901
  131.500   73.066    0.439    0.290   12.214
  131.750   73.707    0.441    0.289   10.940
  132.000   73.170    0.446    0.285   10.550
  132.250   73.217    0.451    0.284    9.803
  132.500   72.692    0.456    0.284    9.456
  132.750   72.716    0.458    0.286    9.471
  133.000   73.951    0.464    0.290    9.480
  133.250   73.985    0.469    0.291    9.854
  133.500   75.803    0.466    0.291    9.863
  133.750   75.826    0.461    0.291   10.259
  134.000   75.884    0.449    0.292   10.466
  134.250   75.942    0.448    0.295   10.677
  134.500   75.394    0.449    0.296   10.691
  134.750   74.870    0.449    0.295   10.704
  135.000   74.893    0.449    0.293   10.718
  135.250   76.116    0.456    0.290   10.736
  135.500   77.922    0.462    0.289   10.743
  135.750   78.539    0.458    0.289   10.959
  136.000   80.357    0.450    0.290   10.973
  136.250   80.963    0.450    0.292   10.988
  136.500   83.351    0.454    0.298   10.805
  136.750   84.551    0.467    0.303   10.612
  137.000   86.345    0.488    0.309    9.864
  137.250   86.974    0.495    0.311    8.994
  137.500   84.690    0.495    0.308    7.612
  137.750   81.835    0.490    0.268    7.073
  138.000   80.123    0.482    0.259    6.956
  138.250   77.839    0.460    0.250    7.094
  138.500   77.303    0.459    0.238    7.373
  138.750   77.944    0.455    0.238    7.522
  139.000   78.573    0.455    0.239    7.969
  139.250   79.213    0.458    0.244    8.283
  139.500   80.413    0.462    0.276    8.296
  139.750   81.636    0.467    0.301    8.148
  140.000   82.265    0.492    0.307    8.164
  140.250   82.906    0.498    0.302    8.018
  140.500   83.512    0.506    0.293    7.887
  140.750   84.746    0.514    0.284    7.744
  141.000   84.770    0.511    0.272    7.470
  141.250   85.981    0.502    0.267    7.205
  141.500   86.633    0.495    0.259    6.952
  141.750   87.274    0.487    0.260    6.963
  142.000   87.297    0.475    0.262    7.377
  142.250   85.596    0.466    0.260    7.809
  142.500   81.565    0.456    0.249    8.423
  142.750   78.128    0.443    0.239    9.437
  143.000   78.757    0.432    0.248   10.179
  143.250   78.803    0.436    0.272   11.190
  143.500   78.255    0.439    0.297   11.858
  143.750   75.401    0.443    0.308   12.097
  144.000   74.271    0.450    0.308   12.113
  144.250   73.152    0.454    0.304   12.124
  144.500   73.781    0.451    0.305   12.140
  144.750   75.575    0.446    0.307   12.156
  145.000   77.392    0.440    0.310   11.946
  145.250   77.998    0.435    0.311   11.962
  145.500   78.639    0.435    0.310   11.977
  145.750   79.291    0.440    0.308   11.997
  146.000   79.909    0.450    0.307   12.243
  146.250   80.526    0.456    0.303   12.251
  146.500   81.166    0.456    0.300   12.271
  146.750   81.796    0.452    0.295   12.282
  147.000   83.007    0.445    0.273   12.306
  147.250   84.801    0.440    0.268   12.318
  147.500   86.595    0.440    0.245   12.106
  147.750   88.972    0.439    0.243   11.249
  148.000   91.349    0.443    0.247   10.657
  148.250   92.572    0.450    0.254   10.466
  148.500   93.783    0.456    0.259    9.729
  148.750   93.841    0.461    0.265    9.211
  149.000   94.447    0.455    0.261    8.884
  149.250   94.505    0.448    0.250    8.573
  149.500   94.540    0.447    0.245    8.422
  149.750   95.192    0.448    0.246    8.433
  150.000   95.227    0.449    0.249    8.441
  150.250   95.297    0.448    0.257    8.455
  150.500   95.320    0.448    0.265    8.309
  150.750   94.796    0.448    0.260    8.320
  151.000   93.094    0.451    0.252    8.331
  151.250   91.964    0.454    0.254    8.344
  151.500   89.692    0.460    0.277    8.507
  151.750   86.826    0.462    0.280    8.524
  152.000   83.389    0.466    0.287    8.693
  152.250   80.511    0.472    0.296    9.038
  152.500   78.798    0.476    0.303    9.218
  152.750   73.602    0.478    0.305    9.768
  153.000   69.559    0.478    0.309    9.965
  153.250   65.528    0.478    0.311   10.162
  153.500   67.333    0.474    0.305   10.364
  153.750   69.721    0.448    0.226   10.577
  154.000   70.339    0.439    0.208   10.587
  154.250   72.144    0.413    0.237   10.807
  154.500   73.356    0.395    0.282   10.818
  154.750   75.721    0.420    0.291   11.043
  155.000   78.098    0.449    0.288   11.262
  155.250   78.144    0.462    0.288   11.931
  155.500   79.379    0.479    0.292   11.942
  155.750   79.996    0.459    0.294   11.954
  156.000   81.790    0.448    0.263   11.756
  156.250   83.002    0.454    0.262   11.336
  156.500   83.631    0.469    0.269   10.732
  156.750   83.689    0.479    0.280   10.348
  157.000   82.011    0.474    0.285    9.982
  157.250   82.046    0.472    0.281    9.635
  157.500   81.498    0.470    0.261    9.463
  157.750   81.533    0.469    0.259    9.475
  158.000   81.580    0.468    0.254    9.312
  158.250   82.243    0.468    0.254    8.985
  158.500   82.849    0.470    0.280    8.830
  158.750   84.643    0.479    0.306    8.517
  159.000   85.855    0.490    0.310    8.216
  159.250   87.067    0.500    0.299    7.925
  159.500   88.861    0.491    0.277    7.507
  159.750   88.325    0.474    0.256    7.378
  160.000   87.206    0.475    0.246    7.385
  160.250   85.516    0.479    0.218    7.395
  160.500   84.386    0.474    0.212    7.689
  160.750   82.685    0.460    0.202    7.986
  161.000   83.314    0.441    0.193    8.620
  161.250   87.462    0.434    0.194    8.957
  161.500   88.673    0.441    0.203    9.309
  161.750   87.554    0.448    0.210    9.679
