~VERSION INFORMATION
 VERS.                 2.0:   CWLS LOG ASCII STANDARD -VERSION 2.0
 WRAP.                  NO:   ONE LINE PER DEPTH STEP
~WELL INFORMATION BLOCK
#MNEM.UNIT           DATA                    DESCRIPTION OF MNEMONIC
#---------    -------------------            -------------------------------
# Generated from Intellog Unique Number	CX_WELLS/WELL/1049
LOC .         00/03-10-088-03W4/0            : Location     - LOCATION
UWI .         00/03-10-088-03W400            : Uwi          - UNIQUE WELL ID
ENTR.         TIM                            : Entered      - ENTERED BY
SRVC.         SCHLUMBERGER                   : Scn          - SERVICE COMPANY
STRT.F        100                            : top_depth    - START DEPTH
STOP.F        689.731                        : bot_depth    - STOP DEPTH
STEP.F        0.82                           : increment    - STEP LENGTH
 NULL. -999.2500:NULL Value
~CURVE INFORMATION BLOCK
#MNEM UNIT       ERCB CURVE CODE    CURVE DESCRIPTION
#-----------   ------------------   ----------------------------------
DEPT.F        00 001 00 00         : DEPTH        - DEPTH
GR  .API      00 310 00 00         : GR           - GAMMA RAY
NPHI.V/V      00 330 00 00         : PHIN         - NEUTRON POROSITY (SANDSTONE)
DPHI.V/V      00 890 00 00         : PHID         - DENSITY POROSITY (SANDSTONE)
ILD .OHMM     00 120 00 00         : RESD         - DEEP RESISTIVITY (DIL)
~PARAMETER INFORMATION
#MNEM.UNIT           DATA             DESCRIPTION OF MNEMONIC
#---------         -----------     ------------------------------
GL  .M        474.269              : gl           - GROUND LEVEL ELEVATION
EREF.M        475.488              : kb           - ELEVATION OF DEPTH REFERENCE
DATM.M        475.488              : datum        - DATUM ELEVATION
TDD .M        213.97               : tdd          - TOTAL DEPTH DRILLER
RUN .         ONE                  : Run          - RUN NUMBER
ENG .         BILL                 : Engineer     - RECORDING ENGINEER
WIT .         JIM                  : Witness      - WITNESSED BY
MUD .         GEL                  : Mud_type     - MUD TYPE
MATR.         SANDSTONE            : Logunit      - NEUTRON MATRIX
TMAX.C        21.1111              : BHT          - MAXIMUM RECORDED TEMPERATURE
BHTD.M        213.97               : BHTDEP       - MAXIMUM RECORDED TEMPERATURE
MATR.         1                    : LOGUNIT      - NEUTRON MATRIX
RMT .C        25                   : MDTP         - TEMPERATURE OF MUD
NEUT.         1                    : NEUTRON      - NEUTRON TYPE
RESI.         0                    : RESIST       - RESISTIVITY TYPE
RMC .OHMM     0.25                 : RMC          - RESISTIVITY OF MUD CAKE
RMF .OHMM     0.25                 : RMF          - RESISTIVITY OF MUD FILTRATE
SUFT.C        15                   : SUFT         - SURFACE TEMPERATURE
~A  DEPTH       GR     PHIN     PHID     RESD
# ...
  385.433  114.023    0.540    0.272    7.554
  386.253  111.074    0.543    0.273    7.567
  387.073  109.285    0.533    0.274    7.722
  387.894  106.317    0.516    0.271    8.494
  388.714  103.958    0.505    0.252    9.165
  389.534  100.381    0.506    0.197   10.258
  390.354   95.586    0.501    0.107   12.376
  391.175   91.401    0.437    0.077   13.603
  391.995   87.215    0.398    0.108   13.627
  392.815   84.875    0.371    0.133   13.153
  393.635   91.650    0.388    0.153   12.238
  394.455   95.380    0.414    0.184   11.387
  395.276   97.911    0.439    0.252   10.991
  396.096   99.205    0.453    0.264   10.803
  396.916  100.519    0.482    0.205   10.826
  397.736  104.287    0.495    0.201   10.641
  398.556  106.781    0.502    0.254   11.072
  399.377  109.902    0.507    0.282   11.086
  400.197  112.414    0.504    0.270   11.540
  401.017  113.728    0.501    0.265   11.550
  401.837  113.214    0.500    0.269   11.570
  402.657  112.644    0.498    0.273   11.590
  403.478  112.150    0.493    0.278   11.396
  404.298  111.598    0.491    0.274   11.206
  405.118  111.694    0.489    0.267   11.024
  405.938  111.142    0.491    0.261   10.645
  406.759  111.257    0.490    0.251   10.659
  407.579  114.359    0.490    0.242   10.297
  408.399  119.916    0.491    0.237   10.306
  409.219  122.486    0.491    0.247   10.138
  410.039  122.543    0.494    0.255    9.969
  410.860  122.601    0.498    0.257    9.618
  411.680  123.305    0.501    0.256    9.113
  412.500  123.363    0.508    0.257    8.475
  413.320  124.068    0.519    0.257    7.322
  414.140  125.362    0.537    0.258    6.684
  414.961  126.067    0.553    0.257    5.993
  415.781  126.752    0.572    0.261    5.782
  416.601  126.220    0.573    0.263    5.581
  417.421  123.861    0.571    0.264    5.389
  418.241  122.111    0.574    0.268    5.398
  419.062  123.424    0.575    0.270    5.507
  419.882  124.129    0.574    0.271    5.624
  420.702  123.577    0.555    0.271    5.845
  421.522  121.865    0.523    0.268    5.964
  422.343  121.295    0.545    0.265    6.089
  423.163  120.762    0.573    0.260    6.100
  423.983  121.448    0.578    0.259    6.003
  424.803  123.999    0.573    0.259    5.789
  425.623  124.684    0.557    0.258    5.695
  426.444  124.741    0.549    0.242    5.600
  427.264  124.818    0.535    0.227    5.824
  428.084  126.112    0.522    0.228    6.166
  428.904  126.855    0.517    0.231    6.907
  429.724  124.458    0.511    0.229    7.734
  430.545  111.138    0.499    0.199    8.660
  431.365  108.151    0.484    0.175   10.261
  432.185   95.441    0.441    0.145   10.857
  433.005   82.730    0.402    0.105   13.106
  433.825   79.153    0.238    0.059   14.399
  434.646   75.576    0.203    0.090   18.719
  435.466   90.267    0.233    0.137   17.090
  436.286  100.124    0.254    0.191   15.034
  437.106  103.854    0.320    0.219   13.472
  437.927  108.213    0.416    0.250   12.759
  438.747  110.116    0.447    0.258   11.649
  439.567  110.212    0.474    0.263   10.843
  440.387  110.288    0.489    0.262   10.653
  441.207  110.346    0.496    0.258   10.291
  442.028  110.422    0.500    0.254   10.124
  442.848  111.146    0.500    0.253   10.133
  443.668  111.223    0.498    0.254   10.150
  444.488  110.709    0.496    0.256   10.363
  445.308  110.767    0.488    0.256   10.376
  446.129  110.824    0.479    0.256   10.398
  446.949  110.901    0.476    0.252   10.425
  447.769  110.997    0.476    0.255   10.247
  448.589  110.503    0.478    0.260   10.076
  449.409  109.951    0.483    0.281    9.903
  450.230  109.400    0.485    0.296    9.211
  451.050  108.278    0.482    0.289    7.384
  451.870  106.527    0.481    0.276    6.034
  452.690  102.989    0.547    0.278    5.208
  453.510  101.809    0.580    0.300    4.414
  454.331  100.078    0.592    0.312    3.812
  455.151  100.745    0.589    0.321    3.545
  455.971  101.449    0.588    0.316    3.425
  456.791  102.744    0.597    0.307    3.495
  457.612  105.294    0.598    0.293    3.632
  458.432  106.550    0.569    0.279    4.068
  459.252  107.845    0.557    0.273    4.390
  460.072  107.940    0.524    0.272    4.917
  460.892  108.036    0.509    0.267    5.208
  461.713  107.504    0.527    0.268    5.834
  462.533  108.170    0.519    0.273    6.297
  463.353  108.856    0.495    0.265    6.420
  464.173  109.580    0.499    0.257    6.552
  464.993  108.457    0.517    0.251    6.692
  465.814  106.688    0.512    0.236    6.580
  466.634  107.963    0.486    0.189    6.592
  467.454  108.059    0.454    0.058    6.856
  468.274   93.502    0.416    0.029    7.121
  469.094   86.881    0.358    0.021    8.130
  469.915   85.150    0.332    0.049    8.452
  470.735   90.688    0.405    0.084    8.158
  471.555  101.744    0.548    0.123    7.448
  472.375  110.365    0.557    0.150    7.054
  473.196  114.095    0.554    0.201    6.321
  474.016  117.863    0.553    0.230    5.776
  474.836  118.549    0.550    0.247    5.573
  475.656  116.209    0.550    0.257    5.381
  476.476  115.638    0.549    0.260    5.289
  477.297  114.497    0.550    0.266    5.298
  478.117  115.201    0.555    0.273    5.210
  478.937  117.124    0.583    0.280    5.219
  479.757  118.418    0.589    0.283    5.232
  480.577  119.694    0.586    0.289    5.145
  481.398  120.398    0.589    0.294    5.059
  482.218  121.084    0.598    0.290    4.974
  483.038  122.397    0.607    0.285    4.804
  483.858  122.493    0.605    0.272    4.814
  484.678  121.961    0.589    0.260    4.818
  485.499  119.621    0.518    0.246    5.009
  486.319  119.050    0.479    0.241    5.404
  487.139  117.300    0.465    0.243    6.283
  487.959  115.550    0.485    0.246    7.035
  488.780  116.254    0.504    0.243    6.921
  489.600  117.549    0.505    0.235    7.059
  490.420  115.209    0.494    0.224    7.342
  491.240  112.241    0.479    0.216    7.779
  492.060  109.863    0.452    0.219    8.239
  492.881  105.068    0.423    0.224    8.726
  493.701   99.075    0.417    0.230    9.071
  494.521   96.696    0.410    0.237    9.261
  495.341   96.792    0.408    0.244    9.281
  496.161   96.849    0.406    0.254    9.289
  496.982   96.945    0.402    0.245    9.305
  497.802   94.586    0.393    0.247    9.504
  498.622   90.990    0.390    0.260    9.516
  499.442   86.804    0.389    0.275    9.897
  500.262   78.965    0.389    0.285    9.914
  501.083   74.798    0.389    0.293    9.931
  501.903   74.266    0.389    0.294    9.770
  502.723   74.342    0.389    0.291    9.607
  503.543   75.028    0.394    0.289    9.446
  504.364   76.322    0.400    0.285    9.285
  505.184   78.835    0.405    0.284    8.966
  506.004   81.994    0.406    0.282    8.820
  506.824   82.680    0.404    0.272    8.835
  507.644   82.775    0.403    0.257    8.846
  508.465   82.833    0.404    0.253    8.862
  509.285   82.320    0.407    0.259    9.043
  510.105   81.768    0.408    0.264    9.059
  510.925   80.018    0.412    0.270    9.078
  511.745   79.486    0.422    0.270    9.098
  512.566   80.171    0.425    0.269    8.942
  513.386   82.113    0.420    0.270    8.793
  514.206   83.426    0.413    0.270    8.335
  515.026   83.465    0.407    0.270    8.196
  515.846   82.951    0.409    0.269    8.059
  516.667   81.220    0.412    0.269    7.928
  517.487   79.451    0.416    0.273    7.941
  518.307   77.111    0.411    0.275    7.955
  519.127   75.342    0.403    0.279    7.969
  519.948   71.194    0.397    0.279    7.982
  520.768   69.406    0.389    0.278    7.849
  521.588   65.829    0.374    0.278    7.718
  522.408   60.425    0.375    0.280    7.589
  523.228   61.111    0.382    0.283    7.325
  524.049   70.340    0.380    0.271    7.074
  524.869   78.942    0.376    0.278    6.831
  525.689   81.473    0.373    0.306    6.714
  526.509   79.723    0.374    0.311    6.731
  527.329   76.146    0.377    0.300    6.740
