~VERSION INFORMATION
 VERS.                 2.0:   CWLS LOG ASCII STANDARD -VERSION 2.0
 WRAP.                  NO:   ONE LINE PER DEPTH STEP
~WELL INFORMATION BLOCK
#MNEM.UNIT           DATA                    DESCRIPTION OF MNEMONIC
#---------    -------------------            -------------------------------
# Generated from Intellog Unique Number	CN_91_93/WELL/3193
WELL.         PARAMOUNT RESOURCES LTD.       : Well_name    - WELL
LOC .         00/06-02-092-19W4/0            : Location     - LOCATION
UWI .         00/06-02-092-19W4/0            : Uwi          - UNIQUE WELL ID
ENTR.         JOETTE                         : Entered      - ENTERED BY
SRVC.         COMPUTALOG                     : Scn          - SERVICE COMPANY
DATE.         04/14/92                       : Date         - LOG DATE
STRT.M        100                            : top_depth    - START DEPTH
STOP.M        267                            : bot_depth    - STOP DEPTH
STEP.M        0.25                           : increment    - STEP LENGTH
 NULL. -999.2500:NULL Value
~CURVE INFORMATION BLOCK
#MNEM UNIT       ERCB CURVE CODE    CURVE DESCRIPTION
#-----------   ------------------   ----------------------------------
DEPT.M        00 001 00 00         : DEPTH        - DEPTH
CALI.MM       00 280 01 00         : CAL          - CALIPER
GR  .API      00 310 00 00         : GR           - GAMMA RAY
NPHI.V/V      00 330 00 00         : PHIN         - NEUTRON POROSITY (SANDSTONE)
DPHI.V/V      00 890 00 00         : PHID         - DENSITY POROSITY (SANDSTONE)
ILD .OHMM     00 120 00 00         : RESD         - DEEP RESISTIVITY (DIL)
~PARAMETER INFORMATION
#MNEM.UNIT           DATA             DESCRIPTION OF MNEMONIC
#---------         -----------     ------------------------------
GL  .M        527.02               : gl           - GROUND LEVEL ELEVATION
EREF.M        530.82               : kb           - ELEVATION OF DEPTH REFERENCE
DATM.M        530.82               : datum        - DATUM ELEVATION
TDD .M        267.5                : tdd          - TOTAL DEPTH DRILLER
RUN .         ONE                  : Run          - RUN NUMBER
ENG .         JO                   : Engineer     - RECORDING ENGINEER
WIT .         TIM                  : Witness      - WITNESSED BY
MUD .         GEL                  : Mud_type     - MUD TYPE
MATR.         SANDSTONE            : Logunit      - NEUTRON MATRIX
TMAX.C        22                   : BHT          - MAXIMUM RECORDED TEMPERATURE
BHTD.M        267.5                : BHTDEP       - MAXIMUM RECORDED TEMPERATURE
RMT .C        11.1                 : MDTP         - TEMPERATURE OF MUD
MUDD.KG/M     1130                 : MWT          - MUD DENSITY
NEUT.         1                    : NEUTRON      - NEUTRON TYPE
RESI.         0                    : RESIST       - RESISTIVITY TYPE
RM  .OHMM     1.8                  : RM           - RESISTIVITY OF MUD
RMC .OHMM     1.8                  : RMC          - RESISTIVITY OF MUD CAKE
RMF .OHMM     5                    : RMF          - RESISTIVITY OF MUD FILTRATE
SUFT.C        4                    : SUFT         - SURFACE TEMPERATURE
~A  DEPTH      CAL       GR     PHIN     PHID     RESD
# ...
  173.000  223.321   81.209    0.345    0.051   29.902
  173.250  224.386   76.306    0.271    0.040   29.893
  173.500  225.462   75.100    0.291    0.056   28.190
  173.750  226.538   73.893    0.313    0.088   25.569
  174.000  227.625   72.070    0.330    0.186   24.585
  174.250  226.644   70.246    0.374    0.209   24.578
  174.500  223.604   69.033    0.251    0.142   24.572
  174.750  222.611   69.068    0.173    0.052   22.724
  175.000  222.681   71.558    0.204   -0.002   20.613
  175.250  222.717   86.409    0.310    0.121   17.296
  175.500  224.833   98.784    0.474    0.172   15.386
  175.750  225.886  109.307    0.470    0.191   12.911
  176.000  224.904  111.812    0.468    0.205   11.046
  176.250  223.922  116.771    0.418    0.199   10.831
  176.500  223.993  116.807    0.432    0.180   10.016
  176.750  225.046  113.756    0.449    0.178    9.263
  177.000  227.174  113.166    0.453    0.185    8.567
  177.250  227.209  114.429    0.443    0.190    8.400
  177.500  226.228  116.310    0.428    0.195    8.077
  177.750  223.188  118.190    0.443    0.196    7.920
  178.000  219.120  119.446    0.461    0.187    7.765
  178.250  216.092  121.943    0.477    0.180    7.762
  178.500  214.070  123.206    0.491    0.181    7.760
  178.750  212.071  115.827    0.528    0.178    7.910
  179.000  210.060  107.212    0.521    0.156    8.383
  179.250  210.096   94.277    0.462    0.102    9.237
  179.500  207.068   89.367    0.360    0.059   11.437
  179.750  211.219   97.420    0.336    0.086   11.659
  180.000  218.468  105.474    0.361    0.134   11.430
  180.250  224.700  109.220    0.372    0.179   11.428
  180.500  226.793  109.234    0.382    0.195   11.425
  180.750  226.852  110.504    0.393    0.193   11.646
  181.000  225.870  109.915    0.381    0.194   12.584
  181.250  223.860  106.232    0.359    0.196   13.336
  181.500  223.907  101.946    0.358    0.195   14.134
  181.750  224.971   98.264    0.401    0.195   14.691
  182.000  226.059   89.650    0.424    0.217   15.269
  182.250  224.037   77.331    0.439    0.192   16.826
  182.500  218.939   74.890    0.377    0.061   19.275
  182.750  216.929   82.944    0.238   -0.002   20.828
  183.000  224.190  102.109    0.412    0.089   20.027
  183.250  227.324  111.411    0.444    0.146   18.886
  183.500  226.342  111.433    0.442    0.188   16.799
  183.750  222.285  110.844    0.433    0.186   15.844
  184.000  221.292  109.020    0.447    0.186   13.556
  184.250  219.293  105.344    0.432    0.182   12.295
  184.500  219.328  101.676    0.408    0.175   11.823
  184.750  220.404  101.704    0.376    0.167   11.820
  185.000  221.492  107.288    0.382    0.157   11.817
  185.250  221.551  111.631    0.395    0.153   11.583
  185.500  224.673  114.135    0.425    0.171   11.808
  185.750  227.807  112.929    0.437    0.180   12.272
  186.000  230.941  109.863    0.421    0.175   12.511
  186.250  227.913  106.188    0.367    0.144   13.002
  186.500  225.879   99.426    0.366    0.121   13.517
  186.750  220.793  101.306    0.399    0.116   14.325
  187.000  219.800  103.186    0.397    0.123   15.479
  187.250  217.789  100.128    0.387    0.166   16.404
  187.500  214.773   93.983    0.380    0.194   17.049
  187.750  214.797   99.567    0.407    0.207   17.046
  188.000  214.856  103.306    0.430    0.212   17.039
  188.250  218.001  100.858    0.452    0.219   16.070
  188.500  220.106  101.511    0.454    0.215   14.861
  188.750  224.257  106.485    0.423    0.197   14.573
  189.000  226.362  108.358    0.402    0.191   14.012
  189.250  227.462  109.621    0.419    0.191   13.473
  189.500  227.497  110.884    0.442    0.189   12.955
  189.750  227.544  112.764    0.445    0.189   12.951
  190.000  227.579  111.558    0.419    0.202   13.460
  190.250  226.609  104.796    0.396    0.209   13.722
  190.500  224.587   99.885    0.356    0.203   14.262
  190.750  219.502   96.827    0.351    0.193   14.538
  191.000  218.520   99.942    0.359    0.170   14.535
  191.250  218.579  104.916    0.376    0.144   13.705
  191.500  217.574  108.641    0.387    0.149   12.926
  191.750  217.621  112.990    0.402    0.186   12.429
  192.000  217.680  113.026    0.435    0.197   11.950
  192.250  218.756  110.578    0.505    0.203   11.948
  192.500  219.843  106.902    0.479    0.197   12.177
  192.750  219.867  107.548    0.441    0.182   12.657
  193.000  217.856  106.959    0.416    0.172   12.903
  193.250  215.858  101.431    0.431    0.154   13.674
  193.500  214.864   86.026    0.294    0.087   14.213
  193.750  214.911   81.116    0.260    0.103   13.402
  194.000  216.023   90.404    0.408    0.170   11.693
  194.250  216.046  109.576    0.442    0.208    9.077
  194.500  216.105  120.099    0.542    0.208    7.185
  194.750  217.169  120.745    0.561    0.197    6.268
  195.000  217.216  117.069    0.619    0.189    6.146
  195.250  217.275  111.541    0.617    0.172    7.040
  195.500  219.380   98.606    0.597    0.125    9.064
  195.750  221.473   91.226    0.396    0.117   11.224
  196.000  225.636   89.410    0.434    0.132   11.441
  196.250  228.770   93.752    0.499    0.172   10.789
  196.500  229.846  100.571    0.495    0.186    9.978
  196.750  230.922  107.397    0.489    0.190    9.594
  197.000  230.969  109.284    0.480    0.195    9.780
  197.250  228.970  109.298    0.471    0.196    9.970
  197.500  227.988  108.717    0.463    0.185   10.163
  197.750  225.978  106.893    0.495    0.165   10.770
  198.000  223.979  104.445    0.465    0.108   11.414
  198.250  222.985   89.040    0.332    0.027   12.824
  198.500  223.033   79.808    0.322    0.003   14.408
  198.750  223.068   82.306    0.376    0.075   16.187
  199.000  223.127   92.829    0.421    0.170   15.872
  199.250  223.186   94.709    0.434    0.194   15.262
  199.500  224.262   99.683    0.429    0.194   14.674
  199.750  225.338  101.563    0.436    0.192   14.670
  200.000  226.402  101.592    0.431    0.197   14.665
  200.250  227.490  100.392    0.406    0.199   14.661
  200.500  228.566   98.561    0.428    0.184   14.945
  200.750  227.584   93.658    0.431    0.153   16.149
  201.000  224.545   94.921    0.365    0.124   17.452
  201.250  222.522   96.184    0.358    0.137   17.790
  201.500  219.483   97.447    0.464    0.162   16.136
  201.750  217.472   93.764    0.471    0.133   15.516
  202.000  218.548   87.619    0.311    0.115   16.767
  202.250  220.665   88.882    0.295    0.148   19.585
  202.500  221.729   91.387    0.344    0.171   22.004
  202.750  223.834   91.422    0.374    0.190   21.573
  203.000  223.893   89.585    0.414    0.135   20.744
  203.250  223.940   85.909    0.489    0.121   35.758
  203.500  223.975   76.684    0.419    0.082   49.763
  203.750  224.034   76.706    0.315    0.066   58.128
  204.000  224.081   76.734    0.293    0.052   59.253
  204.250  224.129   77.379    0.254    0.046   55.877
  204.500  225.228   81.736    0.289    0.043   49.702
  204.750  225.264   81.140    0.292    0.030   48.730
  205.000  226.328   74.995    0.274    0.013   49.677
  205.250  227.404   68.857    0.178    0.003   53.675
  205.500  227.451   67.644    0.199    0.032   54.721
  205.750  224.411   71.376    0.236    0.072   55.780
  206.000  215.199   76.967    0.277    0.142   47.726
  206.250  213.188   81.927    0.294    0.153   33.614
  206.500  214.264   88.746    0.262    0.184   21.480
  206.750  216.369   96.806    0.359    0.170   15.728
  207.000  218.474   93.131    0.442    0.127   13.457
  207.250  219.562   88.221    0.491    0.076   11.513
  207.500  221.667   95.039    0.437    0.105   10.857
  207.750  221.702  102.475    0.428    0.122   10.440
  208.000  222.778  108.677    0.428    0.167   10.438
  208.250  224.906  107.471    0.422    0.188   10.434
  208.500  224.942  105.647    0.414    0.176   10.431
  208.750  226.018  103.823    0.425    0.161   10.429
  209.000  226.065  101.382    0.423    0.127   10.839
  209.250  225.083   98.331    0.399    0.119   11.488
