~VERSION INFORMATION
 VERS.                 2.0:   CWLS LOG ASCII STANDARD -VERSION 2.0
 WRAP.                  NO:   ONE LINE PER DEPTH STEP
~WELL INFORMATION BLOCK
#MNEM.UNIT           DATA                    DESCRIPTION OF MNEMONIC
#---------    -------------------            -------------------------------
# Generated from Intellog Unique Number	CC_84_87/WELL/1056
NULL.         -999.25                        : NULL_VALUE
WELL.         PETROREP ET AL HOUSE           : Well_name    - WELL              
LOC .         04-30-084-14W4                 : Location     - LOCATION          
UWI .         00/04-30-084-14W400            : Uwi          - UNIQUE WELL ID    
ENTR.         JHS                            : Entered      - ENTERED BY        
SRVC.         COMPUTALOG                     : Scn          - SERVICE COMPANY   
DATE.         18 JAN 85                      : Date         - LOG DATE
STRT.M        100                            : top_depth    - START DEPTH       
STOP.M        265.001                        : bot_depth    - STOP DEPTH        
STEP.M        0.3                            : increment    - STEP LENGTH       
~CURVE INFORMATION BLOCK
#MNEM UNIT       ERCB CURVE CODE    CURVE DESCRIPTION
#-----------   ------------------   ----------------------------------
DEPT.M        00 001 00 00         : DEPTH        - DEPTH                       
DPHI.V/V      00 890 00 00         : PHID         - DENSITY POROSITY (LIMESTONE)
NPHI.V/V      00 330 00 00         : PHIN         - NEUTRON POROSITY (LIMESTONE)
GR  .API      00 310 00 00         : GR           - GAMMA RAY                   
ILD .OHMM     00 120 00 00         : RESD         - DEEP RESISTIVITY (DIL)      
~PARAMETER INFORMATION       
#MNEM.UNIT           DATA             DESCRIPTION OF MNEMONIC
#---------         -----------     ------------------------------
GL  .M        541.57               : gl           - GROUND LEVEL ELEVATION      
EREF.M        545.67               : kb           - ELEVATION OF DEPTH REFERENCE
DATM.M        545.67               : datum        - DATUM ELEVATION             
TDD .M        272                  : tdd          - TOTAL DEPTH DRILLER         
RUN .         ONE                  : Run          - RUN NUMBER                  
ENG .         BILL                 : Engineer     - RECORDING ENGINEER          
WIT .         JIM                  : Witness      - WITNESSED BY                
MUD .         GEL                  : Mud_type     - MUD TYPE                    
MATR.         LIMESTONE            : Logunit      - NEUTRON MATRIX              
TMAX.C        12                   : BHT          - MAXIMUM RECORDED TEMPERATURE
BHTD.M        272                  : BHTDEP       - MAXIMUM RECORDED TEMPERATURE
MATR.         1                    : LOGUNIT      - NEUTRON MATRIX              
RMT .C        25                   : MDTP         - TEMPERATURE OF MUD          
NEUT.         1                    : NEUTRON      - NEUTRON TYPE                
RESI.         0                    : RESIST       - RESISTIVITY TYPE            
RMC .OHMM     0.25                 : RMC          - RESISTIVITY OF MUD CAKE     
RMF .OHMM     0.25                 : RMF          - RESISTIVITY OF MUD FILTRATE 
SUFT.C        15                   : SUFT         - SURFACE TEMPERATURE         
~A  DEPTH     PHID     PHIN       GR     RESD
# ...
  152.201    0.377    0.414   53.892    6.916
  152.501    0.371    0.417   65.810    6.784
  152.801    0.342    0.471   87.734    5.221
  153.101    0.300    0.540   90.911    4.250
  153.401    0.297    0.537   76.591    4.017
  153.701    0.333    0.495   57.264    5.118
  154.001    0.365    0.469   55.443    7.713
  154.301    0.353    0.435   52.365    9.467
  154.601    0.321    0.423   48.669   11.838
  154.901    0.301    0.416   48.716   13.998
  155.201    0.348    0.421   53.153   13.731
  155.501    0.367    0.428   58.819   11.178
  155.801    0.347    0.475   70.745    8.603
  156.101    0.324    0.464   68.924    7.003
  156.401    0.350    0.431   65.224    6.999
  156.701    0.352    0.411   68.397    6.739
  157.001    0.334    0.487   71.583    6.252
  157.301    0.322    0.476   76.000    5.483
  157.601    0.315    0.470   83.552    4.900
  157.901    0.307    0.485   84.235    4.631
  158.201    0.315    0.446   64.907    4.895
  158.501    0.364    0.408   51.204    6.720
  158.801    0.364    0.449   48.765    9.942
  159.101    0.371    0.453   50.684   11.324
  159.401    0.376    0.433   52.608   11.748
  159.701    0.378    0.421   48.912   12.420
  160.001    0.388    0.406   50.214   13.128
  160.301    0.384    0.420   49.016   13.369
  160.601    0.379    0.450   50.319   13.117
  160.901    0.384    0.467   52.244   12.866
  161.201    0.402    0.477   49.174   12.861
  161.501    0.400    0.458   46.091   13.344
  161.801    0.386    0.395   43.016   14.642
  162.101    0.231    0.337   43.069   14.636
  162.401    0.121    0.252   59.992   13.326
  162.701    0.150    0.384   71.295   11.259
  163.001    0.274    0.482   73.847    9.165
  163.301    0.290    0.457   64.523    8.991
  163.601    0.313    0.450   63.950   10.242
  163.901    0.333    0.431   65.895   11.239
  164.201    0.328    0.434   65.926   10.821
  164.501    0.336    0.456   64.103   11.020
  164.801    0.354    0.449   61.653   10.811
  165.101    0.358    0.454   62.330   10.606
  165.401    0.355    0.474   64.256   11.004
  165.701    0.347    0.458   66.188   11.418
  166.001    0.343    0.436   66.858   11.412
  166.301    0.344    0.437   65.031   11.406
  166.601    0.334    0.449   66.333   10.385
  166.901    0.323    0.453   72.011    9.634
  167.201    0.335    0.448   72.063    8.771
  167.501    0.322    0.455   72.120    8.604
  167.801    0.294    0.462   74.679    8.441
  168.101    0.286    0.461   76.595    8.597
  168.401    0.286    0.450   78.514    8.124
  168.701    0.276    0.424   84.819    7.678
  169.001    0.274    0.424   89.244    7.256
  169.301    0.280    0.436   91.170    6.987
  169.601    0.280    0.446   89.349    6.984
  169.901    0.273    0.465   88.157    6.852
  170.201    0.265    0.463   86.954    6.849
  170.501    0.269    0.468   83.246    6.718
  170.801    0.280    0.460   84.550    6.469
  171.101    0.270    0.445   89.599    6.229
  171.401    0.256    0.463   96.535    5.672
  171.701    0.254    0.470   91.575    5.359
  172.001    0.276    0.432   83.507    5.458
  172.301    0.266    0.446   83.567    5.663
  172.601    0.261    0.474   85.478    6.099
  172.901    0.246    0.440   79.283    6.447
  173.201    0.203    0.409   75.583    6.444
  173.501    0.235    0.416   89.385    6.206
  173.801    0.313    0.437   94.437    5.546
  174.101    0.328    0.464   93.236    4.430
  174.401    0.319    0.500   84.539    4.109
  174.701    0.296    0.491   77.711    4.032
  175.001    0.279    0.496   78.404    4.183
  175.301    0.307    0.485   78.440    4.590
  175.601    0.320    0.461   72.247    5.228
  175.901    0.291    0.446   72.298    5.527
  176.201    0.281    0.441   82.344    5.628
  176.501    0.305    0.461   84.269    5.521
  176.801    0.318    0.472   76.822    5.417
  177.101    0.305    0.453   71.248    5.620
  177.401    0.288    0.436   68.171    6.168
  177.701    0.295    0.445   71.976    7.293
  178.001    0.335    0.452   77.649    7.708
  178.301    0.331    0.446   72.076    7.704
  178.601    0.314    0.474   67.758    7.559
  178.901    0.283    0.472   71.558    7.145
  179.201    0.254    0.455   80.362    6.626
  179.501    0.267    0.466   78.535    6.501
  179.801    0.287    0.475   80.460    6.144
  180.101    0.292    0.474   84.882    6.028
  180.401    0.285    0.465   85.569    5.696
  180.701    0.291    0.457   85.618    5.485
  181.001    0.288    0.463   88.159    5.282
  181.301    0.269    0.480   88.214    4.992
  181.601    0.269    0.485   87.647    4.897
  181.901    0.308    0.458   85.811    4.987
  182.201    0.313    0.414   77.737    5.174
  182.501    0.313    0.375   74.040    5.894
  182.801    0.370    0.368   80.340    7.100
  183.101    0.378    0.439   79.769    8.240
  183.401    0.356    0.468   77.946    8.711
  183.701    0.325    0.466   79.869    8.387
  184.001    0.314    0.469   74.299    7.356
  184.301    0.312    0.467   73.106    6.952
  184.601    0.336    0.452   70.648    6.821
  184.901    0.348    0.436   60.080    7.210
  185.201    0.356    0.431   58.255    8.060
  185.501    0.361    0.433   58.935    9.181
  185.801    0.349    0.452   60.239    9.527
  186.101    0.277    0.433   61.532   10.071
  186.401    0.169    0.352   59.081   10.645
  186.701    0.175    0.339   57.877   11.682
  187.001    0.329    0.395   58.570   12.580
  187.301    0.348    0.418   59.865   11.890
  187.601    0.343    0.440   61.166   10.826
  187.901    0.343    0.433   61.215    9.674
  188.201    0.350    0.421   61.895    8.973
  188.501    0.350    0.432   63.809    8.803
  188.801    0.343    0.437   63.871    8.637
  189.101    0.334    0.430   63.923    8.474
  189.401    0.334    0.427   65.837    8.313
  189.701    0.346    0.449   69.013    8.624
  190.001    0.349    0.450   69.702    8.782
  190.301    0.337    0.445   67.240    8.944
  190.601    0.332    0.434   62.922    8.940
  190.901    0.302    0.435   59.845    9.105
  191.201    0.249    0.290   57.393    9.446
  191.501    0.128    0.213   53.084   10.760
  191.801    0.044    0.204   53.752   13.967
  192.101    0.056    0.217   55.679   15.615
  192.401    0.107    0.234   58.853   14.483
  192.701    0.273    0.366   66.403   12.468
  193.001    0.338    0.443   67.075   10.341
  193.301    0.349    0.428   67.130    8.737
  193.601    0.346    0.428   69.055    8.572
  193.901    0.337    0.458   68.490    8.893
  194.201    0.315    0.456   69.786    8.889
  194.501    0.294    0.448   71.706    8.401
  194.801    0.302    0.438   74.884    7.940
  195.101    0.294    0.445   76.812    7.228
  195.401    0.289    0.441   75.611    6.961
  195.701    0.300    0.429   76.912    6.957
  196.001    0.294    0.434   76.337    6.954
  196.301    0.278    0.435   78.270    7.082
  196.601    0.270    0.431   76.445    7.212
  196.901    0.303    0.428   75.240    7.483
  197.201    0.319    0.420   72.789    8.210
  197.501    0.320    0.415   69.097    8.680
  197.801    0.304    0.439   66.643    8.839
  198.101    0.289    0.480   72.947    8.671
  198.401    0.282    0.472   75.511    8.195
  198.701    0.279    0.451   78.047    7.745
  199.001    0.271    0.445   86.847    7.051
  199.301    0.260    0.452   92.527    6.542
  199.601    0.248    0.448   90.706    5.955
  199.901    0.237    0.463   89.509    5.628
  200.201    0.242    0.474   90.175    5.419
  200.501    0.260    0.460   95.850    5.317
  200.801    0.265    0.450   95.908    5.314
  201.101    0.271    0.464   92.206    5.214
  201.401    0.279    0.461   89.133    5.309
  201.701    0.278    0.444   86.057    5.407
  202.001    0.281    0.448   79.865    5.610
  202.301    0.294    0.436   79.282    6.042
  202.601    0.297    0.424   76.835    6.630
  202.901    0.303    0.408   71.886    7.009
  203.201    0.349    0.381   69.468    7.690
  203.501    0.349    0.393   69.490    8.598
  203.801    0.334    0.437   69.557    9.978
  204.101    0.314    0.449   70.226   10.161
