~VERSION INFORMATION
 VERS.                 2.0:   CWLS LOG ASCII STANDARD -VERSION 2.0
 WRAP.                  NO:   ONE LINE PER DEPTH STEP
~WELL INFORMATION BLOCK
#MNEM.UNIT           DATA                    DESCRIPTION OF MNEMONIC
#---------    -------------------            -------------------------------
# Generated from Intellog Unique Number	CS_77_79/WELL/891
WELL.         BVX MERLAND DUNCAN             : Well_name    - WELL
LOC .         00/07-03-078-15W4/0            : Location     - LOCATION
UWI .         00/07-03-078-15W4/0            : Uwi          - UNIQUE WELL ID
ENTR.         JHS                            : Entered      - ENTERED BY
SRVC.         SCHLUMBERGER                   : Scn          - SERVICE COMPANY
STRT.M        180                            : top_depth    - START DEPTH
STOP.M        430                            : bot_depth    - STOP DEPTH
STEP.M        0.25                           : increment    - STEP LENGTH
 NULL. -999.2500:NULL Value
~CURVE INFORMATION BLOCK
#MNEM UNIT       ERCB CURVE CODE    CURVE DESCRIPTION
#-----------   ------------------   ----------------------------------
DEPT.M        00 001 00 00         : DEPTH        - DEPTH
DPHI.V/V      00 890 00 00         : PHID         - DENSITY POROSITY (LIMESTONE)
NPHI.V/V      00 330 00 00         : PHIN         - NEUTRON POROSITY (LIMESTONE)
GR  .API      00 310 00 00         : GR           - GAMMA RAY
ILD .OHMM     00 120 00 00         : RESD         - DEEP RESISTIVITY (DIL)
~PARAMETER INFORMATION
#MNEM.UNIT           DATA             DESCRIPTION OF MNEMONIC
#---------         -----------     ------------------------------
GL  .M        581.32               : gl           - GROUND LEVEL ELEVATION
EREF.M        584.77               : kb           - ELEVATION OF DEPTH REFERENCE
DATM.M        584.77               : datum        - DATUM ELEVATION
TDD .M        430                  : tdd          - TOTAL DEPTH DRILLER
RUN .         ONE                  : Run          - RUN NUMBER
ENG .         BILL                 : Engineer     - RECORDING ENGINEER
WIT .         JIM                  : Witness      - WITNESSED BY
MUD .         GEL                  : Mud_type     - MUD TYPE
MATR.         LIMESTONE            : Logunit      - NEUTRON MATRIX
TMAX.C        23                   : BHT          - MAXIMUM RECORDED TEMPERATURE
BHTD.M        430                  : BHTDEP       - MAXIMUM RECORDED TEMPERATURE
MATR.         1                    : LOGUNIT      - NEUTRON MATRIX
RMT .C        25                   : MDTP         - TEMPERATURE OF MUD
NEUT.         1                    : NEUTRON      - NEUTRON TYPE
RESI.         0                    : RESIST       - RESISTIVITY TYPE
RMC .OHMM     0.25                 : RMC          - RESISTIVITY OF MUD CAKE
RMF .OHMM     0.25                 : RMF          - RESISTIVITY OF MUD FILTRATE
SUFT.C        15                   : SUFT         - SURFACE TEMPERATURE
~A  DEPTH     PHID     PHIN       GR     RESD
# ...
  397.500    0.247    0.385   68.683   21.010
  397.750    0.260    0.369   64.965   23.100
  398.000    0.273    0.361   60.627   24.924
  398.250    0.289    0.353   62.466   25.411
  398.500    0.276    0.344   87.138   19.894
  398.750    0.255    0.345   98.848   18.111
  399.000    0.242    0.370   92.662   19.916
  399.250    0.247    0.380   79.069   23.173
  399.500    0.259    0.396   63.622   29.078
  399.750    0.270    0.406   51.265   33.834
  400.000    0.296    0.386   51.249   35.827
  400.250    0.297    0.358   67.899   33.871
  400.500    0.281    0.343   80.227   30.261
  400.750    0.267    0.370   76.503   27.034
  401.000    0.254    0.397   68.466   32.058
  401.250    0.267    0.412   60.429   38.737
  401.500    0.315    0.423   50.538   46.809
  401.750    0.333    0.383   42.499   56.560
  402.000    0.330    0.389   44.334   62.193
  402.250    0.325    0.391   48.021   62.236
  402.500    0.319    0.364   51.713   57.731
  402.750    0.300    0.357   61.573   45.195
  403.000    0.284    0.368   60.935   36.054
  403.250    0.276    0.385   59.070   31.607
  403.500    0.273    0.393   57.822   28.240
  403.750    0.278    0.368   68.299   25.229
  404.000    0.278    0.372   71.370   21.705
  404.250    0.289    0.401   71.354   19.391
  404.500    0.262    0.390   75.042   19.038
  404.750    0.236    0.390   76.263   23.007
  405.000    0.219    0.382   68.841   26.769
  405.250    0.190    0.355   53.395   32.348
  405.500    0.226    0.345   44.123   38.359
  405.750    0.294    0.369   48.427   41.385
  406.000    0.281    0.373   51.498   40.633
  406.250    0.271    0.362   53.335   39.895
  406.500    0.276    0.367   58.252   42.239
  406.750    0.303    0.399   53.921   48.236
  407.000    0.323    0.393   40.943   47.358
  407.250    0.336    0.375   35.375   42.309
  407.500    0.327    0.359   54.491   33.120
  407.750    0.265    0.339   71.758   18.114
  408.000    0.222    0.364   83.471   13.655
  408.250    0.222    0.384   72.960   11.972
  408.500    0.238    0.376   66.156   10.900
  408.750    0.254    0.377   61.205   10.113
  409.000    0.245    0.373   67.976    9.207
  409.250    0.237    0.365   72.900    8.541
  409.500    0.256    0.383   67.331    8.077
  409.750    0.269    0.360   78.425    8.081
  410.000    0.252    0.362   90.754    8.239
  410.250    0.237    0.371   95.677    8.243
  410.500    0.222    0.353   93.190    7.941
  410.750    0.226    0.379   83.918    6.833
  411.000    0.305    0.397   67.856    6.221
  411.250    0.305    0.350   51.177    6.107
  411.500    0.291    0.334   51.778    6.111
  411.750    0.286    0.358   49.294    6.114
  412.000    0.267    0.366   43.107    6.233
  412.250    0.237    0.347   77.654    6.726
  412.500    0.216    0.328   94.922    7.258
  412.750    0.199    0.346  102.930    7.980
  413.000    0.200    0.370  109.085    8.611
  413.250    0.190    0.384  113.392    8.779
  413.500    0.178    0.385  118.929    8.619
  413.750    0.161    0.370  120.764    8.624
  414.000    0.153    0.367  118.283    8.794
  414.250    0.151    0.369  113.329    9.137
  414.500    0.161    0.354  107.144    9.492
  414.750    0.170    0.340  105.276    9.498
  415.000    0.166    0.326  116.370    9.503
  415.250    0.146    0.335  121.909    9.874
  415.500    0.088    0.378  108.316   10.652
  415.750    0.000    0.342   93.487   11.070
  416.000    0.127    0.340  102.113   11.075
  416.250    0.164    0.352  115.058   11.507
  416.500    0.155    0.337  116.896   12.187
  416.750    0.149    0.346  115.028   11.962
  417.000    0.155    0.360  121.182   11.525
  417.250    0.174    0.361  120.549   10.896
  417.500    0.151    0.365  113.131   10.302
  417.750    0.117    0.378  105.093   10.115
  418.000    0.016    0.388   97.671    9.564
  418.250    0.021    0.358  100.125    9.041
  418.500    0.124    0.370  119.242    8.712
  418.750    0.168    0.409  123.545    9.052
  419.000    0.170    0.414  121.678    9.766
  419.250    0.163    0.391  124.750    9.957
  419.500    0.159    0.412  116.709   10.345
  419.750    0.166    0.398  107.437   11.377
  420.000    0.174    0.362  103.719   11.382
  420.250    0.155    0.333  108.022   10.966
  420.500    0.150    0.334  109.860   10.565
  420.750    0.159    0.322  109.846    9.620
  421.000    0.123    0.309  106.124    9.094
  421.250    0.078    0.327  107.345    8.599
  421.500    0.061    0.350  109.183    8.443
  421.750    0.048    0.366  105.465    8.446
  422.000    0.051    0.365  109.152    7.837
  422.250    0.083    0.372  113.458    7.840
  422.500    0.094    0.390  114.059    8.460
  422.750    0.090    0.360  106.017    8.791
  423.000    0.101    0.347  104.154    8.962
  423.250    0.109    0.354  105.370   10.235
  423.500    0.078    0.349  110.911   12.367
  423.750    0.058    0.328  112.747   14.119
  424.000    0.039    0.304  109.026   16.122
  424.250    0.031    0.247  108.397   17.069
  424.500    0.026    0.217  113.316   17.079
  424.750    0.019    0.243  111.453   18.779
  425.000    0.019    0.262  104.028   21.852
  425.250    0.036    0.280  101.546   24.483
  425.500    0.027    0.282  100.290   27.434
  425.750    0.016    0.285  100.280   30.164
  426.000    0.017    0.293  100.264   33.168
  426.250    0.034    0.289  100.249   33.821
  426.500    0.054    0.280  100.236   30.215
  426.750    0.065    0.273  100.214   21.119
  427.000    0.059    0.274  100.815   15.624
  427.250    0.043    0.278  100.801   15.341
  427.500    0.037    0.277  101.405   17.188
  427.750    0.034    0.273  102.009   21.979
  428.000    0.021    0.271  101.989   34.592
  428.250    0.005    0.273  101.973   47.700
  428.500    0.000    0.273  101.965   61.000
  428.750    0.001    0.272  101.943   69.649
  429.000    0.007    0.272  101.929   76.593
  429.250    0.012    0.272  101.915   79.587
  429.500    0.010    0.272  101.903   79.612
  429.750    0.018    0.273  101.883   78.165
  430.000    0.027    0.273  101.249   78.211
