~VERSION INFORMATION
 VERS.                 2.0:   CWLS LOG ASCII STANDARD -VERSION 2.0
 WRAP.                  NO:   ONE LINE PER DEPTH STEP
~WELL INFORMATION BLOCK
#MNEM.UNIT           DATA                    DESCRIPTION OF MNEMONIC
#---------    -------------------            -------------------------------
# Generated from Intellog Unique Number	CS_69_70/WELL/818
WELL.         ET AL TWEEDIE                  : Well_name    - WELL
LOC .         00/07-07-069-13W4/0            : Location     - LOCATION
UWI .         00/07-07-069-13W4/0            : Uwi          - UNIQUE WELL ID
ENTR.         SP                             : Entered      - ENTERED BY
SRVC.         SCHLUMBERGER                   : Scn          - SERVICE COMPANY
STRT.M        243.84                         : top_depth    - START DEPTH
STOP.M        438.59                         : bot_depth    - STOP DEPTH
STEP.M        0.25                           : increment    - STEP LENGTH
 NULL. -999.2500:NULL Value
~CURVE INFORMATION BLOCK
#MNEM UNIT       ERCB CURVE CODE    CURVE DESCRIPTION
#-----------   ------------------   ----------------------------------
DEPT.M        00 001 00 00         : DEPTH        - DEPTH
GR  .API      00 310 00 00         : GR           - GAMMA RAY
DPHI.V/V      00 890 00 00         : PHID         - DENSITY POROSITY (SANDSTONE)
NPHI.V/V      00 330 00 00         : PHIN         - NEUTRON POROSITY (SANDSTONE)
ILD .OHMM     00 120 00 00         : RESD         - DEEP RESISTIVITY (DIL)
~PARAMETER INFORMATION
#MNEM.UNIT           DATA             DESCRIPTION OF MNEMONIC
#---------         -----------     ------------------------------
GL  .M        548.03               : gl           - GROUND LEVEL ELEVATION
EREF.M        551.078              : kb           - ELEVATION OF DEPTH REFERENCE
DATM.M        548.03               : datum        - DATUM ELEVATION
TDD .M        446.532              : tdd          - TOTAL DEPTH DRILLER
RUN .         ONE                  : Run          - RUN NUMBER
ENG .         BILL                 : Engineer     - RECORDING ENGINEER
WIT .         JIM                  : Witness      - WITNESSED BY
MUD .         GEL                  : Mud_type     - MUD TYPE
MATR.         SANDSTONE            : Logunit      - NEUTRON MATRIX
TMAX.C        21.1111              : BHT          - MAXIMUM RECORDED TEMPERATURE
BHTD.M        446.532              : BHTDEP       - MAXIMUM RECORDED TEMPERATURE
MATR.         1                    : LOGUNIT      - NEUTRON MATRIX
RMT .C        25                   : MDTP         - TEMPERATURE OF MUD
NEUT.         1                    : NEUTRON      - NEUTRON TYPE
RESI.         0                    : RESIST       - RESISTIVITY TYPE
RMC .OHMM     0.25                 : RMC          - RESISTIVITY OF MUD CAKE
RMF .OHMM     0.25                 : RMF          - RESISTIVITY OF MUD FILTRATE
SUFT.C        15                   : SUFT         - SURFACE TEMPERATURE
~A  DEPTH       GR     PHID     PHIN     RESD
# ...
  330.840   73.645    0.304    0.508    2.472
  331.090   70.841    0.306    0.522    2.443
  331.340   67.814    0.314    0.532    2.410
  331.590   64.821    0.319    0.525    2.409
  331.840   62.930    0.324    0.514    2.416
  332.090   62.161    0.321    0.511    2.448
  332.340   62.309    0.316    0.507    2.515
  332.590   63.638    0.277    0.501    2.638
  332.840   64.485    0.264    0.487    2.521
  333.090   65.659    0.255    0.482    2.652
  333.340   68.159    0.249    0.475    2.856
  333.590   70.224    0.240    0.468    3.042
  333.840   72.401    0.247    0.481    3.136
  334.090   73.727    0.285    0.513    3.050
  334.340   71.325    0.306    0.529    2.938
  334.590   68.638    0.317    0.544    2.786
  334.840   65.355    0.323    0.531    2.756
  335.090   62.274    0.288    0.478    3.179
  335.340   59.052    0.209    0.443    3.856
  335.590   56.471    0.116    0.403    4.939
  335.840   55.298    0.075    0.248    6.289
  336.090   57.806    0.060    0.226    7.837
  336.340   61.554    0.045    0.241   10.429
  336.590   66.505    0.042    0.300   12.761
  336.840   71.025    0.076    0.347    9.368
  337.090   75.674    0.140    0.408    6.515
  337.340   79.708    0.184    0.491    5.230
  337.590   83.083    0.215    0.540    4.347
  337.840   86.382    0.244    0.549    3.791
  338.090   88.392    0.272    0.520    3.441
  338.340   90.087    0.264    0.509    3.375
  338.590   87.861    0.238    0.500    3.627
  338.840   87.242    0.221    0.496    3.881
  339.090   88.237    0.223    0.498    4.061
  339.340   89.606    0.228    0.506    4.226
  339.590   91.064    0.237    0.522    4.203
  339.840   92.214    0.229    0.537    4.001
  340.090   92.241    0.228    0.533    4.057
  340.340   91.992    0.232    0.514    4.092
  340.590   92.219    0.231    0.502    4.141
  340.840   92.947    0.225    0.495    4.175
  341.090   91.544    0.221    0.494    4.231
  341.340   92.383    0.221    0.500    4.332
  341.590   92.913    0.220    0.506    4.459
  341.840   93.021    0.218    0.510    4.509
  342.090   92.870    0.215    0.512    4.486
  342.340   92.596    0.214    0.510    4.404
  342.590   92.251    0.217    0.507    4.276
  342.840   91.056    0.229    0.504    4.102
  343.090   89.602    0.248    0.502    3.949
  343.340   87.889    0.245    0.506    3.810
  343.590   86.281    0.248    0.512    3.635
  343.840   84.721    0.258    0.517    3.548
  344.090   83.478    0.262    0.519    3.420
  344.340   83.461    0.269    0.525    3.306
  344.590   83.789    0.286    0.533    3.218
  344.840   84.086    0.279    0.538    3.133
  345.090   84.891    0.275    0.539    3.092
  345.340   86.219    0.283    0.536    3.112
  345.590   87.805    0.285    0.530    3.214
  345.840   89.276    0.273    0.525    3.320
  346.090   90.551    0.263    0.522    3.409
  346.340   91.825    0.255    0.526    3.570
  346.590   88.611    0.257    0.536    3.612
  346.840   87.324    0.266    0.544    3.510
  347.090   87.751    0.288    0.550    3.462
  347.340   89.082    0.276    0.558    3.499
  347.590   91.033    0.255    0.513    3.564
  347.840   92.848    0.232    0.486    3.688
  348.090   94.301    0.220    0.486    3.816
  348.340   95.687    0.215    0.503    3.925
  348.590   96.373    0.208    0.515    4.003
  348.840   96.516    0.200    0.506    4.053
  349.090   95.112    0.196    0.494    4.055
  349.340   95.399    0.202    0.509    3.973
  349.590   97.852    0.206    0.518    3.718
  349.840   99.094    0.220    0.523    3.573
  350.090   99.258    0.234    0.526    3.437
  350.340   98.585    0.238    0.527    3.371
  350.590   97.189    0.219    0.532    3.339
  350.840   96.422    0.205    0.535    3.379
  351.090   95.816    0.221    0.524    3.443
  351.340   95.778    0.225    0.519    3.569
  351.590   95.594    0.214    0.515    3.781
  351.840   94.414    0.219    0.503    3.925
  352.090   93.233    0.219    0.491    4.100
  352.340   93.741    0.215    0.487    4.198
  352.590   93.891    0.212    0.487    4.297
  352.840   93.575    0.213    0.486    4.336
  353.090   92.883    0.208    0.489    4.338
  353.340   92.114    0.204    0.493    4.302
  353.590   91.921    0.215    0.487    4.275
  353.840   91.565    0.215    0.492    4.262
  354.090   90.410    0.213    0.499    4.269
  354.340   88.443    0.213    0.498    4.308
  354.590   87.891    0.205    0.487    4.395
  354.840   88.411    0.204    0.475    4.548
  355.090   88.796    0.209    0.481    4.636
  355.340   88.820    0.208    0.492    4.704
  355.590   88.735    0.207    0.504    4.644
  355.840   88.613    0.208    0.502    4.534
  356.090   88.860    0.215    0.490    4.348
  356.340   89.952    0.223    0.481    4.180
  356.590   92.061    0.223    0.475    4.005
  356.840   93.392    0.216    0.485    3.791
  357.090   93.992    0.212    0.493    3.656
  357.340   93.372    0.208    0.500    3.540
  357.590   93.102    0.236    0.504    3.461
  357.840   93.330    0.259    0.504    3.388
  358.090   93.662    0.258    0.497    3.386
  358.340   93.262    0.246    0.491    3.457
  358.590   91.602    0.239    0.491    3.552
  358.840   91.130    0.243    0.508    3.600
  359.090   91.233    0.256    0.518    3.595
  359.340   90.668    0.271    0.524    3.560
  359.590   87.978    0.288    0.539    3.472
  359.840   83.911    0.299    0.559    3.351
  360.090   80.981    0.304    0.574    3.180
  360.340   77.603    0.310    0.582    2.995
  360.590   76.217    0.302    0.565    2.849
  360.840   72.606    0.295    0.544    2.700
  361.090   67.506    0.291    0.538    2.584
  361.340   61.247    0.296    0.541    2.485
  361.590   55.877    0.308    0.538    2.403
  361.840   55.003    0.304    0.525    2.349
  362.090   56.066    0.292    0.528    2.345
  362.340   57.149    0.280    0.547    2.483
  362.590   57.035    0.268    0.573    2.763
  362.840   54.867    0.227    0.464    3.294
  363.090   51.465    0.150    0.414    3.985
  363.340   48.360    0.064    0.271    5.295
  363.590   46.077    0.036    0.226    7.296
  363.840   44.766    0.071    0.253    8.673
  364.090   45.186    0.090    0.274    7.958
  364.340   45.858    0.123    0.308    6.227
  364.590   49.510    0.187    0.365    4.565
  364.840   52.176    0.248    0.437    3.659
  365.090   54.166    0.281    0.491    3.049
  365.340   55.963    0.307    0.503    2.601
  365.590   56.870    0.326    0.491    2.313
  365.840   57.592    0.325    0.508    2.063
  366.090   58.309    0.319    0.523    1.896
  366.340   59.581    0.315    0.533    1.856
  366.590   60.988    0.310    0.540    1.845
  366.840   61.794    0.305    0.542    1.844
  367.090   62.960    0.319    0.536    1.847
  367.340   63.852    0.315    0.531    1.864
  367.590   64.227    0.308    0.524    1.874
  367.840   63.697    0.323    0.519    1.885
  368.090   63.902    0.336    0.518    1.888
  368.340   64.584    0.336    0.545    1.901
  368.590   65.876    0.334    0.553    1.903
  368.840   66.140    0.332    0.586    1.904
  369.090   66.424    0.325    0.612    1.908
  369.340   66.590    0.314    0.635    1.905
  369.590   66.596    0.318    0.646    1.910
  369.840   66.748    0.324    0.649    1.913
  370.090   67.118    0.326    0.650    1.919
  370.340   67.653    0.322    0.649    1.942
  370.590   68.439    0.316    0.648    1.956
  370.840   68.953    0.315    0.645    1.984
  371.090   69.655    0.318    0.643    2.043
  371.340   69.980    0.317    0.663    2.061
  371.590   70.083    0.309    0.680    2.076
  371.840   69.283    0.302    0.691    2.086
  372.090   69.476    0.311    0.702    2.088
  372.340   70.802    0.328    0.708    2.074
  372.590   71.873    0.327    0.714    2.059
  372.840   72.677    0.315    0.717    2.046
  373.090   73.290    0.305    0.718    2.052
  373.340   73.203    0.308    0.719    2.080
  373.590   75.167    0.315    0.718    2.129
  373.840   78.606    0.308    0.716    2.181
  374.090   83.409    0.290    0.717    2.262
