~VERSION INFORMATION
 VERS.                 2.0:   CWLS LOG ASCII STANDARD -VERSION 2.0
 WRAP.                  NO:   ONE LINE PER DEPTH STEP
~WELL INFORMATION BLOCK
#MNEM.UNIT           DATA                    DESCRIPTION OF MNEMONIC
#---------    -------------------            -------------------------------
# Generated from Intellog Unique Number	CS_67_68/WELL/2186
WELL.         GLOBEL ATMORE                  : Well_name    - WELL
LOC .         00/08-26-067-18W4/0            : Location     - LOCATION
UWI .         00/08-26-067-18W4/0            : Uwi          - UNIQUE WELL ID
ENTR.         JHS                            : Entered      - ENTERED BY
SRVC.         SCHLUMBERGER                   : Scn          - SERVICE COMPANY
STRT.M        350                            : top_depth    - START DEPTH
STOP.M        560                            : bot_depth    - STOP DEPTH
STEP.M        0.25                           : increment    - STEP LENGTH
 NULL. -999.2500:NULL Value
~CURVE INFORMATION BLOCK
#MNEM UNIT       ERCB CURVE CODE    CURVE DESCRIPTION
#-----------   ------------------   ----------------------------------
DEPT.M        00 001 00 00         : DEPTH        - DEPTH
DPHI.V/V      00 890 00 00         : PHID         - DENSITY POROSITY (LIMESTONE)
NPHI.V/V      00 330 00 00         : PHIN         - NEUTRON POROSITY (LIMESTONE)
CALI.MM       00 280 01 00         : CAL          - CALIPER
GR  .API      00 310 00 00         : GR           - GAMMA RAY
ILD .OHMM     00 120 00 00         : RESD         - DEEP RESISTIVITY (DIL)
~PARAMETER INFORMATION
#MNEM.UNIT           DATA             DESCRIPTION OF MNEMONIC
#---------         -----------     ------------------------------
GL  .M        583.7                : gl           - GROUND LEVEL ELEVATION
EREF.M        586.6                : kb           - ELEVATION OF DEPTH REFERENCE
DATM.M        586.6                : datum        - DATUM ELEVATION
TDD .M        575                  : tdd          - TOTAL DEPTH DRILLER
RUN .         ONE                  : Run          - RUN NUMBER
ENG .         BILL                 : Engineer     - RECORDING ENGINEER
WIT .         JIM                  : Witness      - WITNESSED BY
MUD .         GEL                  : Mud_type     - MUD TYPE
MATR.         LIMESTONE            : Logunit      - NEUTRON MATRIX
TMAX.C        19.4                 : BHT          - MAXIMUM RECORDED TEMPERATURE
BHTD.M        574                  : BHTDEP       - MAXIMUM RECORDED TEMPERATURE
MATR.         1                    : LOGUNIT      - NEUTRON MATRIX
RMT .C        25                   : MDTP         - TEMPERATURE OF MUD
NEUT.         1                    : NEUTRON      - NEUTRON TYPE
RESI.         0                    : RESIST       - RESISTIVITY TYPE
RMC .OHMM     0.25                 : RMC          - RESISTIVITY OF MUD CAKE
RMF .OHMM     0.25                 : RMF          - RESISTIVITY OF MUD FILTRATE
SUFT.C        15                   : SUFT         - SURFACE TEMPERATURE
~A  DEPTH     PHID     PHIN      CAL       GR     RESD
  350.000    0.224    0.539  190.250  116.106    2.292
  350.250    0.205    0.544  190.768  115.866    2.353
  350.500    0.194    0.516  193.423  113.796    2.435
  350.750    0.195    0.494  194.349  111.541    2.510
  351.000    0.200    0.468  189.982  109.348    2.606
  351.250    0.212    0.468  186.529  110.820    2.686
  351.500    0.207    0.484  183.181  109.176    2.795
  351.750    0.182    0.498  180.949  104.967    2.897
  352.000    0.156    0.477  179.635  100.575    2.998
  352.250    0.142    0.465  180.255  101.619    2.987
  352.500    0.170    0.474  186.475  107.060    2.960
  352.750    0.179    0.484  189.537  109.569    2.890
  353.000    0.182    0.475  190.564  110.003    2.742
  353.250    0.196    0.468  191.489  111.413    2.622
  353.500    0.202    0.490  191.192  112.579    2.579
  353.750    0.200    0.521  190.998  110.569    2.570
  354.000    0.206    0.527  191.516  108.438    2.556
  354.250    0.218    0.516  191.934  107.465    2.553
  354.500    0.225    0.511  191.433  106.799    2.582
  354.750    0.203    0.505  191.137  106.744    2.607
  355.000    0.200    0.513  189.925  110.535    2.613
  355.250    0.214    0.514  188.610  115.060    2.584
  355.500    0.227    0.482  185.566  115.555    2.604
  355.750    0.235    0.484  181.606  116.049    2.674
  356.000    0.222    0.506  178.968  115.993    2.767
  356.250    0.212    0.524  178.265  110.747    2.804
  356.500    0.214    0.524  178.273  105.072    2.687
  356.750    0.202    0.446  176.959   99.763    2.579
  357.000    0.177    0.422  171.575   92.684    2.517
  357.250    0.167    0.453  171.277  107.837    2.509
  357.500    0.200    0.487  177.394  114.377    2.519
  357.750    0.210    0.507  181.170  100.213    2.557
  358.000    0.214    0.492  174.358   89.531    2.621
  358.250    0.242    0.497  165.817   80.619    2.637
  358.500    0.350    0.562  161.653   70.669    2.613
  358.750    0.314    0.468  160.339   81.241    2.531
  359.000    0.305    0.426  160.655   86.927    2.389
  359.250    0.307    0.412  160.052   91.879    2.297
  359.500    0.310    0.406  158.738   94.939    2.226
  359.750    0.292    0.403  157.017   96.409    2.312
  360.000    0.275    0.383  156.008  101.668    2.474
  360.250    0.256    0.396  156.729  110.468    2.718
  360.500    0.240    0.414  159.996  115.604    2.876
  360.750    0.227    0.421  163.569  120.740    3.095
  361.000    0.240    0.454  166.123  112.439    3.325
  361.250    0.283    0.468  163.587   93.878    3.446
  361.500    0.301    0.420  157.386   87.714    3.553
  361.750    0.289    0.410  152.103   82.956    3.560
  362.000    0.277    0.420  151.704   81.007    3.508
  362.250    0.282    0.397  153.139   78.082    3.386
  362.500    0.289    0.386  153.861   74.178    3.337
  362.750    0.285    0.371  153.971   73.633    3.407
  363.000    0.260    0.359  153.676   77.121    3.558
  363.250    0.227    0.354  153.787   79.386    3.794
  363.500    0.203    0.345  154.305   79.575    3.999
  363.750    0.125    0.340  155.027   80.985    4.084
  364.000    0.194    0.351  155.750   84.289    4.039
  364.250    0.227    0.373  156.268   86.921    3.899
  364.500    0.218    0.393  156.581   86.254    3.742
  364.750    0.222    0.393  156.793   83.328    3.585
  365.000    0.238    0.388  157.108   87.181    3.415
  365.250    0.246    0.398  158.237   91.035    3.315
  365.500    0.247    0.409  160.385   93.116    3.322
  365.750    0.238    0.415  162.327   95.076    3.509
  366.000    0.214    0.394  166.002   96.792    3.713
  366.250    0.190    0.401  169.981   94.049    3.974
  366.500    0.188    0.406  171.720   86.115    4.181
  366.750    0.358    0.548  170.711   81.662    4.433
  367.000    0.390    0.601  165.428   78.613    4.604
  367.250    0.381    0.552  160.449   86.437    4.781
  367.500    0.354    0.460  157.301   86.564    4.947
  367.750    0.334    0.445  155.071   78.263    4.985
  368.000    0.321    0.444  154.674   73.138    4.949
  368.250    0.313    0.442  154.887   76.198    4.724
  368.500    0.302    0.438  155.506   78.097    4.375
  368.750    0.293    0.430  156.024   79.018    4.000
  369.000    0.300    0.431  156.543   80.307    3.684
  369.250    0.298    0.424  156.552   76.709    3.431
  369.500    0.292    0.408  155.850   73.966    3.166
  369.750    0.295    0.399  155.553   73.483    2.988
  370.000    0.303    0.405  155.663   72.144    2.863
  370.250    0.307    0.417  155.978   74.227    2.758
  370.500    0.290    0.423  156.394   76.981    2.697
  370.750    0.272    0.430  156.404   80.467    2.628
  371.000    0.275    0.443  156.413   83.282    2.575
  371.250    0.268    0.456  156.116   85.365    2.505
  371.500    0.270    0.466  155.516   86.225    2.431
  371.750    0.278    0.473  155.524   84.581    2.364
  372.000    0.281    0.475  156.755   80.739    2.308
  372.250    0.292    0.463  158.800   81.600    2.253
  372.500    0.305    0.454  161.048   83.438    2.203
  372.750    0.311    0.446  162.279   81.611    2.147
  373.000    0.308    0.446  160.761   74.593    2.131
  373.250    0.306    0.449  162.807   70.751    2.156
  373.500    0.307    0.444  163.223   71.612    2.351
  373.750    0.307    0.448  161.400   74.365    2.516
  374.000    0.304    0.443  160.085   78.218    2.723
  374.250    0.298    0.436  159.077   80.483    2.860
  374.500    0.290    0.430  158.476   76.886    2.882
  374.750    0.288    0.423  158.587   74.326    2.777
  375.000    0.304    0.444  159.410   73.233    2.601
  375.250    0.312    0.462  160.335   72.810    2.436
  375.500    0.297    0.448  161.260   72.328    2.282
  375.750    0.290    0.434  161.983   72.027    2.154
  376.000    0.298    0.428  161.483   72.032    2.083
  376.250    0.300    0.444  160.068   75.642    2.131
  376.500    0.282    0.444  159.160   83.710    2.221
  376.750    0.258    0.429  157.947   88.234    2.382
  377.000    0.244    0.429  157.346   92.637    2.558
  377.250    0.255    0.437  157.050   94.108    2.764
  377.500    0.259    0.418  156.959   92.709    2.892
  377.750    0.234    0.410  157.171   94.058    3.054
  378.000    0.168    0.424  157.179   94.430    3.220
  378.250    0.152    0.440  157.801   98.589    3.420
  378.500    0.172    0.448  158.827  105.069    3.605
  378.750    0.187    0.438  160.465  110.144    3.688
  379.000    0.160    0.433  162.509  113.997    3.669
  379.250    0.153    0.436  165.674  118.888    3.588
  379.500    0.198    0.451  171.486  127.200    3.444
  379.750    0.229    0.466  178.213  133.313    3.425
  380.000    0.238    0.446  180.359  127.761    3.632
  380.250    0.211    0.429  178.434  121.536    3.894
  380.500    0.217    0.416  172.235  125.451    4.059
  380.750    0.223    0.407  168.173  120.876    4.191
  381.000    0.205    0.397  167.469  117.827    4.337
  381.250    0.197    0.390  167.376  126.384    4.379
  381.500    0.208    0.390  167.792  126.389    4.421
  381.750    0.217    0.389  168.210  116.134    4.439
  382.000    0.216    0.386  168.421  110.032    4.407
  382.250    0.225    0.394  168.737  106.862    4.367
  382.500    0.225    0.411  169.054  105.584    4.271
  382.750    0.220    0.421  169.265  104.002    4.115
  383.000    0.213    0.422  169.375  103.152    3.950
  383.250    0.210    0.434  169.587  106.456    3.727
  383.500    0.213    0.442  170.003  110.126    3.618
  383.750    0.220    0.417  170.421  116.362    3.532
  384.000    0.219    0.436  170.836  119.238    3.553
  384.250    0.216    0.471  171.253  120.404    3.594
  384.500    0.215    0.448  171.161  127.738    3.643
  384.750    0.213    0.413  169.948  131.286    3.692
  385.000    0.230    0.422  166.293  134.101    3.763
  385.250    0.244    0.435  164.163  129.709    3.842
  385.500    0.232    0.442  164.988  125.683    3.946
  385.750    0.211    0.417  167.643  125.567    4.021
  386.000    0.209    0.408  171.419  125.206    4.000
  386.250    0.213    0.410  173.769  123.625    3.761
