~VERSION INFORMATION
 VERS.                 2.0:   CWLS LOG ASCII STANDARD -VERSION 2.0
 WRAP.                  NO:   ONE LINE PER DEPTH STEP
~WELL INFORMATION BLOCK
#MNEM.UNIT           DATA                    DESCRIPTION OF MNEMONIC
#---------    -------------------            -------------------------------
# Generated from Intellog Unique Number	CC_80_83/WELL/1182
NULL.         -999.25                        : NULL_VALUE
WELL.         GULF RESDELN                   : Well_name    - WELL              
LOC .         07-12-081-07W4                 : Location     - LOCATION          
UWI .         00/07-12-081-07W4/0            : Uwi          - UNIQUE WELL ID    
ENTR.         DW                             : Entered      - ENTERED BY        
SRVC.         SCHLUMBERGER                   : Scn          - SERVICE COMPANY   
DATE.         19 FEB 79                      : Date         - LOG DATE
STRT.M        130                            : top_depth    - START DEPTH       
STOP.M        349.897                        : bot_depth    - STOP DEPTH        
STEP.M        0.3                            : increment    - STEP LENGTH       
~CURVE INFORMATION BLOCK
#MNEM UNIT       ERCB CURVE CODE    CURVE DESCRIPTION
#-----------   ------------------   ----------------------------------
DEPT.M        00 001 00 00         : DEPTH        - DEPTH                       
NPHI.V/V      00 330 00 00         : PHIN         - NEUTRON POROSITY (LIMESTONE)
GR  .API      00 310 00 00         : GR           - GAMMA RAY                   
DPHI.V/V      00 890 00 00         : PHID         - DENSITY POROSITY (LIMESTONE)
ILD .OHMM     00 120 00 00         : RESD         - DEEP RESISTIVITY (DIL)      
~PARAMETER INFORMATION       
#MNEM.UNIT           DATA             DESCRIPTION OF MNEMONIC
#---------         -----------     ------------------------------
GL  .M        548                  : gl           - GROUND LEVEL ELEVATION      
EREF.M        551.5                : kb           - ELEVATION OF DEPTH REFERENCE
DATM.M        551.5                : datum        - DATUM ELEVATION             
TDD .M        365                  : tdd          - TOTAL DEPTH DRILLER         
RUN .         ONE                  : Run          - RUN NUMBER                  
ENG .         BILL                 : Engineer     - RECORDING ENGINEER          
WIT .         JIM                  : Witness      - WITNESSED BY                
MUD .         GEL                  : Mud_type     - MUD TYPE                    
MATR.         LIMESTONE            : Logunit      - NEUTRON MATRIX              
TMAX.C        20                   : BHT          - MAXIMUM RECORDED TEMPERATURE
BHTD.M        365                  : BHTDEP       - MAXIMUM RECORDED TEMPERATURE
MATR.         1                    : LOGUNIT      - NEUTRON MATRIX              
RMT .C        25                   : MDTP         - TEMPERATURE OF MUD          
NEUT.         1                    : NEUTRON      - NEUTRON TYPE                
RESI.         0                    : RESIST       - RESISTIVITY TYPE            
RMC .OHMM     0.25                 : RMC          - RESISTIVITY OF MUD CAKE     
RMF .OHMM     0.25                 : RMF          - RESISTIVITY OF MUD FILTRATE 
SUFT.C        4                    : SUFT         - SURFACE TEMPERATURE         
~A  DEPTH     PHIN       GR     PHID     RESD
  130.000    0.402   82.158    0.274   14.812
  130.300    0.414   80.898    0.272   15.402
  130.600    0.431   82.126    0.287   14.565
  130.900    0.450   83.975    0.313   15.443
  131.200    0.387   82.715    0.199   17.003
  131.500    0.395   82.076    0.241   17.679
  131.800    0.401   85.796    0.278   17.044
  132.100    0.402   90.755    0.270   16.122
  132.400    0.403   91.985    0.243   14.681
  132.700    0.406   96.329    0.226   12.871
  133.000    0.413  113.743    0.211   11.497
  133.300    0.421  121.193    0.188    9.523
  133.600    0.429  117.443    0.198    8.510
  133.900    0.435  113.071    0.233   10.901
  134.200    0.411  106.832    0.245   15.072
  134.500    0.385   98.099    0.258   15.092
  134.800    0.396  101.197    0.257   13.485
  135.100    0.401  108.026    0.235   11.601
  135.400    0.386  103.653    0.248   12.063
  135.700    0.394   95.545    0.277   14.064
  136.000    0.412   88.061    0.282   16.079
  136.300    0.431   79.953    0.309   17.368
  136.600    0.442   74.957    0.322   18.408
  136.900    0.432   73.071    0.331   19.145
  137.200    0.409   71.191    0.321   16.785
  137.500    0.415   83.001    0.273   13.901
  137.800    0.377   88.585    0.282   12.900
  138.100    0.377   88.570    0.282   16.224
  138.400    0.383   85.440    0.262   17.198
  138.700    0.404   86.048    0.278   16.573
  139.000    0.419   87.899    0.303   15.980
  139.300    0.416   83.526    0.303   16.307
  139.600    0.392   84.133    0.305   17.619
  139.900    0.393   78.514    0.299   19.030
  140.200    0.405   68.540    0.313   19.415
  140.500    0.398   61.055    0.321   19.821
  140.800    0.405   62.284    0.324   19.834
  141.100    0.432   77.826    0.319   19.860
  141.400    0.414   81.546    0.271   19.885
  141.700    0.413   81.527    0.253   17.438
  142.000    0.430   84.001    0.280   16.496
  142.300    0.440   90.834    0.311   16.200
  142.600    0.420   96.421    0.323   16.539
  142.900    0.440   97.646    0.312   17.198
  143.200    0.449   96.388    0.295   16.897
  143.500    0.425   92.635    0.280   15.980
  143.800    0.426   98.846    0.289   15.406
  144.100    0.433  113.767    0.279   14.576
  144.400    0.439  116.241    0.282   14.587
  144.700    0.445  110.000    0.278   15.462
  145.000    0.443  101.891    0.291   16.084
  145.300    0.438   97.520    0.289   15.498
  145.600    0.443  103.106    0.264   14.113
  145.900    0.451  109.313    0.259   11.913
  146.200    0.448  105.564    0.262   10.849
  146.500    0.457   95.588    0.292   15.877
  146.800    0.467   78.766    0.320   18.507
  147.100    0.413   66.926    0.336   19.630
  147.400    0.397   57.572    0.338   19.643
  147.700    0.416   57.550    0.337   18.933
  148.000    0.432   60.650    0.323   18.605
  148.300    0.424   64.988    0.326   18.976
  148.600    0.420   66.221    0.327   17.958
  148.900    0.420   63.093    0.335   17.303
  149.200    0.434   61.833    0.341   17.001
  149.500    0.453   64.927    0.331   17.027
  149.800    0.401   66.157    0.336   17.041
  150.100    0.423   74.854    0.322   16.746
  150.400    0.434   77.326    0.330   16.764
  150.700    0.431   80.424    0.352   16.161
  151.000    0.438   86.632    0.324   14.718
  151.300    0.463   92.219    0.302   13.400
  151.600    0.432   96.560    0.292   11.750
  151.900    0.430  107.748    0.289   10.300
  152.200    0.427  110.843    0.270    7.611
  152.500    0.433  107.713    0.288    5.416
  152.800    0.507  123.882    0.276    3.571
  153.100    0.557  127.600    0.234    3.577
  153.400    0.521  124.469    0.201    3.938
  153.700    0.506  121.967    0.218    4.175
  154.000    0.501  131.908    0.218    4.180
  154.300    0.493  135.004    0.217    4.185
  154.600    0.490  133.742    0.217    4.435
  154.900    0.493  127.501    0.223    5.072
  155.200    0.511  119.396    0.234    5.690
  155.500    0.525  108.176    0.242    7.155
  155.800    0.425  101.936    0.233    8.028
  156.100    0.434  107.520    0.227    8.348
  156.400    0.455  116.842    0.231    8.050
  156.700    0.451  121.805    0.221    7.329
  157.000    0.445  128.635    0.228    6.424
  157.300    0.460  129.241    0.229    5.124
  157.600    0.493  129.846    0.213    4.939
  157.900    0.497  130.451    0.228    4.946
  158.200    0.493  124.836    0.236    5.144
  158.500    0.488  111.749    0.252    6.108
  158.800    0.462  104.887    0.263    8.130
  159.100    0.423   91.799    0.274    9.125
  159.400    0.418   89.293    0.249    9.311
  159.700    0.427  106.706    0.242    8.808
  160.000    0.435  114.781    0.235    8.819
  160.300    0.421  111.653    0.243    8.997
  160.600    0.407   96.699    0.242    8.673
  160.900    0.401   96.682    0.190    7.898
  161.200    0.407  112.226    0.203    6.924
  161.500    0.434  121.544    0.213    6.070
  161.800    0.455  124.643    0.211    5.527
  162.100    0.490  125.872    0.183    5.229
  162.400    0.497  127.101    0.179    5.437
  162.700    0.465  121.483    0.219    6.458
  163.000    0.431  105.904    0.223    7.528
  163.300    0.413  102.153    0.216    7.679
  163.600    0.410  100.892    0.221    7.405
  163.900    0.410  105.235    0.217    7.699
  164.200    0.432  108.330    0.237    9.144
  164.500    0.416  105.199    0.215   10.457
  164.800    0.405  110.164    0.213   10.273
  165.100    0.421  118.864    0.170    8.508
  165.400    0.452  124.450    0.197    7.181
  165.700    0.461  127.547    0.214    6.539
  166.000    0.441  127.528    0.203    6.306
  166.300    0.456  123.155    0.198    6.810
  166.600    0.464  121.273    0.218    9.414
  166.900    0.450  121.255    0.264   12.296
  167.200    0.410  114.392    0.265   13.536
  167.500    0.383  115.001    0.270   13.302
  167.800    0.375  106.270    0.235   11.885
  168.100    0.376  109.362    0.235   11.029
  168.400    0.381  114.329    0.239   10.043
  168.700    0.398  126.139    0.195    9.320
  169.000    0.424  126.746    0.224    8.487
  169.300    0.435  123.618    0.222    7.731
  169.600    0.421  126.712    0.223    7.889
  169.900    0.421  126.697    0.239    8.364
  170.200    0.428  124.815    0.252    9.202
  170.500    0.435  113.593    0.245   12.019
  170.800    0.440  107.975    0.291   13.234
  171.100    0.445  103.603    0.268   13.252
  171.400    0.449  113.546    0.275   13.781
  171.700    0.444  112.280    0.268   14.887
  172.000    0.388  107.913    0.236   16.083
  172.300    0.370   91.091    0.235   16.407
  172.600    0.371   86.716    0.211   14.659
  172.900    0.381  102.885    0.205   12.852
  173.200    0.433  119.050    0.211   11.704
  173.500    0.453  118.411    0.229   11.500
  173.800    0.475  112.171    0.254   11.296
  174.100    0.463  109.666    0.263    9.903
  174.400    0.455  109.650    0.236    9.548
  174.700    0.464  105.900    0.263   10.119
  175.000    0.420   90.944    0.224   10.931
  175.300    0.405   93.415    0.229   11.154
  175.600    0.396  100.873    0.250   10.550
  175.900    0.386  106.458    0.258    9.980
  176.200    0.381  120.135    0.253    9.440
  176.500    0.400  128.833    0.271    8.927
  176.800    0.432  132.549    0.285    8.607
  177.100    0.457  103.280    0.300   10.418
  177.400    0.518   86.459    0.377   13.867
  177.700    0.598   65.281    0.414   21.081
  178.000    0.416   48.459    0.331   24.571
  178.300    0.380   44.706    0.299   24.611
  178.600    0.377   47.804    0.326   24.168
  178.900    0.399   53.389    0.314   22.872
  179.201    0.424   58.354    0.324   22.459
  179.501    0.431   60.205    0.319   22.067
  179.801    0.392   60.184    0.336   22.097
  180.101    0.420   58.925    0.337   22.552
  180.401    0.424   57.665    0.325   23.458
  180.701    0.410   58.895    0.320   23.931
  181.001    0.407   58.254    0.317   24.430
  181.301    0.395   55.126    0.323   24.453
  181.601    0.389   52.623    0.334   24.493
  181.901    0.419   61.321    0.336   24.058
