~VERSION INFORMATION
 VERS.                 2.0:   CWLS LOG ASCII STANDARD -VERSION 2.0
 WRAP.                  NO:   ONE LINE PER DEPTH STEP
~WELL INFORMATION BLOCK
#MNEM.UNIT           DATA                    DESCRIPTION OF MNEMONIC
#---------    -------------------            -------------------------------
# Generated from Intellog Unique Number	CS_67_68/WELL/701
WELL.         AMOCO CANADA PETROLEUM         : Well_name    - WELL
LOC .         00/06-27-068-18W4/0            : Location     - LOCATION
UWI .         00/06-27-068-18W4/0            : Uwi          - UNIQUE WELL ID
ENTR.         SP                             : Entered      - ENTERED BY
SRVC.         SCHLUMBERGER                   : Scn          - SERVICE COMPANY
STRT.M        274.32                         : top_depth    - START DEPTH
STOP.M        514.82                         : bot_depth    - STOP DEPTH
STEP.M        0.25                           : increment    - STEP LENGTH
 NULL. -999.2500:NULL Value
~CURVE INFORMATION BLOCK
#MNEM UNIT       ERCB CURVE CODE    CURVE DESCRIPTION
#-----------   ------------------   ----------------------------------
DEPT.M        00 001 00 00         : DEPTH        - DEPTH
GR  .API      00 310 00 00         : GR           - GAMMA RAY
DPHI.V/V      00 890 00 00         : PHID         - DENSITY POROSITY (SANDSTONE)
NPHI.V/V      00 330 00 00         : PHIN         - NEUTRON POROSITY (SANDSTONE)
ILD .OHMM     00 120 00 00         : RESD         - DEEP RESISTIVITY (DIL)
~PARAMETER INFORMATION
#MNEM.UNIT           DATA             DESCRIPTION OF MNEMONIC
#---------         -----------     ------------------------------
GL  .M        546.659              : gl           - GROUND LEVEL ELEVATION
EREF.M        550.164              : kb           - ELEVATION OF DEPTH REFERENCE
DATM.M        546.659              : datum        - DATUM ELEVATION
TDD .M        521.208              : tdd          - TOTAL DEPTH DRILLER
RUN .         ONE                  : Run          - RUN NUMBER
ENG .         BILL                 : Engineer     - RECORDING ENGINEER
WIT .         JIM                  : Witness      - WITNESSED BY
MUD .         GEL                  : Mud_type     - MUD TYPE
MATR.         SANDSTONE            : Logunit      - NEUTRON MATRIX
TMAX.C        22.2222              : BHT          - MAXIMUM RECORDED TEMPERATURE
BHTD.M        521.208              : BHTDEP       - MAXIMUM RECORDED TEMPERATURE
MATR.         1                    : LOGUNIT      - NEUTRON MATRIX
RMT .C        25                   : MDTP         - TEMPERATURE OF MUD
NEUT.         1                    : NEUTRON      - NEUTRON TYPE
RESI.         0                    : RESIST       - RESISTIVITY TYPE
RMC .OHMM     0.25                 : RMC          - RESISTIVITY OF MUD CAKE
RMF .OHMM     0.25                 : RMF          - RESISTIVITY OF MUD FILTRATE
SUFT.C        15                   : SUFT         - SURFACE TEMPERATURE
~A  DEPTH       GR     PHID     PHIN     RESD
# ...
  404.820   92.249    0.219    0.429    4.508
  405.070   91.483    0.209    0.418    4.634
  405.320   87.637    0.194    0.408    4.958
  405.570   80.328    0.131    0.373    5.420
  405.820   73.102    0.091    0.298    6.373
  406.070   64.604    0.074    0.256    7.441
  406.320   54.172    0.048    0.223    8.886
  406.570   52.276    0.016    0.207   10.184
  406.820   57.517    0.031    0.213   11.196
  407.070   64.113    0.049    0.218   10.713
  407.320   72.252    0.050    0.245    9.103
  407.570   80.272    0.044    0.320    7.887
  407.820   88.081    0.083    0.357    6.961
  408.070   93.575    0.126    0.382    6.202
  408.320   98.028    0.171    0.399    5.753
  408.570   98.844    0.198    0.407    5.438
  408.820   99.214    0.194    0.410    5.250
  409.070   99.806    0.201    0.420    5.178
  409.320  100.051    0.178    0.438    4.900
  409.570  101.273    0.181    0.452    4.382
  409.820  102.910    0.192    0.461    3.877
  410.070  104.609    0.195    0.456    3.395
  410.320  106.246    0.193    0.453    3.103
  410.570  106.896    0.193    0.465    3.242
  410.820  106.442    0.205    0.481    3.622
  411.070  101.638    0.205    0.489    3.915
  411.320   97.834    0.203    0.478    4.359
  411.570   91.627    0.200    0.464    4.642
  411.820   88.331    0.219    0.452    4.666
  412.070   86.339    0.236    0.443    4.488
  412.320   84.698    0.248    0.438    4.227
  412.570   83.079    0.258    0.437    3.981
  412.820   82.415    0.265    0.436    3.735
  413.070   83.768    0.275    0.441    3.577
  413.320   86.983    0.287    0.454    3.417
  413.570   91.427    0.283    0.461    3.285
  413.820   94.972    0.284    0.465    3.182
  414.070   98.273    0.287    0.472    2.999
  414.320   99.908    0.283    0.495    3.155
  414.570  101.171    0.269    0.543    2.897
  414.820  100.559    0.291    0.561    2.663
  415.070  100.036    0.320    0.543    2.353
  415.320  100.376    0.301    0.525    2.105
  415.570  100.615    0.278    0.511    2.124
  415.820   99.848    0.250    0.510    2.451
  416.070   97.155    0.232    0.511    2.780
  416.320   93.918    0.235    0.496    3.247
  416.570   92.197    0.243    0.478    3.520
  416.820   91.327    0.240    0.461    3.794
  417.070   91.722    0.238    0.444    3.963
  417.320   93.299    0.239    0.445    3.922
  417.570   94.676    0.237    0.444    3.808
  417.820   96.214    0.218    0.445    3.747
  418.070   96.155    0.218    0.451    3.684
  418.320   94.470    0.223    0.475    3.674
  418.570   93.009    0.219    0.468    3.680
  418.820   91.863    0.220    0.465    3.704
  419.070   90.591    0.225    0.461    3.716
  419.320   87.974    0.233    0.448    3.674
  419.570   85.127    0.237    0.439    3.544
  419.820   83.372    0.243    0.436    3.381
  420.070   82.167    0.262    0.445    3.225
  420.320   81.559    0.275    0.449    3.101
  420.570   81.206    0.269    0.425    3.210
  420.820   79.766    0.261    0.387    3.462
  421.070   74.814    0.242    0.356    3.672
  421.320   71.130    0.224    0.334    3.857
  421.570   67.563    0.188    0.371    4.040
  421.820   65.209    0.218    0.407    4.163
  422.070   62.110    0.264    0.423    4.225
  422.320   52.318    0.235    0.392    4.187
  422.570   50.814    0.197    0.365    3.878
  422.820   52.990    0.224    0.378    3.453
  423.070   55.346    0.244    0.400    2.965
  423.320   57.551    0.295    0.434    2.585
  423.570   58.321    0.352    0.439    2.342
  423.820   58.608    0.363    0.440    2.012
  424.070   58.992    0.345    0.456    2.194
  424.320   59.862    0.329    0.469    2.738
  424.570   60.977    0.301    0.443    3.171
  424.820   61.692    0.268    0.402    3.543
  425.070   62.321    0.229    0.354    3.963
  425.320   62.585    0.207    0.365    4.318
  425.570   62.425    0.204    0.394    4.403
  425.820   61.052    0.233    0.419    3.730
  426.070   59.187    0.300    0.434    3.012
  426.320   58.110    0.318    0.446    2.450
  426.570   58.278    0.309    0.447    2.240
  426.820   59.439    0.312    0.444    2.166
  427.070   61.202    0.316    0.450    2.141
  427.320   62.997    0.306    0.444    2.146
  427.570   65.022    0.314    0.437    2.171
  427.820   62.674    0.328    0.441    2.206
  428.070   60.975    0.335    0.449    2.225
  428.320   61.272    0.320    0.456    2.243
  428.570   62.134    0.318    0.451    2.256
  428.820   63.277    0.316    0.438    2.269
  429.070   64.563    0.310    0.431    2.282
  429.320   66.103    0.303    0.439    2.296
  429.570   67.619    0.299    0.433    2.301
  429.820   69.331    0.307    0.430    2.328
  430.070   69.941    0.315    0.436    2.360
  430.320   72.302    0.305    0.437    2.463
  430.570   75.251    0.285    0.449    2.529
  430.820   78.921    0.263    0.454    2.626
  431.070   82.487    0.246    0.440    2.755
  431.320   85.046    0.227    0.425    2.904
  431.570   87.612    0.208    0.411    3.182
  431.820   90.250    0.190    0.418    3.458
  432.070   93.183    0.174    0.444    3.706
  432.320   95.738    0.168    0.448    3.991
  432.570   97.435    0.186    0.438    4.224
  432.820   97.866    0.201    0.431    4.358
  433.070   94.684    0.210    0.424    4.397
  433.320   93.635    0.203    0.426    4.400
  433.570   94.386    0.198    0.434    4.412
  433.820   96.147    0.197    0.435    4.472
  434.070   97.690    0.203    0.431    4.565
  434.320   96.911    0.195    0.433    4.698
  434.570   90.511    0.196    0.434    4.808
  434.820   91.995    0.199    0.429    4.930
  435.070   96.701    0.200    0.431    5.032
  435.320   99.923    0.199    0.441    5.132
  435.570   99.171    0.201    0.451    5.207
  435.820   96.130    0.206    0.442    5.242
  436.070   94.092    0.194    0.435    5.243
  436.320   93.757    0.186    0.433    5.243
  436.570   94.696    0.191    0.432    5.219
  436.820   96.975    0.205    0.426    5.208
  437.070   98.692    0.205    0.420    5.176
  437.320   99.570    0.202    0.419    5.142
  437.570   97.954    0.200    0.429    5.109
  437.820   96.500    0.205    0.436    5.094
  438.070   95.079    0.204    0.439    5.078
  438.320   94.950    0.204    0.431    5.052
  438.570   94.686    0.215    0.441    4.848
  438.820   93.636    0.231    0.455    4.430
  439.070   91.309    0.241    0.459    3.887
  439.320   94.697    0.250    0.459    3.495
  439.570   97.691    0.259    0.480    3.215
  439.820  101.211    0.269    0.507    3.017
  440.070  103.285    0.253    0.547    2.957
  440.320  103.416    0.246    0.538    2.962
  440.570  102.700    0.231    0.529    2.956
  440.820  101.859    0.221    0.520    2.979
  441.070  103.980    0.237    0.513    3.001
  441.320  105.748    0.231    0.522    3.004
  441.570  107.251    0.224    0.527    3.015
  441.820  107.325    0.222    0.531    3.040
  442.070  102.006    0.229    0.535    3.113
  442.320   97.676    0.240    0.528    3.297
  442.570  101.118    0.228    0.512    3.593
  442.820  100.708    0.218    0.489    3.736
  443.070  100.190    0.215    0.449    3.930
  443.320  101.176    0.212    0.427    4.086
  443.570  102.958    0.208    0.431    4.195
  443.820  104.160    0.201    0.443    4.195
  444.070  105.782    0.190    0.454    4.157
  444.320  106.970    0.181    0.457    4.119
  444.570  106.955    0.173    0.458    4.100
  444.820   99.365    0.194    0.431    4.152
  445.070   89.810    0.199    0.432    4.267
  445.320   82.766    0.183    0.414    4.393
  445.570   79.021    0.179    0.384    4.582
  445.820   78.812    0.181    0.355    4.881
  446.070   78.088    0.198    0.292    5.559
  446.320   76.169    0.148    0.265    6.733
  446.570   71.365    0.062    0.245    7.935
  446.820   70.597    0.039    0.234    9.059
  447.070   73.172    0.054    0.237   10.141
  447.320   76.990    0.071    0.259   10.185
  447.570   82.182    0.086    0.289    9.064
  447.820   86.906    0.113    0.337    8.008
  448.070   90.315    0.139    0.363    7.305
