~VERSION INFORMATION
 VERS.                 2.0:   CWLS LOG ASCII STANDARD -VERSION 2.0
 WRAP.                  NO:   ONE LINE PER DEPTH STEP
~WELL INFORMATION BLOCK
#MNEM.UNIT           DATA                    DESCRIPTION OF MNEMONIC
#---------    -------------------            -------------------------------
# Generated from Intellog Unique Number	CW_73_75/WELL/879
WELL.         CHEVRON ET AL DROWNED 07-36    : Well_name    - WELL
LOC .         00/07-36-075-23W4/0            : Location     - LOCATION
UWI .         00/07-36-075-23W4/0            : Uwi          - UNIQUE WELL ID
ENTR.         JAYE                           : Entered      - ENTERED BY
SRVC.         SCHLUMBERGER                   : Scn          - SERVICE COMPANY
DATE.         22 JAN 85                      : Date         - LOG DATE
STRT.M        411.48                         : top_depth    - START DEPTH
STOP.M        618.73                         : bot_depth    - STOP DEPTH
STEP.M        0.25                           : increment    - STEP LENGTH
 NULL. -999.2500:NULL Value
~CURVE INFORMATION BLOCK
#MNEM UNIT       ERCB CURVE CODE    CURVE DESCRIPTION
#-----------   ------------------   ----------------------------------
DEPT.M        00 001 00 00         : DEPTH        - DEPTH
ILD .OHMM     00 120 00 00         : RESD         - DEEP RESISTIVITY (DIL)
DPHI.V/V      00 890 00 00         : PHID         - DENSITY POROSITY (SANDSTONE)
NPHI.V/V      00 330 00 00         : PHIN         - NEUTRON POROSITY (SANDSTONE)
GR  .API      00 310 00 00         : GR           - GAMMA RAY
CALI.MM       00 280 01 00         : CAL          - CALIPER
~PARAMETER INFORMATION
#MNEM.UNIT           DATA             DESCRIPTION OF MNEMONIC
#---------         -----------     ------------------------------
GL  .M        678.058              : gl           - GROUND LEVEL ELEVATION
EREF.M        681.106              : kb           - ELEVATION OF DEPTH REFERENCE
DATM.M        678.058              : datum        - DATUM ELEVATION
TDD .M        626.974              : tdd          - TOTAL DEPTH DRILLER
RUN .         ONE                  : Run          - RUN NUMBER
MATR.         SANDSTONE            : Logunit      - NEUTRON MATRIX
TMAX.C        60                   : BHT          - MAXIMUM RECORDED TEMPERATURE
BHTD.M        627.583              : BHTDEP       - MAXIMUM RECORDED TEMPERATURE
RMT .C        11.1111              : MDTP         - TEMPERATURE OF MUD
MUDD.KG/M     0                    : MWT          - MUD DENSITY
NEUT.         1                    : NEUTRON      - NEUTRON TYPE
RESI.         0                    : RESIST       - RESISTIVITY TYPE
RM  .OHMM     0                    : RM           - RESISTIVITY OF MUD
RMC .OHMM     0                    : RMC          - RESISTIVITY OF MUD CAKE
RMF .OHMM     9.02                 : RMF          - RESISTIVITY OF MUD FILTRATE
SUFT.C        -17.7778             : SUFT         - SURFACE TEMPERATURE
~A  DEPTH     RESD     PHID     PHIN       GR      CAL
# ...
  447.980    5.210    0.297    0.550  102.054  218.071
  448.230    5.424    0.292    0.514  103.096  211.553
  448.480    5.455    0.274    0.485  102.139  207.935
  448.730    5.456    0.282    0.482   99.770  207.310
  448.980    5.388    0.259    0.470   97.984  208.081
  449.230    5.320    0.254    0.480   96.322  209.867
  449.480    5.322    0.249    0.472   94.769  210.914
  449.730    5.450    0.231    0.489   92.397  212.386
  449.980    5.685    0.248    0.505   90.732  213.048
  450.230    5.919    0.274    0.525   89.185  211.128
  450.480    5.544    0.310    0.464   87.112  205.815
  450.730    4.924    0.302    0.414   80.615  202.404
  450.980    4.272    0.248    0.395   83.660  202.479
  451.230    3.857    0.241    0.403   91.593  204.144
  451.480    3.560    0.245    0.398   93.460  205.700
  451.730    3.471    0.225    0.410   95.442  207.869
  451.980    3.769    0.212    0.426   98.730  208.742
  452.230    4.138    0.207    0.437  100.179  208.705
  452.480    4.460    0.191    0.447   99.815  208.380
  452.730    4.686    0.202    0.451   98.732  208.165
  452.980    4.687    0.194    0.449   97.716  208.228
  453.230    4.697    0.173    0.427   97.402  208.500
  453.480    4.732    0.167    0.439   97.863  208.670
  453.730    4.785    0.195    0.441   98.319  208.834
  453.980    4.821    0.200    0.433   98.355  209.209
  454.230    4.822    0.182    0.425   98.632  209.585
  454.480    4.823    0.190    0.422   98.262  210.057
  454.730    4.877    0.190    0.432   97.420  210.816
  454.980    5.041    0.189    0.426   93.225  211.986
  455.230    5.594    0.190    0.426   94.565  213.453
  455.480    6.511    0.202    0.444   97.136  214.522
  455.730    8.063    0.228    0.425   97.825  212.099
  455.980    9.435    0.260    0.372   92.510  203.694
  456.230   10.301    0.282    0.348   85.191  199.490
  456.480   11.665    0.275    0.301   79.349  198.259
  456.730   13.526    0.224    0.285   80.331  198.333
  456.980   15.799    0.196    0.319   85.614  198.695
  457.230   19.282    0.184    0.368   83.069  198.768
  457.480   20.860    0.123    0.283   79.812  198.837
  457.730   19.572    0.161    0.240   76.909  198.811
  457.980   17.386    0.196    0.261   74.182  198.598
  458.230   15.843    0.267    0.282   69.577  198.554
  458.480   14.386    0.298    0.286   65.730  198.236
  458.730   13.621    0.331    0.285   63.596  198.109
  458.980   12.851    0.347    0.281   63.170  197.789
  459.230   12.392    0.348    0.287   65.627  197.872
  459.480   12.193    0.338    0.295   67.960  197.912
  459.730   11.887    0.327    0.304   70.121  198.087
  459.980   11.632    0.334    0.306   71.693  198.266
  460.230   11.403    0.336    0.302   72.974  198.345
  460.480   11.137    0.330    0.294   73.191  198.399
  460.730   10.978    0.330    0.293   72.115  198.671
  460.980   10.860    0.328    0.289   73.157  198.858
  461.230   10.530    0.320    0.291   74.382  198.823
  461.480    9.971    0.305    0.297   74.483  198.699
  461.730    8.857    0.291    0.298   74.051  198.455
  461.980    8.057    0.248    0.290   72.034  198.244
  462.230    7.222    0.236    0.287   68.364  198.307
  462.480    6.486    0.278    0.295   66.404  198.576
  462.730    5.932    0.310    0.311   64.564  198.650
  462.980    5.556    0.330    0.326   61.839  198.918
  463.230    5.299    0.326    0.344   61.057  198.988
  463.480    5.310    0.310    0.367   63.333  199.060
  463.730    5.610    0.288    0.383   62.611  199.135
  463.980    6.080    0.281    0.396   64.127  199.209
  464.230    6.590    0.288    0.415   65.109  199.183
  464.480    6.924    0.298    0.404   61.855  199.061
  464.730    7.183    0.297    0.393   61.782  199.112
  464.980    7.264    0.295    0.381   63.828  199.098
  465.230    7.186    0.297    0.397   66.753  199.074
  465.480    7.070    0.297    0.440   67.796  198.954
  465.730    6.893    0.292    0.421   69.249  198.910
  465.980    6.611    0.288    0.435   69.700  198.686
  466.230    6.363    0.289    0.420   65.681  198.354
  466.480    6.148    0.294    0.403   63.608  198.314
  466.730    6.016    0.299    0.406   66.063  198.196
  466.980    5.973    0.295    0.423   67.985  198.259
  467.230    5.985    0.280    0.415   69.266  198.527
  467.480    6.231    0.265    0.377   70.837  198.809
  467.730    6.879    0.252    0.364   74.825  199.388
  467.980    7.523    0.249    0.388   75.929  199.837
  468.230    8.139    0.246    0.400   73.441  200.414
  468.480    8.742    0.244    0.376   71.417  200.794
  468.730    9.286    0.256    0.372   69.928  200.952
  468.980    7.953    0.196    0.344   70.445  202.123
  469.230    6.676    0.171    0.313   71.016  203.606
  469.480    5.533    0.127    0.263   71.823  204.168
  469.730    4.826    0.136    0.261   77.869  204.537
  469.980    4.334    0.224    0.368   84.093  204.499
  470.230    4.390    0.252    0.430   91.850  204.469
  470.480    4.881    0.242    0.493   94.659  205.540
  470.730    5.477    0.211    0.508   95.876  211.091
  470.980    6.124    0.246    0.461   93.448  208.577
  471.230    6.637    0.251    0.428   88.133  204.456
  471.480    7.543    0.230    0.396   82.521  201.941
  471.730    8.281    0.253    0.388   78.680  201.020
  471.980    9.091    0.291    0.382   82.252  200.579
  472.230    9.159    0.301    0.362   80.237  200.268
  472.480    8.547    0.314    0.352   79.517  200.225
  472.730    7.347    0.319    0.375   79.434  200.798
  472.980    6.467    0.305    0.400   81.362  202.871
  473.230    5.776    0.281    0.401   82.461  204.334
  473.480    5.140    0.244    0.392   82.739  206.102
  473.730    4.735    0.193    0.380   87.727  207.160
  473.980    4.339    0.183    0.385   92.774  205.653
  474.230    4.184    0.221    0.397   94.879  205.316
  474.480    4.042    0.222    0.414   95.741  206.184
  474.730    4.021    0.208    0.418   96.138  208.450
  474.980    3.992    0.216    0.417   94.947  210.527
  475.230    4.008    0.214    0.424   93.338  211.678
  475.480    4.001    0.182    0.433   93.437  213.345
  475.730    3.987    0.184    0.418   95.717  214.410
  475.980    4.017    0.206    0.414   97.465  209.298
  476.230    4.085    0.251    0.428   97.920  206.479
  476.480    4.355    0.231    0.426   97.611  208.151
  476.730    4.833    0.213    0.403   96.712  211.012
  476.980    5.996    0.215    0.408   95.044  212.692
  477.230    9.127    0.230    0.414   91.851  212.743
  477.480   12.657    0.249    0.429   91.301  211.128
  477.730   18.539    0.267    0.424   89.814  206.706
  477.980   22.833    0.292    0.268   85.797  203.190
  478.230   22.630    0.330    0.236   79.124  202.568
  478.480   21.507    0.370    0.146   71.631  201.644
  478.730   20.253    0.417    0.135   70.141  201.511
  478.980   18.899    0.401    0.153   70.418  201.382
  479.230   17.444    0.383    0.178   70.524  201.260
  479.480   16.338    0.367    0.207   70.572  201.227
  479.730   15.357    0.352    0.237   70.548  201.008
  479.980   14.149    0.335    0.251   69.940  200.783
  480.230   13.083    0.324    0.268   69.101  200.642
  480.480   12.570    0.311    0.294   68.552  200.432
  480.730   12.100    0.307    0.314   66.475  200.525
  480.980   11.647    0.311    0.305   66.753  200.281
  481.230   11.397    0.314    0.296   67.618  200.246
  481.480   11.091    0.306    0.287   68.308  200.708
  481.730   10.853    0.300    0.279   68.586  200.890
  481.980   10.562    0.297    0.283   65.213  201.145
  482.230   10.372    0.300    0.296   61.785  201.223
  482.480   10.261    0.311    0.307   64.065  201.501
  482.730   10.881    0.317    0.316   65.816  201.779
  482.980   11.794    0.316    0.311   64.382  201.849
  483.230   12.970    0.308    0.303   62.602  202.199
  483.480   14.714    0.284    0.284   61.699  202.463
  483.730   21.829    0.239    0.255   59.915  202.754
  483.980   30.327    0.173    0.128   56.837  202.829
  484.230   31.232    0.016    0.106   50.461  202.697
