~VERSION INFORMATION
 VERS.                 2.0:   CWLS LOG ASCII STANDARD -VERSION 2.0
 WRAP.                  NO:   ONE LINE PER DEPTH STEP
~WELL INFORMATION BLOCK
#MNEM.UNIT           DATA                    DESCRIPTION OF MNEMONIC
#---------    -------------------            -------------------------------
# Generated from Intellog Unique Number	CS_69_70/WELL/474
NULL.         -999.25                        : NULL_VALUE
WELL.         07-03-070-08W4                 : Well_name    - WELL              
LOC .         00/07-03-070-08W4/0            : Location     - LOCATION          
UWI .         00/07-03-070-08W4/0            : Uwi          - UNIQUE WELL ID    
ENTR.         JOETTE                         : Entered      - ENTERED BY        
SRVC.         SCHLUMBERGER                   : Scn          - SERVICE COMPANY   
DATE.         05\15\92                       : Date         - LOG DATE          
STRT.M        300                            : top_depth    - START DEPTH       
STOP.M        520                            : bot_depth    - STOP DEPTH        
STEP.M        0.25                           : increment    - STEP LENGTH       
~CURVE INFORMATION BLOCK
#MNEM UNIT       ERCB CURVE CODE    CURVE DESCRIPTION
#-----------   ------------------   ----------------------------------
DEPT.M        00 001 00 00         : DEPTH        - DEPTH                       
GR  .API      00 310 00 00         : GR           - GAMMA RAY                   
NPHI.V/V      00 330 00 00         : PHIN         - NEUTRON POROSITY (SANDSTONE)
DPHI.V/V      00 890 00 00         : PHID         - DENSITY POROSITY (SANDSTONE)
ILD .OHMM     00 120 00 00         : RESD         - DEEP RESISTIVITY (DIL)      
CALI.MM       00 280 01 00         : CAL          - CALIPER                     
~PARAMETER INFORMATION       
#MNEM.UNIT           DATA             DESCRIPTION OF MNEMONIC
#---------         -----------     ------------------------------
GL  .M        640                  : gl           - GROUND LEVEL ELEVATION      
EREF.M        648.7                : kb           - ELEVATION OF DEPTH REFERENCE
DATM.M        648.7                : datum        - DATUM ELEVATION             
TDD .M        625                  : tdd          - TOTAL DEPTH DRILLER         
RUN .         ONE                  : Run          - RUN NUMBER                  
ENG .         JO                   : Engineer     - RECORDING ENGINEER          
WIT .         TIM                  : Witness      - WITNESSED BY                
MUD .         GEL                  : Mud_type     - MUD TYPE                    
MATR.         SANDSTONE            : Logunit      - NEUTRON MATRIX              
TMAX.C        25                   : BHT          - MAXIMUM RECORDED TEMPERATURE
BHTD.M        625                  : BHTDEP       - MAXIMUM RECORDED TEMPERATURE
RMT .C        15                   : MDTP         - TEMPERATURE OF MUD          
MUDD.KG/M     1080                 : MWT          - MUD DENSITY                 
NEUT.         1                    : NEUTRON      - NEUTRON TYPE                
RESI.         0                    : RESIST       - RESISTIVITY TYPE            
RM  .OHMM     3.3                  : RM           - RESISTIVITY OF MUD          
RMC .OHMM     3.3                  : RMC          - RESISTIVITY OF MUD CAKE     
RMF .OHMM     3.3                  : RMF          - RESISTIVITY OF MUD FILTRATE 
SUFT.C        4                    : SUFT         - SURFACE TEMPERATURE         
~A  DEPTH       GR     PHIN     PHID     RESD      CAL
# ...
  373.000   47.296    0.405    0.334    9.657  154.370
  373.250   42.519    0.400    0.335    9.864  154.560
  373.500   41.374    0.414    0.333    9.882  154.642
  373.750   40.228    0.415    0.333   10.080  154.696
  374.000   43.320    0.406    0.334   10.098  154.832
  374.250   47.016    0.400    0.337   10.116  153.905
  374.500   49.535    0.403    0.337   10.139  153.004
  374.750   49.600    0.401    0.333   10.157  151.123
  375.000   49.060    0.418    0.330    9.989  150.223
  375.250   50.336    0.402    0.326    9.828  150.331
  375.500   54.016    0.413    0.329    9.660  149.431
  375.750   55.292    0.422    0.329    9.504  148.531
  376.000   55.357    0.427    0.324    9.342  148.612
  376.250   54.212    0.441    0.319    9.027  147.712
  376.500   52.461    0.452    0.321    8.706  147.875
  376.750   52.559    0.425    0.332    8.254  147.957
  377.000   55.045    0.413    0.335    7.968  147.084
  377.250   57.515    0.413    0.336    7.979  147.192
  377.500   57.597    0.431    0.337    8.001  147.274
  377.750   58.267    0.429    0.341    7.865  147.382
  378.000   61.358    0.431    0.344    7.734  147.518
  378.250   63.828    0.452    0.352    7.336  147.627
  378.500   63.894    0.450    0.350    7.204  147.735
  378.750   62.143    0.440    0.346    6.964  147.844
  379.000   57.382    0.442    0.350    6.974  147.953
  379.250   56.842    0.437    0.357    6.983  148.034
  379.500   56.891    0.442    0.353    7.133  148.197
  379.750   63.025    0.476    0.347    7.143  148.306
  380.000   63.696    0.477    0.349    6.898  148.414
  380.250   60.145    0.450    0.356    6.653  148.523
  380.500   65.036    0.440    0.349    6.081  148.659
  380.750   74.802    0.423    0.333    5.760  148.713
  381.000   85.156    0.429    0.314    5.459  150.839
  381.250   94.922    0.500    0.298    5.170  159.045
  381.500   88.934    0.535    0.309    4.991  159.181
  381.750   74.474    0.531    0.335    4.909  157.218
  382.000   70.286    0.520    0.358    5.397  153.291
  382.250   63.693    0.495    0.371    6.155  152.418
  382.500   58.327    0.469    0.381    7.152  151.545
  382.750   57.787    0.450    0.373    8.630  151.681
  383.000   57.852    0.446    0.359    9.481  151.735
  383.250   59.128    0.450    0.350   10.040  151.871
  383.500   59.798    0.441    0.351   10.438  152.007
  383.750   59.847    0.431    0.351   10.457  152.061
  384.000   59.913    0.442    0.347   10.481  152.197
  384.250   59.373    0.432    0.344   10.122  152.306
  384.500   57.622    0.422    0.351    9.776  152.387
  384.750   55.888    0.429    0.350    9.605  152.496
  385.000   55.953    0.457    0.339    9.273  152.631
  385.250   57.834    0.431    0.333    9.471  152.713
  385.500   58.504    0.425    0.344    9.484  152.849
  385.750   57.359    0.421    0.360   10.044  151.949
  386.000   57.424    0.432    0.371   10.836  152.057
  386.250   60.532    0.440    0.366   11.481  152.166
  386.500   58.160    0.441    0.342   11.717  152.302
  386.750   57.620    0.444    0.339   11.733  152.410
  387.000   58.895    0.442    0.354   11.538  152.519
  387.250   57.750    0.440    0.347   10.743  152.655
  387.500   53.578    0.444    0.338   10.556  152.709
  387.750   55.475    0.448    0.340   10.194  152.817
  388.000   57.962    0.454    0.349   10.030  152.953
  388.250   58.027    0.463    0.354   10.039  153.035
  388.500   55.671    0.460    0.355    9.877  153.171
  388.750   55.736    0.450    0.355    9.895  153.171
  389.000   56.996    0.435    0.356    9.917  150.443
  389.250   57.699    0.414    0.359    9.935  149.461
  389.500   53.527    0.417    0.361    9.953  149.570
  389.750   51.155    0.428    0.359    9.788  149.679
  390.000   51.825    0.426    0.357    9.801  149.787
  390.250   53.722    0.436    0.353    9.638  149.923
  390.500   56.225    0.436    0.353    9.478  150.004
  390.750   56.863    0.428    0.354    9.496  149.131
  391.000   56.323    0.428    0.360    9.513  149.267
  391.250   55.177    0.433    0.362    9.359  149.349
  391.500   51.627    0.437    0.357    9.376  149.430
  391.750   52.887    0.430    0.351    9.397  149.566
  392.000   55.389    0.423    0.354    9.237  148.720
  392.250   56.060    0.425    0.354    9.254  148.802
  392.500   56.730    0.435    0.345    9.275  148.910
  392.750   54.980    0.432    0.347    9.291  148.992
  393.000   52.624    0.423    0.353    9.312  148.992
  393.250   53.327    0.410    0.358    9.325  150.272
  393.500   53.965    0.411    0.363    9.342  149.318
  393.750   47.977    0.470    0.361    9.363  149.426
  394.000   41.974    0.418    0.336    9.733  149.535
  394.250   43.266    0.381    0.227   10.114  149.643
  394.500   48.173    0.317    0.189   11.324  149.752
  394.750   53.096    0.377    0.257   11.993  149.888
  395.000   55.582    0.419    0.288   12.020  149.996
  395.250   55.648    0.414    0.319   11.614  150.132
  395.500   55.124    0.412    0.344   11.201  150.268
  395.750   54.584    0.421    0.356   10.238  150.322
  396.000   55.238    0.437    0.349    9.875  150.458
  396.250   54.714    0.431    0.347    9.545  150.567
  396.500   53.552    0.424    0.357    9.558  150.675
  396.750   56.039    0.430    0.358    9.571  149.748
  397.000   58.525    0.433    0.349    9.768  149.857
  397.250   56.169    0.426    0.342    9.781  149.992
  397.500   58.671    0.423    0.339   10.759  150.128
  397.750   61.158    0.421    0.340   11.602  150.183
  398.000   64.854    0.375    0.304   13.245  151.327
  398.250   72.788    0.335    0.263   13.262  152.444
  398.500   80.737    0.381    0.213   13.043  154.571
  398.750   80.819    0.401    0.226   12.832  155.688
  399.000   82.078    0.418    0.223   12.608  154.815
  399.250   77.318    0.403    0.224   11.728  154.924
  399.500   77.988    0.396    0.231   10.518  153.996
  399.750   81.080    0.407    0.236   10.154  154.105
  400.000   81.750    0.420    0.240    9.807  154.214
  400.250   81.210    0.447    0.242    9.644  154.349
  400.500   80.065    0.461    0.239    9.488  154.431
  400.750   81.946    0.447    0.232    9.151  154.567
  401.000   83.237    0.441    0.227    8.676  154.675
  401.250   82.681    0.448    0.233    8.528  152.766
  401.500   79.115    0.446    0.236    8.233  150.885
  401.750   75.549    0.432    0.227    8.104  150.966
  402.000   75.614    0.415    0.217    7.966  152.083
  402.250   79.310    0.425    0.224    7.984  153.201
  402.500   84.234    0.433    0.237    7.991  153.309
  402.750   83.677    0.426    0.244    8.013  154.454
  403.000   81.943    0.417    0.245    8.027  154.535
  403.250   78.966    0.439    0.244    8.038  154.644
  403.500   79.064    0.444    0.242    7.908  154.753
  403.750   81.517    0.445    0.234    7.780  151.835
  404.000   87.046    0.439    0.230    7.648  150.935
  404.250   90.759    0.434    0.240    7.380  154.124
  404.500   92.018    0.461    0.239    7.000  156.250
  404.750   95.731    0.469    0.234    6.877  158.376
  405.000   97.023    0.441    0.231    6.403  158.458
  405.250   97.677    0.435    0.226    6.179  158.594
  405.500   97.743    0.427    0.227    5.962  158.702
  405.750   94.781    0.438    0.246    5.447  159.847
  406.000   92.409    0.465    0.266    5.258  159.901
  406.250   91.902    0.477    0.277    5.076  161.018
  406.500   89.546    0.500    0.295    4.992  166.225
  406.750   87.174    0.497    0.335    4.733  173.368
  407.000   87.239    0.495    0.357    4.571  182.555
  407.250   91.541    0.506    0.332    4.411  180.674
  407.500   92.817    0.501    0.327    4.105  177.756
  407.750   88.645    0.491    0.318    3.959  180.891
  408.000   85.095    0.496    0.312    3.683  180.999
  408.250   85.176    0.510    0.324    3.622  178.082
  408.500   85.831    0.525    0.324    3.628  173.174
  408.750   86.501    0.517    0.315    3.193  178.299
  409.000   89.592    0.489    0.316    3.084  184.460
  409.250   90.884    0.484    0.323    3.091  192.666
