~VERSION INFORMATION
 VERS.                 2.0:   CWLS LOG ASCII STANDARD -VERSION 2.0
 WRAP.                  NO:   ONE LINE PER DEPTH STEP
~WELL INFORMATION BLOCK
#MNEM.UNIT           DATA                    DESCRIPTION OF MNEMONIC
#---------    -------------------            -------------------------------
# Generated from Intellog Unique Number	CS_73_76/WELL/771
WELL.         BOW VALLEY EXPLORATION         : Well_name    - WELL
LOC .         00/07-21-073-16W4/0            : Location     - LOCATION
UWI .         00/07-21-073-16W4/0            : Uwi          - UNIQUE WELL ID
ENTR.         SP                             : Entered      - ENTERED BY
SRVC.         SCHLUMBERGER                   : Scn          - SERVICE COMPANY
STRT.M        235                            : top_depth    - START DEPTH
STOP.M        439.5                          : bot_depth    - STOP DEPTH
STEP.M        0.25                           : increment    - STEP LENGTH
 NULL. -999.2500:NULL Value
~CURVE INFORMATION BLOCK
#MNEM UNIT       ERCB CURVE CODE    CURVE DESCRIPTION
#-----------   ------------------   ----------------------------------
DEPT.M        00 001 00 00         : DEPTH        - DEPTH
ILD .OHMM     00 120 00 00         : RESD         - DEEP RESISTIVITY (DIL)
DPHI.V/V      00 890 00 00         : PHID         - DENSITY POROSITY (LIMESTONE)
NPHI.V/V      00 330 00 00         : PHIN         - NEUTRON POROSITY (LIMESTONE)
GR  .API      00 310 00 00         : GR           - GAMMA RAY
~PARAMETER INFORMATION
#MNEM.UNIT           DATA             DESCRIPTION OF MNEMONIC
#---------         -----------     ------------------------------
GL  .M        570.65               : gl           - GROUND LEVEL ELEVATION
EREF.M        574.2                : kb           - ELEVATION OF DEPTH REFERENCE
DATM.M        570.65               : datum        - DATUM ELEVATION
TDD .M        448                  : tdd          - TOTAL DEPTH DRILLER
RUN .         ONE                  : Run          - RUN NUMBER
ENG .         BILL                 : Engineer     - RECORDING ENGINEER
WIT .         JIM                  : Witness      - WITNESSED BY
MUD .         GEL                  : Mud_type     - MUD TYPE
MATR.         LIMESTONE            : Logunit      - NEUTRON MATRIX
TMAX.C        21                   : BHT          - MAXIMUM RECORDED TEMPERATURE
BHTD.M        448                  : BHTDEP       - MAXIMUM RECORDED TEMPERATURE
MATR.         1                    : LOGUNIT      - NEUTRON MATRIX
RMT .C        25                   : MDTP         - TEMPERATURE OF MUD
NEUT.         1                    : NEUTRON      - NEUTRON TYPE
RESI.         0                    : RESIST       - RESISTIVITY TYPE
RMC .OHMM     0.25                 : RMC          - RESISTIVITY OF MUD CAKE
RMF .OHMM     0.25                 : RMF          - RESISTIVITY OF MUD FILTRATE
SUFT.C        15                   : SUFT         - SURFACE TEMPERATURE
~A  DEPTH     RESD     PHID     PHIN       GR
# ...
  322.000    6.628    0.329    0.397   77.857
  322.250    6.150    0.327    0.390   79.672
  322.500    5.924    0.327    0.394   80.279
  322.750    5.924    0.315    0.411   81.494
  323.000    5.923    0.309    0.418   80.296
  323.250    5.923    0.307    0.409   76.687
  323.500    6.381    0.314    0.399   73.080
  323.750    6.624    0.320    0.387   73.089
  324.000    6.748    0.329    0.388   73.101
  324.250    7.004    0.333    0.388   73.106
  324.500    7.136    0.338    0.389   73.713
  324.750    7.269    0.331    0.395   74.924
  325.000    7.269    0.323    0.403   75.535
  325.250    7.268    0.316    0.392   74.338
  325.500    7.267    0.307    0.406   71.335
  325.750    7.267    0.301    0.413   69.531
  326.000    7.132    0.296    0.420   68.335
  326.250    7.131    0.293    0.405   71.356
  326.500    6.998    0.338    0.396   73.170
  326.750    6.997    0.350    0.391   73.778
  327.000    6.868    0.351    0.402   73.786
  327.250    6.740    0.341    0.399   73.191
  327.500    6.739    0.346    0.393   70.792
  327.750    6.739    0.347    0.387   70.193
  328.000    6.865    0.336    0.383   70.200
  328.250    6.864    0.316    0.382   72.019
  328.500    6.993    0.300    0.378   72.023
  328.750    6.993    0.280    0.396   70.825
  329.000    7.124    0.260    0.394   67.822
  329.250    7.123    0.251    0.388   67.224
  329.500    7.122    0.275    0.388   70.250
  329.750    7.122    0.313    0.388   70.860
  330.000    7.121    0.332    0.389   71.468
  330.250    7.121    0.321    0.402   72.074
  330.500    7.120    0.329    0.407   73.285
  330.750    7.119    0.328    0.411   76.308
  331.000    6.987    0.331    0.411   78.122
  331.250    6.986    0.336    0.408   79.937
  331.500    7.117    0.339    0.406   81.148
  331.750    7.117    0.340    0.401   81.755
  332.000    7.116    0.337    0.397   79.956
  332.250    6.983    0.329    0.394   75.751
  332.500    7.115    0.320    0.391   75.152
  332.750    7.114    0.316    0.390   76.365
  333.000    7.113    0.320    0.396   76.973
  333.250    7.113    0.325    0.406   77.587
  333.500    7.112    0.313    0.401   76.988
  333.750    6.724    0.306    0.397   76.394
  334.000    6.723    0.319    0.392   77.005
  334.250    6.723    0.328    0.392   77.613
  334.500    6.722    0.326    0.403   78.824
  334.750    6.722    0.326    0.408   80.039
  335.000    6.848    0.330    0.406   80.646
  335.250    6.976    0.334    0.400   81.859
  335.500    6.976    0.335    0.407   78.254
  335.750    6.975    0.334    0.424   78.863
  336.000    6.974    0.323    0.423   79.472
  336.250    7.105    0.317    0.418   78.274
  336.500    7.104    0.308    0.415   80.092
  336.750    7.104    0.293    0.414   81.304
  337.000    7.103    0.296    0.419   82.514
  337.250    7.236    0.307    0.430   84.331
  337.500    7.235    0.312    0.434   84.334
  337.750    7.371    0.315    0.432   83.742
  338.000    7.370    0.307    0.418   82.546
  338.250    7.509    0.302    0.413   81.949
  338.500    7.508    0.298    0.410   81.954
  338.750    7.507    0.293    0.423   80.756
  339.000    7.507    0.292    0.432   82.576
  339.250    7.506    0.296    0.429   83.182
  339.500    7.647    0.297    0.427   84.394
  339.750    7.646    0.291    0.425   85.002
  340.000    7.646    0.287    0.424   78.989
  340.250    7.936    0.280    0.403   76.583
  340.500    8.550    0.269    0.398   74.181
  340.750    9.743    0.238    0.376   74.189
  341.000   12.891    0.165    0.346   75.402
  341.250   20.176    0.127    0.247   76.010
  341.500   53.261    0.135    0.239   82.046
  341.750   41.007    0.242    0.263   83.859
  342.000   17.372    0.274    0.297   85.671
  342.250   14.146    0.282    0.349   82.667
  342.500   12.182    0.287    0.354   77.860
  342.750   10.297    0.303    0.372   76.660
  343.000    9.205    0.310    0.387   75.460
  343.250    8.703    0.323    0.395   74.263
  343.500    8.228    0.327    0.384   74.872
  343.750    7.925    0.325    0.380   77.290
  344.000    7.634    0.326    0.394   76.093
  344.250    7.354    0.321    0.386   76.701
  344.500    7.217    0.331    0.382   78.519
  344.750    7.083    0.343    0.388   79.128
  345.000    6.951    0.345    0.384   79.133
  345.250    6.822    0.348    0.379   78.539
  345.500    6.695    0.347    0.379   79.147
  345.750    6.571    0.344    0.387   80.363
  346.000    6.449    0.346    0.388   79.765
  346.250    6.329    0.345    0.396   75.557
  346.500    6.328    0.345    0.398   77.974
  346.750    6.211    0.344    0.404   80.390
  347.000    6.210    0.338    0.405   82.806
  347.250    6.095    0.332    0.398   84.621
  347.500    5.981    0.322    0.390   83.424
  347.750    5.981    0.315    0.385   82.829
  348.000    5.980    0.307    0.404   82.837
  348.250    5.869    0.302    0.410   82.242
  348.500    5.979    0.293    0.415   81.646
  348.750    6.091    0.290    0.400   81.052
  349.000    6.091    0.289    0.389   81.661
  349.250    6.090    0.287    0.393   81.065
  349.500    5.977    0.282    0.396   79.265
  349.750    5.977    0.274    0.408   79.877
  350.000    5.866    0.268    0.416   80.486
  350.250    5.756    0.268    0.422   82.302
  350.500    5.545    0.274    0.419   82.909
  350.750    5.341    0.278    0.408   85.928
  351.000    4.957    0.280    0.404   90.153
  351.250    4.599    0.273    0.421   91.968
  351.500    4.189    0.267    0.432   94.384
  351.750    3.961    0.272    0.438   97.403
  352.000    3.607    0.274    0.444   98.616
  352.250    3.347    0.274    0.447   99.226
  352.500    3.224    0.272    0.463  100.438
  352.750    3.164    0.283    0.464  102.254
  353.000    3.285    0.288    0.455  102.259
  353.250    3.539    0.274    0.446   98.051
  353.500    4.033    0.257    0.434   95.648
  353.750    4.265    0.244    0.418   94.449
  354.000    4.510    0.233    0.402   95.060
  354.250    4.859    0.240    0.424   95.671
  354.500    5.139    0.231    0.428   93.874
  354.750    5.334    0.225    0.416   92.675
  355.000    5.640    0.219    0.414   92.076
  355.250    5.746    0.208    0.422   89.675
  355.500    5.964    0.207    0.414   88.482
  355.750    6.076    0.219    0.419   88.484
  356.000    6.075    0.231    0.424   92.109
  356.250    5.963    0.245    0.414   94.525
  356.500    5.962    0.250    0.409   95.132
  356.750    5.851    0.259    0.402   96.347
  357.000    5.742    0.268    0.417   96.352
  357.250    5.636    0.263    0.413   95.757
  357.500    5.531    0.259    0.407   95.766
  357.750    5.328    0.258    0.417   95.775
  358.000    5.229    0.263    0.417   95.177
  358.250    5.228    0.269    0.407   89.161
  358.500    5.228    0.265    0.397   83.746
  358.750    5.326    0.251    0.397   76.527
  359.000    5.846    0.237    0.382   74.121
  359.250    6.539    0.170    0.348   69.912
  359.500    7.451    0.114    0.323   65.101
  359.750    8.980    0.060    0.264   61.493
  360.000   11.234    0.035    0.149   57.888
  360.250   15.143    0.020    0.114   56.688
  360.500   17.256    0.015    0.093   56.094
  360.750   16.012    0.026    0.085   55.502
  361.000   14.314    0.043    0.108   54.904
  361.250   12.099    0.071    0.164   54.308
  361.500   10.037    0.132    0.238   58.535
  361.750    9.490    0.192    0.287   60.950
  362.000    8.021    0.225    0.333   65.782
  362.250    6.908    0.280    0.358   67.595
  362.500    6.410    0.324    0.372   68.804
  362.750    6.061    0.344    0.387   67.606
  363.000    5.624    0.332    0.393   66.411
  363.250    5.417    0.342    0.393   65.813
  363.500    5.218    0.346    0.385   65.823
  363.750    5.121    0.339    0.375   66.430
  364.000    5.121    0.332    0.383   68.249
  364.250    5.026    0.332    0.396   68.858
  364.500    5.120    0.328    0.389   68.261
  364.750    5.120    0.322    0.385   67.667
  365.000    5.215    0.321    0.400   67.671
  365.250    5.215    0.325    0.391   70.089
