~VERSION INFORMATION
 VERS.                 2.0:   CWLS LOG ASCII STANDARD -VERSION 2.0
 WRAP.                  NO:   ONE LINE PER DEPTH STEP
~WELL INFORMATION BLOCK
#MNEM.UNIT           DATA                    DESCRIPTION OF MNEMONIC
#---------    -------------------            -------------------------------
# Generated from Intellog Unique Number	CW_70_72/WELL/3006
NULL.         -999.25                        : NULL_VALUE
WELL.         GAO HONDO 06-14                : Well_name    - WELL              
LOC .         06-14-070-01W5                 : Location     - LOCATION          
UWI .         00/06-14-070-01W5/0              : Uwi          - UNIQUE WELL ID    
ENTR.         J                              : Entered      - ENTERED BY        
SRVC.         SCHLUMBERGER                   : Scn          - SERVICE COMPANY   
DATE.         1 JAN 76                       : Date         - LOG DATE          
STRT.M        438.912                        : top_depth    - START DEPTH       
STOP.M        676.662                        : bot_depth    - STOP DEPTH        
STEP.M        0.25                           : increment    - STEP LENGTH       
~CURVE INFORMATION BLOCK
#MNEM UNIT       ERCB CURVE CODE    CURVE DESCRIPTION
#-----------   ------------------   ----------------------------------
DEPT.M        00 001 00 00         : DEPTH        - DEPTH                       
ILD .OHMM     00 120 00 00         : RESD         - DEEP RESISTIVITY (DIL)      
CALI.MM       00 280 01 00         : CAL          - CALIPER                     
GR  .API      00 310 00 00         : GR           - GAMMA RAY                   
NPHI.V/V      00 330 00 00         : PHIN         - NEUTRON POROSITY (SANDSTONE)
DPHI.V/V      00 890 00 00         : PHID         - DENSITY POROSITY (SANDSTONE)
~PARAMETER INFORMATION       
#MNEM.UNIT           DATA             DESCRIPTION OF MNEMONIC
#---------         -----------     ------------------------------
GL  .M        604.723              : gl           - GROUND LEVEL ELEVATION      
EREF.M        607.771              : kb           - ELEVATION OF DEPTH REFERENCE
DATM.M        604.723              : datum        - DATUM ELEVATION             
TDD .M        688.848              : tdd          - TOTAL DEPTH DRILLER         
RUN .         ONE                  : Run          - RUN NUMBER                  
ENG .         SAWASE               : Engineer     - RECORDING ENGINEER          
WIT .         CUMMIN               : Witness      - WITNESSED BY                
BASE.         EDM                  : Branch       - HOME BASE OF LOGGING UNIT   
MATR.         SANDSTONE            : Logunit      - NEUTRON MATRIX              
TMAX.C        29.4444              : BHT          - MAXIMUM RECORDED TEMPERATURE
BHTD.M        690.067              : BHTDEP       - MAXIMUM RECORDED TEMPERATURE
RMT .C        17.7778              : MDTP         - TEMPERATURE OF MUD          
MUDD.KG/M     1188                 : MWT          - MUD DENSITY                 
NEUT.         1                    : NEUTRON      - NEUTRON TYPE                
RESI.         0                    : RESIST       - RESISTIVITY TYPE            
RM  .OHMM     2.5                  : RM           - RESISTIVITY OF MUD          
RMC .OHMM     2.5                  : RMC          - RESISTIVITY OF MUD CAKE     
RMF .OHMM     2.25                 : RMF          - RESISTIVITY OF MUD FILTRATE 
SUFT.C        -17.7778             : SUFT         - SURFACE TEMPERATURE         
~A  DEPTH     RESD      CAL       GR     PHIN     PHID
  438.912    2.345  191.738  118.346    0.426    0.214
  439.162    2.337  189.902  117.139    0.428    0.208
  439.412    2.363  189.818  115.444    0.448    0.216
  439.662    2.411  190.350  112.046    0.461    0.216
  439.912    2.534  190.678  106.214    0.450    0.224
  440.162    2.652  189.254  103.180    0.453    0.230
  440.412    2.865  188.860  101.001    0.443    0.235
  440.662    3.060  191.353   96.932    0.442    0.253
  440.912    3.000  191.577   88.603    0.423    0.284
  441.162    2.845  180.876   80.821    0.391    0.300
  441.412    2.768  170.482   72.676    0.352    0.234
  441.662    2.754  164.935   70.799    0.367    0.220
  441.912    2.820  163.617   66.731    0.380    0.236
  442.162    2.974  163.018   65.282    0.384    0.210
  442.412    3.154  162.932   68.032    0.386    0.204
  442.662    3.463  162.949   71.756    0.383    0.242
  442.912    3.747  162.870   76.699    0.373    0.206
  443.162    3.652  162.781   79.023    0.365    0.215
  443.412    3.237  162.594   75.563    0.354    0.145
  443.662    2.928  162.299   66.199    0.347    0.126
  443.912    2.787  162.219   66.454    0.332    0.095
  444.162    2.798  163.266   83.267    0.348    0.143
  444.412    2.814  166.788   94.906    0.358    0.205
  444.662    2.824  173.403  105.752    0.368    0.233
  444.912    2.851  178.164  110.876    0.407    0.225
  445.162    2.784  177.461  106.445    0.395    0.195
  445.412    2.734  175.934  100.976    0.402    0.206
  445.662    2.715  178.323  104.335    0.440    0.212
  445.912    2.785  185.661  105.016    0.471    0.244
  446.162    2.932  182.071   92.790    0.455    0.293
  446.412    3.053  169.719   79.774    0.365    0.270
  446.662    3.167  168.397   78.994    0.325    0.254
  446.912    3.150  168.835   84.789    0.333    0.255
  447.162    2.939  169.676   89.668    0.338    0.250
  447.412    2.855  170.416   96.680    0.328    0.238
  447.662    2.871  170.328  104.301    0.341    0.210
  447.912    3.033  169.730   93.659    0.374    0.240
  448.162    3.175  168.513   83.991    0.368    0.259
  448.412    3.349  167.396   87.227    0.369    0.281
  448.662    3.610  166.283   86.386    0.389    0.267
  448.912    3.842  165.473   78.788    0.383    0.253
  449.162    3.993  164.366   68.450    0.356    0.227
  449.412    4.075  163.867   68.583    0.346    0.216
  449.662    4.105  163.162   74.500    0.351    0.214
  449.912    4.083  162.767   83.032    0.333    0.227
  450.162    4.017  162.167   90.470    0.345    0.202
  450.412    3.916  161.876   93.707    0.374    0.191
  450.662    3.903  161.789   95.301    0.357    0.190
  450.912    3.968  162.838   94.886    0.363    0.190
  451.162    4.079  165.434   96.846    0.364    0.204
  451.412    3.976  169.163  104.466    0.363    0.205
  451.662    3.643  173.202  111.051    0.367    0.195
  451.912    3.398  174.355  109.358    0.347    0.178
  452.162    3.130  174.992  113.630    0.327    0.186
  452.412    2.937  177.179  119.850    0.331    0.195
  452.662    2.847  179.564  126.436    0.363    0.181
  452.912    2.842  184.738  122.733    0.415    0.193
  453.162    2.853  190.529  109.595    0.448    0.221
  453.412    2.833  200.858   85.742    0.449    0.266
  453.662    2.721  168.917   69.682    0.317    0.254
  453.912    2.586  160.483   62.023    0.293    0.231
  454.162    2.422  160.817   64.225    0.285    0.242
  454.412    2.276  161.553   64.661    0.285    0.234
  454.662    2.116  162.094   64.186    0.294    0.268
  454.912    2.018  162.523   62.310    0.301    0.268
  455.162    1.900  162.740   56.902    0.300    0.273
  455.412    1.812  162.866   50.461    0.302    0.296
  455.662    1.744  163.094   46.941    0.307    0.286
  455.912    1.703  163.314   49.387    0.306    0.273
  456.162    1.654  163.747   55.851    0.305    0.279
  456.412    1.636  163.868   57.261    0.308    0.286
  456.662    1.619  163.785   48.567    0.312    0.286
  456.912    1.649  164.315   39.325    0.316    0.291
  457.162    1.682  164.128   33.735    0.314    0.305
  457.412    1.797  164.870   33.686    0.308    0.312
  457.662    1.962  165.513   41.245    0.302    0.298
  457.912    2.147  165.628   51.727    0.293    0.280
  458.162    2.361  165.854   65.678    0.281    0.267
  458.412    2.527  165.768   81.335    0.273    0.248
  458.662    2.704  164.858   90.782    0.276    0.230
  458.912    2.873  163.225   93.169    0.301    0.199
  459.162    2.997  161.390   93.239    0.310    0.193
  459.412    3.172  160.788   92.581    0.306    0.207
  459.662    3.413  162.044   93.748    0.302    0.215
  459.912    3.775  164.021   97.776    0.302    0.221
  460.162    4.069  172.700  106.981    0.302    0.223
  460.412    4.244  179.213  113.869    0.319    0.182
  460.662    4.145  183.045  118.752    0.349    0.187
  460.912    3.770  179.249  117.057    0.342    0.210
  461.162    3.348  174.837  114.329    0.325    0.208
  461.412    2.733  174.234  116.654    0.313    0.188
  461.662    2.323  174.358  121.233    0.327    0.191
  461.912    2.236  175.612  122.884    0.383    0.189
  462.162    2.366  176.251  125.331    0.449    0.178
  462.412    2.496  174.929  127.230    0.466    0.202
  462.662    2.598  174.843  127.545    0.444    0.184
  462.912    2.599  179.089  125.059    0.452    0.212
  463.162    2.425  181.684  113.747    0.453    0.226
  463.412    2.355  173.661   88.007    0.404    0.253
  463.662    2.488  164.609   74.381    0.359    0.269
  463.912    2.742  160.094   64.591    0.349    0.276
  464.162    2.939  159.904   63.752    0.338    0.255
  464.412    3.061  160.851   64.676    0.324    0.240
  464.662    3.169  161.594   67.731    0.329    0.226
  464.912    3.288  162.641   72.853    0.336    0.209
  465.162    3.355  164.206   86.867    0.302    0.189
  465.412    3.380  166.390   97.410    0.333    0.164
  465.662    3.356  171.045  100.769    0.358    0.219
  465.912    3.242  171.478   95.058    0.412    0.252
  466.162    3.097  168.197   89.042    0.353    0.269
  466.412    2.997  166.360   84.670    0.340    0.254
  466.662    2.954  165.453   82.611    0.365    0.241
  466.912    2.928  165.062   79.455    0.374    0.248
  467.162    2.928  164.870   74.170    0.358    0.267
  467.412    2.961  164.579   74.731    0.351    0.261
  467.662    3.060  163.670   75.167    0.343    0.253
  467.912    3.524  162.451   71.341    0.338    0.245
  468.162    4.193  162.058   63.682    0.355    0.229
  468.412    4.863  164.964   61.015    0.337    0.209
  468.662    5.468  168.177   59.381    0.288    0.125
  468.912    6.080  170.049   61.097    0.239    0.055
  469.162    5.519  168.935   65.856    0.184    0.116
  469.412    4.589  164.521   74.634    0.268    0.189
  469.662    3.482  165.674   77.140    0.367    0.239
  469.912    2.906  166.827   65.829    0.364    0.267
  470.162    2.351  166.129   61.030    0.352    0.286
  470.412    2.122  164.803   63.780    0.343    0.302
  470.662    2.020  163.378   67.264    0.338    0.290
  470.912    2.100  162.570   68.063    0.334    0.271
  471.162    2.352  162.590   66.918    0.330    0.258
  471.412    2.659  162.921   66.383    0.325    0.249
  471.662    3.324  163.555   66.333    0.316    0.235
  471.912    3.927  166.976   66.405    0.279    0.185
  472.162    3.978  170.395   67.085    0.228    0.124
  472.412    3.664  171.650   69.287    0.195    0.090
  472.662    3.254  169.403   72.707    0.292    0.175
  472.912    2.975  165.915   77.527    0.345    0.249
  473.162    2.681  163.674   81.555    0.358    0.255
  473.412    2.529  164.099   84.977    0.357    0.233
  473.662    2.360  163.910   89.430    0.355    0.220
  473.912    2.254  163.727   96.930    0.364    0.229
  474.162    2.146  163.740   98.097    0.401    0.240
  474.412    2.107  163.759   93.299    0.399    0.272
  474.662    2.206  164.293   88.927    0.379    0.297
  474.912    2.374  164.621   89.365    0.371    0.262
  475.162    2.640  165.566   93.758    0.366    0.231
