~VERSION INFORMATION
 VERS.                 2.0:   CWLS LOG ASCII STANDARD -VERSION 2.0
 WRAP.                  NO:   ONE LINE PER DEPTH STEP
~WELL INFORMATION BLOCK
#MNEM.UNIT           DATA                    DESCRIPTION OF MNEMONIC
#---------    -------------------            -------------------------------
# Generated from Intellog Unique Number	CW_70_72/WELL/591
NULL.         -999.25                        : NULL_VALUE
WELL.         SUNDANCE CANAL 06-07           : Well_name    - WELL              
LOC .         06-07-071-22W4                 : Location     - LOCATION          
UWI .         00/06-07-071-22W4/0            : Uwi          - UNIQUE WELL ID    
ENTR.         JAYE                           : Entered      - ENTERED BY        
SRVC.         SCHLUMBERGER                   : Scn          - SERVICE COMPANY   
DATE.         2 MAR 77                       : Date         - LOG DATE          
STRT.M        429.768                        : top_depth    - START DEPTH       
STOP.M        627.768                        : bot_depth    - STOP DEPTH        
STEP.M        0.25                           : increment    - STEP LENGTH       
~CURVE INFORMATION BLOCK
#MNEM UNIT       ERCB CURVE CODE    CURVE DESCRIPTION
#-----------   ------------------   ----------------------------------
DEPT.M        00 001 00 00         : DEPTH        - DEPTH                       
DPHI.V/V      00 890 00 00         : PHID         - DENSITY POROSITY (SANDSTONE)
NPHI.V/V      00 330 00 00         : PHIN         - NEUTRON POROSITY (SANDSTONE)
GR  .API      00 310 00 00         : GR           - GAMMA RAY                   
CALI.MM       00 280 01 00         : CAL          - CALIPER                     
ILD .OHMM     00 120 00 00         : RESD         - DEEP RESISTIVITY (DIL)      
~PARAMETER INFORMATION       
#MNEM.UNIT           DATA             DESCRIPTION OF MNEMONIC
#---------         -----------     ------------------------------
GL  .M        669.188              : gl           - GROUND LEVEL ELEVATION      
EREF.M        672.998              : kb           - ELEVATION OF DEPTH REFERENCE
DATM.M        669.188              : datum        - DATUM ELEVATION             
TDD .M        632.46               : tdd          - TOTAL DEPTH DRILLER         
RUN .         ONE                  : Run          - RUN NUMBER                  
ENG .         ACKERMAN/MCKAY       : Engineer     - RECORDING ENGINEER          
WIT .         CHRISTENSEN          : Witness      - WITNESSED BY                
BASE.         EDM                  : Branch       - HOME BASE OF LOGGING UNIT   
MUD .         GEL                  : Mud_type     - MUD TYPE                    
MATR.         SANDSTONE            : Logunit      - NEUTRON MATRIX              
TMAX.C        27.2222              : BHT          - MAXIMUM RECORDED TEMPERATURE
BHTD.M        632.46               : BHTDEP       - MAXIMUM RECORDED TEMPERATURE
RMT .C        8.88889              : MDTP         - TEMPERATURE OF MUD          
MUDD.KG/M     1104                 : MWT          - MUD DENSITY                 
NEUT.         1                    : NEUTRON      - NEUTRON TYPE                
RESI.         0                    : RESIST       - RESISTIVITY TYPE            
RM  .OHMM     4.85                 : RM           - RESISTIVITY OF MUD          
RMC .OHMM     0                    : RMC          - RESISTIVITY OF MUD CAKE     
RMF .OHMM     0                    : RMF          - RESISTIVITY OF MUD FILTRATE 
SUFT.C        -17.7778             : SUFT         - SURFACE TEMPERATURE         
~A  DEPTH     PHID     PHIN       GR      CAL     RESD
# ...
  575.768    0.140    0.393  114.327  159.315    5.999
  576.018    0.133    0.390  117.501  160.371    6.048
  576.268    0.121    0.391  120.918  161.131    6.347
  576.518    0.104    0.395  122.517  161.179    6.946
  576.768    0.129    0.404  125.751  161.113    8.652
  577.018    0.132    0.397  128.741  160.952   11.531
  577.268    0.127    0.379  123.075  159.150   13.574
  577.518    0.140    0.351  112.139  156.628   14.748
  577.768    0.154    0.329  101.082  154.101   14.924
  578.018    0.138    0.300   92.146  153.429   13.836
  578.268    0.073    0.253   82.724  156.344   10.886
  578.518    0.026    0.260   86.688  158.942    9.297
  578.768    0.038    0.283   91.736  153.552    8.205
  579.018    0.108    0.323   96.241  154.106    7.228
  579.268    0.083    0.332   89.060  160.102    6.801
  579.518    0.057    0.300   93.266  160.649    6.503
  579.768    0.063    0.365  101.281  156.903    6.218
  580.018    0.129    0.393  110.874  155.197    5.946
  580.268    0.139    0.392  113.381  154.935    5.812
  580.518    0.120    0.384  105.231  156.313    5.683
  580.768    0.103    0.390  102.473  157.372    5.686
  581.018    0.088    0.409  105.340  158.343    5.882
  581.268    0.088    0.416  109.608  159.212    6.184
  581.518    0.111    0.406  110.902  159.452    6.743
  581.768    0.129    0.396  106.323  159.489    7.654
  582.018    0.106    0.386   97.266  158.812    8.062
  582.268    0.086    0.370   92.384  156.089    8.011
  582.518    0.075    0.330   93.866  153.773    7.788
  582.768    0.073    0.333   97.158  153.812    7.570
  583.018    0.084    0.352  101.300  156.933    7.398
  583.268    0.110    0.373  105.503  160.876    7.206
  583.518    0.103    0.399  107.223  162.141    7.239
  583.768    0.112    0.372  107.066  162.391    7.325
  584.018    0.110    0.369  107.938  158.944    7.480
  584.268    0.141    0.384  110.266  155.194    7.750
  584.518    0.127    0.396  111.863  154.107    8.015
  584.768    0.091    0.318  104.985  155.685    8.306
  585.018    0.056    0.295   95.928  158.291    8.419
  585.268    0.064    0.282  101.645  159.360    8.366
  585.518    0.092    0.300  106.755  157.247    8.058
  585.768    0.112    0.323  111.260  153.597    7.298
  586.018    0.069    0.340  104.020  152.513    7.002
  586.268    0.059    0.320   99.201  155.941    6.565
  586.518    0.067    0.331  103.282  158.751    6.323
  586.768    0.092    0.346  107.969  158.076    6.157
  587.018    0.144    0.368  113.384  156.780    6.107
  587.268    0.125    0.357  117.708  158.977    6.112
  587.518    0.127    0.355  122.274  163.225    6.106
  587.768    0.121    0.374  122.908  164.599    6.056
  588.018    0.103    0.389  117.358  164.128    5.920
  588.268    0.073    0.357  111.751  162.527    5.735
  588.518    0.108    0.352  116.140  161.852    5.676
  588.768    0.136    0.366  118.158  162.002    5.682
  589.018    0.151    0.381  115.216  161.427    5.792
  589.268    0.148    0.394  111.003  160.747    5.946
  589.518    0.132    0.370  106.728  159.666    6.241
  589.768    0.123    0.357  103.364  158.374    6.455
  590.018    0.119    0.359  100.904  156.364    6.217
  590.268    0.123    0.354  102.322  158.249    5.300
  590.518    0.131    0.343  111.129  158.602    3.962
  590.768    0.127    0.355  117.268  157.103    3.039
  591.018    0.134    0.478  123.892  154.891    2.624
  591.268    0.162    0.489  129.790  155.651    2.501
  591.518    0.172    0.483  133.569  157.539    2.663
  591.768    0.185    0.479  133.839  161.070    3.106
  592.018    0.159    0.482  129.018  163.671    3.778
  592.268    0.151    0.473  118.990  166.790    4.580
  592.518    0.131    0.448  109.932  167.239    5.342
  592.768    0.107    0.396  105.718  159.594    5.722
  593.018    0.086    0.354  102.958  156.558    5.663
  593.268    0.023    0.354  109.523  156.808    5.100
  593.518    0.051    0.386  114.451  158.185    4.550
  593.768    0.120    0.390  120.593  160.378    4.375
  594.018    0.146    0.394  125.038  162.164    4.363
  594.268    0.152    0.415  127.907  163.435    4.689
  594.518    0.158    0.430  125.874  164.197    4.148
  594.768    0.154    0.426  118.939  165.366    4.625
  595.018    0.140    0.382  113.391  166.537    5.445
  595.268    0.094    0.337  107.905  166.782    6.505
  595.518    0.050    0.290   98.360  164.873    7.660
  595.768    0.008    0.265   88.092  158.762    7.897
  596.018   -0.020    0.268   92.420  158.291    7.337
  596.268   -0.019    0.305  103.342  159.771    6.373
  596.518    0.065    0.328  110.089  161.660    5.515
  596.768    0.094    0.385  114.776  164.159    4.843
  597.018    0.111    0.413  120.006  166.054    4.269
  597.268    0.132    0.419  123.058  166.912    3.881
  597.518    0.114    0.422  119.758  167.264    3.534
  597.768    0.093    0.428  116.690  167.403    3.236
  598.018    0.143    0.438  119.864  167.650    2.947
  598.268    0.133    0.448  123.765  167.798    2.584
  598.518    0.163    0.430  125.546  167.941    2.349
  598.768    0.139    0.415  126.298  167.982    2.025
  599.018    0.128    0.422  126.625  168.538    1.848
  599.268    0.131    0.443  127.193  169.091    1.761
  599.518    0.156    0.437  128.430  168.930    1.770
  599.768    0.147    0.418  129.667  168.260    1.923
  600.018    0.142    0.408  130.176  167.683    2.083
  600.268    0.153    0.420  130.319  167.420    2.313
  600.518    0.140    0.408  129.375  167.254    2.665
  600.768    0.128    0.430  127.221  167.199    2.849
  601.018    0.128    0.421  120.040  167.541    2.948
  601.268    0.123    0.390  116.552  167.580    3.146
  601.518    0.103    0.373  117.972  167.528    3.351
  601.768    0.083    0.379  120.053  167.460    3.583
  602.018    0.111    0.382  120.626  166.992    3.788
  602.268    0.068    0.373  119.926  166.621    3.991
  602.518    0.048    0.379  118.796  166.156    4.077
  602.768    0.034    0.393  117.427  166.096    4.059
  603.018    0.081    0.414  117.149  166.037    3.998
  603.268    0.086    0.424  118.328  165.769    3.924
  603.518    0.068    0.407  119.258  165.806    3.809
  603.768    0.087    0.399  120.376  165.749    3.698
  604.018    0.100    0.406  121.789  166.202    3.655
  604.268    0.075    0.428  125.693  166.549    3.700
  604.518    0.097    0.451  129.048  166.691    3.752
  604.768    0.105    0.463  130.828  166.119    3.798
  605.018    0.083    0.422  124.193  165.544    3.837
  605.268    0.025    0.385  136.689  159.025    3.906
  605.518   -0.008    0.416  150.823  163.172    4.004
  605.768    0.033    0.416  162.413  165.465    4.181
  606.018    0.116    0.403  187.386  167.660    4.428
  606.268    0.127    0.357  198.613  171.909    4.847
  606.518    0.118    0.328  208.690  177.694    5.317
  606.768    0.116    0.232  218.464  179.885    6.226
  607.018    0.133    0.191  225.150  167.419    7.898
  607.268    0.149    0.161  182.302  152.489    9.769
  607.518    0.178    0.104   67.214  149.664   11.398
  607.768    0.251    0.077   50.649  150.319   14.279
  608.018    0.327    0.101   57.697  150.773   16.389
  608.268    0.304    0.117   63.839  152.453   17.810
  608.518    0.280    0.151   69.256  153.943   16.220
  608.768    0.267    0.212   73.821  154.385   14.140
  609.018    0.255    0.245   78.323  153.912   11.821
  609.268    0.236    0.259   83.798  153.544   10.515
  609.518    0.182    0.257   65.112  152.364    9.969
  609.768    0.179    0.229   54.177  151.274    9.925
  610.018    0.213    0.216   54.080  150.390   10.028
  610.268    0.210    0.211   58.771  151.458   10.134
  610.518    0.224    0.220   62.002  152.525   10.110
  610.768    0.215    0.237   63.905  154.106   10.011
  611.018    0.171    0.253   67.260  155.276    9.806
  611.268    0.176    0.252   70.072  153.882   10.145
  611.518    0.203    0.248   73.487  152.489   10.709
  611.768    0.198    0.239   79.444  152.219   11.000
  612.018    0.214    0.235   95.034  152.576   10.833
