~VERSION INFORMATION
 VERS.                 2.0:   CWLS LOG ASCII STANDARD -VERSION 2.0
 WRAP.                  NO:   ONE LINE PER DEPTH STEP
~WELL INFORMATION BLOCK
#MNEM.UNIT           DATA                    DESCRIPTION OF MNEMONIC
#---------    -------------------            -------------------------------
# Generated from Intellog Unique Number	CX_WELLS/WELL/3386
WELL.         ANDERSON ET AL NEWBY           : Well_name    - WELL
LOC .         00/06-20-084-05W4/0            : Location     - LOCATION
UWI .         00/06-20-084-05W400            : Uwi          - UNIQUE WELL ID
ENTR.         T                              : Entered      - ENTERED BY
SRVC.         SCHLUMBERGER                   : Scn          - SERVICE COMPANY
DATE.         03/04/92                       : Date         - LOG DATE
STRT.M        80                             : top_depth    - START DEPTH
STOP.M        275                            : bot_depth    - STOP DEPTH
STEP.M        0.25                           : increment    - STEP LENGTH
 NULL. -999.2500:NULL Value
~CURVE INFORMATION BLOCK
#MNEM UNIT       ERCB CURVE CODE    CURVE DESCRIPTION
#-----------   ------------------   ----------------------------------
DEPT.M        00 001 00 00         : DEPTH        - DEPTH
GR  .API      00 310 00 00         : GR           - GAMMA RAY
NPHI.V/V      00 330 00 00         : PHIN         - NEUTRON POROSITY (SANDSTONE)
DPHI.V/V      00 890 00 00         : PHID         - DENSITY POROSITY (SANDSTONE)
ILD .OHMM     00 120 00 00         : RESD         - DEEP RESISTIVITY (DIL)
~PARAMETER INFORMATION
#MNEM.UNIT           DATA             DESCRIPTION OF MNEMONIC
#---------         -----------     ------------------------------
GL  .M        471                  : gl           - GROUND LEVEL ELEVATION
EREF.M        474.6                : kb           - ELEVATION OF DEPTH REFERENCE
DATM.M        474.6                : datum        - DATUM ELEVATION
TDD .M        275                  : tdd          - TOTAL DEPTH DRILLER
RUN .         ONE                  : Run          - RUN NUMBER
ENG .         JO                   : Engineer     - RECORDING ENGINEER
WIT .         TIM                  : Witness      - WITNESSED BY
MUD .         GEL                  : Mud_type     - MUD TYPE
MATR.         SANDSTONE            : Logunit      - NEUTRON MATRIX
TMAX.C        31                   : BHT          - MAXIMUM RECORDED TEMPERATURE
BHTD.M        275                  : BHTDEP       - MAXIMUM RECORDED TEMPERATURE
RMT .C        14.4                 : MDTP         - TEMPERATURE OF MUD
MUDD.KG/M     1                    : MWT          - MUD DENSITY
NEUT.         1                    : NEUTRON      - NEUTRON TYPE
RESI.         3.5                  : RESIST       - RESISTIVITY TYPE
RM  .OHMM     2.4                  : RM           - RESISTIVITY OF MUD
RMC .OHMM     2.4                  : RMC          - RESISTIVITY OF MUD CAKE
RMF .OHMM     2.4                  : RMF          - RESISTIVITY OF MUD FILTRATE
SUFT.C        4                    : SUFT         - SURFACE TEMPERATURE
~A  DEPTH       GR     PHIN     PHID     RESD
# ...
  167.000   99.391    0.461    0.271    6.269
  167.250   99.451    0.458    0.283    6.524
  167.500   99.532    0.450    0.285    7.048
  167.750   94.234    0.443    0.284    7.334
  168.000   88.935    0.439    0.280    7.494
  168.250   87.841    0.438    0.277    7.364
  168.500   88.519    0.447    0.276    6.853
  168.750   89.177    0.468    0.275    6.374
  169.000   91.112    0.482    0.276    5.814
  169.250   91.730    0.496    0.280    5.408
  169.500   93.624    0.509    0.286    4.755
  169.750   94.880    0.462    0.275    4.422
  170.000   96.774    0.448    0.274    4.516
  170.250   96.277    0.428    0.292    7.107
  170.500   96.338    0.387    0.332    7.387
  170.750   95.841    0.359    0.357    8.290
  171.000   95.922    0.328    0.325    9.473
  171.250   93.612    0.324    0.238   10.433
  171.500   89.488    0.335    0.201   10.458
  171.750   82.974    0.359    0.245   10.288
  172.000   74.687    0.384    0.275   10.306
  172.250   72.974    0.413    0.295   10.139
  172.500   76.044    0.435    0.300    9.975
  172.750   80.349    0.438    0.300    9.813
  173.000   79.832    0.438    0.300    9.480
  173.250   79.295    0.438    0.298    8.817
  173.500   78.798    0.435    0.295    8.200
  173.750   78.899    0.435    0.291    7.770
  174.000   78.939    0.440    0.282    7.498
  174.250   79.618    0.441    0.255    7.240
  174.500   77.906    0.432    0.218    7.122
  174.750   74.441    0.424    0.195    7.011
  175.000   72.708    0.417    0.177    7.031
  175.250   70.996    0.412    0.157    7.048
  175.500   73.467    0.412    0.167    7.194
  175.750   78.330    0.415    0.198    7.495
  176.000   83.790    0.422    0.216    7.650
  176.250   89.868    0.432    0.241    7.809
  176.500   94.133    0.438    0.253    7.832
  176.750   96.605    0.439    0.258    7.850
  177.000   97.283    0.439    0.263    7.718
  177.250   97.404    0.437    0.267    7.322
  177.500   97.445    0.433    0.268    7.199
  177.750   96.948    0.428    0.263    7.221
  178.000   97.009    0.425    0.252    7.238
  178.250   96.492    0.430    0.250    7.251
  178.500   96.015    0.458    0.258    7.268
  178.750   94.900    0.469    0.266    7.154
  179.000   94.363    0.497    0.281    6.779
  179.250   92.651    0.510    0.299    5.425
  179.500   89.763    0.516    0.314    4.507
  179.750   88.629    0.523    0.319    3.541
  180.000   85.741    0.523    0.315    3.294
  180.250   85.244    0.478    0.304    3.427
  180.500   85.284    0.460    0.294    3.636
  180.750   85.385    0.458    0.282    4.007
  181.000   85.446    0.458    0.276    4.167
  181.250   86.722    0.455    0.272    4.334
  181.500   88.019    0.447    0.268    4.776
  181.750   88.677    0.443    0.263    4.964
  182.000   89.953    0.435    0.258    5.267
  182.250   90.652    0.434    0.254    5.587
  182.500   91.331    0.440    0.250    5.703
  182.750   92.009    0.443    0.260    5.513
  183.000   92.090    0.444    0.271    5.420
  183.250   92.191    0.444    0.279    5.233
  183.500   92.272    0.446    0.287    5.050
  183.750   92.352    0.448    0.288    4.785
  184.000   93.031    0.459    0.278    4.451
  184.250   93.689    0.471    0.272    4.063
  184.500   94.368    0.483    0.269    3.642
  184.750   95.664    0.490    0.269    3.451
  185.000   95.745    0.495    0.269    3.272
  185.250   96.464    0.499    0.269    3.217
  185.500   96.524    0.498    0.269    3.223
  185.750   97.183    0.493    0.266    3.170
  186.000   97.861    0.485    0.268    3.119
  186.250   97.942    0.484    0.269    3.128
  186.500   97.425    0.484    0.271    3.137
  186.750   96.310    0.485    0.270    3.141
  187.000   95.814    0.486    0.270    3.154
  187.250   95.894    0.488    0.269    3.158
  187.500   96.613    0.478    0.269    3.165
  187.750   96.654    0.466    0.268    3.237
  188.000   96.755    0.459    0.268    3.302
  188.250   96.815    0.452    0.266    3.372
  188.500   96.896    0.444    0.261    3.509
  188.750   96.977    0.436    0.259    3.654
  189.000   95.903    0.428    0.243    3.802
  189.250   94.768    0.433    0.219    3.956
  189.500   93.055    0.437    0.193    4.197
  189.750   91.363    0.420    0.186    4.537
  190.000   91.403    0.398    0.195    4.716
  190.250   91.504    0.379    0.225    5.003
  190.500   90.967    0.356    0.260    5.206
  190.750   87.482    0.341    0.264    5.523
  191.000   83.359    0.335    0.265    5.641
  191.250   81.666    0.328    0.265    5.981
  191.500   82.963    0.329    0.269    6.345
  191.750   83.601    0.347    0.275    6.476
  192.000   86.711    0.342    0.291    6.492
  192.250   84.380    0.322    0.313    6.759
  192.500   72.507    0.322    0.322    7.162
  192.750   69.579    0.330    0.331    7.594
  193.000   65.476    0.346    0.337    8.204
  193.250   64.959    0.363    0.348    9.206
  193.500   64.482    0.370    0.369   10.526
  193.750   63.347    0.370    0.371   11.154
  194.000   62.253    0.371    0.373   12.278
  194.250   61.716    0.372    0.378   13.271
  194.500   61.199    0.372    0.382   14.354
  194.750   61.259    0.364    0.371   14.643
  195.000   61.958    0.348    0.292   13.126
  195.250   63.214    0.295    0.252   11.752
  195.500   75.867    0.310    0.236    9.064
  195.750   81.945    0.348    0.247    7.672
  196.000   91.590    0.362    0.264    6.620
  196.250   95.277    0.361    0.287    5.607
  196.500   91.771    0.359    0.308    5.624
  196.750   88.843    0.304    0.318    5.743
  197.000   83.545    0.299    0.298    5.977
  197.250   75.257    0.315    0.230    6.104
  197.500   68.145    0.339    0.216    6.122
  197.750   78.407    0.364    0.219    5.907
  198.000   82.692    0.375    0.231    5.395
  198.250   83.391    0.387    0.233    5.018
  198.500   83.452    0.393    0.234    4.755
  198.750   83.573    0.388    0.234    4.422
  199.000   83.634    0.382    0.236    4.193
  199.250   83.096    0.379    0.238    4.120
  199.500   82.600    0.376    0.245    3.905
  199.750   81.485    0.370    0.245    3.704
  200.000   81.566    0.362    0.246    3.575
  200.250   82.224    0.353    0.249    3.514
  200.500   81.130    0.349    0.250    3.330
  200.750   78.820    0.345    0.253    3.217
  201.000   78.323    0.339    0.258    3.163
  201.250   80.177    0.334    0.264    3.056
  201.500   82.050    0.333    0.265    2.949
  201.750   84.542    0.334    0.264    2.847
  202.000   82.850    0.338    0.263    2.751
  202.250   81.097    0.342    0.264    2.706
  202.500   78.808    0.343    0.268    2.614
  202.750   80.084    0.343    0.269    2.569
  203.000   80.165    0.344    0.271    2.482
  203.250   79.030    0.342    0.273    2.440
  203.500   74.329    0.340    0.277    2.401
  203.750   69.628    0.338    0.279    2.363
  204.000   64.329    0.338    0.284    2.282
  204.250   60.824    0.346    0.287    2.286
  204.500   57.916    0.352    0.288    2.249
  204.750   56.183    0.354    0.289    2.174
  205.000   53.893    0.353    0.292    2.177
  205.250   52.201    0.352    0.294    2.104
  205.500   51.644    0.349    0.294    2.068
  205.750   51.147    0.343    0.294    2.037
  206.000   50.610    0.331    0.298    1.966
  206.250   48.898    0.324    0.302    1.933
  206.500   44.197    0.321    0.310    1.901
  206.750   40.114    0.330    0.306    1.803
  207.000   38.381    0.336    0.301    1.775
  207.250   43.841    0.337    0.293    1.777
  207.500   51.115    0.338    0.286    1.922
  207.750   56.575    0.340    0.275    2.037
  208.000   64.446    0.353    0.256    2.119
  208.250   70.504    0.370    0.247    2.334
  208.500   78.973    0.377    0.248    2.428
  208.750   83.258    0.377    0.262    2.260
  209.000   82.124    0.375    0.277    2.140
  209.250   69.652    0.371    0.297    1.954
  209.500   61.345    0.367    0.294    1.851
  209.750   51.264    0.363    0.281    1.786
  210.000   48.356    0.365    0.277    1.725
  210.250   53.219    0.377    0.275    1.697
