~VERSION INFORMATION
 VERS.                 2.0:   CWLS LOG ASCII STANDARD -VERSION 2.0
 WRAP.                  NO:   ONE LINE PER DEPTH STEP
~WELL INFORMATION BLOCK
#MNEM.UNIT           DATA                    DESCRIPTION OF MNEMONIC
#---------    -------------------            -------------------------------
# Generated from Intellog Unique Number	CS_69_70/WELL/813
WELL.         ET AL TWEEDIE                  : Well_name    - WELL
LOC .         00/07-07-069-12W4/0            : Location     - LOCATION
UWI .         00/07-07-069-12W4/0            : Uwi          - UNIQUE WELL ID
ENTR.         SP                             : Entered      - ENTERED BY
SRVC.         SCHLUMBERGER                   : Scn          - SERVICE COMPANY
STRT.M        290                            : top_depth    - START DEPTH
STOP.M        499                            : bot_depth    - STOP DEPTH
STEP.M        0.25                           : increment    - STEP LENGTH
 NULL. -999.2500:NULL Value
~CURVE INFORMATION BLOCK
#MNEM UNIT       ERCB CURVE CODE    CURVE DESCRIPTION
#-----------   ------------------   ----------------------------------
DEPT.M        00 001 00 00         : DEPTH        - DEPTH
ILD .OHMM     00 120 00 00         : RESD         - DEEP RESISTIVITY (DIL)
DPHI.V/V      00 890 00 00         : PHID         - DENSITY POROSITY (LIMESTONE)
NPHI.V/V      00 330 00 00         : PHIN         - NEUTRON POROSITY (LIMESTONE)
GR  .API      00 310 00 00         : GR           - GAMMA RAY
~PARAMETER INFORMATION
#MNEM.UNIT           DATA             DESCRIPTION OF MNEMONIC
#---------         -----------     ------------------------------
GL  .M        598.64               : gl           - GROUND LEVEL ELEVATION
EREF.M        601.19               : kb           - ELEVATION OF DEPTH REFERENCE
DATM.M        598.64               : datum        - DATUM ELEVATION
TDD .M        495                  : tdd          - TOTAL DEPTH DRILLER
RUN .         ONE                  : Run          - RUN NUMBER
ENG .         BILL                 : Engineer     - RECORDING ENGINEER
WIT .         JIM                  : Witness      - WITNESSED BY
MUD .         GEL                  : Mud_type     - MUD TYPE
MATR.         LIMESTONE            : Logunit      - NEUTRON MATRIX
TMAX.C        27                   : BHT          - MAXIMUM RECORDED TEMPERATURE
BHTD.M        495                  : BHTDEP       - MAXIMUM RECORDED TEMPERATURE
MATR.         1                    : LOGUNIT      - NEUTRON MATRIX
RMT .C        25                   : MDTP         - TEMPERATURE OF MUD
NEUT.         1                    : NEUTRON      - NEUTRON TYPE
RESI.         0                    : RESIST       - RESISTIVITY TYPE
RMC .OHMM     0.25                 : RMC          - RESISTIVITY OF MUD CAKE
RMF .OHMM     0.25                 : RMF          - RESISTIVITY OF MUD FILTRATE
SUFT.C        15                   : SUFT         - SURFACE TEMPERATURE
~A  DEPTH     RESD     PHID     PHIN       GR
# ...
  333.500    2.974    0.263    0.333   75.552
  333.750    2.976    0.267    0.340   78.298
  334.000    2.978    0.270    0.355   79.337
  334.250    2.997    0.276    0.348   74.585
  334.500    3.027    0.290    0.344   74.223
  334.750    3.097    0.305    0.346   77.761
  335.000    3.186    0.303    0.357   80.141
  335.250    3.334    0.283    0.358   77.218
  335.500    3.475    0.265    0.344   76.917
  335.750    3.664    0.242    0.335   81.187
  336.000    3.804    0.223    0.334   85.334
  336.250    4.026    0.212    0.335   88.750
  336.500    4.188    0.218    0.339   81.317
  336.750    4.262    0.235    0.342   76.505
  337.000    4.178    0.254    0.349   82.055
  337.250    3.984    0.266    0.358   86.020
  337.500    3.892    0.275    0.353   86.083
  337.750    3.844    0.276    0.358   81.820
  338.000    3.790    0.272    0.369   79.385
  338.250    3.771    0.271    0.365   76.401
  338.500    3.753    0.275    0.353   77.866
  338.750    3.770    0.279    0.350   85.428
  339.000    3.821    0.265    0.369   82.871
  339.250    3.961    0.253    0.366   78.729
  339.500    4.091    0.240    0.362   83.609
  339.750    4.171    0.235    0.367   83.062
  340.000    4.228    0.240    0.373   78.250
  340.250    4.246    0.249    0.387   87.031
  340.500    4.218    0.253    0.381   93.007
  340.750    4.221    0.256    0.363   82.709
  341.000    4.247    0.251    0.349   68.510
  341.250    4.290    0.245    0.342   70.524
  341.500    4.325    0.251    0.358   76.196
  341.750    4.368    0.270    0.383   66.507
  342.000    4.428    0.267    0.370   63.889
  342.250    4.489    0.243    0.359   73.035
  342.500    4.542    0.227    0.349   77.488
  342.750    4.562    0.242    0.340   81.453
  343.000    4.557    0.253    0.354   79.627
  343.250    4.560    0.262    0.364   75.912
  343.500    4.563    0.254    0.375   74.574
  343.750    4.532    0.245    0.388   74.089
  344.000    4.477    0.240    0.389   72.081
  344.250    4.380    0.252    0.385   70.072
  344.500    4.239    0.262    0.380   74.281
  344.750    4.095    0.272    0.372   72.638
  345.000    3.963    0.274    0.356   76.969
  345.250    3.871    0.274    0.344   82.336
  345.500    3.795    0.275    0.332   87.520
  345.750    3.756    0.277    0.326   87.218
  346.000    3.744    0.287    0.334   80.577
  346.250    3.740    0.291    0.357   77.349
  346.500    3.756    0.293    0.346   75.707
  346.750    3.808    0.280    0.344   80.159
  347.000    3.860    0.270    0.342   85.344
  347.250    3.913    0.261    0.338   90.649
  347.500    3.960    0.267    0.351   90.652
  347.750    3.948    0.279    0.360   86.937
  348.000    3.835    0.292    0.355   91.756
  348.250    3.781    0.279    0.346   95.354
  348.500    3.854    0.267    0.335   88.409
  348.750    4.010    0.246    0.319   78.050
  349.000    4.204    0.228    0.311   70.434
  349.250    4.375    0.218    0.311   60.928
  349.500    4.501    0.230    0.312   53.190
  349.750    4.622    0.239    0.330   50.998
  350.000    4.747    0.247    0.345   55.085
  350.250    4.830    0.246    0.353   60.574
  350.500    4.889    0.235    0.338   60.211
  350.750    4.900    0.230    0.323   61.129
  351.000    4.931    0.232    0.309   65.094
  351.250    4.898    0.230    0.320   67.535
  351.500    4.722    0.224    0.341   69.245
  351.750    4.347    0.213    0.337   66.200
  352.000    3.841    0.207    0.367   53.464
  352.250    3.508    0.223    0.376   45.299
  352.500    3.205    0.249    0.378   52.129
  352.750    3.006    0.281    0.367   54.082
  353.000    2.909    0.313    0.355   46.100
  353.250    2.846    0.330    0.355   48.968
  353.500    2.801    0.321    0.370   53.908
  353.750    2.788    0.304    0.376   57.202
  354.000    2.820    0.293    0.372   57.937
  354.250    2.859    0.307    0.376   57.452
  354.500    2.867    0.323    0.382   54.773
  354.750    2.869    0.324    0.384   56.118
  355.000    2.865    0.318    0.367   56.303
  355.250    2.867    0.315    0.351   54.051
  355.500    2.885    0.314    0.358   48.751
  355.750    2.931    0.299    0.361   45.340
  356.000    2.977    0.291    0.349   49.366
  356.250    3.023    0.282    0.349   52.173
  356.500    3.059    0.289    0.365   53.334
  356.750    3.083    0.299    0.360   55.471
  357.000    3.085    0.301    0.353   58.277
  357.250    3.100    0.296    0.350   57.853
  357.500    3.090    0.290    0.348   54.139
  357.750    3.075    0.287    0.345   52.130
  358.000    3.071    0.283    0.344   48.110
  358.250    3.073    0.280    0.351   46.833
  358.500    3.030    0.302    0.343   52.566
  358.750    2.965    0.319    0.360   57.933
  359.000    2.832    0.327    0.383   62.873
  359.250    2.736    0.331    0.381   66.167
  359.500    2.667    0.321    0.367   56.601
  359.750    2.650    0.314    0.348   53.922
  360.000    2.661    0.307    0.337   49.048
  360.250    2.688    0.301    0.356   50.514
  360.500    2.725    0.302    0.379   55.576
  360.750    2.793    0.310    0.381   62.284
  361.000    2.885    0.314    0.372   63.994
  361.250    2.996    0.298    0.366   61.680
  361.500    3.152    0.256    0.378   66.194
  361.750    3.292    0.231    0.334   69.428
  362.000    3.381    0.275    0.278   68.211
  362.250    3.465    0.299    0.336   66.020
  362.500    3.546    0.290    0.348   69.985
  362.750    3.483    0.275    0.347   73.645
  363.000    3.230    0.274    0.356   75.720
  363.250    3.051    0.321    0.366   77.308
  363.500    2.964    0.332    0.380   79.506
  363.750    2.927    0.331    0.393   80.666
  364.000    2.903    0.323    0.390   77.988
  364.250    2.920    0.317    0.386   82.806
  364.500    2.944    0.309    0.387   82.322
  364.750    2.991    0.311    0.391   79.459
  365.000    3.065    0.300    0.385   71.173
  365.250    3.178    0.293    0.378   63.313
  365.500    3.313    0.287    0.371   59.719
  365.750    3.460    0.280    0.356   63.624
  366.000    3.606    0.276    0.342   63.931
  366.250    3.752    0.269    0.334   56.010
  366.500    3.854    0.257    0.331   54.246
  366.750    3.914    0.243    0.331   58.089
  367.000    3.881    0.229    0.349   62.359
  367.250    3.819    0.272    0.347   62.118
  367.500    3.737    0.302    0.346   60.901
  367.750    3.677    0.315    0.362   63.099
  368.000    3.659    0.288    0.361   65.662
  368.250    3.683    0.249    0.351   63.653
  368.500    3.692    0.245    0.366   64.510
  368.750    3.660    0.278    0.388   66.647
  369.000    3.588    0.299    0.390   65.796
  369.250    3.479    0.304    0.375   65.433
  369.500    3.411    0.307    0.366   68.301
  369.750    3.376    0.312    0.368   69.523
  370.000    3.384    0.305    0.368   69.099
  370.250    3.405    0.302    0.364   72.942
  370.500    3.414    0.298    0.365   76.602
  370.750    3.410    0.302    0.366   81.299
  371.000    3.432    0.293    0.368   80.204
  371.250    3.434    0.283    0.371   77.343
  371.500    3.448    0.273    0.379   77.346
  371.750    3.529    0.262    0.375   72.594
  372.000    3.624    0.255    0.359   68.147
  372.250    3.722    0.263    0.346   67.541
  372.500    3.902    0.269    0.346   68.093
  372.750    4.059    0.257    0.358   68.644
  373.000    4.192    0.253    0.351   70.354
  373.250    4.298    0.260    0.338   74.136
  373.500    4.349    0.254    0.325   79.504
  373.750    4.344    0.243    0.324   81.639
  374.000    4.283    0.237    0.343   77.375
  374.250    4.099    0.241    0.351   67.870
  374.500    4.018    0.227    0.351   76.223
  374.750    3.918    0.217    0.358   78.055
  375.000    3.863    0.231    0.376   64.831
  375.250    3.843    0.241    0.376   66.175
  375.500    3.804    0.249    0.361   69.408
  375.750    3.778    0.259    0.346   67.278
  376.000    3.739    0.268    0.340   71.060
  376.250    3.727    0.260    0.331   69.600
  376.500    3.723    0.249    0.326   65.946
  376.750    3.746    0.246    0.336   64.608
