~VERSION INFORMATION
 VERS.                 2.0:   CWLS LOG ASCII STANDARD -VERSION 2.0
 WRAP.                  NO:   ONE LINE PER DEPTH STEP
~WELL INFORMATION BLOCK
#MNEM.UNIT           DATA                    DESCRIPTION OF MNEMONIC
#---------    -------------------            -------------------------------
# Generated from Intellog Unique Number	CS_73_76/WELL/701
WELL.         ALLIED ROXANA MINERALS LTD     : Well_name    - WELL
LOC .         00/06-35-073-14W4/0            : Location     - LOCATION
UWI .         00/06-35-073-14W4/0            : Uwi          - UNIQUE WELL ID
ENTR.         SP                             : Entered      - ENTERED BY
SRVC.         SCHLUMBERGER                   : Scn          - SERVICE COMPANY
STRT.M        335.28                         : top_depth    - START DEPTH
STOP.M        560.53                         : bot_depth    - STOP DEPTH
STEP.M        0.25                           : increment    - STEP LENGTH
 NULL. -999.2500:NULL Value
~CURVE INFORMATION BLOCK
#MNEM UNIT       ERCB CURVE CODE    CURVE DESCRIPTION
#-----------   ------------------   ----------------------------------
DEPT.M        00 001 00 00         : DEPTH        - DEPTH
GR  .API      00 310 00 00         : GR           - GAMMA RAY
DPHI.V/V      00 890 00 00         : PHID         - DENSITY POROSITY (SANDSTONE)
NPHI.V/V      00 330 00 00         : PHIN         - NEUTRON POROSITY (SANDSTONE)
ILD .OHMM     00 120 00 00         : RESD         - DEEP RESISTIVITY (DIL)
~PARAMETER INFORMATION
#MNEM.UNIT           DATA             DESCRIPTION OF MNEMONIC
#---------         -----------     ------------------------------
GL  .M        683.666              : gl           - GROUND LEVEL ELEVATION
EREF.M        686.714              : kb           - ELEVATION OF DEPTH REFERENCE
DATM.M        683.666              : datum        - DATUM ELEVATION
TDD .M        579.12               : tdd          - TOTAL DEPTH DRILLER
RUN .         ONE                  : Run          - RUN NUMBER
ENG .         BILL                 : Engineer     - RECORDING ENGINEER
WIT .         JIM                  : Witness      - WITNESSED BY
MUD .         GEL                  : Mud_type     - MUD TYPE
MATR.         SANDSTONE            : Logunit      - NEUTRON MATRIX
TMAX.C        15.5556              : BHT          - MAXIMUM RECORDED TEMPERATURE
BHTD.M        490.728              : BHTDEP       - MAXIMUM RECORDED TEMPERATURE
MATR.         1                    : LOGUNIT      - NEUTRON MATRIX
RMT .C        25                   : MDTP         - TEMPERATURE OF MUD
NEUT.         1                    : NEUTRON      - NEUTRON TYPE
RESI.         0                    : RESIST       - RESISTIVITY TYPE
RMC .OHMM     0.25                 : RMC          - RESISTIVITY OF MUD CAKE
RMF .OHMM     0.25                 : RMF          - RESISTIVITY OF MUD FILTRATE
SUFT.C        15                   : SUFT         - SURFACE TEMPERATURE
~A  DEPTH       GR     PHID     PHIN     RESD
# ...
  509.280   61.855    0.225    0.430   20.271
  509.530   61.535    0.233    0.417   20.293
  509.780   62.757    0.225    0.416   20.348
  510.030   64.481    0.219    0.412   20.297
  510.280   65.887    0.212    0.410   20.111
  510.530   66.335    0.213    0.406   19.314
  510.780   66.049    0.208    0.396   17.738
  511.030   65.012    0.216    0.383   17.211
  511.280   64.482    0.223    0.370   17.356
  511.530   65.654    0.229    0.376   17.730
  511.780   66.900    0.241    0.389   18.111
  512.030   67.137    0.228    0.400   20.613
  512.280   62.914    0.214    0.381   25.729
  512.530   59.115    0.210    0.371   28.717
  512.780   62.427    0.204    0.354   30.909
  513.030   70.294    0.184    0.340   30.927
  513.280   79.727    0.211    0.345   27.456
  513.530   86.823    0.216    0.367   20.221
  513.780   94.223    0.200    0.380   13.262
  514.030  102.692    0.185    0.395   11.617
  514.280  106.300    0.179    0.421    9.490
  514.530  110.498    0.174    0.433    8.035
  514.780  112.545    0.177    0.418    7.098
  515.030  110.476    0.186    0.438    6.854
  515.280  106.497    0.188    0.445    6.738
  515.530  100.479    0.191    0.433    7.613
  515.780   89.725    0.206    0.419    9.875
  516.030   81.160    0.223    0.409   12.519
  516.280   73.180    0.253    0.421   17.131
  516.530   71.950    0.264    0.428   19.714
  516.780   73.898    0.242    0.425   20.174
  517.030   74.908    0.258    0.407   20.222
  517.280   75.119    0.251    0.398   20.171
  517.530   71.963    0.245    0.409   19.711
  517.780   69.217    0.252    0.406   18.862
  518.030   67.281    0.252    0.384   18.436
  518.280   67.612    0.240    0.366   18.844
  518.530   70.245    0.231    0.354   18.517
  518.780   73.327    0.213    0.350   16.808
  519.030   76.390    0.201    0.342   15.558
  519.280   77.650    0.186    0.346   14.788
  519.530   78.014    0.184    0.358   14.220
  519.780   80.147    0.192    0.355   13.212
  520.030   84.570    0.199    0.356   12.223
  520.280   85.356    0.163    0.378   11.842
  520.530   81.419    0.158    0.389   11.610
  520.780   78.985    0.158    0.401   11.484
  521.030   75.890    0.173    0.399   11.726
  521.280   74.748    0.186    0.385   12.454
  521.530   74.433    0.188    0.376   13.069
  521.780   73.470    0.183    0.378   14.258
  522.030   66.367    0.189    0.391   15.299
  522.280   60.748    0.213    0.387   20.095
  522.530   50.173    0.235    0.376   21.027
  522.780   45.096    0.256    0.372   27.870
  523.030   45.586    0.278    0.388   35.992
  523.280   48.960    0.292    0.386   42.523
  523.530   49.929    0.278    0.409   44.580
  523.780   48.838    0.277    0.425   42.813
  524.030   49.078    0.282    0.445   40.219
  524.280   50.231    0.289    0.460   36.931
  524.530   54.052    0.282    0.430   15.209
  524.780   60.365    0.251    0.410   13.530
  525.030   65.613    0.231    0.407   11.532
  525.280   72.713    0.208    0.423   10.968
  525.530   75.052    0.171    0.481   11.622
  525.780   66.885    0.158    0.500   12.818
  526.030   54.421    0.209    0.562   15.174
  526.280   46.772    0.262    0.415   19.552
  526.530   49.434    0.277    0.386   20.931
  526.780   54.235    0.266    0.389   21.321
  527.030   55.716    0.266    0.413   21.193
  527.280   54.097    0.292    0.430   20.902
  527.530   54.049    0.284    0.412   20.457
  527.780   54.030    0.303    0.407   17.077
  528.030   51.935    0.298    0.413    9.583
  528.280   46.725    0.280    0.412    7.901
  528.530   40.924    0.278    0.394    6.784
  528.780   47.865    0.284    0.376    6.324
  529.030   58.217    0.300    0.371    5.977
  529.280   67.306    0.287    0.392    5.978
  529.530   69.575    0.265    0.416    6.601
  529.780   64.585    0.260    0.454    7.699
  530.030   58.483    0.258    0.431    9.150
  530.280   57.167    0.242    0.400   10.179
  530.530   62.109    0.238    0.390   11.854
  530.780   63.755    0.228    0.384   13.860
  531.030   69.062    0.197    0.370   14.399
  531.280   73.158    0.224    0.398   13.664
  531.530   80.303    0.236    0.416   11.534
  531.780   83.987    0.213    0.403   10.401
  532.030   88.391    0.196    0.388    9.115
  532.280   91.442    0.182    0.382    8.397
  532.530   90.752    0.169    0.378    7.928
  532.780   91.369    0.167    0.374    7.521
  533.030   90.864    0.167    0.386    7.384
  533.280   88.839    0.162    0.399    7.255
  533.530   87.500    0.169    0.417    7.334
  533.780   93.488    0.186    0.410    7.406
  534.030   98.869    0.178    0.408    7.589
  534.280  102.660    0.187    0.421    7.935
  534.530  101.200    0.200    0.429    8.021
  534.780  100.306    0.193    0.419    8.300
  535.030  100.198    0.170    0.396    8.383
  535.280   96.084    0.190    0.372    7.700
  535.530   93.698    0.213    0.375    7.046
  535.780  100.177    0.228    0.423    6.107
  536.030  108.617    0.236    0.501    5.646
  536.280  119.642    0.231    0.589    5.139
  536.530  118.535    0.202    0.594    4.588
  536.780  114.087    0.169    0.574    4.145
  537.030  109.095    0.174    0.555    4.498
  537.280   94.238    0.179    0.537    4.864
  537.530   84.523    0.187    0.483    5.118
  537.780   78.819    0.205    0.418    5.326
  538.030   74.677    0.205    0.394    5.447
  538.280   68.778    0.218    0.409    5.664
  538.530   63.138    0.224    0.397    5.401
  538.780   63.863    0.207    0.370    4.878
  539.030   62.298    0.190    0.369    4.560
  539.280   56.778    0.208    0.375    4.386
  539.530   52.062    0.233    0.380    4.095
  539.780   48.576    0.261    0.382    3.413
  540.030   46.804    0.254    0.375    3.024
  540.280   42.741    0.250    0.371    2.952
  540.530   39.549    0.273    0.365    3.134
  540.780   41.084    0.298    0.374    3.299
  541.030   44.291    0.289    0.382    3.435
  541.280   47.779    0.280    0.384    3.504
  541.530   51.653    0.276    0.375    3.569
  541.780   55.489    0.257    0.381    3.661
  542.030   52.588    0.243    0.409    3.749
  542.280   50.517    0.260    0.402    3.724
  542.530   53.548    0.273    0.407    3.459
  542.780   53.988    0.271    0.437    3.206
  543.030   48.953    0.266    0.459    3.365
  543.280   46.649    0.290    0.453    3.373
  543.530   50.590    0.285    0.396    3.234
  543.780   49.383    0.272    0.404    3.196
  544.030   48.285    0.272    0.414    3.268
  544.280   48.337    0.273    0.413    3.373
  544.530   48.299    0.267    0.420    3.588
  544.780   51.580    0.272    0.388    3.820
  545.030   56.692    0.229    0.376    4.002
  545.280   62.006    0.217    0.391    4.145
  545.530   58.793    0.232    0.402    3.998
  545.780   47.062    0.244    0.416    3.544
  546.030   40.216    0.280    0.420    3.297
  546.280   42.613    0.315    0.398    3.028
  546.530   46.907    0.295    0.393    2.861
  546.780   50.653    0.265    0.411    2.779
  547.030   43.112    0.264    0.418    2.876
  547.280   39.841    0.314    0.425    2.868
  547.530   41.812    0.332    0.429    2.784
  547.780   52.135    0.304    0.419    2.784
  548.030   58.724    0.267    0.405    2.866
  548.280   62.928    0.258    0.422    3.048
  548.530   57.201    0.258    0.433    3.232
  548.780   50.980    0.271    0.429    3.124
  549.030   44.453    0.307    0.458    3.003
  549.280   44.170    0.294    0.443    3.089
  549.530   47.472    0.277    0.435    2.943
  549.780   50.172    0.267    0.451    2.777
  550.030   47.029    0.287    0.467    2.693
  550.280   50.075    0.296    0.447    2.888
  550.530   56.461    0.274    0.453    3.082
  550.780   52.274    0.274    0.474    3.320
  551.030   45.902    0.301    0.475    3.455
  551.280   40.321    0.318    0.460    3.471
  551.530   36.325    0.312    0.438    3.480
  551.780   36.984    0.313    0.422    3.262
  552.030   41.964    0.308    0.437    3.147
  552.280   46.418    0.299    0.454    3.151
  552.530   50.913    0.283    0.457    3.148
