~VERSION INFORMATION
 VERS.                 2.0:   CWLS LOG ASCII STANDARD -VERSION 2.0
 WRAP.                  NO:   ONE LINE PER DEPTH STEP
~WELL INFORMATION BLOCK
#MNEM.UNIT           DATA                    DESCRIPTION OF MNEMONIC
#---------    -------------------            -------------------------------
# Generated from Intellog Unique Number	CS_73_76/WELL/1030
WELL.         CAVALIER ENERGY INC.           : Well_name    - WELL
LOC .         00/06-02-076-15W4/0            : Location     - LOCATION
UWI .         00/06-02-076-15W4/0            : Uwi          - UNIQUE WELL ID
ENTR.         SP                             : Entered      - ENTERED BY
SRVC.         SCHLUMBERGER                   : Scn          - SERVICE COMPANY
STRT.M        344.424                        : top_depth    - START DEPTH
STOP.M        545.424                        : bot_depth    - STOP DEPTH
STEP.M        0.25                           : increment    - STEP LENGTH
 NULL. -999.2500:NULL Value
~CURVE INFORMATION BLOCK
#MNEM UNIT       ERCB CURVE CODE    CURVE DESCRIPTION
#-----------   ------------------   ----------------------------------
DEPT.M        00 001 00 00         : DEPTH        - DEPTH
GR  .API      00 310 00 00         : GR           - GAMMA RAY
DPHI.V/V      00 890 00 00         : PHID         - DENSITY POROSITY (SANDSTONE)
NPHI.V/V      00 330 00 00         : PHIN         - NEUTRON POROSITY (SANDSTONE)
ILD .OHMM     00 120 00 00         : RESD         - DEEP RESISTIVITY (DIL)
~PARAMETER INFORMATION
#MNEM.UNIT           DATA             DESCRIPTION OF MNEMONIC
#---------         -----------     ------------------------------
GL  .M        714.146              : gl           - GROUND LEVEL ELEVATION
EREF.M        717.194              : kb           - ELEVATION OF DEPTH REFERENCE
DATM.M        714.146              : datum        - DATUM ELEVATION
TDD .M        545.592              : tdd          - TOTAL DEPTH DRILLER
RUN .         ONE                  : Run          - RUN NUMBER
ENG .         BILL                 : Engineer     - RECORDING ENGINEER
WIT .         JIM                  : Witness      - WITNESSED BY
MUD .         GEL                  : Mud_type     - MUD TYPE
MATR.         SANDSTONE            : Logunit      - NEUTRON MATRIX
TMAX.C        17.7778              : BHT          - MAXIMUM RECORDED TEMPERATURE
BHTD.M        545.592              : BHTDEP       - MAXIMUM RECORDED TEMPERATURE
MATR.         1                    : LOGUNIT      - NEUTRON MATRIX
RMT .C        25                   : MDTP         - TEMPERATURE OF MUD
NEUT.         1                    : NEUTRON      - NEUTRON TYPE
RESI.         0                    : RESIST       - RESISTIVITY TYPE
RMC .OHMM     0.25                 : RMC          - RESISTIVITY OF MUD CAKE
RMF .OHMM     0.25                 : RMF          - RESISTIVITY OF MUD FILTRATE
SUFT.C        15                   : SUFT         - SURFACE TEMPERATURE
~A  DEPTH       GR     PHID     PHIN     RESD
  344.424  101.220    0.234    0.514   18.179
  344.674  100.981    0.225    0.533   18.891
  344.924  102.071    0.234    0.529   20.165
  345.174  102.502    0.243    0.508    4.060
  345.424  102.207    0.226    0.507    3.657
  345.674  101.090    0.237    0.522    3.408
  345.924   99.639    0.238    0.530    3.582
  346.174   96.263    0.231    0.532    3.590
  346.424   92.004    0.241    0.520    3.592
  346.674   91.015    0.247    0.509    3.586
  346.924   92.964    0.237    0.498    3.694
  347.174   97.864    0.243    0.516    4.002
  347.424   98.168    0.225    0.539    4.351
  347.674   90.721    0.193    0.550    4.962
  347.924   85.751    0.152    0.493    5.341
  348.174   82.052    0.065    0.451    5.692
  348.424   87.851    0.039    0.419    5.804
  348.674   98.737    0.018    0.440    5.599
  348.924  108.435    0.152    0.468    5.508
  349.174  109.373    0.192    0.466    5.523
  349.424  107.864    0.193    0.481    5.597
  349.674  107.130    0.182    0.496    5.595
  349.924  104.029    0.180    0.490    5.595
  350.174  104.211    0.177    0.480    5.610
  350.424  102.264    0.193    0.478    5.398
  350.674  103.558    0.191    0.471    5.278
  350.924  107.194    0.184    0.483    5.142
  351.174  109.900    0.196    0.498    5.123
  351.424  108.063    0.213    0.492    5.122
  351.674  103.653    0.213    0.499    5.125
  351.924  101.641    0.194    0.499    5.139
  352.174  101.107    0.189    0.499    5.194
  352.424  104.052    0.209    0.506    5.375
  352.674  106.265    0.196    0.510    5.458
  352.924  106.659    0.190    0.493    5.533
  353.174  109.531    0.184    0.477    5.407
  353.424  109.715    0.195    0.461    5.369
  353.674  104.239    0.201    0.457    5.561
  353.924  103.956    0.201    0.455    5.712
  354.174  104.489    0.194    0.461    5.845
  354.424   94.218    0.195    0.499    5.935
  354.674   85.063    0.207    0.496    5.944
  354.924   71.719    0.219    0.402    6.080
  355.174   70.626    0.263    0.372    6.174
  355.424   77.165    0.238    0.426    6.160
  355.674   82.269    0.232    0.467    6.085
  355.924   74.116    0.265    0.430    6.239
  356.174   76.292    0.249    0.408    6.505
  356.424   92.261    0.225    0.434    6.840
  356.674  101.163    0.198    0.452    7.041
  356.924   94.806    0.188    0.446    7.453
  357.174   87.712    0.176    0.441    7.854
  357.424   82.224    0.222    0.429    8.496
  357.674   77.972    0.264    0.428    8.798
  357.924   75.316    0.272    0.439    9.027
  358.174   74.532    0.281    0.434    9.057
  358.424   77.085    0.287    0.427    8.838
  358.674   80.436    0.283    0.422    8.422
  358.924   96.405    0.272    0.430    7.788
  359.174  103.229    0.253    0.463    6.971
  359.424  111.417    0.195    0.499    6.438
  359.674  117.241    0.166    0.499    6.000
  359.924  119.697    0.142    0.497    5.247
  360.174  123.753    0.154    0.530    4.843
  360.424  126.249    0.198    0.547    4.752
  360.674  125.933    0.190    0.548    4.744
  360.924  121.754    0.197    0.539    4.841
  361.174  116.225    0.194    0.525    4.833
  361.424  110.947    0.133    0.507    4.796
  361.674  116.429    0.084    0.496    4.657
  361.924  123.421    0.192    0.530    4.261
  362.174  126.306    0.221    0.554    3.766
  362.424  124.325    0.211    0.564    3.386
  362.674  120.772    0.186    0.549    3.380
  362.924  120.785    0.130    0.553    3.532
  363.174  127.144    0.205    0.525    3.889
  363.424  124.735    0.240    0.484    4.528
  363.674  119.113    0.252    0.476    5.789
  363.924  114.392    0.258    0.471    7.200
  364.174  113.993    0.260    0.462    8.177
  364.424  114.849    0.248    0.452    8.735
  364.674  117.927    0.233    0.452    8.924
  364.924  112.018    0.223    0.466    8.737
  365.174  106.595    0.245    0.470    8.757
  365.424  103.747    0.271    0.463    8.563
  365.674   99.981    0.267    0.464    8.249
  365.924   99.337    0.277    0.457    7.932
  366.174  102.991    0.271    0.451    7.494
  366.424  107.689    0.225    0.471    7.321
  366.674  109.078    0.196    0.481    7.559
  366.924  104.757    0.219    0.485    7.986
  367.174   98.095    0.235    0.489    8.590
  367.424   95.175    0.256    0.468    9.122
  367.674   95.854    0.259    0.468    9.617
  367.924   96.929    0.271    0.478    9.900
  368.174   99.067    0.268    0.485    9.893
  368.424   98.701    0.269    0.490    9.542
  368.674  100.877    0.267    0.500    8.967
  368.924  106.116    0.230    0.486    8.376
  369.174  109.100    0.247    0.483    8.013
  369.424  113.674    0.238    0.467    7.803
  369.674  117.093    0.251    0.459    7.671
  369.924  118.424    0.246    0.457    7.654
  370.174  111.345    0.245    0.467    7.650
  370.424  108.350    0.251    0.482    7.781
  370.674   93.640    0.245    0.487    7.909
  370.924   80.987    0.294    0.465    8.106
  371.174   70.909    0.311    0.455    8.429
  371.424   71.164    0.287    0.458    8.557
  371.674   67.777    0.259    0.468    8.904
  371.924   60.443    0.248    0.474    9.071
  372.174   58.120    0.310    0.465    9.338
  372.424   55.535    0.330    0.452    9.576
  372.674   54.585    0.329    0.437    9.973
  372.924   55.299    0.315    0.437   10.449
  373.174   56.700    0.312    0.446   10.958
  373.424   57.774    0.332    0.446   11.310
  373.674   58.369    0.323    0.463   11.408
  373.924   58.435    0.314    0.473   11.361
  374.174   58.607    0.303    0.476   11.318
  374.424   60.715    0.313    0.472   11.248
  374.674   64.429    0.312    0.468   11.259
  374.924   69.831    0.291    0.465   11.169
  375.174   75.364    0.276    0.465   11.115
  375.424   82.011    0.268    0.486   10.961
  375.674   86.736    0.259    0.495   10.512
  375.924   93.552    0.264    0.512    9.595
  376.174   97.392    0.267    0.513    8.447
  376.424   98.187    0.284    0.494    7.923
  376.674  100.316    0.278    0.487    7.175
  376.924   97.349    0.280    0.503    6.628
  377.174   95.814    0.287    0.508    6.325
  377.424   98.476    0.280    0.520    6.243
  377.674  100.433    0.262    0.516    6.038
  377.924   98.422    0.226    0.531    5.777
  378.174   94.389    0.233    0.518    5.489
  378.424   88.978    0.243    0.472    5.280
  378.674   85.457    0.265    0.456    5.206
  378.924   84.937    0.263    0.438    5.231
  379.174   88.131    0.266    0.441    5.453
  379.424   91.773    0.270    0.467    6.003
  379.674   88.855    0.259    0.478    6.605
  379.924   87.507    0.261    0.486    7.259
  380.174   91.642    0.228    0.507    7.716
  380.424   93.292    0.205    0.505    7.751
  380.674   91.281    0.208    0.506    7.612
  380.924   83.175    0.187    0.509    7.377
  381.174   72.558    0.224    0.507    7.039
  381.424   59.671    0.255    0.474    6.847
  381.674   52.966    0.276    0.457    6.755
  381.924   50.480    0.286    0.434    6.898
  382.174   49.084    0.292    0.421    7.207
  382.424   48.117    0.286    0.423    7.873
  382.674   47.547    0.299    0.428    9.182
  382.924   46.948    0.308    0.428   10.447
  383.174   46.142    0.312    0.430   11.451
  383.424   45.783    0.321    0.432   11.744
  383.674   45.110    0.316    0.426   11.894
  383.924   45.205    0.313    0.432   11.834
  384.174   44.693    0.329    0.433   11.771
  384.424   44.681    0.319    0.434   11.732
  384.674   43.962    0.315    0.450   11.592
  384.924   42.935    0.329    0.447   11.527
  385.174   42.818    0.337    0.451   11.435
  385.424   43.489    0.352    0.448   11.445
  385.674   44.912    0.343    0.436   11.450
  385.924   45.989    0.322    0.439   11.491
  386.174   45.970    0.329    0.436   11.606
  386.424   45.623    0.338    0.459   11.697
  386.674   45.373    0.341    0.451   11.699
  386.924   46.452    0.336    0.436   11.843
  387.174   48.715    0.327    0.435   11.887
  387.424   51.696    0.333    0.437   11.928
  387.674   53.147    0.329    0.427   11.930
