~VERSION INFORMATION
 VERS.                 2.0:   CWLS LOG ASCII STANDARD -VERSION 2.0
 WRAP.                  NO:   ONE LINE PER DEPTH STEP
~WELL INFORMATION BLOCK
#MNEM.UNIT           DATA                    DESCRIPTION OF MNEMONIC
#---------    -------------------            -------------------------------
# Generated from Intellog Unique Number	CS_67_68/WELL/714
WELL.         ET AL TWEEDIE                  : Well_name    - WELL
LOC .         00/06-31-068-12W4/0            : Location     - LOCATION
UWI .         00/06-31-068-12W4/0            : Uwi          - UNIQUE WELL ID
ENTR.         SP                             : Entered      - ENTERED BY
SRVC.         SCHLUMBERGER                   : Scn          - SERVICE COMPANY
STRT.M        289.56                         : top_depth    - START DEPTH
STOP.M        502.560                        : bot_depth    - STOP DEPTH
STEP.M        0.25                           : increment    - STEP LENGTH
 NULL. -999.2500:NULL Value
~CURVE INFORMATION BLOCK
#MNEM UNIT       ERCB CURVE CODE    CURVE DESCRIPTION
#-----------   ------------------   ----------------------------------
DEPT.M        00 001 00 00         : DEPTH        - DEPTH
GR  .API      00 310 00 00         : GR           - GAMMA RAY
DPHI.V/V      00 890 00 00         : PHID         - DENSITY POROSITY (SANDSTONE)
NPHI.V/V      00 330 00 00         : PHIN         - NEUTRON POROSITY (SANDSTONE)
ILD .OHMM     00 120 00 00         : RESD         - DEEP RESISTIVITY (DIL)
~PARAMETER INFORMATION
#MNEM.UNIT           DATA             DESCRIPTION OF MNEMONIC
#---------         -----------     ------------------------------
GL  .M        591.922              : gl           - GROUND LEVEL ELEVATION
EREF.M        594.665              : kb           - ELEVATION OF DEPTH REFERENCE
DATM.M        591.922              : datum        - DATUM ELEVATION
TDD .M        504.749              : tdd          - TOTAL DEPTH DRILLER
RUN .         ONE                  : Run          - RUN NUMBER
ENG .         BILL                 : Engineer     - RECORDING ENGINEER
WIT .         JIM                  : Witness      - WITNESSED BY
MUD .         GEL                  : Mud_type     - MUD TYPE
MATR.         SANDSTONE            : Logunit      - NEUTRON MATRIX
TMAX.C        22.2222              : BHT          - MAXIMUM RECORDED TEMPERATURE
BHTD.M        504.749              : BHTDEP       - MAXIMUM RECORDED TEMPERATURE
MATR.         1                    : LOGUNIT      - NEUTRON MATRIX
RMT .C        25                   : MDTP         - TEMPERATURE OF MUD
NEUT.         1                    : NEUTRON      - NEUTRON TYPE
RESI.         0                    : RESIST       - RESISTIVITY TYPE
RMC .OHMM     0.25                 : RMC          - RESISTIVITY OF MUD CAKE
RMF .OHMM     0.25                 : RMF          - RESISTIVITY OF MUD FILTRATE
SUFT.C        15                   : SUFT         - SURFACE TEMPERATURE
~A  DEPTH       GR     PHID     PHIN     RESD
# ...
  463.560   92.986    0.217    0.391    5.585
  463.810  100.317    0.212    0.379    5.664
  464.060  103.170    0.191    0.367    5.873
  464.310  100.429    0.179    0.355    6.056
  464.560   98.387    0.171    0.349    6.316
  464.810   97.977    0.184    0.344    6.535
  465.060   98.320    0.187    0.343    6.747
  465.310   98.303    0.187    0.341    6.853
  465.560   97.605    0.179    0.350    6.910
  465.810   95.963    0.169    0.358    6.938
  466.060   91.692    0.155    0.358    6.914
  466.310   89.798    0.139    0.348    6.965
  466.560   91.433    0.121    0.343    6.972
  466.810   97.476    0.093    0.357    6.776
  467.060  100.459    0.142    0.363    6.097
  467.310   99.741    0.176    0.353    5.410
  467.560   98.141    0.170    0.348    4.612
  467.810   92.886    0.161    0.347    3.967
  468.060   88.377    0.182    0.364    3.432
  468.310   82.871    0.217    0.380    3.083
  468.560   78.777    0.258    0.396    2.899
  468.810   75.682    0.274    0.417    2.822
  469.060   78.221    0.283    0.407    2.828
  469.310   80.940    0.281    0.396    3.032
  469.560   85.109    0.266    0.379    3.346
  469.810   91.570    0.238    0.363    3.667
  470.060   99.093    0.211    0.352    4.189
  470.310  106.200    0.197    0.350    4.580
  470.560  113.813    0.187    0.355    4.680
  470.810  120.321    0.176    0.358    4.577
  471.060  124.718    0.156    0.357    4.322
  471.310  133.533    0.140    0.380    4.154
  471.560  141.575    0.129    0.406    4.019
  471.810  149.454    0.119    0.452    4.018
  472.060  150.901    0.106    0.483    4.163
  472.310  150.489    0.088    0.456    4.361
  472.560  145.721    0.149    0.395    4.497
  472.810  137.953    0.167    0.379    4.244
  473.060  126.320    0.189    0.379    4.260
  473.310  114.431    0.214    0.389    4.117
  473.560  108.088    0.238    0.402    3.865
  473.810  103.006    0.255    0.416    3.549
  474.060  100.100    0.273    0.420    3.264
  474.310  104.955    0.254    0.418    3.151
  474.560  109.877    0.243    0.414    3.120
  474.810  109.756    0.237    0.402    3.162
  475.060  104.208    0.232    0.391    3.268
  475.310  103.157    0.225    0.383    3.457
  475.560  107.697    0.215    0.371    3.623
  475.810  110.115    0.206    0.364    3.802
  476.060  111.169    0.193    0.362    4.031
  476.310  114.191    0.172    0.366    4.379
  476.560  121.893    0.174    0.370    4.907
  476.810  124.252    0.182    0.376    5.119
  477.060  120.373    0.177    0.380    5.376
  477.310  109.443    0.166    0.385    5.713
  477.560   97.002    0.155    0.362    6.004
  477.810   72.160    0.219    0.325    6.248
  478.060   55.421    0.269    0.257    5.333
  478.310   48.693    0.301    0.245    4.401
  478.560   45.471    0.301    0.285    3.689
  478.810   61.644    0.280    0.337    3.240
  479.060   83.743    0.257    0.368    2.972
  479.310  100.691    0.223    0.368    3.248
  479.560  113.043    0.196    0.399    3.886
  479.810  120.635    0.195    0.450    4.621
  480.060  122.192    0.266    0.432    5.264
  480.310  111.252    0.326    0.400    5.976
  480.560   98.174    0.265    0.377    6.509
  480.810  101.595    0.175    0.358    6.866
  481.060  100.849    0.128    0.328    6.831
  481.310   96.496    0.112    0.304    6.318
  481.560   97.482    0.115    0.330    5.793
  481.810  122.008    0.107    0.367    5.403
  482.060  132.167    0.082    0.403    5.005
  482.310  137.281    0.066    0.433    4.651
  482.560  139.240    0.064    0.448    4.420
  482.810  136.483    0.066    0.440    4.624
  483.060  131.377    0.061    0.424    5.014
  483.310  129.571    0.055    0.413    5.358
  483.560  131.676    0.049    0.399    5.628
  483.810  133.880    0.057    0.393    5.837
  484.060  136.518    0.064    0.398    5.933
  484.310  138.316    0.067    0.399    5.816
  484.560  139.053    0.074    0.395    5.652
  484.810  138.356    0.078    0.385    5.509
  485.060  137.980    0.073    0.380    5.637
  485.310  137.678    0.069    0.376    5.805
  485.560  137.245    0.076    0.372    5.937
  485.810  136.691    0.075    0.382    5.937
  486.060  136.802    0.073    0.396    5.817
  486.310  138.231    0.078    0.405    5.586
  486.560  140.637    0.079    0.407    5.368
  486.810  143.068    0.076    0.410    5.190
  487.060  146.401    0.097    0.414    5.049
  487.310  147.760    0.088    0.418    4.956
  487.560  146.723    0.083    0.416    4.889
  487.810  143.699    0.077    0.417    4.838
  488.060  142.035    0.075    0.424    4.781
  488.310  142.846    0.090    0.414    4.737
  488.560  146.411    0.075    0.406    4.686
  488.810  147.996    0.098    0.421    4.605
  489.060  147.123    0.112    0.443    4.558
  489.310  147.614    0.098    0.432    4.506
  489.560  149.431    0.100    0.440    4.477
  489.810  148.378    0.094    0.440    4.441
  490.060  144.566    0.083    0.436    4.392
  490.310  142.416    0.071    0.439    4.342
  490.560  141.754    0.061    0.429    4.275
  490.810  142.606    0.072    0.420    4.226
  491.060  143.856    0.066    0.423    4.169
  491.310  144.573    0.058    0.428    4.151
  491.560  144.865    0.077    0.429    4.135
  491.810  144.401    0.081    0.433    4.108
  492.060  144.080    0.077    0.437    4.079
  492.310  143.052    0.076    0.440    4.023
  492.560  142.788    0.068    0.439    3.959
  492.810  144.673    0.079    0.426    3.902
  493.060  147.809    0.086    0.422    3.874
  493.310  148.267    0.093    0.422    3.843
  493.560  147.268    0.095    0.419    3.799
  493.810  147.187    0.080    0.417    3.773
  494.060  148.675    0.067    0.422    3.757
  494.310  149.987    0.075    0.429    3.716
  494.560  151.063    0.088    0.431    3.683
  494.810  151.984    0.095    0.446    3.646
  495.060  152.598    0.107    0.452    3.605
  495.310  153.095    0.114    0.430    3.561
  495.560  153.265    0.108    0.421    3.521
  495.810  153.945    0.113    0.433    3.491
  496.060  152.968    0.117    0.445    3.457
  496.310  151.339    0.115    0.454    3.421
  496.560  147.418    0.120    0.463    3.406
  496.810  141.771    0.112    0.457    3.391
  497.060  138.444    0.099    0.451    3.370
  497.310  136.250    0.080    0.453    3.372
  497.560   59.596    0.087    0.456    3.424
  497.810   45.514    0.094    0.459    3.470
  498.060   45.203    0.102    0.450    3.474
  498.310   58.777    0.107    0.442    3.466
  498.560   71.396    0.116    0.437    3.434
  498.810   89.270    0.110    0.453    3.402
  499.060  127.872    0.105    0.449    3.369
  499.310  139.302    0.091    0.449    3.362
  499.560  145.777    0.086    0.459    3.328
  499.810  149.031    0.107    0.463    3.295
  500.060  150.776    0.102    0.461    3.230
  500.310  151.739    0.089    0.459    3.189
  500.560  151.184    0.085    0.459    3.150
  500.810  147.626    0.105    0.459    3.142
  501.060  137.735    0.097    0.458    3.127
  501.310  126.866    0.087    0.457    3.111
  501.560  104.702    0.079    0.455    3.101
  501.810  101.774    0.100    0.455    3.103
  502.060   98.329    0.107    0.454    3.119
  502.310   94.867    0.120    0.454    3.127
  502.560   94.541    0.130    0.454    3.140
