~VERSION INFORMATION
 VERS.                 2.0:   CWLS LOG ASCII STANDARD -VERSION 2.0
 WRAP.                  NO:   ONE LINE PER DEPTH STEP
~WELL INFORMATION BLOCK
#MNEM.UNIT           DATA                    DESCRIPTION OF MNEMONIC
#---------    -------------------            -------------------------------
# Generated from Intellog Unique Number	CW_79_81/WELL/2450
WELL.         06-08-081-22W4                 : Well_name    - WELL
LOC .         00/06-08-081-22W4/0            : Location     - LOCATION
UWI .         00/06-08-081-22W4/0            : Uwi          - UNIQUE WELL ID
ENTR.         MAX                            : Entered      - ENTERED BY
SRVC.         SCHLUMBERGER                   : Scn          - SERVICE COMPANY
STRT.M        225                            : top_depth    - START DEPTH
STOP.M        444.75                         : bot_depth    - STOP DEPTH
STEP.M        0.25                           : increment    - STEP LENGTH
 NULL. -999.2500:NULL Value
~CURVE INFORMATION BLOCK
#MNEM UNIT       ERCB CURVE CODE    CURVE DESCRIPTION
#-----------   ------------------   ----------------------------------
DEPT.M        00 001 00 00         : DEPTH        - DEPTH
ILD .OHMM     00 120 00 00         : RESD         - DEEP RESISTIVITY (DIL)
NPHI.V/V      00 330 00 00         : PHIN         - NEUTRON POROSITY (SANDSTONE)
DPHI.V/V      00 890 00 00         : PHID         - DENSITY POROSITY (SANDSTONE)
GR  .API      00 310 00 00         : GR           - GAMMA RAY
CALI.MM       00 280 01 00         : CAL          - CALIPER
~PARAMETER INFORMATION
#MNEM.UNIT           DATA             DESCRIPTION OF MNEMONIC
#---------         -----------     ------------------------------
GL  .M        597.6                : gl           - GROUND LEVEL ELEVATION
EREF.M        600.9                : kb           - ELEVATION OF DEPTH REFERENCE
DATM.M        597.6                : datum        - DATUM ELEVATION
TDD .M        450                  : tdd          - TOTAL DEPTH DRILLER
RUN .         ONE                  : Run          - RUN NUMBER
ENG .         BILL                 : Engineer     - RECORDING ENGINEER
WIT .         JIM                  : Witness      - WITNESSED BY
MUD .         GEL                  : Mud_type     - MUD TYPE
MATR.         SANDSTONE            : Logunit      - NEUTRON MATRIX
TMAX.C        24                   : BHT          - MAXIMUM RECORDED TEMPERATURE
BHTD.M        450                  : BHTDEP       - MAXIMUM RECORDED TEMPERATURE
MATR.         1                    : LOGUNIT      - NEUTRON MATRIX
RMT .C        16.1                 : MDTP         - TEMPERATURE OF MUD
NEUT.         1                    : NEUTRON      - NEUTRON TYPE
RESI.         0                    : RESIST       - RESISTIVITY TYPE
RMC .OHMM     3.66                 : RMC          - RESISTIVITY OF MUD CAKE
RMF .OHMM     5.1                  : RMF          - RESISTIVITY OF MUD FILTRATE
SUFT.C        -10                  : SUFT         - SURFACE TEMPERATURE
~A  DEPTH     RESD     PHIN     PHID       GR      CAL
  225.000    2.813    0.544    0.271   96.307  221.903
  225.250    2.965    0.532    0.280   88.099  221.059
  225.500    3.146    0.516    0.276   81.443  221.180
  225.750    3.418    0.500    0.268   75.113  220.969
  226.000    3.843    0.486    0.265   69.321  220.159
  226.250    4.752    0.471    0.281   63.169  219.344
  226.500    6.001    0.464    0.293   58.688  219.331
  226.750    9.474    0.459    0.302   56.295  219.322
  227.000   16.208    0.461    0.318   55.690  219.308
  227.250   26.259    0.468    0.339   54.967  219.493
  227.500   32.512    0.472    0.359   54.124  219.779
  227.750   35.344    0.460    0.367   54.621  219.430
  228.000   38.752    0.455    0.363   52.377  217.761
  228.250   44.410    0.469    0.360   53.561  217.348
  228.500   46.081    0.480    0.359   53.852  218.428
  228.750   45.047    0.484    0.355   53.009  219.608
  229.000   42.427    0.481    0.349   52.105  220.090
  229.250   37.476    0.478    0.346   53.428  219.513
  229.500   33.708    0.480    0.342   52.923  218.673
  229.750   31.297    0.484    0.334   52.200  217.068
  230.000   31.752    0.494    0.324   52.191  215.763
  230.250   32.099    0.505    0.322   52.898  215.153
  230.500   32.024    0.515    0.329   53.666  215.238
  230.750   34.311    0.517    0.346   53.278  215.455
  231.000   36.191    0.514    0.359   53.769  214.614
  231.250   38.624    0.513    0.361   53.521  213.407
  231.500   43.433    0.503    0.362   52.559  213.988
  231.750   48.746    0.501    0.362   52.432  215.763
  232.000   53.673    0.503    0.363   53.855  217.738
  232.250   61.600    0.489    0.369   56.907  218.438
  232.500   65.474    0.482    0.366   57.893  218.008
  232.750   65.936    0.492    0.362   59.793  217.199
  233.000   67.490    0.496    0.358   60.976  216.988
  233.250   70.215    0.500    0.359   60.611  216.974
  233.500   74.151    0.508    0.362   57.861  216.960
  233.750   80.272    0.522    0.355   51.539  217.193
  234.000   85.988    0.522    0.350   49.793  218.420
  234.250   94.427    0.495    0.343   50.259  218.409
  234.500  101.067    0.484    0.337   51.087  218.097
  234.750  108.253    0.482    0.338   51.795  217.885
  235.000  115.505    0.482    0.347   52.145  217.774
  235.250  116.075    0.477    0.359   52.385  217.360
  235.500  110.870    0.468    0.358   53.619  217.346
  235.750   99.907    0.450    0.344   50.987  217.729
  236.000   80.942    0.435    0.328   47.103  218.412
  236.250   60.105    0.446    0.318   44.112  219.393
  236.500   46.047    0.478    0.327   43.150  220.274
  236.750   40.310    0.489    0.355   45.229  220.176
  237.000   39.688    0.445    0.287   49.693  219.748
  237.250   42.355    0.407    0.263   59.942  218.541
  237.500   49.338    0.417    0.264   68.223  218.529
  237.750   56.010    0.451    0.303   72.389  219.509
  238.000   56.662    0.478    0.356   72.499  220.787
  238.250   47.967    0.466    0.349   70.125  221.087
  238.500   36.471    0.461    0.324   66.639  220.658
  238.750   33.361    0.451    0.285   63.769  219.452
  239.000   29.314    0.444    0.281   62.866  218.247
  239.250   24.977    0.449    0.290   63.096  217.438
  239.500   20.799    0.467    0.300   63.744  217.026
  239.750   16.479    0.490    0.315   64.410  216.364
  240.000   14.176    0.495    0.335   65.395  215.109
  240.250   12.396    0.489    0.325   66.103  215.095
  240.500   10.597    0.472    0.319   64.485  216.275
  240.750    8.531    0.455    0.311   62.092  218.249
  241.000    6.594    0.450    0.300   60.951  220.122
  241.250    5.005    0.485    0.294   63.715  220.339
  241.500    4.673    0.525    0.289   64.451  219.500
  241.750    4.810    0.514    0.285   63.249  217.498
  242.000    5.113    0.493    0.277   61.692  216.092
  242.250    5.706    0.473    0.272   59.180  215.284
  242.500    6.673    0.456    0.274   56.609  215.273
  242.750    7.907    0.433    0.290   57.851  216.863
  243.000    8.150    0.429    0.293   65.297  218.920
  243.250    8.148    0.456    0.269   71.489  220.495
  243.500    8.870    0.468    0.257   72.138  220.877
  243.750   10.300    0.457    0.269   66.406  220.268
  244.000   12.251    0.433    0.302   57.513  219.263
  244.250   13.563    0.426    0.329   53.825  218.766
  244.500   13.456    0.422    0.317   59.283  218.339
  244.750   12.870    0.446    0.305   62.853  219.915
  245.000   11.763    0.463    0.291   65.170  220.895
  245.250   10.696    0.460    0.289   66.236  221.478
  245.500    9.759    0.444    0.299   66.706  221.565
  245.750    8.423    0.442    0.299   68.385  220.588
  246.000    6.883    0.450    0.297   70.861  219.745
  246.250    5.839    0.463    0.292   73.955  219.335
  246.500    5.168    0.472    0.283   78.658  218.627
  246.750    4.738    0.485    0.270   81.870  218.016
  247.000    4.528    0.498    0.259   82.220  218.101
  247.250    4.572    0.502    0.253   80.014  219.840
  247.500    4.467    0.516    0.247   79.756  220.656
  247.750    4.433    0.508    0.252   76.887  220.246
  248.000    4.594    0.492    0.264   71.334  219.835
  248.250    5.167    0.475    0.276   66.197  219.226
  248.500    6.213    0.461    0.285   63.446  218.717
  248.750    7.278    0.444    0.290   63.565  219.264
  249.000    8.696    0.445    0.282   61.818  220.079
  249.250    9.081    0.448    0.286   60.139  220.463
  249.500    9.130    0.448    0.290   60.251  219.953
  249.750    9.060    0.447    0.294   61.555  219.740
  250.000    9.041    0.446    0.297   63.633  220.124
  250.250    9.239    0.441    0.297   67.392  220.671
  250.500    9.597    0.419    0.295   73.098  221.487
  250.750    9.950    0.409    0.285   77.621  222.267
  251.000   10.316    0.404    0.272   75.705  222.749
  251.250   10.582    0.400    0.268   72.835  222.934
  251.500   10.677    0.397    0.273   71.933  223.121
  251.750   10.529    0.395    0.273   73.752  223.901
  252.000   10.210    0.394    0.254   75.731  223.887
  252.250    9.622    0.397    0.243   76.916  223.873
  252.500    8.763    0.405    0.236   78.638  223.561
  252.750    8.216    0.413    0.233   81.254  223.151
  253.000    8.007    0.419    0.231   85.003  222.841
  253.250    7.801    0.418    0.233   90.448  222.658
  253.500    7.395    0.418    0.238   92.676  221.816
  253.750    6.815    0.427    0.246   94.339  221.802
  254.000    6.283    0.446    0.247   97.074  222.088
  254.250    5.727    0.465    0.237   98.974  222.471
  254.500    5.160    0.482    0.219   99.503  222.853
  254.750    4.510    0.508    0.201   99.394  223.320
  255.000    3.996    0.529    0.186   98.890  223.722
  255.250    3.879    0.517    0.180   96.973  224.106
  255.500    3.808    0.498    0.184   94.699  224.192
  255.750    3.779    0.479    0.190   92.663  224.377
  256.000    3.818    0.467    0.199   91.522  224.662
  256.250    4.031    0.469    0.222   91.444  224.646
  256.500    4.252    0.481    0.228   88.702  224.631
  256.750    5.298    0.484    0.273   82.253  223.823
  257.000    7.303    0.476    0.297   74.732  222.420
  257.250    9.953    0.461    0.312   70.311  221.014
  257.500   11.809    0.448    0.324   69.826  220.005
  257.750   12.596    0.446    0.329   70.969  219.593
  258.000   12.496    0.444    0.322   71.954  219.580
  258.250   11.863    0.447    0.323   70.752  219.568
  258.500   11.075    0.454    0.327   69.194  219.254
  258.750   10.329    0.461    0.331   67.159  219.241
  259.000    9.836    0.478    0.337   64.707  219.626
  259.250    9.920    0.527    0.357   60.484  220.006
  259.500   10.383    0.574    0.384   52.525  219.992
  259.750   11.241    0.591    0.417   48.700  219.981
  260.000   12.497    0.521    0.392   48.989  218.775
  260.250   13.905    0.463    0.353   50.054  217.767
  260.500   15.398    0.450    0.330   50.225  217.354
  260.750   17.966    0.446    0.339   49.005  216.860
  261.000   20.966    0.443    0.344   46.511  216.433
  261.250   21.580    0.439    0.346   45.549  216.419
