~VERSION INFORMATION
 VERS.                 2.0:   CWLS LOG ASCII STANDARD -VERSION 2.0
 WRAP.                  NO:   ONE LINE PER DEPTH STEP
~WELL INFORMATION BLOCK
#MNEM.UNIT           DATA                    DESCRIPTION OF MNEMONIC
#---------    -------------------            -------------------------------
# Generated from Intellog Unique Number	CS_71_72/WELL/843
WELL.         AEC IPIATIK NOVEMBER           : Well_name    - WELL
LOC .         00/09-14-071-06W4/0            : Location     - LOCATION
UWI .         00/09-14-071-06W4/0            : Uwi          - UNIQUE WELL ID
ENTR.         SP                             : Entered      - ENTERED BY
SRVC.         SCHLUMBERGER                   : Scn          - SERVICE COMPANY
STRT.M        305                            : top_depth    - START DEPTH
STOP.M        525                            : bot_depth    - STOP DEPTH
STEP.M        0.25                           : increment    - STEP LENGTH
 NULL. -999.2500:NULL Value
~CURVE INFORMATION BLOCK
#MNEM UNIT       ERCB CURVE CODE    CURVE DESCRIPTION
#-----------   ------------------   ----------------------------------
DEPT.M        00 001 00 00         : DEPTH        - DEPTH
ILD .OHMM     00 120 00 00         : RESD         - DEEP RESISTIVITY (DIL)
DPHI.V/V      00 890 00 00         : PHID         - DENSITY POROSITY (LIMESTONE)
NPHI.V/V      00 330 00 00         : PHIN         - NEUTRON POROSITY (LIMESTONE)
GR  .API      00 310 00 00         : GR           - GAMMA RAY
~PARAMETER INFORMATION
#MNEM.UNIT           DATA             DESCRIPTION OF MNEMONIC
#---------         -----------     ------------------------------
GL  .M        672.05               : gl           - GROUND LEVEL ELEVATION
EREF.M        676.32               : kb           - ELEVATION OF DEPTH REFERENCE
DATM.M        672.05               : datum        - DATUM ELEVATION
TDD .M        566.79               : tdd          - TOTAL DEPTH DRILLER
RUN .         ONE                  : Run          - RUN NUMBER
ENG .         BILL                 : Engineer     - RECORDING ENGINEER
WIT .         JIM                  : Witness      - WITNESSED BY
MUD .         GEL                  : Mud_type     - MUD TYPE
MATR.         LIMESTONE            : Logunit      - NEUTRON MATRIX
TMAX.C        27                   : BHT          - MAXIMUM RECORDED TEMPERATURE
BHTD.M        566.79               : BHTDEP       - MAXIMUM RECORDED TEMPERATURE
MATR.         1                    : LOGUNIT      - NEUTRON MATRIX
RMT .C        25                   : MDTP         - TEMPERATURE OF MUD
NEUT.         1                    : NEUTRON      - NEUTRON TYPE
RESI.         0                    : RESIST       - RESISTIVITY TYPE
RMC .OHMM     0.25                 : RMC          - RESISTIVITY OF MUD CAKE
RMF .OHMM     0.25                 : RMF          - RESISTIVITY OF MUD FILTRATE
SUFT.C        15                   : SUFT         - SURFACE TEMPERATURE
~A  DEPTH     RESD     PHID     PHIN       GR
# ...
  435.500    5.127    0.229    0.469   78.161
  435.750    5.081    0.200    0.481   79.155
  436.000    5.066    0.185    0.492   79.433
  436.250    5.078    0.184    0.497   79.327
  436.500    5.137    0.195    0.480   78.522
  436.750    5.306    0.205    0.466   78.107
  437.000    5.688    0.205    0.458   71.351
  437.250    7.066    0.120    0.447   60.599
  437.500    9.128    0.050    0.370   51.120
  437.750   10.924   -0.002    0.289   45.573
  438.000   13.048   -0.011    0.204   45.902
  438.250   14.331    0.032    0.184   51.255
  438.500   14.691    0.062    0.227   57.274
  438.750   11.556    0.086    0.284   65.110
  439.000    8.773    0.109    0.363   72.763
  439.250    6.711    0.179    0.414   77.938
  439.500    5.613    0.230    0.452   80.625
  439.750    5.116    0.243    0.471   81.862
  440.000    4.877    0.232    0.478   82.190
  440.250    4.808    0.206    0.467   84.577
  440.500    4.819    0.210    0.469   86.240
  440.750    4.804    0.220    0.476   86.203
  441.000    4.753    0.233    0.465   84.171
  441.250    4.694    0.234    0.454   82.257
  441.500    4.670    0.231    0.452   80.953
  441.750    4.664    0.246    0.448   80.129
  442.000    4.624    0.240    0.438   79.245
  442.250    4.600    0.231    0.436   77.756
  442.500    4.577    0.233    0.447   72.816
  442.750    4.537    0.244    0.454   67.943
  443.000    4.489    0.254    0.451   65.723
  443.250    4.425    0.266    0.446   65.568
  443.500    4.345    0.240    0.457   68.198
  443.750    4.220    0.225    0.462   70.647
  444.000    3.876    0.220    0.476   73.281
  444.250    3.552    0.230    0.477   74.751
  444.500    2.841    0.252    0.473   76.894
  444.750    2.532    0.243    0.490   79.344
  445.000    2.360    0.261    0.502   81.062
  445.250    2.216    0.273    0.510   82.666
  445.500    2.238    0.261    0.514   83.232
  445.750    2.463    0.251    0.518   82.593
  446.000    2.761    0.253    0.509   79.711
  446.250    3.142    0.262    0.488   76.469
  446.500    3.497    0.269    0.472   74.801
  446.750    3.791    0.271    0.465   74.762
  447.000    3.996    0.251    0.463   74.973
  447.250    4.229    0.237    0.478   74.571
  447.500    4.474    0.241    0.493   73.264
  447.750    4.700    0.174    0.497   70.991
  448.000    4.946    0.127    0.464   69.863
  448.250    5.031    0.129    0.446   71.039
  448.500    4.769    0.269    0.461   73.126
  448.750    4.211    0.283    0.482   74.362
  449.000    3.860    0.267    0.497   75.001
  449.250    3.679    0.252    0.512   75.258
  449.500    3.674    0.258    0.525   75.042
  449.750    3.895    0.262    0.509   74.280
  450.000    4.160    0.243    0.480   71.765
  450.250    4.743    0.234    0.478   68.215
  450.500    5.367    0.229    0.482   62.973
  450.750    6.164    0.250    0.477   59.609
  451.000    7.214    0.282    0.467   56.429
  451.250    8.348    0.257    0.471   53.848
  451.500   10.028    0.213    0.460   51.269
  451.750   12.481    0.149    0.327   48.934
  452.000   14.714    0.075    0.259   48.476
  452.250   16.072    0.135    0.288   48.319
  452.500   15.462    0.211    0.336   50.040
  452.750   12.485    0.245    0.387   53.756
  453.000   10.463    0.268    0.426   56.810
  453.250    9.325    0.258    0.446   57.685
  453.500    8.516    0.259    0.444   56.923
  453.750    8.073    0.268    0.446   57.737
  454.000    7.854    0.272    0.456   59.215
  454.250    7.699    0.280    0.471   60.091
  454.500    7.546    0.286    0.478   60.664
  454.750    6.916    0.299    0.469   60.383
  455.000    5.829    0.310    0.464   59.494
  455.250    5.176    0.265    0.472   63.818
  455.500    4.528    0.241    0.471   69.596
  455.750    4.074    0.230    0.470   75.498
  456.000    3.672    0.225    0.478   79.397
  456.250    3.409    0.216    0.476   82.750
  456.500    3.208    0.228    0.484   84.531
  456.750    3.069    0.234    0.496   85.465
  457.000    3.065    0.218    0.501   86.278
  457.250    3.634    0.213    0.510   85.636
  457.500    4.190    0.225    0.520   80.031
  457.750    5.166    0.236    0.485   73.339
  458.000    6.102    0.245    0.459   67.129
  458.250    6.931    0.241    0.442   63.821
  458.500    7.430    0.218    0.428   63.241
  458.750    8.100    0.200    0.442   62.600
  459.000    8.523    0.182    0.448   60.024
  459.250    8.033    0.166    0.436   57.504
  459.500    7.094    0.168    0.422   59.347
  459.750    6.035    0.214    0.412   64.948
  460.000    5.067    0.230    0.410   68.056
  460.250    4.399    0.219    0.425   70.926
  460.500    4.770    0.218    0.448   72.166
  460.750    5.592    0.224    0.468   70.916
  461.000    6.831    0.230    0.466   64.768
  461.250    7.935    0.255    0.447   60.735
  461.500    8.763    0.272    0.441   60.523
  461.750    9.205    0.252    0.445   61.398
  462.000    9.384    0.247    0.434   61.661
  462.250    9.440    0.228    0.423   61.992
  462.500    9.429    0.228    0.411   62.139
  462.750    9.276    0.228    0.408   62.350
  463.000    8.843    0.227    0.419   62.675
  463.250    8.540    0.222    0.425   63.002
  463.500    8.386    0.211    0.420   63.329
  463.750    8.439    0.190    0.413   63.660
  464.000    8.813    0.157    0.403   63.499
  464.250    9.483    0.093    0.390   60.979
  464.500   10.071    0.097    0.367   59.915
  464.750   10.208    0.144    0.367   61.760
  465.000    9.694    0.191    0.389   63.115
  465.250    8.935    0.220    0.416   64.665
  465.500    8.084    0.239    0.438   65.103
  465.750    7.649    0.236    0.462   63.554
  466.000    7.455    0.246    0.477   61.163
  466.250    7.460    0.253    0.456   60.758
  466.500    7.606    0.261    0.442   61.631
  466.750    7.694    0.265    0.449   63.655
  467.000    8.054    0.262    0.435   66.041
  467.250    8.085    0.255    0.411   68.984
  467.500    8.491    0.243    0.404   70.215
  467.750    9.431    0.234    0.402   71.204
  468.000   11.715    0.232    0.400   72.021
  468.250   16.800    0.231    0.400   70.892
  468.500   24.410    0.241    0.412   62.138
  468.750   29.596    0.254    0.400   42.365
  469.000   32.567    0.274    0.383   28.891
  469.250   34.588    0.307    0.376   22.980
  469.500   33.031    0.304    0.373   22.703
  469.750   25.933    0.306    0.382   28.061
  470.000   21.135    0.312    0.394   33.229
  470.250   17.979    0.312    0.404   41.913
  470.500   15.995    0.293    0.411   47.992
  470.750   15.048    0.283    0.404   52.134
  471.000   13.948    0.288    0.396   58.274
  471.250   12.133    0.221    0.383   69.379
  471.500    9.316    0.199    0.374   78.368
  471.750    7.606    0.176    0.374   83.477
  472.000    6.555    0.183    0.386   88.413
  472.250    6.214    0.170    0.399   90.126
  472.500    6.080    0.156    0.411   91.910
  472.750    5.959    0.151    0.418   92.974
  473.000    5.864    0.149    0.422   93.482
  473.250    5.791    0.148    0.426   93.926
  473.500    5.783    0.149    0.431   94.205
  473.750    5.797    0.155    0.436   94.168
  474.000    5.866    0.159    0.437   94.123
  474.250    5.936    0.162    0.421   93.502
  474.500    5.926    0.151    0.412   92.975
  474.750    6.075    0.142    0.411   92.499
  475.000    6.345    0.139    0.407   88.354
  475.250    6.602    0.115    0.376   82.868
  475.500    6.780    0.099    0.359   79.439
  475.750    6.848    0.118    0.364   79.889
  476.000    6.750    0.147    0.369   82.216
  476.250    6.728    0.160    0.379   84.058
  476.500    6.733    0.166    0.382   85.291
  476.750    6.774    0.168    0.390   86.470
  477.000    6.881    0.177    0.395   87.159
  477.250    6.974    0.189    0.395   86.278
  477.500    7.123    0.173    0.383   84.183
  477.750    7.193    0.163    0.378   83.545
  478.000    7.210    0.153    0.383   84.232
  478.250    7.201    0.146    0.386   85.046
  478.500    7.369    0.133    0.388   83.862
  478.750    7.653    0.123    0.384   81.948
