~VERSION INFORMATION
 VERS.                 2.0:   CWLS LOG ASCII STANDARD -VERSION 2.0
 WRAP.                  NO:   ONE LINE PER DEPTH STEP
~WELL INFORMATION BLOCK
#MNEM.UNIT           DATA                    DESCRIPTION OF MNEMONIC
#---------    -------------------            -------------------------------
# Generated from Intellog Unique Number	CW_79_81/WELL/199
WELL.         CHEVRON ET AL HORIZON          : Well_name    - WELL
LOC .         00/04-02-079-19W4/0            : Location     - LOCATION
UWI .         00/04-02-079-19W4/0            : Uwi          - UNIQUE WELL ID
ENTR.         MAX                            : Entered      - ENTERED BY
SRVC.         SCHLUMBERGER                   : Scn          - SERVICE COMPANY
STRT.M        179.832                        : top_depth    - START DEPTH
STOP.M        382.332                        : bot_depth    - STOP DEPTH
STEP.M        0.25                           : increment    - STEP LENGTH
 NULL. -999.2500:NULL Value
~CURVE INFORMATION BLOCK
#MNEM UNIT       ERCB CURVE CODE    CURVE DESCRIPTION
#-----------   ------------------   ----------------------------------
DEPT.M        00 001 00 00         : DEPTH        - DEPTH
ILD .OHMM     00 120 00 00         : RESD         - DEEP RESISTIVITY (DIL)
NPHI.V/V      00 330 00 00         : PHIN         - NEUTRON POROSITY (SANDSTONE)
DPHI.V/V      00 890 00 00         : PHID         - DENSITY POROSITY (SANDSTONE)
CALI.MM       00 280 01 00         : CAL          - CALIPER
GR  .API      00 310 00 00         : GR           - GAMMA RAY
~PARAMETER INFORMATION
#MNEM.UNIT           DATA             DESCRIPTION OF MNEMONIC
#---------         -----------     ------------------------------
GL  .M        555.346              : gl           - GROUND LEVEL ELEVATION
EREF.M        558.698              : kb           - ELEVATION OF DEPTH REFERENCE
DATM.M        555.346              : datum        - DATUM ELEVATION
TDD .M        382.524              : tdd          - TOTAL DEPTH DRILLER
RUN .         ONE                  : Run          - RUN NUMBER
ENG .         BILL                 : Engineer     - RECORDING ENGINEER
WIT .         JIM                  : Witness      - WITNESSED BY
MUD .         GEL                  : Mud_type     - MUD TYPE
MATR.         SANDSTONE            : Logunit      - NEUTRON MATRIX
TMAX.C        25                   : BHT          - MAXIMUM RECORDED TEMPERATURE
BHTD.M        382.524              : BHTDEP       - MAXIMUM RECORDED TEMPERATURE
RMT .C        13.3333              : MDTP         - TEMPERATURE OF MUD
MUDD.KG/M     10300                : MWT          - MUD DENSITY
NEUT.         1                    : NEUTRON      - NEUTRON TYPE
RESI.         0                    : RESIST       - RESISTIVITY TYPE
RM  .OHMM     5.98                 : RM           - RESISTIVITY OF MUD
RMC .OHMM     5.98                 : RMC          - RESISTIVITY OF MUD CAKE
RMF .OHMM     6.05                 : RMF          - RESISTIVITY OF MUD FILTRATE
SUFT.C        -15                  : SUFT         - SURFACE TEMPERATURE
~A  DEPTH     RESD     PHIN     PHID      CAL       GR
  179.832    3.322    0.578    0.336  187.512   71.756
  180.082    2.958    0.568    0.342  186.623   70.353
  180.332    2.681    0.554    0.310  186.229   63.389
  180.582    2.761    0.415    0.290  189.343   51.735
  180.832    3.085    0.399    0.273  189.927   42.130
  181.082    4.327    0.383    0.283  190.537   35.758
  181.332    7.482    0.379    0.300  191.618   35.518
  181.582   18.953    0.397    0.316  192.723   36.472
  181.832   18.990    0.411    0.298  194.325   38.280
  182.082   15.725    0.413    0.300  194.439   40.397
  182.332   17.570    0.419    0.299  191.567   40.749
  182.582   19.631    0.413    0.303  190.653   43.158
  182.832   17.960    0.439    0.305  191.275   51.421
  183.082   13.574    0.458    0.302  190.869   56.163
  183.332   11.978    0.525    0.304  191.466   60.036
  183.582   11.681    0.510    0.326  191.568   62.445
  183.832   12.704    0.511    0.333  189.713   59.571
  184.082   14.854    0.536    0.334  187.311   52.899
  184.332   17.683    0.510    0.334  185.926   48.870
  184.582   19.762    0.475    0.327  185.545   46.589
  184.832   25.782    0.402    0.306  187.655   44.007
  185.082   29.611    0.379    0.296  189.244   40.555
  185.332   29.938    0.355    0.270  188.837   36.818
  185.582   29.731    0.348    0.250  187.973   36.008
  185.832   29.505    0.377    0.298  188.062   35.775
  186.082   28.780    0.405    0.265  188.685   35.820
  186.332   28.322    0.454    0.287  188.761   35.610
  186.582   28.113    0.474    0.333  189.359   36.256
  186.832   28.424    0.442    0.324  190.452   39.242
  187.082   30.081    0.390    0.312  191.583   40.773
  187.332   32.707    0.371    0.274  192.168   41.111
  187.582   29.916    0.355    0.226  192.752   42.057
  187.832   16.600    0.347    0.207  192.867   43.873
  188.082   11.989    0.362    0.201  192.003   48.631
  188.332    9.658    0.379    0.207  192.079   55.422
  188.582    7.849    0.574    0.233  192.689   63.977
  188.832    6.099    0.595    0.249  192.816   70.776
  189.082    5.530    0.597    0.236  193.401   85.185
  189.332    5.104    0.601    0.245  193.020   85.838
  189.582    4.545    0.599    0.221  192.131   87.661
  189.832    4.197    0.598    0.235  190.758   89.485
  190.082    3.944    0.601    0.235  191.839   89.245
  190.332    3.641    0.602    0.243  192.919   87.256
  190.582    3.615    0.603    0.254  193.529   82.634
  190.832    3.932    0.600    0.264  196.109   78.882
  191.082    4.812    0.591    0.270  196.211   75.437
  191.332    5.836    0.575    0.298  195.830   72.270
  191.582    7.077    0.538    0.282  195.449   68.819
  191.832    9.750    0.499    0.260  195.055   63.318
  192.082   12.155    0.486    0.276  194.178   58.403
  192.332   14.081    0.500    0.298  193.289   59.341
  192.582   17.554    0.508    0.300  192.387   64.099
  192.832   17.588    0.518    0.283  191.002   67.678
  193.082   16.835    0.516    0.276  189.617   69.780
  193.332   14.988    0.513    0.275  188.232   73.945
  193.582   12.295    0.502    0.274  191.345   79.573
  193.832   11.455    0.499    0.247  194.395   79.933
  194.082   10.482    0.481    0.233  196.009   78.530
  194.332    9.943    0.458    0.215  194.129   77.134
  194.582    9.433    0.469    0.151  190.761   75.716
  194.832    8.875    0.446    0.107  188.372   70.508
  195.082    8.493    0.471    0.099  189.478   69.991
  195.332    8.056    0.541    0.216  195.540   72.977
  195.582    7.578    0.498    0.240  196.633   68.940
  195.832    7.321    0.518    0.252  196.252   63.732
  196.082    7.072    0.546    0.253  195.845   64.393
  196.332    6.591    0.535    0.257  196.938   65.609
  196.582    6.141    0.542    0.259  198.044   67.432
  196.832    5.932    0.571    0.255  198.146   68.378
  197.082    5.997    0.589    0.235  198.743   66.967
  197.332    6.288    0.576    0.254  198.857   65.856
  197.582    6.962    0.541    0.268  197.968   63.883
  197.832    8.069    0.512    0.295  197.079   60.438
  198.082    9.354    0.520    0.275  195.211   59.606
  198.332    9.895    0.512    0.272  193.343   60.259
  198.582   10.570    0.509    0.290  192.924   60.034
  198.832   11.701    0.495    0.319  192.543   56.567
  199.082   13.080    0.480    0.336  192.645   49.310
  199.332   13.102    0.446    0.327  192.746   42.654
  199.582   12.321    0.431    0.312  192.861   43.584
  199.832   11.479    0.455    0.296  192.963   46.279
  200.082   11.191    0.474    0.270  192.582   50.436
  200.332   11.421    0.471    0.249  192.175   56.064
  200.582   11.756    0.494    0.208  191.324   60.822
  200.832   12.552    0.512    0.199  190.905   63.216
  201.082   13.167    0.484    0.289  191.998   63.284
  201.332   13.678    0.475    0.299  193.599   59.832
  201.582   14.879    0.490    0.305  193.701   57.251
  201.832   16.620    0.508    0.315  193.320   57.025
  202.082   20.347    0.498    0.301  192.443   54.159
  202.332   23.791    0.489    0.306  192.037   50.414
  202.582   23.419    0.489    0.318  191.147   45.807
  202.832   21.611    0.473    0.329  191.249   45.274
  203.082   18.722    0.469    0.331  191.846   46.505
  203.332   15.220    0.469    0.322  191.961   48.321
  203.582   13.925    0.477    0.313  192.063   50.722
  203.832   13.095    0.471    0.294  191.173   54.017
  204.082   13.602    0.459    0.276  190.780   55.255
  204.332   15.064    0.487    0.231  189.433   55.893
  204.582   15.234    0.480    0.220  189.026   57.132
  204.832   14.319    0.453    0.214  189.115   55.150
  205.082   13.223    0.435    0.231  191.708   51.991
  205.332   13.126    0.485    0.235  192.318   55.256
  205.582   13.032    0.529    0.260  192.407   59.713
  205.832   12.040    0.511    0.295  192.509   60.074
  206.082   11.948    0.496    0.293  192.153   61.897
  206.332   11.652    0.497    0.279  192.242   64.584
  206.582   11.257    0.491    0.276  192.331   68.456
  206.832   10.581    0.485    0.247  191.976   73.207
  207.082    9.506    0.501    0.244  192.052   77.071
  207.332    8.540    0.508    0.242  190.680   78.017
  207.582    7.815    0.493    0.233  189.778   77.784
  207.832    7.549    0.484    0.222  190.896   77.259
  208.082    7.563    0.510    0.221  191.989   78.790
  208.332    7.860    0.494    0.238  192.078   81.784
  208.582    9.620    0.477    0.243  192.193   80.374
  208.832   10.460    0.482    0.270  192.295   75.173
  209.082   13.037    0.484    0.265  191.901   74.656
  209.332   14.305    0.449    0.242  191.507   76.772
  209.582   14.209    0.446    0.240  191.113   79.744
  209.832   14.763    0.461    0.223  189.245   84.201
  210.082   14.654    0.470    0.244  188.852   84.261
  210.332   14.421    0.453    0.261  188.966   79.939
  210.582   14.456    0.472    0.269  192.067   79.114
  210.832   14.216    0.478    0.280  193.147   77.718
  211.082   12.771    0.461    0.252  194.227   76.015
  211.332   10.477    0.452    0.218  195.346   73.163
  211.582   10.497    0.448    0.238  194.965   69.996
  211.832   10.618    0.431    0.245  194.075   64.781
  212.082   10.169    0.418    0.240  194.164   63.678
  212.332    9.820    0.415    0.195  195.283   67.250
  212.582    9.661    0.429    0.182  195.359   75.220
  212.832    9.770    0.451    0.201  195.474   77.043
  213.082    9.876    0.457    0.226  195.067   74.770
  213.332   10.171    0.441    0.238  195.182   71.017
  213.582   10.477    0.432    0.198  195.284   68.444
  213.832   10.492    0.418    0.210  194.394   71.138
  214.082   10.512    0.427    0.223  194.534   75.025
  214.332   10.069    0.443    0.203  195.132   76.834
  214.582    9.296    0.455    0.215  195.729   79.235
  214.832    8.426    0.483    0.206  195.818   79.303
  215.082    7.366    0.509    0.206  192.972   79.648
  215.332    6.042    0.535    0.221  191.078   86.154
  215.582    4.823    0.568    0.189  191.676   92.961
  215.832    4.255    0.593    0.166  192.756   96.818
  216.082    3.894    0.595    0.159  194.853  103.617
