~VERSION INFORMATION
 VERS.                 2.0:   CWLS LOG ASCII STANDARD -VERSION 2.0
 WRAP.                  NO:   ONE LINE PER DEPTH STEP
~WELL INFORMATION BLOCK
#MNEM.UNIT           DATA                    DESCRIPTION OF MNEMONIC
#---------    -------------------            -------------------------------
# Generated from Intellog Unique Number	CS_77_79/WELL/851
WELL.         BOW VALLEY INDUSTRIES LTD      : Well_name    - WELL
LOC .         00/04-26-077-15W4/0            : Location     - LOCATION
UWI .         00/04-26-077-15W4/0            : Uwi          - UNIQUE WELL ID
ENTR.         SP                             : Entered      - ENTERED BY
SRVC.         SCHLUMBERGER                   : Scn          - SERVICE COMPANY
STRT.M        270                            : top_depth    - START DEPTH
STOP.M        515                            : bot_depth    - STOP DEPTH
STEP.M        0.25                           : increment    - STEP LENGTH
 NULL. -999.2500:NULL Value
~CURVE INFORMATION BLOCK
#MNEM UNIT       ERCB CURVE CODE    CURVE DESCRIPTION
#-----------   ------------------   ----------------------------------
DEPT.M        00 001 00 00         : DEPTH        - DEPTH
ILD .OHMM     00 120 00 00         : RESD         - DEEP RESISTIVITY (DIL)
DPHI.V/V      00 890 00 00         : PHID         - DENSITY POROSITY (LIMESTONE)
NPHI.V/V      00 330 00 00         : PHIN         - NEUTRON POROSITY (LIMESTONE)
GR  .API      00 310 00 00         : GR           - GAMMA RAY
~PARAMETER INFORMATION
#MNEM.UNIT           DATA             DESCRIPTION OF MNEMONIC
#---------         -----------     ------------------------------
GL  .M        662.4                : gl           - GROUND LEVEL ELEVATION
EREF.M        665.7                : kb           - ELEVATION OF DEPTH REFERENCE
DATM.M        662.4                : datum        - DATUM ELEVATION
TDD .M        524.6                : tdd          - TOTAL DEPTH DRILLER
RUN .         ONE                  : Run          - RUN NUMBER
ENG .         BILL                 : Engineer     - RECORDING ENGINEER
WIT .         JIM                  : Witness      - WITNESSED BY
MUD .         GEL                  : Mud_type     - MUD TYPE
MATR.         LIMESTONE            : Logunit      - NEUTRON MATRIX
TMAX.C        26.1                 : BHT          - MAXIMUM RECORDED TEMPERATURE
BHTD.M        524.6                : BHTDEP       - MAXIMUM RECORDED TEMPERATURE
MATR.         1                    : LOGUNIT      - NEUTRON MATRIX
RMT .C        25                   : MDTP         - TEMPERATURE OF MUD
NEUT.         1                    : NEUTRON      - NEUTRON TYPE
RESI.         0                    : RESIST       - RESISTIVITY TYPE
RMC .OHMM     0.25                 : RMC          - RESISTIVITY OF MUD CAKE
RMF .OHMM     0.25                 : RMF          - RESISTIVITY OF MUD FILTRATE
SUFT.C        15                   : SUFT         - SURFACE TEMPERATURE
~A  DEPTH     RESD     PHID     PHIN       GR
# ...
  357.000   10.865    0.350    0.501   63.136
  357.250   10.665    0.346    0.498   64.361
  357.500   10.087    0.334    0.480   67.414
  357.750    9.719    0.340    0.478   70.467
  358.000    9.541    0.342    0.484   75.351
  358.250    9.543    0.323    0.480   77.794
  358.500    9.367    0.325    0.481   80.847
  358.750    8.696    0.318    0.487   82.681
  359.000    8.379    0.311    0.495   84.515
  359.250    7.925    0.302    0.501   86.959
  359.500    7.495    0.304    0.508   88.183
  359.750    7.222    0.307    0.516   87.578
  360.000    7.223    0.297    0.526   87.582
  360.250    7.498    0.289    0.536   86.976
  360.500    7.639    0.285    0.521   86.371
  360.750    7.930    0.295    0.502   84.546
  361.000    7.785    0.305    0.490   82.721
  361.250    7.501    0.317    0.480   81.506
  361.500    7.364    0.313    0.474   81.510
  361.750    7.364    0.299    0.470   85.782
  362.000    7.229    0.282    0.486   90.665
  362.250    7.097    0.255    0.484   88.232
  362.500    6.712    0.260    0.482   87.016
  362.750    6.467    0.264    0.486   86.410
  363.000    6.349    0.267    0.495   89.465
  363.250    6.350    0.274    0.501   91.298
  363.500    6.350    0.280    0.509   94.964
  363.750    6.234    0.276    0.511   96.798
  364.000    6.234    0.260    0.504   98.020
  364.250    6.352    0.265    0.504   98.634
  364.500    6.472    0.267    0.514   98.028
  364.750    6.473    0.260    0.521   94.375
  365.000    6.474    0.267    0.522   93.158
  365.250    6.355    0.272    0.515   92.552
  365.500    5.900    0.256    0.510   94.388
  365.750    5.477    0.261    0.513   96.831
  366.000    5.277    0.267    0.511   99.885
  366.250    5.180    0.259    0.509  100.498
  366.500    4.900    0.256    0.513   99.892
  366.750    4.810    0.248    0.510   98.068
  367.000    4.549    0.257    0.506   98.073
  367.250    4.466    0.263    0.502   98.686
  367.500    4.384    0.269    0.500   99.300
  367.750    4.384    0.280    0.508   97.476
  368.000    4.467    0.284    0.522   96.261
  368.250    4.724    0.268    0.532   95.045
  368.500    4.904    0.269    0.532   93.830
  368.750    4.997    0.264    0.528   93.835
  369.000    5.091    0.283    0.522   96.279
  369.250    4.815    0.292    0.518   98.723
  369.500    4.387    0.287    0.508  102.385
  369.750    3.711    0.284    0.502  106.657
  370.000    3.319    0.277    0.534  112.150
  370.250    2.807    0.274    0.556  112.765
  370.500    2.465    0.278    0.557  112.769
  370.750    2.246    0.284    0.557  111.554
  371.000    2.124    0.289    0.572  109.120
  371.250    2.009    0.290    0.590  107.906
  371.500    1.936    0.287    0.604  107.908
  371.750    1.972    0.297    0.604  108.523
  372.000    2.047    0.297    0.569  107.309
  372.250    2.125    0.292    0.561  106.092
  372.500    2.206    0.287    0.579  103.659
  372.750    2.206    0.295    0.591  102.442
  373.000    2.333    0.290    0.597  101.229
  373.250    2.377    0.287    0.607  100.622
  373.500    2.468    0.291    0.611  100.019
  373.750    2.760    0.291    0.607   99.412
  374.000    2.919    0.281    0.596   98.806
  374.250    3.145    0.286    0.576   96.982
  374.500    3.388    0.290    0.558   93.938
  374.750    3.861    0.293    0.545   90.282
  375.000    4.651    0.308    0.538   85.409
  375.250    5.299    0.326    0.535   81.755
  375.500    6.384    0.325    0.529   79.320
  375.750    7.692    0.251    0.502   76.886
  376.000    9.800    0.201    0.483   74.452
  376.250   10.959    0.138    0.435   72.627
  376.500   12.960    0.167    0.317   72.020
  376.750   15.043    0.213    0.334   70.805
  377.000   16.209    0.246    0.362   71.420
  377.250   14.770    0.241    0.385   68.986
  377.500   12.492    0.185    0.397   63.502
  377.750   10.765    0.227    0.334   59.238
  378.000   10.181    0.275    0.356   58.633
  378.250    9.277    0.310    0.391   57.418
  378.500    8.939    0.323    0.419   56.205
  378.750    8.454    0.332    0.452   55.598
  379.000    8.146    0.328    0.449   54.384
  379.250    7.850    0.326    0.459   54.387
  379.500    7.706    0.322    0.461   55.612
  379.750    7.706    0.325    0.459   56.225
  380.000    7.707    0.320    0.454   56.229
  380.250    7.853    0.332    0.449   55.626
  380.500    8.152    0.341    0.444   55.629
  380.750    8.152    0.345    0.447   56.242
  381.000    8.307    0.345    0.449   56.856
  381.250    8.308    0.353    0.447   59.301
  381.500    8.308    0.345    0.445   59.915
  381.750    7.858    0.341    0.443   59.919
  382.000    7.714    0.337    0.441   59.316
  382.250    7.573    0.340    0.439   59.929
  382.500    7.297    0.340    0.442   60.542
  382.750    7.163    0.340    0.449   61.766
  383.000    7.032    0.349    0.457   64.821
  383.250    6.903    0.353    0.462   65.434
  383.500    6.903    0.355    0.460   66.658
  383.750    6.652    0.364    0.456   66.052
  384.000    6.653    0.367    0.459   66.668
  384.250    6.530    0.368    0.459   67.892
  384.500    6.411    0.365    0.457   69.114
  384.750    6.411    0.362    0.455   72.168
  385.000    6.412    0.358    0.454   74.002
  385.250    6.413    0.344    0.449   76.448
  385.500    6.295    0.335    0.456   77.670
  385.750    6.296    0.333    0.469   78.894
  386.000    6.297    0.333    0.473   80.727
  386.250    6.067    0.323    0.472   81.951
  386.500    6.068    0.315    0.467   83.786
  386.750    5.847    0.306    0.475   84.398
  387.000    5.739    0.315    0.488   83.183
  387.250    5.530    0.323    0.500   80.751
  387.500    5.230    0.333    0.503   81.365
  387.750    4.947    0.331    0.500   81.978
  388.000    4.679    0.328    0.494   82.591
  388.250    4.593    0.319    0.501   83.818
  388.500    4.509    0.311    0.520   85.040
  388.750    4.509    0.304    0.530   86.263
  389.000    4.681    0.300    0.535   84.438
  389.250    4.859    0.296    0.513   83.224
  389.500    5.235    0.297    0.500   83.838
  389.750    5.537    0.290    0.493   86.283
  390.000    5.641    0.287    0.492   88.117
  390.250    5.642    0.287    0.489   88.730
  390.500    5.436    0.285    0.491   86.295
  390.750    5.142    0.281    0.495   82.033
  391.000    5.047    0.278    0.497   82.035
  391.250    5.048    0.285    0.498   84.480
  391.500    5.144    0.291    0.495   85.704
  391.750    5.241    0.290    0.490   85.709
  392.000    5.440    0.293    0.481   85.103
  392.250    5.647    0.302    0.474   85.716
  392.500    5.862    0.307    0.469   86.330
  392.750    5.862    0.309    0.459   89.387
  393.000    5.052    0.297    0.452   90.609
  393.250    4.959    0.288    0.457   92.441
  393.500    4.869    0.274    0.464   93.665
  393.750    4.869    0.261    0.467   91.231
  394.000    4.780    0.262    0.468   92.455
  394.250    4.780    0.267    0.470   94.899
  394.500    4.692    0.266    0.502   96.122
  394.750    4.606    0.272    0.509   95.517
  395.000    4.693    0.266    0.488   93.694
  395.250    4.783    0.274    0.476   93.087
  395.500    4.783    0.273    0.468   93.703
  395.750    4.783    0.279    0.470   93.706
  396.000    4.874    0.269    0.486   93.102
  396.250    4.784    0.267    0.499   92.496
  396.500    4.697    0.279    0.502   90.670
  396.750    4.786    0.288    0.490   88.235
  397.000    4.876    0.300    0.469   86.410
  397.250    5.062    0.307    0.465   85.198
  397.500    5.254    0.314    0.468   85.811
  397.750    5.353    0.315    0.486   87.034
  398.000    5.558    0.310    0.492   88.867
  398.250    5.662    0.297    0.486   82.774
  398.500    5.988    0.285    0.483   77.291
  398.750    6.333    0.268    0.469   71.199
  399.000    6.698    0.257    0.446   67.544
  399.250    6.953    0.270    0.429   65.718
  399.500    7.084    0.297    0.419   63.285
  399.750    7.085    0.333    0.429   60.851
  400.000    6.827    0.344    0.443   60.244
  400.250    6.702    0.343    0.451   61.468
