~VERSION INFORMATION
 VERS.                 2.0:   CWLS LOG ASCII STANDARD -VERSION 2.0
 WRAP.                  NO:   ONE LINE PER DEPTH STEP
~WELL INFORMATION BLOCK
#MNEM.UNIT           DATA                    DESCRIPTION OF MNEMONIC
#---------    -------------------            -------------------------------
# Generated from Intellog Unique Number	CS_73_76/WELL/2157
WELL.         DOME ET AL KIRBY               : Well_name    - WELL
LOC .         00/05-21-074-04W4/0            : Location     - LOCATION
UWI .         00/05-21-074-04W4/0            : Uwi          - UNIQUE WELL ID
ENTR.         SP                             : Entered      - ENTERED BY
SRVC.         SCHLUMBERGER                   : Scn          - SERVICE COMPANY
STRT.M        210                            : top_depth    - START DEPTH
STOP.M        420                            : bot_depth    - STOP DEPTH
STEP.M        0.25                           : increment    - STEP LENGTH
 NULL. -999.2500:NULL Value
~CURVE INFORMATION BLOCK
#MNEM UNIT       ERCB CURVE CODE    CURVE DESCRIPTION
#-----------   ------------------   ----------------------------------
DEPT.M        00 001 00 00         : DEPTH        - DEPTH
ILD .OHMM     00 120 00 00         : RESD         - DEEP RESISTIVITY (DIL)
DPHI.V/V      00 890 00 00         : PHID         - DENSITY POROSITY (LIMESTONE)
NPHI.V/V      00 330 00 00         : PHIN         - NEUTRON POROSITY (LIMESTONE)
GR  .API      00 310 00 00         : GR           - GAMMA RAY
~PARAMETER INFORMATION
#MNEM.UNIT           DATA             DESCRIPTION OF MNEMONIC
#---------         -----------     ------------------------------
GL  .M        598                  : gl           - GROUND LEVEL ELEVATION
EREF.M        601.9                : kb           - ELEVATION OF DEPTH REFERENCE
DATM.M        598                  : datum        - DATUM ELEVATION
TDD .M        432                  : tdd          - TOTAL DEPTH DRILLER
RUN .         ONE                  : Run          - RUN NUMBER
ENG .         BILL                 : Engineer     - RECORDING ENGINEER
WIT .         JIM                  : Witness      - WITNESSED BY
MUD .         GEL                  : Mud_type     - MUD TYPE
MATR.         LIMESTONE            : Logunit      - NEUTRON MATRIX
TMAX.C        20                   : BHT          - MAXIMUM RECORDED TEMPERATURE
BHTD.M        432                  : BHTDEP       - MAXIMUM RECORDED TEMPERATURE
MATR.         1                    : LOGUNIT      - NEUTRON MATRIX
RMT .C        25                   : MDTP         - TEMPERATURE OF MUD
NEUT.         1                    : NEUTRON      - NEUTRON TYPE
RESI.         0                    : RESIST       - RESISTIVITY TYPE
RMC .OHMM     0.25                 : RMC          - RESISTIVITY OF MUD CAKE
RMF .OHMM     0.25                 : RMF          - RESISTIVITY OF MUD FILTRATE
SUFT.C        15                   : SUFT         - SURFACE TEMPERATURE
~A  DEPTH     RESD     PHID     PHIN       GR
# ...
  384.000   36.729    0.317    0.362   40.289
  384.250   37.461    0.307    0.366   40.289
  384.500   42.815    0.302    0.354   31.612
  384.750   56.973    0.304    0.346   34.091
  385.000   75.809    0.306    0.354   40.909
  385.250   89.996    0.304    0.355   47.727
  385.500  102.880    0.302    0.358   32.851
  385.750  111.078    0.301    0.362   39.050
  386.000  113.307    0.301    0.360   42.769
  386.250  109.156    0.300    0.336   33.471
  386.500   92.082    0.300    0.334   31.612
  386.750   70.649    0.302    0.353   31.612
  387.000   59.584    0.303    0.355   36.570
  387.250   47.481    0.302    0.339   39.669
  387.500   39.300    0.297    0.362   39.050
  387.750   31.317    0.293    0.378   40.289
  388.000   24.487    0.293    0.388   49.587
  388.250   21.050    0.294    0.371   50.207
  388.500   19.528    0.295    0.370   57.645
  388.750   18.814    0.298    0.372   65.703
  389.000   18.831    0.299    0.370   71.281
  389.250   18.486    0.299    0.367   65.703
  389.500   15.303    0.295    0.383   68.182
  389.750   12.906    0.292    0.379   69.421
  390.000    9.534    0.283    0.381   67.562
  390.250    8.042    0.243    0.362   70.661
  390.500    6.914    0.214    0.346   69.421
  390.750    5.723    0.243    0.346   79.339
  391.000    5.110    0.251    0.381   86.777
  391.250    4.651    0.233    0.362   89.256
  391.500    4.314    0.233    0.362   99.174
  391.750    4.156    0.236    0.353  104.132
  392.000    4.082    0.232    0.342  108.471
  392.250    4.243    0.227    0.352  115.909
  392.500    4.246    0.231    0.350  113.430
  392.750    4.249    0.233    0.329   94.835
  393.000    4.095    0.234    0.322   81.818
  393.250    4.177    0.262    0.321   70.041
  393.500    4.259    0.234    0.313   64.463
  393.750    4.868    0.213    0.317   69.421
  394.000    5.890    0.197    0.330   81.818
  394.250    7.545    0.191    0.348   96.074
  394.500   10.040    0.199    0.356  110.950
  394.750   16.460    0.266    0.360   66.942
  395.000   30.247    0.292    0.349   43.388
  395.250   32.044    0.297    0.334   35.331
  395.500   28.082    0.303    0.340   30.372
  395.750   21.952    0.309    0.349   28.512
  396.000   12.195    0.314    0.355   27.273
  396.250    9.008    0.314    0.356   30.992
  396.500    7.455    0.302    0.336   43.388
  396.750    6.289    0.272    0.313   57.645
  397.000    5.723    0.222    0.310   65.703
  397.250    5.410    0.208    0.310   74.380
  397.500    5.314    0.192    0.351   80.579
  397.750    5.318    0.179    0.372   86.777
  398.000    5.321    0.187    0.349   92.975
  398.250    5.326    0.182    0.352   94.835
  398.500    5.331    0.183    0.342   96.694
  398.750    5.333    0.187    0.329   88.636
  399.000    5.238    0.191    0.334   89.876
  399.250    5.242    0.194    0.341   80.579
  399.500    5.346    0.203    0.324   81.198
  399.750    5.452    0.212    0.316   72.521
  400.000    5.776    0.221    0.320   80.579
  400.250    6.005    0.225    0.325   81.818
  400.500    6.243    0.228    0.338   83.678
  400.750    6.366    0.229    0.327   81.198
  401.000    6.135    0.227    0.351   78.099
  401.250    6.024    0.227    0.348   72.521
  401.500    5.914    0.232    0.333   75.620
  401.750    5.809    0.231    0.320   75.000
  402.000    5.596    0.225    0.328   72.521
  402.250    5.495    0.222    0.325   66.942
  402.500    5.499    0.219    0.331   75.000
  402.750    5.608    0.215    0.330   79.339
  403.000    6.056    0.211    0.334   78.099
  403.250    6.663    0.210    0.322   79.959
  403.500    8.537    0.210    0.304   82.438
  403.750   11.799    0.215    0.312   84.297
  404.000   18.623    0.238    0.327   81.198
  404.250   36.920    0.262    0.358   68.182
  404.500   44.673    0.280    0.373   52.066
  404.750   50.104    0.303    0.370   42.149
  405.000   54.105    0.311    0.385   37.190
  405.250   58.429    0.312    0.387   32.851
  405.500   60.725    0.310    0.376   30.992
  405.750   59.628    0.308    0.383   25.413
  406.000   58.552    0.308    0.383   24.174
  406.250   58.594    0.309    0.387   30.372
  406.500   59.760    0.313    0.370   28.512
  406.750   59.811    0.322    0.367   21.694
  407.000   54.431    0.324    0.372   23.554
  407.250   45.924    0.322    0.382   26.033
  407.500   41.002    0.319    0.380   26.653
  407.750   38.767    0.314    0.370   24.793
  408.000   39.535    0.309    0.376   26.653
  408.250   45.201    0.306    0.405   27.273
  408.500   50.689    0.313    0.409   22.934
  408.750   56.845    0.326    0.392   19.215
  409.000   60.236    0.326    0.400   21.694
  409.250   60.268    0.325    0.397   21.074
  409.500   55.905    0.328    0.390   17.975
  409.750   50.877    0.330    0.383   19.835
  410.000   48.105    0.328    0.395   22.314
  410.250   45.480    0.324    0.415   22.934
  410.500   42.186    0.323    0.393   20.454
  410.750   39.880    0.325    0.382   20.454
  411.000   37.704    0.325    0.385   27.273
  411.250   37.015    0.326    0.390   30.372
  411.500   39.219    0.326    0.396   32.851
  411.750   41.554    0.322    0.400   28.512
  412.000   43.184    0.321    0.391   23.554
  412.250   43.232    0.317    0.370   20.454
  412.500   42.436    0.314    0.380   24.793
  412.750   38.624    0.312    0.388   26.033
  413.000   33.211    0.309    0.375   19.215
  413.250   29.096    0.305    0.346   17.975
  413.500   25.016    0.303    0.343   21.074
  413.750   21.921    0.304    0.290   22.934
  414.000   19.573    0.305    0.264   25.413
  414.250   17.478    0.305    0.241   27.893
  414.500   15.607    0.299    0.225   26.033
  414.750   15.920    0.263    0.203   34.091
  415.000   17.520    0.214    0.187   26.653
  415.250   22.023    0.012    0.140   21.074
  415.500   29.863    0.000    0.103   16.116
  415.750   45.376    0.000    0.077   11.777
  416.000   59.238    0.000    0.042   13.017
  416.250   78.820    0.000    0.029    9.298
  416.500   75.946    0.000    0.024   10.537
  416.750   62.863    0.003    0.046   10.537
  417.000   51.047    0.010    0.082   18.595
  417.250   39.911    0.014    0.094   33.471
  417.500   37.034    0.013    0.090   43.388
  417.750   36.365    0.005    0.072   49.587
  418.000   35.703    0.000    0.053   21.074
  418.250   35.053    0.000    0.040   13.017
  418.500   34.417    0.006    0.109   39.669
  418.750   33.799    0.011    0.120   47.107
  419.000   37.906    0.009    0.131   53.306
  419.250   45.877    0.010    0.102   44.628
  419.500   54.462    0.007    0.072   22.934
  419.750   59.925    0.003    0.059   16.735
  420.000   57.748    0.004    0.053   17.355
