~VERSION INFORMATION
 VERS.                 2.0:   CWLS LOG ASCII STANDARD -VERSION 2.0
 WRAP.                  NO:   ONE LINE PER DEPTH STEP
~WELL INFORMATION BLOCK
#MNEM.UNIT           DATA                    DESCRIPTION OF MNEMONIC
#---------    -------------------            -------------------------------
# Generated from Intellog Unique Number	CW_70_72/WELL/3005
NULL.         -999.25                        : NULL_VALUE
WELL.         GULF POC CALLS 06-03           : Well_name    - WELL              
LOC .         06-03-070-23W4                 : Location     - LOCATION          
UWI .         00/06-03-070-23W4/0            : Uwi          - UNIQUE WELL ID    
ENTR.         J                              : Entered      - ENTERED BY        
SRVC.         SCHLUMBERGER                   : Scn          - SERVICE COMPANY   
DATE.         9 JAN 75                       : Date         - LOG DATE          
STRT.M        396.24                         : top_depth    - START DEPTH       
STOP.M        579.24                         : bot_depth    - STOP DEPTH        
STEP.M        0.25                           : increment    - STEP LENGTH       
~CURVE INFORMATION BLOCK
#MNEM UNIT       ERCB CURVE CODE    CURVE DESCRIPTION
#-----------   ------------------   ----------------------------------
DEPT.M        00 001 00 00         : DEPTH        - DEPTH                       
ILD .OHMM     00 120 00 00         : RESD         - DEEP RESISTIVITY (DIL)      
CALI.MM       00 280 01 00         : CAL          - CALIPER                     
GR  .API      00 310 00 00         : GR           - GAMMA RAY                   
NPHI.V/V      00 330 00 00         : PHIN         - NEUTRON POROSITY (SANDSTONE)
DPHI.V/V      00 890 00 00         : PHID         - DENSITY POROSITY (SANDSTONE)
~PARAMETER INFORMATION       
#MNEM.UNIT           DATA             DESCRIPTION OF MNEMONIC
#---------         -----------     ------------------------------
GL  .M        626.577              : gl           - GROUND LEVEL ELEVATION      
EREF.M        629.839              : kb           - ELEVATION OF DEPTH REFERENCE
DATM.M        626.577              : datum        - DATUM ELEVATION             
TDD .M        606.552              : tdd          - TOTAL DEPTH DRILLER         
RUN .         ONE                  : Run          - RUN NUMBER                  
ENG .         STRUKY               : Engineer     - RECORDING ENGINEER          
WIT .         CURBA                : Witness      - WITNESSED BY                
BASE.         EDMONTON             : Branch       - HOME BASE OF LOGGING UNIT   
MUD .         RCL & DX 301         : Mud_type     - MUD TYPE                    
MATR.         SANDSTONE            : Logunit      - NEUTRON MATRIX              
TMAX.C        26.1111              : BHT          - MAXIMUM RECORDED TEMPERATURE
BHTD.M        595.579              : BHTDEP       - MAXIMUM RECORDED TEMPERATURE
RMT .C        21.1111              : MDTP         - TEMPERATURE OF MUD          
MUDD.KG/M     1020                 : MWT          - MUD DENSITY                 
NEUT.         1                    : NEUTRON      - NEUTRON TYPE                
RESI.         0                    : RESIST       - RESISTIVITY TYPE            
RM  .OHMM     2.5                  : RM           - RESISTIVITY OF MUD          
RMC .OHMM     2.5                  : RMC          - RESISTIVITY OF MUD CAKE     
RMF .OHMM     1.7                  : RMF          - RESISTIVITY OF MUD FILTRATE 
SUFT.C        -17.7778             : SUFT         - SURFACE TEMPERATURE         
~A  DEPTH     RESD      CAL       GR     PHIN     PHID
# ...
  432.740    3.668  189.442   92.864    0.480    0.349
  432.990    3.435  190.673   89.066    0.491    0.348
  433.240    3.324  191.486   84.593    0.507    0.361
  433.490    3.277  192.085   82.407    0.515    0.381
  433.740    3.242  193.306   86.662    0.498    0.378
  433.990    3.225  194.334   89.681    0.484    0.355
  434.240    3.215  195.662   92.383    0.492    0.350
  434.490    3.245  196.055   93.480    0.477    0.348
  434.740    3.277  196.339   93.901    0.488    0.343
  434.990    3.308  196.304   94.005    0.503    0.343
  435.240    3.370  196.277   98.633    0.478    0.337
  435.490    3.511  195.934   99.230    0.474    0.310
  435.740    3.604  194.740   96.429    0.484    0.311
  435.990    3.658  193.874   93.437    0.487    0.327
  436.240    3.721  193.005   91.624    0.483    0.324
  436.490    3.736  191.823   91.047    0.479    0.313
  436.740    3.683  190.849   92.888    0.477    0.323
  436.990    3.551  190.295   99.310    0.475    0.329
  437.240    3.380  189.844  101.771    0.467    0.321
  437.490    3.265  188.870  101.751    0.497    0.317
  437.740    3.172  188.213   96.223    0.518    0.329
  437.990    3.208  189.332   92.984    0.512    0.344
  438.240    3.354  193.396   95.877    0.503    0.330
  438.490    3.692  194.832  102.484    0.518    0.302
  438.740    4.071  193.122   96.830    0.517    0.274
  438.990    4.531  194.668   94.523    0.494    0.253
  439.240    4.710  195.790   93.944    0.477    0.272
  439.490    4.730  196.900   93.866    0.490    0.263
  439.740    4.620  197.193   92.487    0.472    0.257
  439.990    4.545  197.371   91.287    0.479    0.258
  440.240    4.423  197.764   92.078    0.492    0.260
  440.490    4.336  198.462   91.626    0.465    0.253
  440.740    4.282  198.963   89.628    0.457    0.240
  440.990    4.245  199.970   93.137    0.445    0.247
  441.240    4.285  200.258   92.437    0.456    0.294
  441.490    4.350  200.334   91.246    0.489    0.307
  441.740    4.400  199.575   89.494    0.502    0.312
  441.990    4.426  197.443   87.370    0.498    0.315
  442.240    4.403  195.105   77.691    0.484    0.319
  442.490    4.357  193.506   73.337    0.477    0.370
  442.740    4.279  191.586   74.619    0.479    0.350
  442.990    4.210  189.143   80.670    0.482    0.334
  443.240    4.104  186.595   87.650    0.495    0.330
  443.490    3.994  190.447   92.215    0.482    0.322
  443.740    3.916  191.359   95.171    0.479    0.279
  443.990    3.824  182.101   93.292    0.472    0.296
  444.240    3.722  185.003   90.180    0.452    0.319
  444.490    3.635  188.018   88.924    0.470    0.301
  444.740    3.557  190.287   87.294    0.469    0.291
  444.990    3.500  190.785   84.614    0.459    0.298
  445.240    3.514  192.957   88.623    0.448    0.325
  445.490    3.654  201.527   92.938    0.453    0.322
  445.740    4.142  205.793   88.832    0.537    0.312
  445.990    4.773  205.555   74.631    0.592    0.363
  446.240    5.254  203.635   66.874    0.569    0.419
  446.490    5.890  205.075   67.536    0.465    0.380
  446.740    6.484  213.328   67.145    0.423    0.351
  446.990    6.993  220.109   59.946    0.428    0.341
  447.240    8.060  224.381   53.115    0.441    0.353
  447.490    8.937  228.862   50.309    0.463    0.376
  447.740    9.711  234.604   51.033    0.463    0.389
  447.990   10.323  241.805   51.079    0.450    0.389
  448.240   10.576  246.497   55.825    0.453    0.384
  448.490   10.639  250.453   56.864    0.478    0.392
  448.740   10.661  253.460   58.020    0.472    0.392
  448.990   10.665  254.267   58.934    0.463    0.389
  449.240   10.630  254.242   60.027    0.463    0.396
  449.490   10.517  252.947   60.818    0.473    0.390
  449.740   10.179  250.509   62.409    0.481    0.384
  449.990    9.814  245.338   64.310    0.475    0.376
  450.240    9.257  234.822   66.336    0.480    0.388
  450.490    8.401  230.594   66.814    0.496    0.388
  450.740    7.779  232.875   66.795    0.501    0.380
  450.990    7.008  227.908   67.028    0.503    0.382
  451.240    6.430  223.267   67.442    0.508    0.375
  451.490    5.771  218.520   68.226    0.493    0.373
  451.740    5.189  213.032   69.014    0.484    0.373
  451.990    4.752  209.330   70.918    0.485    0.381
  452.240    4.368  205.004   73.068    0.487    0.384
  452.490    4.075  197.947   75.710    0.485    0.372
  452.740    3.829  198.650   78.978    0.488    0.362
  452.990    3.719  210.468   85.028    0.476    0.352
  453.240    3.896  205.827   88.170    0.497    0.332
  453.490    4.096  191.323   80.224    0.529    0.331
  453.740    4.467  176.818   72.773    0.514    0.385
  453.990    4.908  165.883   66.316    0.480    0.386
  454.240    5.150  155.996   68.775    0.482    0.371
  454.490    5.325  178.511   73.832    0.480    0.392
  454.740    5.278  193.897   75.365    0.483    0.380
  454.990    5.398  199.528   74.047    0.530    0.362
  455.240    5.866  194.886   69.136    0.523    0.360
  455.490    6.698  181.430   64.410    0.501    0.363
  455.740    7.427  172.588   60.675    0.482    0.363
  455.990    8.205  164.169   58.863    0.477    0.364
  456.240    8.329  176.622   57.792    0.488    0.375
  456.490    8.121  169.563   57.709    0.484    0.387
  456.740    7.946  162.506   58.065    0.472    0.401
  456.990    7.634  162.372   59.285    0.478    0.402
  457.240    7.253  150.907   59.637    0.495    0.383
  457.490    6.680  157.273   58.816    0.505    0.398
  457.740    6.106  162.804   58.737    0.507    0.409
  457.990    5.302  159.416   59.213    0.470    0.387
  458.240    4.470  154.036   59.011    0.461    0.384
  458.490    3.797  146.039   59.921    0.461    0.396
  458.740    3.327  141.392   60.707    0.468    0.398
  458.990    2.943  140.209   63.105    0.455    0.387
  459.240    2.551  142.377   66.494    0.455    0.385
  459.490    2.315  145.391   69.570    0.459    0.391
  459.740    2.232  148.086   68.068    0.463    0.403
  459.990    2.188  147.316   65.015    0.473    0.397
  460.240    2.189  145.298   64.314    0.485    0.389
  460.490    2.205  143.381   66.154    0.503    0.391
  460.740    2.268  141.253   68.738    0.505    0.389
  460.990    2.402  138.390   71.503    0.460    0.413
  461.240    2.605  136.892   71.180    0.452    0.408
  461.490    2.744  141.896   67.755    0.452    0.376
  461.740    2.832  147.734   71.330    0.443    0.383
  461.990    2.859  154.415   70.442    0.438    0.387
  462.240    2.855  159.423   67.204    0.443    0.372
  462.490    2.856  164.736   65.579    0.453    0.381
  462.740    2.905  166.277   67.852    0.457    0.386
  462.990    2.998  166.883   69.505    0.461    0.377
  463.240    3.140  167.794   66.696    0.464    0.383
  463.490    3.368  168.815   65.504    0.471    0.387
  463.740    3.776  169.304   65.362    0.477    0.383
  463.990    4.195  168.856   63.923    0.480    0.386
  464.240    4.694  165.679   66.072    0.485    0.371
  464.490    5.263  161.980   67.786    0.490    0.374
  464.740    6.099  162.683   67.830    0.497    0.393
  464.990    6.555  166.635   66.201    0.497    0.387
  465.240    6.298  166.392   66.247    0.485    0.387
  465.490    5.810  166.051   65.424    0.483    0.384
  465.740    5.420  165.286   63.546    0.489    0.376
  465.990    5.159  163.469   65.265    0.502    0.369
  466.240    5.257  161.138   67.600    0.505    0.380
  466.490    6.014  154.499   66.093    0.455    0.373
  466.740    7.501  149.332   60.376    0.404    0.328
  466.990    8.887  149.091   55.712    0.286    0.220
  467.240   10.413  151.990   52.286    0.211    0.096
  467.490   11.129  153.744   50.602    0.179    0.075
  467.740    8.160  156.021   48.416    0.189    0.065
  467.990    6.027  158.405   52.483    0.216    0.075
  468.240    4.730  159.632   56.618    0.257    0.099
  468.490    3.774  158.347   63.721    0.388    0.137
  468.740    2.972  151.393   68.843    0.427    0.349
  468.990    2.727  149.468   70.994    0.438    0.381
