~VERSION INFORMATION
 VERS.                 2.0:   CWLS LOG ASCII STANDARD -VERSION 2.0
 WRAP.                  NO:   ONE LINE PER DEPTH STEP
~WELL INFORMATION BLOCK
#MNEM.UNIT           DATA                    DESCRIPTION OF MNEMONIC
#---------    -------------------            -------------------------------
# Generated from Intellog Unique Number	CW_73_75/WELL/468
WELL.         COSEKA ET AL MITSIK            : Well_name    - WELL
LOC .         00/04-21-074-05W5/0            : Location     - LOCATION
UWI .         00/04-21-074-05W5/0            : Uwi          - UNIQUE WELL ID
ENTR.         JAYE                           : Entered      - ENTERED BY
SRVC.         WESTERN ATLAS                  : Scn          - SERVICE COMPANY
DATE.         21 NOV 82                      : Date         - LOG DATE
STRT.M        465                            : top_depth    - START DEPTH
STOP.M        685                            : bot_depth    - STOP DEPTH
STEP.M        0.25                           : increment    - STEP LENGTH
 NULL. -999.2500:NULL Value
~CURVE INFORMATION BLOCK
#MNEM UNIT       ERCB CURVE CODE    CURVE DESCRIPTION
#-----------   ------------------   ----------------------------------
DEPT.M        00 001 00 00         : DEPTH        - DEPTH
ILD .OHMM     00 120 00 00         : RESD         - DEEP RESISTIVITY (DIL)
CALI.MM       00 280 01 00         : CAL          - CALIPER
GR  .API      00 310 00 00         : GR           - GAMMA RAY
NPHI.V/V      00 330 00 00         : PHIN         - NEUTRON POROSITY (SANDSTONE)
DPHI.V/V      00 890 00 00         : PHID         - DENSITY POROSITY (SANDSTONE)
~PARAMETER INFORMATION
#MNEM.UNIT           DATA             DESCRIPTION OF MNEMONIC
#---------         -----------     ------------------------------
GL  .M        700.46               : gl           - GROUND LEVEL ELEVATION
EREF.M        705.26               : kb           - ELEVATION OF DEPTH REFERENCE
DATM.M        700.46               : datum        - DATUM ELEVATION
TDD .M        1779                 : tdd          - TOTAL DEPTH DRILLER
RUN .         ONE                  : Run          - RUN NUMBER
ENG .         LAMBORN              : Engineer     - RECORDING ENGINEER
WIT .         JONES                : Witness      - WITNESSED BY
BASE.         EDM                  : Branch       - HOME BASE OF LOGGING UNIT
MUD .         GEL CHEM             : Mud_type     - MUD TYPE
MATR.         SANDSTONE            : Logunit      - NEUTRON MATRIX
TMAX.C        44                   : BHT          - MAXIMUM RECORDED TEMPERATURE
BHTD.M        1779.9               : BHTDEP       - MAXIMUM RECORDED TEMPERATURE
RMT .C        13                   : MDTP         - TEMPERATURE OF MUD
MUDD.KG/M     1100                 : MWT          - MUD DENSITY
NEUT.         1                    : NEUTRON      - NEUTRON TYPE
RESI.         0                    : RESIST       - RESISTIVITY TYPE
RM  .OHMM     0.65                 : RM           - RESISTIVITY OF MUD
RMC .OHMM     1.31                 : RMC          - RESISTIVITY OF MUD CAKE
RMF .OHMM     1.9                  : RMF          - RESISTIVITY OF MUD FILTRATE
SUFT.C        0                    : SUFT         - SURFACE TEMPERATURE
~A  DEPTH     RESD      CAL       GR     PHIN     PHID
# ...
  574.500    7.364  218.187   71.625    0.405    0.191
  574.750    6.834  219.187   72.346    0.375    0.188
  575.000    6.188  221.211   80.993    0.372    0.186
  575.250    5.604  227.616   92.203    0.381    0.182
  575.500    5.046  232.350   93.860    0.402    0.178
  575.750    4.789  235.841   90.333    0.428    0.177
  576.000    4.937  235.906   86.996    0.423    0.192
  576.250    5.424  234.086   86.280    0.399    0.211
  576.500    6.027  229.975   84.441    0.379    0.221
  576.750    6.635  225.357   79.295    0.351    0.233
  577.000    7.540  221.349   81.138    0.332    0.246
  577.250    8.666  217.558   82.610    0.338    0.257
  577.500    9.327  214.695   80.767    0.360    0.265
  577.750    9.524  212.264   78.803    0.380    0.274
  578.000    9.474  212.004   80.148    0.397    0.282
  578.250    9.076  212.995   79.495    0.411    0.287
  578.500    8.158  214.301   77.718    0.438    0.287
  578.750    7.556  214.350   77.695    0.444    0.285
  579.000    7.211  214.518   79.035    0.421    0.283
  579.250    7.213  214.566   81.064    0.421    0.278
  579.500    8.000  214.103   79.287    0.418    0.266
  579.750    9.247  214.893   72.706    0.395    0.242
  580.000   11.265  215.885   72.175    0.369    0.198
  580.250   13.418  217.606   73.583    0.338    0.145
  580.500   15.451  221.412   72.242    0.201    0.054
  580.750   18.095  225.934   69.594    0.181    0.022
  581.000   24.168  229.630   67.008    0.179    0.009
  581.250   27.108  231.150   64.729    0.182    0.006
  581.500   26.018  231.196   58.832    0.186    0.014
  581.750   21.131  231.669   56.369    0.194    0.047
  582.000   15.980  232.976   58.589    0.208    0.081
  582.250   12.642  234.177   66.485    0.285    0.146
  582.500    9.741  235.599   75.260    0.314    0.180
  582.750    7.941  236.370   79.662    0.352    0.201
  583.000    6.365  238.091   84.629    0.385    0.227
  583.250    5.083  241.993   83.787    0.426    0.241
  583.500    4.534  244.444   79.574    0.418    0.252
  583.750    4.303  246.370   76.802    0.396    0.255
  584.000    4.362  247.987   78.459    0.410    0.247
  584.250    4.783  248.152   77.245    0.433    0.237
  584.500    5.550  243.418   75.901    0.429    0.234
  584.750    6.098  237.439   76.252    0.401    0.233
  585.000    6.699  231.569   79.156    0.377    0.234
  585.250    6.971  226.732   79.938    0.352    0.234
  585.500    6.616  226.272   78.976    0.345    0.229
  585.750    6.105  231.938   80.127    0.344    0.218
  586.000    5.707  237.933   82.098    0.331    0.205
  586.250    5.561  238.917   81.691    0.347    0.200
  586.500    5.852  235.439   79.291    0.361    0.205
  586.750    6.527  232.167   77.518    0.380    0.229
  587.000    7.376  230.243   77.797    0.407    0.245
  587.250    8.211  229.361   81.265    0.407    0.250
  587.500    8.738  231.188   79.364    0.374    0.250
  587.750    8.232  233.952   76.028    0.353    0.247
  588.000    7.153  237.130   72.441    0.353    0.237
  588.250    6.369  240.929   67.477    0.359    0.217
  588.500    5.735  245.980   66.511    0.367    0.203
  588.750    5.332  250.610   70.917    0.364    0.190
  589.000    5.234  253.997   81.187    0.348    0.187
  589.250    5.226  255.826   84.844    0.350    0.200
  589.500    5.227  257.445   86.499    0.360    0.230
  589.750    5.239  258.741   85.534    0.379    0.255
  590.000    5.260  260.367   83.323    0.406    0.266
  590.250    5.291  261.777   82.673    0.393    0.254
  590.500    5.303  263.389   83.386    0.389    0.239
  590.750    5.304  264.581   83.859    0.381    0.234
  591.000    5.296  266.307   83.021    0.360    0.237
  591.250    5.308  266.575   82.925    0.340    0.238
  591.500    5.279  265.377   85.269    0.351    0.230
  591.750    5.281  263.251   85.800    0.368    0.219
  592.000    5.272  260.705   81.530    0.382    0.211
  592.250    5.215  257.427   79.813    0.399    0.206
  592.500    5.168  255.612   81.721    0.388    0.207
  592.750    5.102  256.088   88.748    0.382    0.210
  593.000    5.094  256.976   90.962    0.380    0.212
  593.250    5.066  258.183   91.995    0.382    0.218
  593.500    5.097  258.648   87.785    0.379    0.218
  593.750    5.098  258.505   84.198    0.344    0.218
  594.000    5.080  258.562   87.790    0.323    0.221
  594.250    5.091  258.608   90.571    0.337    0.220
  594.500    5.084  259.386   87.543    0.349    0.220
  594.750    5.085  260.492   82.082    0.367    0.226
  595.000    5.086  261.697   79.744    0.382    0.231
  595.250    5.041  262.366   84.337    0.371    0.226
  595.500    5.051  263.468   85.997    0.380    0.217
  595.750    5.072  264.566   86.337    0.396    0.203
  596.000    5.054  265.344   90.181    0.411    0.194
  596.250    5.046  266.124   91.214    0.413    0.188
  596.500    5.057  266.918   86.814    0.425    0.182
  596.750    5.059  267.396   87.285    0.442    0.176
  597.000    5.070  267.854   91.689    0.431    0.171
  597.250    5.062  268.323   93.905    0.410    0.163
  597.500    5.073  268.695   92.816    0.385    0.169
  597.750    5.046  268.854   96.912    0.402    0.181
  598.000    5.038  269.013  100.812    0.428    0.190
  598.250    5.030  269.490   98.410    0.428    0.185
  598.500    5.069  270.377   94.761    0.444    0.178
  598.750    5.099  271.158   91.924    0.465    0.169
  599.000    5.168  272.152   91.020    0.442    0.159
  599.250    5.199  273.152   89.243    0.416    0.171
  599.500    5.191  273.938   88.775    0.397    0.190
  599.750    5.231  274.714   91.871    0.396    0.205
  600.000    5.155  275.391   94.587    0.407    0.222
  600.250    5.032  275.662   92.440    0.423    0.235
  600.500    4.876  275.921   89.160    0.489    0.238
  600.750    4.768  275.767   89.880    0.488    0.240
  601.000    4.585  274.059   92.161    0.454    0.246
  601.250    4.271  272.449   91.386    0.432    0.257
  601.500    4.130  270.531   89.171    0.440    0.256
  601.750    4.093  269.332   84.021    0.450    0.253
  602.000    4.140  267.101   80.809    0.443    0.250
  602.250    4.316  265.390   82.531    0.420    0.231
  602.500    4.672  264.822   85.246    0.396    0.211
  602.750    4.990  263.624   86.340    0.377    0.197
  603.000    5.281  261.290   87.436    0.380    0.210
  603.250    5.495  259.261   91.589    0.395    0.213
  603.500    5.570  256.197   87.252    0.412    0.206
  603.750    5.529  257.402   83.915    0.427    0.213
  604.000    5.337  261.407   86.075    0.420    0.232
  604.250    5.075  266.458   89.725    0.403    0.231
  604.500    4.780  268.709   93.506    0.401    0.217
  604.750    4.419  269.177   89.669    0.434    0.203
  605.000    4.086  268.602   85.145    0.464    0.203
  605.250    3.914  268.765   84.492    0.459    0.232
  605.500    3.828  270.897   86.959    0.457    0.234
  605.750    3.765  275.118   89.682    0.471    0.225
  606.000    3.816  277.565   93.268    0.501    0.220
  606.250    3.860  279.391   95.428    0.492    0.205
  606.500    3.935  279.964   91.775    0.477    0.180
  606.750    3.958  280.029   86.565    0.474    0.156
  607.000    4.034  279.663   83.041    0.480    0.151
  607.250    4.081  279.306   85.695    0.498    0.158
  607.500    4.098  279.045   90.288    0.508    0.195
  607.750    4.038  278.372   91.630    0.498    0.209
  608.000    3.994  277.805   87.294    0.477    0.226
  608.250    3.943  277.031   81.898    0.445    0.243
  608.500    3.893  276.250   79.996    0.444    0.265
  608.750    3.821  275.274   81.838    0.465    0.304
  609.000    3.702  274.701   85.433    0.502    0.343
  609.250    3.527  271.326   87.149    0.525    0.370
  609.500    3.366  268.153   83.251    0.486    0.398
  609.750    3.255  265.818   80.912    0.436    0.403
  610.000    3.250  263.580   83.130    0.422    0.370
  610.250    3.319  260.828   81.978    0.407    0.324
  610.500    3.486  256.932   83.388    0.389    0.235
  610.750    3.655  253.037   86.102    0.369    0.210
