~VERSION INFORMATION
 VERS.                 2.0:   CWLS LOG ASCII STANDARD -VERSION 2.0
 WRAP.                  NO:   ONE LINE PER DEPTH STEP
~WELL INFORMATION BLOCK
#MNEM.UNIT           DATA                    DESCRIPTION OF MNEMONIC
#---------    -------------------            -------------------------------
# Generated from Intellog Unique Number	CS_73_76/WELL/2809
WELL.         ESSO WINEFRED LAKR             : Well_name    - WELL
LOC .         00/03-31-075-03W4/0            : Location     - LOCATION
UWI .         00/03-31-075-03W4/0            : Uwi          - UNIQUE WELL ID
ENTR.         TIM                            : Entered      - ENTERED BY
SRVC.         SCHLUMBERGER                   : Scn          - SERVICE COMPANY
STRT.M        250                            : top_depth    - START DEPTH
STOP.M        495                            : bot_depth    - STOP DEPTH
STEP.M        0.25                           : increment    - STEP LENGTH
 NULL. -999.2500:NULL Value
~CURVE INFORMATION BLOCK
#MNEM UNIT       ERCB CURVE CODE    CURVE DESCRIPTION
#-----------   ------------------   ----------------------------------
DEPT.M        00 001 00 00         : DEPTH        - DEPTH
ILD .OHMM     00 120 00 00         : RESD         - DEEP RESISTIVITY (DIL)
DPHI.V/V      00 890 00 00         : PHID         - DENSITY POROSITY (SANDSTONE)
NPHI.V/V      00 330 00 00         : PHIN         - NEUTRON POROSITY (SANDSTONE)
GR  .API      00 310 00 00         : GR           - GAMMA RAY
~PARAMETER INFORMATION
#MNEM.UNIT           DATA             DESCRIPTION OF MNEMONIC
#---------         -----------     ------------------------------
GL  .M        623.9                : gl           - GROUND LEVEL ELEVATION
EREF.M        627.65               : kb           - ELEVATION OF DEPTH REFERENCE
DATM.M        627.65               : datum        - DATUM ELEVATION
TDD .M        505                  : tdd          - TOTAL DEPTH DRILLER
RUN .         ONE                  : Run          - RUN NUMBER
ENG .         BILL                 : Engineer     - RECORDING ENGINEER
WIT .         JIM                  : Witness      - WITNESSED BY
MUD .         GEL                  : Mud_type     - MUD TYPE
MATR.         SANDSTONE            : Logunit      - NEUTRON MATRIX
TMAX.C        32                   : BHT          - MAXIMUM RECORDED TEMPERATURE
BHTD.M        505                  : BHTDEP       - MAXIMUM RECORDED TEMPERATURE
RMT .C        20                   : MDTP         - TEMPERATURE OF MUD
MUDD.KG/M     1160                 : MWT          - MUD DENSITY
NEUT.         1                    : NEUTRON      - NEUTRON TYPE
RESI.         0                    : RESIST       - RESISTIVITY TYPE
RM  .OHMM     1.5                  : RM           - RESISTIVITY OF MUD
RMC .OHMM     2.2                  : RMC          - RESISTIVITY OF MUD CAKE
RMF .OHMM     3.1                  : RMF          - RESISTIVITY OF MUD FILTRATE
SUFT.C        4                    : SUFT         - SURFACE TEMPERATURE
~A  DEPTH     RESD     PHID     PHIN       GR
# ...
  467.500    3.748    0.327    0.327   28.729
  467.750    3.751    0.320    0.329   30.619
  468.000    3.757    0.316    0.329   31.878
  468.250    3.761    0.314    0.329   33.137
  468.500    3.768    0.313    0.328   34.398
  468.750    3.771    0.313    0.325   35.662
  469.000    3.778    0.309    0.323   36.298
  469.250    3.780    0.303    0.319   36.932
  469.500    3.789    0.297    0.317   37.573
  469.750    3.861    0.297    0.313   38.206
  470.000    3.866    0.297    0.312   36.966
  470.250    3.946    0.298    0.313   33.852
  470.500    3.950    0.302    0.327   30.735
  470.750    4.030    0.317    0.330   29.492
  471.000    4.109    0.285    0.307   28.251
  471.250    4.195    0.280    0.297   27.636
  471.500    4.277    0.284    0.296   30.777
  471.750    4.444    0.285    0.292   33.912
  472.000    4.531    0.243    0.295   38.304
  472.250    4.712    0.237    0.297   40.191
  472.500    4.803    0.280    0.309   38.950
  472.750    4.634    0.307    0.322   34.580
  473.000    4.152    0.315    0.328   30.215
  473.250    3.789    0.320    0.331   25.850
  473.500    3.589    0.316    0.331   25.235
  473.750    3.527    0.301    0.328   25.245
  474.000    3.665    0.255    0.320   25.256
  474.250    3.881    0.239    0.299   25.266
  474.500    4.108    0.256    0.291   25.274
  474.750    4.350    0.273    0.284   27.789
  475.000    4.437    0.282    0.284   28.423
  475.250    4.441    0.290    0.288   28.433
  475.500    4.129    0.294    0.297   27.193
  475.750    3.839    0.299    0.309   25.327
  476.000    3.704    0.306    0.321   23.464
  476.250    3.642    0.316    0.331   22.223
  476.500    3.784    0.328    0.335   21.611
  476.750    3.859    0.333    0.345   21.616
  477.000    4.164    0.338    0.353   21.629
  477.250    4.325    0.330    0.351   21.640
  477.500    4.493    0.307    0.344   22.904
  477.750    4.759    0.276    0.322   24.166
  478.000    4.945    0.290    0.344   26.053
  478.250    5.042    0.328    0.448   27.937
  478.500    5.241    0.344    0.425   30.449
  478.750    5.246    0.272    0.402   32.339
  479.000    5.158    0.232    0.376   32.972
  479.250    5.068    0.246    0.352   33.611
  479.500    4.800    0.284    0.321   33.619
  479.750    4.463    0.329    0.335   34.255
  480.000    3.998    0.339    0.342   34.266
  480.250    3.718    0.342    0.351   34.279
  480.500    3.654    0.342    0.354   33.669
  480.750    3.526    0.340    0.355   33.049
  481.000    3.466    0.339    0.351   31.183
  481.250    3.469    0.336    0.346   29.320
  481.500    3.411    0.328    0.341   27.454
  481.750    3.416    0.328    0.342   26.213
  482.000    3.419    0.335    0.348   24.970
  482.250    3.423    0.349    0.359   23.733
  482.500    3.491    0.355    0.370   22.495
  482.750    3.630    0.360    0.372   21.877
  483.000    3.634    0.362    0.372   21.890
  483.250    3.777    0.354    0.372   21.896
  483.500    3.926    0.338    0.372   24.411
  483.750    4.002    0.301    0.370   27.546
  484.000    4.236    0.265    0.366   38.192
  484.250    4.742    0.159    0.365   78.234
  484.500    4.926    0.147    0.364   87.627
  484.750    5.214    0.146    0.365   99.521
  485.000    5.521    0.146    0.370   88.273
  485.250    5.846    0.151    0.379   80.778
  485.500    6.075    0.193    0.395   78.912
  485.750    6.083    0.228    0.425   78.300
  486.000    5.977    0.251    0.442   77.685
  486.250    5.985    0.253    0.447   81.448
  486.500    5.776    0.234    0.446   95.219
  486.750    5.892    0.201    0.444  103.361
  487.000    6.009    0.148    0.438  101.495
  487.250    6.242    0.146    0.430   89.622
  487.500    6.610    0.143    0.422   88.381
  487.750    7.128    0.143    0.404   85.890
  488.000    7.830    0.142    0.392   72.765
  488.250    8.604    0.137    0.379   70.905
  488.500    9.629    0.142    0.367   71.535
  488.750   10.574    0.147    0.352   73.425
  489.000   12.058    0.146    0.328   74.686
  489.250   12.998    0.114    0.299   72.818
  489.500   15.388    0.074    0.275   55.315
  489.750   16.283    0.061    0.252   49.696
  490.000   17.887    0.071    0.237   46.579
  490.250   19.656    0.080    0.228   44.088
  490.500   20.043    0.069    0.219   42.222
  490.750   20.451   -0.001    0.212   41.612
  491.000   20.860    0.003    0.207   41.620
  491.250   20.887    0.005    0.207   42.259
  491.500   24.710    0.005    0.207   42.272
  491.750   27.162    0.003    0.208   42.903
  492.000   27.179    0.014    0.208   42.919
  492.250   27.214    0.012    0.208   42.924
  492.500   27.249    0.011    0.208   43.560
  492.750   26.308    0.017    0.208   44.196
  493.000   25.841    0.024    0.204   41.705
  493.250   26.358    0.026    0.201   26.704
  493.500   31.183    0.028    0.195   21.710
  493.750   37.582    0.029    0.152   16.720
  494.000   50.638    0.030    0.140   12.977
  494.250   70.784    0.030    0.137   11.737
  494.500   93.592    0.028    0.135   11.750
  494.750  117.094    0.023    0.135   12.381
  495.000  131.079    0.019    0.135   13.022
