~VERSION INFORMATION
 VERS.                 2.0:   CWLS LOG ASCII STANDARD -VERSION 2.0
 WRAP.                  NO:   ONE LINE PER DEPTH STEP
~WELL INFORMATION BLOCK
#MNEM.UNIT           DATA                    DESCRIPTION OF MNEMONIC
#---------    -------------------            -------------------------------
# Generated from Intellog Unique Number	CS_73_76/WELL/1085
WELL.         BOW VALLEY EXPLORATION         : Well_name    - WELL
LOC .         00/06-30-075-14W4/0            : Location     - LOCATION
UWI .         00/06-30-075-14W4/0            : Uwi          - UNIQUE WELL ID
ENTR.         SP                             : Entered      - ENTERED BY
SRVC.         SCHLUMBERGER                   : Scn          - SERVICE COMPANY
STRT.M        377.952                        : top_depth    - START DEPTH
STOP.M        584.952                        : bot_depth    - STOP DEPTH
STEP.M        0.25                           : increment    - STEP LENGTH
 NULL. -999.2500:NULL Value
~CURVE INFORMATION BLOCK
#MNEM UNIT       ERCB CURVE CODE    CURVE DESCRIPTION
#-----------   ------------------   ----------------------------------
DEPT.M        00 001 00 00         : DEPTH        - DEPTH
GR  .API      00 310 00 00         : GR           - GAMMA RAY
DPHI.V/V      00 890 00 00         : PHID         - DENSITY POROSITY (SANDSTONE)
NPHI.V/V      00 330 00 00         : PHIN         - NEUTRON POROSITY (SANDSTONE)
ILD .OHMM     00 120 00 00         : RESD         - DEEP RESISTIVITY (DIL)
~PARAMETER INFORMATION
#MNEM.UNIT           DATA             DESCRIPTION OF MNEMONIC
#---------         -----------     ------------------------------
GL  .M        751.759              : gl           - GROUND LEVEL ELEVATION
EREF.M        754.38               : kb           - ELEVATION OF DEPTH REFERENCE
DATM.M        751.759              : datum        - DATUM ELEVATION
TDD .M        584.606              : tdd          - TOTAL DEPTH DRILLER
RUN .         ONE                  : Run          - RUN NUMBER
ENG .         BILL                 : Engineer     - RECORDING ENGINEER
WIT .         JIM                  : Witness      - WITNESSED BY
MUD .         GEL                  : Mud_type     - MUD TYPE
MATR.         SANDSTONE            : Logunit      - NEUTRON MATRIX
TMAX.C        22.2222              : BHT          - MAXIMUM RECORDED TEMPERATURE
BHTD.M        584.606              : BHTDEP       - MAXIMUM RECORDED TEMPERATURE
MATR.         1                    : LOGUNIT      - NEUTRON MATRIX
RMT .C        25                   : MDTP         - TEMPERATURE OF MUD
NEUT.         1                    : NEUTRON      - NEUTRON TYPE
RESI.         0                    : RESIST       - RESISTIVITY TYPE
RMC .OHMM     0.25                 : RMC          - RESISTIVITY OF MUD CAKE
RMF .OHMM     0.25                 : RMF          - RESISTIVITY OF MUD FILTRATE
SUFT.C        15                   : SUFT         - SURFACE TEMPERATURE
~A  DEPTH       GR     PHID     PHIN     RESD
# ...
  551.952  110.412    0.185    0.483    3.905
  552.202  100.561    0.161    0.455    4.315
  552.452  100.531    0.141    0.419    4.561
  552.702  102.950    0.157    0.429    4.928
  552.952  101.375    0.180    0.439    5.325
  553.202   97.299    0.181    0.434    5.562
  553.452   91.185    0.143    0.412    5.848
  553.702   87.236    0.130    0.383    6.152
  553.952   87.976    0.106    0.356    6.347
  554.202   96.209    0.102    0.349    6.193
  554.452  103.370    0.153    0.400    5.893
  554.702  106.913    0.144    0.412    5.729
  554.952  107.572    0.166    0.427    5.579
  555.202  107.145    0.187    0.437    5.702
  555.452  105.988    0.177    0.425    5.776
  555.702  108.868    0.162    0.421    5.836
  555.952  115.903    0.149    0.428    5.920
  556.202  123.041    0.162    0.423    5.920
  556.452  127.026    0.168    0.423    5.916
  556.702  127.645    0.181    0.434    6.023
  556.952  117.760    0.161    0.417    6.079
  557.202  112.904    0.120    0.403    6.280
  557.452  120.864    0.138    0.399    6.373
  557.702  126.125    0.167    0.416    6.552
  557.952  123.753    0.188    0.420    6.750
  558.202  121.198    0.194    0.428    6.863
  558.452  120.034    0.193    0.427    7.052
  558.702  120.302    0.181    0.424    7.126
  558.952  120.282    0.169    0.409    7.439
  559.202  120.230    0.153    0.408    7.747
  559.452  118.121    0.165    0.417    7.956
  559.702  113.080    0.181    0.426    8.146
  559.952  109.498    0.142    0.392    7.756
  560.202  108.248    0.098    0.369    7.421
  560.452  114.179    0.120    0.393    7.150
  560.702  119.957    0.154    0.413    6.882
  560.952  122.721    0.177    0.428    6.867
  561.202  123.937    0.183    0.436    7.243
  561.452  123.277    0.206    0.433    7.845
  561.702  124.023    0.224    0.420    9.186
  561.952  122.229    0.235    0.427   11.162
  562.202  116.938    0.251    0.432   13.760
  562.452  105.296    0.281    0.438   15.016
  562.702  100.118    0.282    0.423   16.169
  562.952  104.226    0.265    0.393   14.007
  563.202  110.660    0.257    0.389   11.718
  563.452  114.217    0.229    0.396    9.576
  563.702  121.137    0.208    0.394    8.667
  563.952  129.944    0.198    0.396    7.596
  564.202  136.678    0.177    0.405    7.034
  564.452  138.221    0.173    0.424    6.874
  564.702  134.082    0.178    0.432    7.473
  564.952  119.122    0.207    0.438    8.764
  565.202   97.227    0.228    0.430   10.620
  565.452   89.001    0.247    0.424   12.713
  565.702   84.463    0.268    0.406   15.319
  565.952   82.291    0.287    0.389   17.011
  566.202   83.266    0.304    0.400   17.479
  566.452   87.271    0.278    0.416   15.903
  566.702   93.198    0.254    0.421   14.672
  566.952   98.347    0.245    0.415   13.570
  567.202  101.249    0.236    0.402   13.207
  567.452  104.585    0.226    0.399   12.813
  567.702  102.709    0.224    0.393   12.436
  567.952   99.058    0.237    0.382   12.230
  568.202   99.317    0.241    0.368   11.919
  568.452  101.033    0.227    0.358   11.791
  568.702   98.895    0.215    0.344   11.794
  568.952   94.592    0.200    0.333   11.789
  569.202   92.101    0.211    0.340   11.993
  569.452   92.738    0.217    0.345   12.460
  569.702   91.883    0.207    0.351   13.246
  569.952   87.942    0.227    0.342   14.298
  570.202   81.629    0.250    0.325   15.274
  570.452   77.529    0.282    0.307   17.077
  570.702   77.404    0.295    0.307   18.360
  570.952   73.260    0.285    0.309   19.608
  571.202   68.536    0.286    0.315   21.623
  571.452   61.475    0.279    0.323   23.884
  571.702   60.601    0.294    0.329   25.297
  571.952   65.874    0.296    0.352   26.490
  572.202   74.143    0.267    0.370   23.331
  572.452   78.791    0.257    0.384   20.026
  572.702   83.742    0.244    0.371   17.255
  572.952   86.305    0.240    0.364   14.807
  573.202   88.092    0.228    0.370   12.412
  573.452   94.778    0.213    0.390   10.771
  573.702  105.347    0.220    0.409    8.935
  573.952  111.928    0.213    0.422    7.769
  574.202  118.956    0.180    0.438    6.702
  574.452  121.695    0.155    0.465    5.833
  574.702  119.590    0.182    0.505    6.828
  574.952  106.520    0.246    0.464    8.359
  575.202   91.742    0.306    0.400   11.386
  575.452   87.812    0.320    0.344   15.420
  575.702   87.960    0.305    0.381   16.395
  575.952   90.402    0.280    0.398   15.785
  576.202   94.988    0.260    0.387   13.934
  576.452   97.510    0.236    0.371   12.795
  576.702   92.194    0.220    0.360   12.061
  576.952   71.014    0.187    0.346   11.136
  577.202   44.155    0.150    0.341   10.719
  577.452   11.486    0.112    0.346   10.283
  577.702   11.870    0.229    0.355    9.824
  577.952   13.078    0.215    0.364    9.143
  578.202   34.310    0.200    0.383    8.758
  578.452   92.240    0.193    0.393    8.328
  578.702   97.714    0.184    0.399    8.112
  578.952   99.186    0.175    0.390    8.117
  579.202   97.253    0.178    0.383    8.356
  579.452   91.463    0.187    0.378    8.610
  579.702   88.618    0.194    0.384    8.861
  579.952   86.034    0.202    0.420    9.406
  580.202   84.010    0.228    0.443    9.783
  580.452   82.775    0.248    0.446   10.255
  580.702   82.807    0.251    0.447   10.806
  580.952   83.439    0.232    0.448   10.906
  581.202   84.696    0.209    0.448   11.020
  581.452   87.517    0.210    0.448   11.368
  581.702   90.495    0.207    0.448   11.733
  581.952   90.751    0.190    0.448   11.859
  582.202   87.899    0.171    0.448   11.960
  582.452   84.986    0.160    0.449   11.969
  582.702   82.725    0.139    0.451   11.971
  582.952   82.138    0.351    0.454   11.974
  583.202   76.288    0.414    0.456   11.981
  583.452   65.382    0.395    0.457   12.016
  583.702   58.718    0.362    0.457   11.547
  583.952   54.333    0.311    0.458   11.567
  584.202   48.950    0.250    0.446   11.561
  584.452   45.161    0.202    0.411   11.564
  584.702   40.878    0.056    0.360   11.567
  584.952   38.110    0.076    0.330   11.569
