~VERSION INFORMATION
 VERS.                 2.0:   CWLS LOG ASCII STANDARD -VERSION 2.0
 WRAP.                  NO:   ONE LINE PER DEPTH STEP
~WELL INFORMATION BLOCK
#MNEM.UNIT           DATA                    DESCRIPTION OF MNEMONIC
#---------    -------------------            -------------------------------
# Generated from Intellog Unique Number	CS_69_70/WELL/778
NULL.         -999.25                        : NULL_VALUE
WELL.         PANCANADIAN PETROLEUM          : Well_name    - WELL              
LOC .         00/06-26-070-13W4/0            : Location     - LOCATION          
UWI .         00/06-26-070-13W4/0            : Uwi          - UNIQUE WELL ID    
ENTR.         SP                             : Entered      - ENTERED BY        
SRVC.         SCHLUMBERGER                   : Scn          - SERVICE COMPANY   
STRT.M        260                            : top_depth    - START DEPTH       
STOP.M        495                            : bot_depth    - STOP DEPTH        
STEP.M        0.25                           : increment    - STEP LENGTH       
~CURVE INFORMATION BLOCK
#MNEM UNIT       ERCB CURVE CODE    CURVE DESCRIPTION
#-----------   ------------------   ----------------------------------
DEPT.M        00 001 00 00         : DEPTH        - DEPTH                       
ILD .OHMM     00 120 00 00         : RESD         - DEEP RESISTIVITY (DIL)      
DPHI.V/V      00 890 00 00         : PHID         - DENSITY POROSITY (LIMESTONE)
NPHI.V/V      00 330 00 00         : PHIN         - NEUTRON POROSITY (LIMESTONE)
GR  .API      00 310 00 00         : GR           - GAMMA RAY                   
~PARAMETER INFORMATION       
#MNEM.UNIT           DATA             DESCRIPTION OF MNEMONIC
#---------         -----------     ------------------------------
GL  .M        577.2                : gl           - GROUND LEVEL ELEVATION      
EREF.M        580.8                : kb           - ELEVATION OF DEPTH REFERENCE
DATM.M        577.2                : datum        - DATUM ELEVATION             
TDD .M        499.5                : tdd          - TOTAL DEPTH DRILLER         
RUN .         ONE                  : Run          - RUN NUMBER                  
ENG .         BILL                 : Engineer     - RECORDING ENGINEER          
WIT .         JIM                  : Witness      - WITNESSED BY                
MUD .         GEL                  : Mud_type     - MUD TYPE                    
MATR.         LIMESTONE            : Logunit      - NEUTRON MATRIX              
TMAX.C        28                   : BHT          - MAXIMUM RECORDED TEMPERATURE
BHTD.M        499.5                : BHTDEP       - MAXIMUM RECORDED TEMPERATURE
MATR.         1                    : LOGUNIT      - NEUTRON MATRIX              
RMT .C        25                   : MDTP         - TEMPERATURE OF MUD          
NEUT.         1                    : NEUTRON      - NEUTRON TYPE                
RESI.         0                    : RESIST       - RESISTIVITY TYPE            
RMC .OHMM     0.25                 : RMC          - RESISTIVITY OF MUD CAKE     
RMF .OHMM     0.25                 : RMF          - RESISTIVITY OF MUD FILTRATE 
SUFT.C        15                   : SUFT         - SURFACE TEMPERATURE         
~A  DEPTH     RESD     PHID     PHIN       GR
  260.000    2.468    0.289    0.546   89.965
  260.250    2.540    0.282    0.552   92.475
  260.500    2.624    0.282    0.532   93.276
  260.750    2.591    0.272    0.497   93.225
  261.000    2.478    0.279    0.477   92.320
  261.250    2.429    0.286    0.495   89.648
  261.500    2.430    0.276    0.508   89.779
  261.750    2.496    0.267    0.509   92.776
  262.000    2.617    0.256    0.499   95.954
  262.250    2.724    0.245    0.487   96.939
  262.500    2.840    0.242    0.479   96.277
  262.750    2.984    0.235    0.478   93.361
  263.000    3.082    0.250    0.461   92.213
  263.250    3.077    0.266    0.511   92.222
  263.500    2.971    0.278    0.565   92.598
  263.750    2.805    0.287    0.534   92.426
  264.000    2.628    0.283    0.509   91.336
  264.250    2.542    0.274    0.494   90.005
  264.500    2.492    0.273    0.493   89.528
  264.750    2.512    0.278    0.487   89.842
  265.000    2.639    0.273    0.480   92.166
  265.250    2.710    0.263    0.551   94.737
  265.500    2.768    0.253    0.544   96.818
  265.750    2.801    0.249    0.532   98.536
  266.000    2.803    0.248    0.522   97.874
  266.250    2.809    0.253    0.484   95.141
  266.500    2.816    0.260    0.461   93.565
  266.750    2.812    0.271    0.565   91.075
  267.000    2.809    0.281    0.585   88.403
  267.250    2.794    0.290    0.579   87.316
  267.500    2.790    0.319    0.550   86.778
  267.750    2.766    0.339    0.527   90.930
  268.000    2.665    0.328    0.500   91.732
  268.250    2.564    0.312    0.503   91.924
  268.500    2.541    0.312    0.490   91.141
  268.750    2.649    0.299    0.471   88.348
  269.000    2.841    0.253    0.438   81.530
  269.250    3.181    0.187    0.396   77.760
  269.500    3.431    0.167    0.378   81.854
  269.750    3.617    0.389    0.366   82.778
  270.000    4.036    0.454    0.391   78.216
  270.250    4.247    0.495    0.497   77.495
  270.500    4.445    0.446    0.523   72.871
  270.750    4.489    0.373    0.426   64.103
  271.000    4.318    0.310    0.380   59.358
  271.250    4.092    0.281    0.364   54.859
  271.500    3.755    0.282    0.363   50.661
  271.750    3.333    0.288    0.360   45.368
  272.000    3.093    0.306    0.356   39.221
  272.250    2.975    0.317    0.352   32.892
  272.500    2.889    0.329    0.352   28.941
  272.750    2.832    0.326    0.354   26.938
  273.000    2.844    0.328    0.356   25.057
  273.250    2.904    0.310    0.356   32.382
  273.500    2.944    0.293    0.355   41.046
  273.750    3.024    0.284    0.355   54.526
  274.000    3.153    0.276    0.359   61.727
  274.250    3.306    0.269    0.367   77.401
  274.500    3.593    0.278    0.366   80.643
  274.750    3.881    0.271    0.361   79.249
  275.000    4.170    0.262    0.359   85.537
  275.250    4.430    0.256    0.360   93.593
  275.500    4.663    0.249    0.366   97.686
  275.750    4.762    0.260    0.374   99.767
  276.000    4.855    0.257    0.378   98.679
  276.250    4.950    0.246    0.382   97.531
  276.500    4.962    0.245    0.397  100.466
  276.750    4.955    0.249    0.416  103.524
  277.000    4.874    0.254    0.437  104.751
  277.250    4.795    0.264    0.401   99.885
  277.500    4.639    0.276    0.407   97.395
  277.750    4.512    0.305    0.424   93.626
  278.000    4.515    0.318    0.414   90.283
  278.250    4.560    0.322    0.381   87.732
  278.500    4.631    0.299    0.367   88.900
  278.750    4.721    0.286    0.360   91.774
  279.000    4.795    0.286    0.372   88.675
  279.250    4.852    0.289    0.380   83.625
  279.500    4.872    0.297    0.386   82.356
  279.750    4.740    0.296    0.381   81.269
  280.000    4.680    0.270    0.372   81.886
  280.250    4.656    0.257    0.365   82.810
  280.500    4.738    0.252    0.367   82.271
  280.750    4.794    0.260    0.370   81.672
  281.000    4.879    0.269    0.363   79.608
  281.250    4.965    0.276    0.365   86.141
  281.500    4.976    0.256    0.369   90.964
  281.750    5.063    0.245    0.370   93.656
  282.000    5.085    0.240    0.376   91.837
  282.250    4.985    0.250    0.374   83.130
  282.500    4.949    0.267    0.368   77.654
  282.750    4.896    0.268    0.370   73.457
  283.000    4.799    0.255    0.378   77.246
  283.250    4.686    0.241    0.394   81.218
  283.500    4.491    0.255    0.411   84.640
  283.750    4.068    0.298    0.443   87.392
  284.000    3.510    0.332    0.474   89.291
  284.250    3.091    0.348    0.419   85.156
  284.500    2.864    0.343    0.419   80.594
  284.750    2.887    0.317    0.431   77.130
  285.000    3.016    0.313    0.431   76.042
  285.250    3.428    0.348    0.414   75.807
  285.500    4.045    0.361    0.451   76.488
  285.750    4.790    0.362    0.458   78.630
  286.000    5.108    0.323    0.463   81.017
  286.250    4.997    0.311    0.475   81.819
  286.500    4.916    0.303    0.418   79.147
  286.750    4.810    0.291    0.393   76.291
  287.000    4.786    0.285    0.384   74.045
  287.250    4.770    0.287    0.378   72.287
  287.500    4.745    0.296    0.390   75.588
  287.750    4.722    0.276    0.412   79.377
  288.000    4.698    0.259    0.432   83.348
  288.250    4.683    0.253    0.441   83.784
  288.500    4.677    0.244    0.454   87.146
  288.750    4.654    0.262    0.444   88.009
  289.000    4.663    0.272    0.405   81.618
  289.250    4.648    0.273    0.412   81.688
  289.500    4.582    0.265    0.429   86.879
  289.750    4.532    0.275    0.441   90.790
  290.000    4.426    0.283    0.457   93.848
  290.250    4.305    0.304    0.444   96.234
  290.500    4.126    0.315    0.436   98.741
  290.750    3.998    0.307    0.461   99.970
  291.000    3.839    0.302    0.482   99.310
  291.250    3.707    0.312    0.489  101.393
  291.500    3.660    0.334    0.483  105.059
  291.750    3.676    0.347    0.467  107.932
  292.000    3.811    0.333    0.454  109.831
  292.250    3.996    0.255    0.436  111.548
  292.500    4.151    0.246    0.421  113.751
  292.750    4.328    0.241    0.407  114.918
  293.000    4.495    0.237    0.395  110.235
  293.250    4.609    0.240    0.384  106.588
  293.500    4.655    0.264    0.380  102.515
  293.750    4.683    0.292    0.382   99.659
  294.000    4.668    0.311    0.385   97.474
  294.250    4.550    0.320    0.385   96.019
  294.500    4.360    0.320    0.379   94.809
  294.750    4.202    0.308    0.374   90.248
  295.000    4.035    0.310    0.391   86.844
  295.250    3.939    0.319    0.408   83.318
  295.500    3.868    0.318    0.417   84.303
  295.750    3.848    0.307    0.412   91.565
  296.000    3.843    0.286    0.410  101.388
  296.250    3.831    0.277    0.407  102.923
  296.500    3.833    0.270    0.394  101.042
  296.750    3.806    0.277    0.405   89.348
  297.000    3.765    0.290    0.421   82.470
  297.250    3.684    0.299    0.407   73.398
  297.500    3.603    0.307    0.394   66.032
  297.750    3.538    0.299    0.411   66.713
  298.000    3.494    0.287    0.427   69.709
  298.250    3.542    0.291    0.414   69.596
  298.500    3.679    0.305    0.401   76.859
  298.750    3.786    0.315    0.393   84.975
  299.000    3.903    0.312    0.393   90.470
  299.250    4.032    0.294    0.382   94.868
  299.500    4.142    0.266    0.368   98.352
  299.750    4.286    0.250    0.368   98.484
  300.000    4.435    0.241    0.381   98.614
  300.250    4.598    0.234    0.388  100.575
  300.500    4.750    0.229    0.395  102.961
  300.750    4.851    0.235    0.405  105.775
  301.000    4.827    0.229    0.415  106.881
  301.250    4.766    0.236    0.426  104.940
  301.500    4.698    0.243    0.442  100.195
  301.750    4.709    0.251    0.462   91.367
  302.000    4.720    0.257    0.436   85.951
  302.250    4.749    0.264    0.415   83.340
  302.500    4.797    0.268    0.411   83.960
  302.750    4.817    0.269    0.405   86.589
  303.000    4.939    0.261    0.450   87.939
  303.250    4.969    0.253    0.480   84.049
