~VERSION INFORMATION
 VERS.                 2.0:   CWLS LOG ASCII STANDARD -VERSION 2.0
 WRAP.                  NO:   ONE LINE PER DEPTH STEP
~WELL INFORMATION BLOCK
#MNEM.UNIT           DATA                    DESCRIPTION OF MNEMONIC
#---------    -------------------            -------------------------------
# Generated from Intellog Unique Number	CS_73_76/WELL/2106
WELL.         ANDERSON EXPLORATION LTD.      : Well_name    - WELL
LOC .         00/07-10-075-11W4/0            : Location     - LOCATION
UWI .         00/07-10-075-11W4/0            : Uwi          - UNIQUE WELL ID
ENTR.         SP                             : Entered      - ENTERED BY
SRVC.         SCHLUMBERGER                   : Scn          - SERVICE COMPANY
STRT.M        270                            : top_depth    - START DEPTH
STOP.M        500                            : bot_depth    - STOP DEPTH
STEP.M        0.25                           : increment    - STEP LENGTH
 NULL. -999.2500:NULL Value
~CURVE INFORMATION BLOCK
#MNEM UNIT       ERCB CURVE CODE    CURVE DESCRIPTION
#-----------   ------------------   ----------------------------------
DEPT.M        00 001 00 00         : DEPTH        - DEPTH
ILD .OHMM     00 120 00 00         : RESD         - DEEP RESISTIVITY (DIL)
DPHI.V/V      00 890 00 00         : PHID         - DENSITY POROSITY (LIMESTONE)
GR  .API      00 310 00 00         : GR           - GAMMA RAY
NPHI.V/V      00 330 00 00         : PHIN         - NEUTRON POROSITY (LIMESTONE)
~PARAMETER INFORMATION
#MNEM.UNIT           DATA             DESCRIPTION OF MNEMONIC
#---------         -----------     ------------------------------
GL  .M        649                  : gl           - GROUND LEVEL ELEVATION
EREF.M        652.5                : kb           - ELEVATION OF DEPTH REFERENCE
DATM.M        649                  : datum        - DATUM ELEVATION
TDD .M        505                  : tdd          - TOTAL DEPTH DRILLER
RUN .         ONE                  : Run          - RUN NUMBER
ENG .         BILL                 : Engineer     - RECORDING ENGINEER
WIT .         JIM                  : Witness      - WITNESSED BY
MUD .         GEL                  : Mud_type     - MUD TYPE
MATR.         LIMESTONE            : Logunit      - NEUTRON MATRIX
TMAX.C        10                   : BHT          - MAXIMUM RECORDED TEMPERATURE
BHTD.M        505                  : BHTDEP       - MAXIMUM RECORDED TEMPERATURE
MATR.         1                    : LOGUNIT      - NEUTRON MATRIX
RMT .C        25                   : MDTP         - TEMPERATURE OF MUD
NEUT.         1                    : NEUTRON      - NEUTRON TYPE
RESI.         0                    : RESIST       - RESISTIVITY TYPE
RMC .OHMM     0.25                 : RMC          - RESISTIVITY OF MUD CAKE
RMF .OHMM     0.25                 : RMF          - RESISTIVITY OF MUD FILTRATE
SUFT.C        15                   : SUFT         - SURFACE TEMPERATURE
~A  DEPTH     RESD     PHID       GR     PHIN
# ...
  444.000    0.827    0.244  104.742    0.533
  444.250    1.053    0.248  103.542    0.519
  444.500    1.442    0.260  103.556    0.503
  444.750    1.976    0.248  101.138    0.509
  445.000    2.379    0.180   95.076    0.529
  445.250    2.863    0.156   90.229    0.535
  445.500    3.260    0.188   99.355    0.502
  445.750    3.447    0.234  103.618    0.515
  446.000    3.645    0.221  103.630    0.533
  446.250    3.783    0.198  103.645    0.537
  446.500    4.000    0.185  101.831    0.521
  446.750    4.229    0.170  100.629    0.481
  447.000    4.555    0.175  103.072    0.455
  447.250    5.283    0.208  104.301    0.455
  447.500    6.128    0.215  102.492    0.473
  447.750    7.798    0.226  100.681    0.484
  448.000   10.885    0.235   93.405    0.468
  448.250   12.625    0.250   86.132    0.415
  448.500   15.481    0.272   82.501    0.391
  448.750   17.627    0.289   80.689    0.397
  449.000   19.340    0.301   77.058    0.405
  449.250   20.833    0.306   76.466    0.413
  449.500   21.224    0.298   77.694    0.414
  449.750   21.626    0.281   77.702    0.400
  450.000   28.040    0.257   69.508    0.418
  450.250   28.046    0.274   63.405    0.410
  450.500   27.534    0.291   59.130    0.402
  450.750   25.575    0.315   53.027    0.390
  451.000   24.197    0.293   65.215    0.379
  451.250   21.657    0.275   74.965    0.372
  451.500   19.382    0.268   79.228    0.371
  451.750   18.000    0.272   84.100    0.379
  452.000   15.815    0.255   90.191    0.381
  452.250   14.688    0.243   94.452    0.375
  452.500   12.905    0.222   96.275    0.380
  452.750   12.210    0.204   98.099    0.381
  453.000   10.929    0.185  101.141    0.400
  453.250   10.533    0.170  101.135    0.419
  453.500    9.783    0.160   99.300    0.433
  453.750    9.428    0.135   98.685    0.409
  454.000    9.257    0.202   99.289    0.390
  454.250    9.088    0.190  104.158    0.385
  454.500    8.924    0.180  105.374    0.387
  454.750    8.925    0.196  107.806    0.391
  455.000    9.265    0.209  107.799    0.396
  455.250    9.266    0.199  105.963    0.403
  455.500    9.441    0.199  104.128    0.410
  455.750    9.798    0.207  101.683    0.416
  456.000   10.170    0.201   99.848    0.415
  456.250   10.754    0.218   99.234    0.405
  456.500   11.162    0.230  100.445    0.409
  456.750   11.584    0.237  100.442    0.403
  457.000   11.803    0.227  101.656    0.408
  457.250   12.026    0.213  101.650    0.407
  457.500   12.252    0.232   97.373    0.413
  457.750   13.197    0.238   94.319    0.420
  458.000   13.953    0.226   90.656    0.418
  458.250   14.754    0.243   86.381    0.416
  458.500   15.032    0.260   83.328    0.422
  458.750   14.760    0.265   91.248    0.426
  459.000   14.763    0.243   97.948    0.422
  459.250   14.765    0.242   96.721    0.424
  459.500   14.767    0.259   93.669    0.421
  459.750   14.769    0.277   85.125    0.396
  460.000   15.048    0.283   80.242    0.385
  460.250   15.334    0.278   79.016    0.402
  460.500   15.624    0.285   83.279    0.396
  460.750   15.626    0.264   91.808    0.395
  461.000   15.628    0.244   94.241    0.403
  461.250   15.924    0.264   96.064    0.416
  461.500   15.925    0.269   98.498    0.410
  461.750   15.930    0.263   98.492    0.410
  462.000   15.931    0.244   97.265    0.429
  462.250   16.232    0.250   97.258    0.446
  462.500   17.483    0.251   98.474    0.443
  462.750   22.248    0.249  100.297    0.439
  463.000   27.279    0.278   91.143    0.448
  463.250   33.448    0.295   83.822    0.435
  463.500   43.358    0.301   74.671    0.419
  463.750   50.290    0.292   67.956    0.405
  464.000   61.666    0.289   62.464    0.415
  464.250   68.925    0.307   56.359    0.423
  464.500   75.626    0.328   52.086    0.423
  464.750   81.460    0.341   48.421    0.423
  465.000   84.544    0.344   47.806    0.426
  465.250   89.391    0.335   45.969    0.423
  465.500   91.080    0.339   42.913    0.411
  465.750   87.783    0.344   40.469    0.398
  466.000   81.534    0.344   40.465    0.412
  466.250   71.637    0.338   41.066    0.422
  466.500   66.529    0.334   42.281    0.431
  466.750   57.380    0.330   44.713    0.438
  467.000   49.489    0.340   46.539    0.446
  467.250   46.821    0.342   48.971    0.454
  467.500   44.297    0.334   51.404    0.461
  467.750   42.694    0.323   53.836    0.462
  468.000   43.500    0.321   57.489    0.451
  468.250   44.325    0.323   58.702    0.439
  468.500   45.158    0.335   58.087    0.426
  468.750   45.166    0.326   59.909    0.440
  469.000   44.349    0.314   63.562    0.446
  469.250   43.539    0.310   68.435    0.444
  469.500   40.439    0.302   72.696    0.438
  469.750   36.871    0.306   70.252    0.450
  470.000   34.243    0.317   66.586    0.463
  470.250   29.532    0.312   66.580    0.450
  470.500   25.470    0.297   70.843    0.444
  470.750   28.470    0.275   76.932    0.449
  471.000   31.238    0.285   75.709    0.478
  471.250   31.827    0.304   67.166    0.511
  471.500   30.113    0.331   59.844    0.469
  471.750   27.456    0.315   67.763    0.456
  472.000   25.031    0.290   76.294    0.487
  472.250   21.993    0.315   75.677    0.516
  472.500   20.426    0.333   71.404    0.504
  472.750   19.686    0.304   77.495    0.471
  473.000   20.815    0.280   83.587    0.447
  473.250   22.419    0.256   77.482    0.459
  473.500   26.491    0.288   70.160    0.473
  473.750   31.301    0.309   61.009    0.473
  474.000   39.829    0.321   54.295    0.459
  474.250   46.196    0.333   50.632    0.451
  474.500   53.585    0.342   46.963    0.439
  474.750   56.655    0.343   46.960    0.436
  475.000   42.136    0.340   48.174    0.442
  475.250   35.672    0.328   56.094    0.450
  475.500   29.647    0.318   61.576    0.458
  475.750   29.653    0.298   65.839    0.445
  476.000   31.941    0.320   62.782    0.465
  476.250   33.150    0.337   65.825    0.467
  476.500   35.050    0.313   68.869    0.452
  476.750   32.554    0.312   63.983    0.462
  477.000   26.560    0.325   60.929    0.479
  477.250   25.127    0.307   63.364    0.442
  477.500   22.909    0.273   68.843    0.454
  477.750   23.778    0.286   69.448    0.474
  478.000   25.613    0.291   63.953    0.497
  478.250   26.583    0.304   60.290    0.505
  478.500   27.084    0.331   56.017    0.488
  478.750   26.105    0.320   62.108    0.447
  479.000   24.245    0.306   72.466    0.452
  479.250   22.104    0.291   76.729    0.462
  479.500   19.421    0.279   79.162    0.463
  479.750   17.381    0.266   77.935    0.459
  480.000   14.715    0.263   74.879    0.451
  480.250   11.357    0.279   73.046    0.441
  480.500    8.764    0.290   72.430    0.434
  480.750    7.284    0.298   75.474    0.423
  481.000    6.167    0.279   77.906    0.424
  481.250    5.418    0.244   73.022    0.433
  481.500    4.850    0.261   57.772    0.466
  481.750    4.588    0.295   49.231    0.476
  482.000    4.341    0.347   44.956    0.451
  482.250    4.107    0.350   42.509    0.430
  482.500    3.886    0.364   41.286    0.422
  482.750    3.886    0.370   41.280    0.423
  483.000    3.887    0.363   44.323    0.428
  483.250    3.888    0.355   49.802    0.419
  483.500    3.889    0.341   52.847    0.401
  483.750    3.962    0.329   57.109    0.390
  484.000    3.963    0.311   55.274    0.410
  484.250    3.964    0.322   52.829    0.421
  484.500    4.114    0.328   57.091    0.406
  484.750    4.270    0.314   60.132    0.398
  485.000    4.599    0.294   64.396    0.392
  485.250    5.046    0.281   72.924    0.385
  485.500    5.237    0.264   75.359    0.382
  485.750    5.048    0.252   71.693    0.389
  486.000    4.518    0.281   63.762    0.430
  486.250    3.897    0.318   50.341    0.442
  486.500    3.487    0.343   42.410    0.429
  486.750    3.300    0.349   40.574    0.413
  487.000    3.300    0.353   43.005    0.404
  487.250    3.362    0.346   45.439    0.395
