~VERSION INFORMATION
 VERS.                 2.0:   CWLS LOG ASCII STANDARD -VERSION 2.0
 WRAP.                  NO:   ONE LINE PER DEPTH STEP
~WELL INFORMATION BLOCK
#MNEM.UNIT           DATA                    DESCRIPTION OF MNEMONIC
#---------    -------------------            -------------------------------
# Generated from Intellog Unique Number	CW_70_72/WELL/591
NULL.         -999.25                        : NULL_VALUE
WELL.         SUNDANCE CANAL 06-07           : Well_name    - WELL              
LOC .         06-07-071-22W4                 : Location     - LOCATION          
UWI .         00/06-07-071-22W4/0            : Uwi          - UNIQUE WELL ID    
ENTR.         JAYE                           : Entered      - ENTERED BY        
SRVC.         SCHLUMBERGER                   : Scn          - SERVICE COMPANY   
DATE.         2 MAR 77                       : Date         - LOG DATE          
STRT.M        429.768                        : top_depth    - START DEPTH       
STOP.M        627.768                        : bot_depth    - STOP DEPTH        
STEP.M        0.25                           : increment    - STEP LENGTH       
~CURVE INFORMATION BLOCK
#MNEM UNIT       ERCB CURVE CODE    CURVE DESCRIPTION
#-----------   ------------------   ----------------------------------
DEPT.M        00 001 00 00         : DEPTH        - DEPTH                       
DPHI.V/V      00 890 00 00         : PHID         - DENSITY POROSITY (SANDSTONE)
NPHI.V/V      00 330 00 00         : PHIN         - NEUTRON POROSITY (SANDSTONE)
GR  .API      00 310 00 00         : GR           - GAMMA RAY                   
CALI.MM       00 280 01 00         : CAL          - CALIPER                     
ILD .OHMM     00 120 00 00         : RESD         - DEEP RESISTIVITY (DIL)      
~PARAMETER INFORMATION       
#MNEM.UNIT           DATA             DESCRIPTION OF MNEMONIC
#---------         -----------     ------------------------------
GL  .M        669.188              : gl           - GROUND LEVEL ELEVATION      
EREF.M        672.998              : kb           - ELEVATION OF DEPTH REFERENCE
DATM.M        669.188              : datum        - DATUM ELEVATION             
TDD .M        632.46               : tdd          - TOTAL DEPTH DRILLER         
RUN .         ONE                  : Run          - RUN NUMBER                  
ENG .         ACKERMAN/MCKAY       : Engineer     - RECORDING ENGINEER          
WIT .         CHRISTENSEN          : Witness      - WITNESSED BY                
BASE.         EDM                  : Branch       - HOME BASE OF LOGGING UNIT   
MUD .         GEL                  : Mud_type     - MUD TYPE                    
MATR.         SANDSTONE            : Logunit      - NEUTRON MATRIX              
TMAX.C        27.2222              : BHT          - MAXIMUM RECORDED TEMPERATURE
BHTD.M        632.46               : BHTDEP       - MAXIMUM RECORDED TEMPERATURE
RMT .C        8.88889              : MDTP         - TEMPERATURE OF MUD          
MUDD.KG/M     1104                 : MWT          - MUD DENSITY                 
NEUT.         1                    : NEUTRON      - NEUTRON TYPE                
RESI.         0                    : RESIST       - RESISTIVITY TYPE            
RM  .OHMM     4.85                 : RM           - RESISTIVITY OF MUD          
RMC .OHMM     0                    : RMC          - RESISTIVITY OF MUD CAKE     
RMF .OHMM     0                    : RMF          - RESISTIVITY OF MUD FILTRATE 
SUFT.C        -17.7778             : SUFT         - SURFACE TEMPERATURE         
~A  DEPTH     PHID     PHIN       GR      CAL     RESD
# ...
  502.768    0.265    0.440   71.242  151.564    3.029
  503.018    0.278    0.446   74.416  153.355    3.021
  503.268    0.269    0.440   73.658  154.312    3.018
  503.518    0.261    0.436   72.469  155.073    3.009
  503.768    0.255    0.428   71.281  155.022    3.017
  504.018    0.253    0.422   69.004  154.856    3.043
  504.268    0.247    0.419   67.095  154.488    3.073
  504.518    0.269    0.432   66.513  154.015    3.098
  504.768    0.257    0.441   67.506  153.945    3.124
  505.018    0.261    0.450   69.225  153.072    3.121
  505.268    0.256    0.448   70.281  152.800    3.118
  505.518    0.243    0.440   71.880  153.764    3.121
  505.768    0.216    0.428   73.541  154.218    3.118
  506.018    0.260    0.413   74.652  154.262    3.120
  506.268    0.249    0.402   71.167  154.311    3.117
  506.518    0.251    0.398   66.589  154.244    3.137
  506.768    0.240    0.424   62.619  153.570    3.164
  507.018    0.231    0.431   60.465  152.683    3.178
  507.268    0.239    0.425   59.099  150.367    3.209
  507.518    0.217    0.415   58.336  148.054    3.320
  507.768    0.228    0.399   56.602  146.970    3.496
  508.018    0.233    0.400   55.050  146.805    3.833
  508.268    0.248    0.410   53.500  149.512    4.281
  508.518    0.249    0.388   53.226  151.915    4.355
  508.768    0.229    0.378   53.733  153.079    4.158
  509.018    0.205    0.373   54.852  153.544    3.976
  509.268    0.177    0.359   56.328  153.577    3.857
  509.518    0.143    0.322   58.593  153.215    3.737
  509.768    0.130    0.320   60.977  152.944    3.693
  510.018    0.221    0.358   66.088  152.578    3.696
  510.268    0.221    0.398   64.840  152.311    3.719
  510.518    0.207    0.396   62.262  151.940    3.818
  510.768    0.192    0.395   65.014  151.579    3.892
  511.018    0.212    0.402   68.188  151.616    3.847
  511.268    0.227    0.399   70.147  151.349    3.712
  511.518    0.233    0.406   67.206  151.088    3.550
  511.768    0.222    0.410   67.838  151.025    3.315
  512.018    0.208    0.406   70.712  150.557    3.029
  512.268    0.199    0.411   73.096  150.291    2.870
  512.518    0.203    0.412   75.056  149.920    2.795
  512.768    0.218    0.402   77.684  149.554    2.737
  513.018    0.247    0.425   79.282  149.293    2.700
  513.268    0.257    0.435   67.803  149.120    2.688
  513.518    0.266    0.425   63.104  148.955    2.680
  513.768    0.273    0.414   65.434  149.002    2.668
  514.018    0.289    0.408   68.058  149.361    2.665
  514.268    0.305    0.422   71.840  149.490    2.654
  514.518    0.306    0.419   74.589  149.843    2.656
  514.768    0.281    0.422   76.975  150.499    2.658
  515.018    0.271    0.429   75.000  151.263    2.651
  515.268    0.279    0.426   69.093  151.716    2.643
  515.518    0.297    0.429   68.876  152.063    2.631
  515.768    0.311    0.445   69.686  152.004    2.633
  516.018    0.300    0.463   69.469  151.938    2.636
  516.268    0.305    0.480   69.797  151.985    2.726
  516.518    0.317    0.492   70.731  152.024    2.908
  516.768    0.338    0.491   71.177  151.558    3.213
  517.018    0.338    0.472   71.807  151.186    3.389
  517.268    0.319    0.446   75.041  151.227    3.623
  517.518    0.298    0.449   82.031  152.190    3.809
  517.768    0.285    0.462   87.626  153.159    3.954
  518.018    0.266    0.455   92.920  153.200    4.165
  518.268    0.247    0.437   96.516  153.450    4.339
  518.518    0.236    0.454   98.785  153.694    4.496
  518.768    0.226    0.459  100.989  154.043    4.541
  519.018    0.228    0.451  103.557  154.908    4.513
  519.268    0.210    0.442  105.577  157.306    4.475
  519.518    0.189    0.436  105.845  160.429    4.327
  519.768    0.181    0.455  107.444  161.910    4.063
  520.018    0.177    0.460  110.439  162.353    3.878
  520.268    0.173    0.447  113.491  162.806    3.860
  520.518    0.160    0.444  117.149  162.851    3.913
  520.768    0.168    0.459  120.137  163.200    4.040
  521.018    0.180    0.467  116.715  163.338    4.163
  521.268    0.183    0.479  115.949  163.285    4.354
  521.518    0.190    0.483  116.461  162.916    4.511
  521.768    0.187    0.462  116.665  162.648    4.615
  522.018    0.167    0.450  115.720  162.587    4.678
  522.268    0.160    0.466  116.714  162.530    4.648
  522.518    0.166    0.476  117.162  162.574    4.535
  522.768    0.172    0.479  113.073  162.405    4.514
  523.018    0.179    0.471  110.309  161.835    4.559
  523.268    0.174    0.460  106.278  160.745    4.588
  523.518    0.161    0.433  101.699  159.041    4.618
  523.768    0.184    0.412   97.243  156.526    4.631
  524.018    0.199    0.393   91.940  154.613    4.584
  524.268    0.212    0.371   83.126  151.991    4.481
  524.518    0.211    0.346   77.577  149.263    4.403
  524.768    0.162    0.357   74.878  147.468    4.351
  525.018    0.177    0.394   78.959  147.200    4.293
  525.268    0.214    0.455   82.679  147.030    4.258
  525.518    0.239    0.442   82.705  146.776    4.238
  525.768    0.237    0.443   83.091  146.813    4.226
  526.018    0.243    0.452   84.087  147.066    4.292
  526.268    0.238    0.454   85.991  147.303    4.343
  526.518    0.228    0.449   89.159  147.958    4.403
  526.768    0.229    0.436   93.545  149.128    4.447
  527.018    0.226    0.432   95.082  151.426    4.516
  527.268    0.225    0.435   95.834  153.835    4.620
  527.518    0.223    0.430   95.254  154.794    4.701
  527.768    0.216    0.426   96.612  155.757    4.748
  528.018    0.214    0.433   99.300  156.519    4.788
  528.268    0.211    0.424  103.382  157.281    4.800
  528.518    0.206    0.418  101.469  157.932    4.805
  528.768    0.193    0.421   97.617  158.699    4.800
  529.018    0.172    0.426   99.521  159.246    4.769
  529.268    0.185    0.431  102.271  159.501    4.782
  529.518    0.213    0.437  105.322  159.335    4.875
  529.768    0.211    0.442  107.830  159.579    5.051
  530.018    0.200    0.447  109.250  160.646    5.243
  530.268    0.158    0.451  110.969  162.228    5.533
  530.518    0.176    0.434  112.265  164.013    5.924
  530.768    0.173    0.439  113.015  165.492    6.343
  531.018    0.173    0.453  110.981  166.047    6.693
  531.268    0.177    0.473  106.706  164.960    6.285
  531.518    0.171    0.441   98.919  160.899    5.753
  531.768    0.173    0.414   90.589  157.658    5.324
  532.018    0.169    0.357   83.527  154.216    4.990
  532.268    0.155    0.337   83.800  153.647    4.755
  532.518    0.139    0.358   85.581  153.793    4.588
  532.768    0.158    0.387   87.842  153.740    4.510
  533.018    0.192    0.437   93.921  153.774    4.472
  533.268    0.231    0.425  101.214  153.815    4.444
  533.518    0.223    0.414   95.908  153.646    4.431
  533.768    0.216    0.414   90.786  152.884    4.452
  534.018    0.231    0.462   90.871  152.814    4.480
  534.268    0.222    0.455   93.077  152.957    4.543
  534.518    0.212    0.437   94.797  153.097    4.579
  534.768    0.219    0.451   93.368  153.757    4.575
  535.018    0.212    0.462   92.424  153.899    4.545
  535.268    0.203    0.453   93.296  152.506    4.484
  535.518    0.204    0.431   95.748  151.529    4.399
  535.768    0.212    0.421   98.009  151.057    4.237
  536.018    0.204    0.417  101.184  152.118    4.022
  536.268    0.182    0.431  103.387  154.211    3.722
  536.518    0.190    0.442  106.258  156.097    3.352
  536.768    0.207    0.459  109.674  158.602    2.990
  537.018    0.188    0.475  114.058  161.410    3.190
  537.268    0.189    0.494  119.896  163.913    3.621
  537.518    0.206    0.482  114.834  166.108    4.303
  537.768    0.184    0.491  115.465  168.613    4.760
  538.018    0.194    0.509  118.946  170.396    5.248
  538.268    0.201    0.528  121.933  172.285    5.619
  538.518    0.200    0.494  124.562  171.403    5.930
  538.768    0.198    0.422  114.116  167.038    6.044
  539.018    0.174    0.418  109.474  163.080    5.996
