~VERSION INFORMATION
 VERS.                 2.0:   CWLS LOG ASCII STANDARD -VERSION 2.0
 WRAP.                  NO:   ONE LINE PER DEPTH STEP
~WELL INFORMATION BLOCK
#MNEM.UNIT           DATA                    DESCRIPTION OF MNEMONIC
#---------    -------------------            -------------------------------
# Generated from Intellog Unique Number	CW_73_75/WELL/2726
WELL.         UNIGAS ET AL TOMATO 05-02      : Well_name    - WELL
LOC .         00/05-02-073-23W4/0            : Location     - LOCATION
UWI .         00/05-02-073-23W4/0            : Uwi          - UNIQUE WELL ID
ENTR.         JAYE                           : Entered      - ENTERED BY
SRVC.         SCHLUMBERGER                   : Scn          - SERVICE COMPANY
DATE.         14 DEC 80                      : Date         - LOG DATE
STRT.M        325                            : top_depth    - START DEPTH
STOP.M        622                            : bot_depth    - STOP DEPTH
STEP.M        0.25                           : increment    - STEP LENGTH
 NULL. -999.2500:NULL Value
~CURVE INFORMATION BLOCK
#MNEM UNIT       ERCB CURVE CODE    CURVE DESCRIPTION
#-----------   ------------------   ----------------------------------
DEPT.M        00 001 00 00         : DEPTH        - DEPTH
ILD .OHMM     00 120 00 00         : RESD         - DEEP RESISTIVITY (DIL)
NPHI.V/V      00 330 00 00         : PHIN         - NEUTRON POROSITY (SANDSTONE)
DPHI.V/V      00 890 00 00         : PHID         - DENSITY POROSITY (SANDSTONE)
GR  .API      00 310 00 00         : GR           - GAMMA RAY
CALI.MM       00 280 01 00         : CAL          - CALIPER
~PARAMETER INFORMATION
#MNEM.UNIT           DATA             DESCRIPTION OF MNEMONIC
#---------         -----------     ------------------------------
GL  .M        625                  : gl           - GROUND LEVEL ELEVATION
EREF.M        627.5                : kb           - ELEVATION OF DEPTH REFERENCE
DATM.M        625                  : datum        - DATUM ELEVATION
TDD .M        624                  : tdd          - TOTAL DEPTH DRILLER
RUN .         ONE                  : Run          - RUN NUMBER
ENG .         KUZIO                : Engineer     - RECORDING ENGINEER
BASE.         EDM                  : Branch       - HOME BASE OF LOGGING UNIT
MUD .         GEL CHEM             : Mud_type     - MUD TYPE
MATR.         SANDSTONE            : Logunit      - NEUTRON MATRIX
TMAX.C        23.3                 : BHT          - MAXIMUM RECORDED TEMPERATURE
BHTD.M        625                  : BHTDEP       - MAXIMUM RECORDED TEMPERATURE
RMT .C        16.6                 : MDTP         - TEMPERATURE OF MUD
MUDD.KG/M     1110                 : MWT          - MUD DENSITY
NEUT.         1                    : NEUTRON      - NEUTRON TYPE
RESI.         0                    : RESIST       - RESISTIVITY TYPE
RM  .OHMM     3.19                 : RM           - RESISTIVITY OF MUD
RMC .OHMM     0                    : RMC          - RESISTIVITY OF MUD CAKE
RMF .OHMM     3.11                 : RMF          - RESISTIVITY OF MUD FILTRATE
SUFT.C        0                    : SUFT         - SURFACE TEMPERATURE
~A  DEPTH     RESD     PHIN     PHID       GR      CAL
  325.000    3.078    0.479    0.210  117.691  165.884
  325.250    3.120    0.496    0.200  118.340  166.240
  325.500    3.150    0.488    0.195  119.303  166.486
  325.750    3.186    0.493    0.201  120.765  167.465
  326.000    3.247    0.497    0.188  121.355  170.110
  326.250    3.291    0.476    0.179  120.257  171.922
  326.500    3.374    0.481    0.194  116.542  173.945
  326.750    3.452    0.499    0.213  113.447  176.385
  327.000    3.552    0.513    0.231  109.543  177.363
  327.250    3.655    0.495    0.226  108.197  175.639
  327.500    3.718    0.468    0.214  111.407  171.733
  327.750    3.783    0.450    0.204  108.626  169.695
  328.000    3.953    0.460    0.202  106.468  169.852
  328.250    4.266    0.480    0.204  106.620  170.928
  328.500    4.596    0.482    0.207  108.396  173.164
  328.750    5.135    0.460    0.233  105.988  174.970
  329.000    5.144    0.440    0.275  101.645  173.667
  329.250    5.037    0.425    0.270   99.676  171.113
  329.500    5.233    0.443    0.228  104.570  166.891
  329.750    5.780    0.471    0.204  110.774  159.551
  330.000    6.607    0.479    0.182   93.080  157.202
  330.250    7.816    0.439    0.148   62.967  156.112
  330.500    9.318    0.396    0.194   45.147  155.838
  330.750   12.059    0.314    0.220   26.704  155.782
  331.000   11.944    0.313    0.250   28.539  155.932
  331.250   12.552    0.340    0.265   34.121  156.287
  331.500   13.191    0.366    0.264   32.587  156.744
  331.750   13.730    0.344    0.264   28.370  157.004
  332.000   13.704    0.349    0.276   28.398  157.045
  332.250   13.291    0.363    0.289   26.427  156.990
  332.500   11.873    0.355    0.301   30.637  156.823
  332.750    9.678    0.317    0.291   38.275  156.552
  333.000    7.578    0.346    0.282   51.096  156.181
  333.250    7.211    0.422    0.281   58.923  156.031
  333.500    8.010    0.424    0.286   56.204  156.071
  333.750    8.897    0.411    0.298   46.870  156.219
  334.000   10.326    0.382    0.313   35.727  160.552
  334.250   11.871    0.361    0.310   26.270  161.502
  334.500   13.136    0.364    0.304   28.981  164.148
  334.750   13.990    0.370    0.314   29.194  166.901
  335.000   14.369    0.370    0.319   26.974  167.877
  335.250   14.479    0.355    0.316   26.751  167.712
  335.500   14.479    0.348    0.313   28.839  167.448
  335.750   14.478    0.342    0.310   31.922  168.844
  336.000   14.450    0.332    0.308   33.072  170.241
  336.250   14.312    0.345    0.309   32.163  170.598
  336.500   14.068    0.358    0.313   28.009  168.357
  336.750   13.723    0.367    0.320   28.724  164.550
  337.000   12.958    0.363    0.324   31.619  158.148
  337.250   11.890    0.362    0.315   37.263  156.007
  337.500   10.745    0.371    0.305   42.469  156.366
  337.750    9.747    0.383    0.295   46.925  157.661
  338.000    8.691    0.413    0.287   44.269  159.053
  338.250    7.661    0.408    0.274   46.482  160.453
  338.500    6.766    0.410    0.262   54.809  161.639
  338.750    6.068    0.418    0.254   62.571  162.525
  339.000    5.505    0.417    0.259   69.276  162.877
  339.250    4.994    0.402    0.258   73.110  163.027
  339.500    4.946    0.405    0.253   79.876  162.965
  339.750    5.158    0.419    0.248   71.977  162.384
  340.000    5.421    0.451    0.243   59.899  161.909
  340.250    5.896    0.393    0.231   52.687  161.955
  340.500    6.327    0.362    0.228   50.965  162.111
  340.750    6.895    0.354    0.243   62.475  162.046
  341.000    7.601    0.391    0.248   58.570  161.879
  341.250    8.427    0.366    0.227   44.994  161.408
  341.500    9.559    0.320    0.213   35.474  160.829
  341.750   10.864    0.312    0.253   30.071  160.666
  342.000   11.222    0.327    0.281   31.598  160.500
  342.250    9.724    0.349    0.295   43.794  160.546
  342.500    7.470    0.378    0.287   54.053  160.488
  342.750    5.827    0.408    0.268   60.319  160.321
  343.000    5.001    0.427    0.256   64.839  160.159
  343.250    4.284    0.417    0.263   70.731  160.203
  343.500    3.755    0.405    0.260   80.680  160.456
  343.750    3.291    0.449    0.249   91.379  162.583
  344.000    3.020    0.473    0.232  103.073  166.265
  344.250    2.940    0.514    0.215  102.853  171.200
  344.500    2.929    0.506    0.310   93.517  175.925
  344.750    3.095    0.498    0.340   83.935  179.712
  345.000    3.613    0.430    0.305   71.670  172.476
  345.250    4.218    0.418    0.272   64.269  167.845
  345.500    4.849    0.392    0.327   56.434  166.639
  345.750    5.284    0.384    0.302   54.092  165.959
  346.000    5.511    0.392    0.270   58.488  165.279
  346.250    5.585    0.380    0.258   61.446  165.111
  346.500    5.596    0.353    0.233   62.098  165.885
  346.750    5.585    0.355    0.206   61.438  167.281
  347.000    5.521    0.391    0.259   61.591  171.589
  347.250    5.427    0.422    0.391   62.492  175.897
  347.500    5.314    0.438    0.422   63.887  183.537
  347.750    5.233    0.450    0.375   66.103  183.162
  348.000    5.134    0.436    0.299   67.319  173.015
  348.250    5.017    0.408    0.277   67.962  167.863
  348.500    4.941    0.394    0.260   68.240  166.864
  348.750    4.913    0.399    0.249   68.391  167.325
  349.000    4.941    0.403    0.256   67.482  167.585
  349.250    5.026    0.409    0.256   65.636  168.152
  349.500    5.153    0.404    0.242   59.861  168.815
  349.750    5.302    0.395    0.236   56.204  169.272
  350.000    5.519    0.387    0.244   56.919  168.071
  350.250    5.701    0.382    0.255   60.317  164.790
  350.500    5.822    0.403    0.271   60.216  162.338
  350.750    5.912    0.405    0.263   59.744  160.508
  351.000    5.991    0.396    0.278   62.331  160.139
  351.250    6.037    0.420    0.366   65.604  160.394
  351.500    6.048    0.430    0.385   63.883  160.442
  351.750    6.118    0.403    0.308   56.981  160.381
  352.000    6.271    0.382    0.271   54.636  160.634
  352.250    6.417    0.385    0.250   54.417  161.089
  352.500    6.553    0.378    0.250   51.261  161.969
  352.750    6.515    0.375    0.246   46.419  162.331
  353.000    6.392    0.357    0.230   46.946  162.474
  353.250    6.164    0.374    0.265   48.344  162.833
  353.500    6.012    0.406    0.283   48.123  162.776
  353.750    5.809    0.396    0.290   52.144  162.919
  354.000    5.732    0.395    0.277   54.978  163.379
  354.250    5.720    0.395    0.258   53.757  164.155
  354.500    5.731    0.386    0.271   50.916  164.509
  354.750    5.753    0.392    0.282   52.749  165.387
  355.000    5.764    0.392    0.264   56.210  166.062
  355.250    5.797    0.384    0.242   58.795  166.416
  355.500    5.786    0.386    0.248   65.375  166.768
  355.750    5.741    0.390    0.252   68.896  167.021
  356.000    5.633    0.400    0.243   66.489  167.903
  356.250    5.473    0.388    0.230   66.266  168.985
  356.500    5.359    0.386    0.216   69.224  170.697
  356.750    5.228    0.387    0.199   73.122  172.403
  357.000    5.070    0.391    0.219   75.398  173.902
  357.250    4.834    0.415    0.225   78.608  176.027
  357.500    4.608    0.424    0.220   81.689  179.711
  357.750    4.435    0.435    0.201   85.395  185.684
  358.000    4.220    0.457    0.219   86.110  191.969
  358.250    4.070    0.475    0.256   87.448  194.405
  358.500    3.850    0.443    0.265   89.470  194.246
  358.750    3.587    0.446    0.254   91.871  192.106
  359.000    3.342    0.465    0.243   94.581  189.966
  359.250    2.992    0.488    0.235   98.537  190.741
  359.500    2.709    0.510    0.227  104.180  192.136
  359.750    2.471    0.543    0.231   99.277  191.243
  360.000    2.329    0.556    0.241   94.749  188.480
  360.250    2.289    0.542    0.244   95.901  184.469
  360.500    2.289    0.547    0.232   96.736  182.644
  360.750    2.294    0.530    0.209   93.769  183.830
  361.000    2.298    0.508    0.206   91.925  185.959
  361.250    2.276    0.493    0.222   92.012  187.773
