~VERSION INFORMATION
 VERS.                 2.0:   CWLS LOG ASCII STANDARD -VERSION 2.0
 WRAP.                  NO:   ONE LINE PER DEPTH STEP
~WELL INFORMATION BLOCK
#MNEM.UNIT           DATA                    DESCRIPTION OF MNEMONIC
#---------    -------------------            -------------------------------
# Generated from Intellog Unique Number	CS_69_70/WELL/699
NULL.         -999.25                        : NULL_VALUE
WELL.         HUSKY AEC FISHER               : Well_name    - WELL              
LOC .         00/05-09-070-05W4/0            : Location     - LOCATION          
UWI .         00/05-09-070-05W4/0            : Uwi          - UNIQUE WELL ID    
ENTR.         SP                             : Entered      - ENTERED BY        
SRVC.         SCHLUMBERGER                   : Scn          - SERVICE COMPANY   
STRT.M        315                            : top_depth    - START DEPTH       
STOP.M        545                            : bot_depth    - STOP DEPTH        
STEP.M        0.25                           : increment    - STEP LENGTH       
~CURVE INFORMATION BLOCK
#MNEM UNIT       ERCB CURVE CODE    CURVE DESCRIPTION
#-----------   ------------------   ----------------------------------
DEPT.M        00 001 00 00         : DEPTH        - DEPTH                       
ILD .OHMM     00 120 00 00         : RESD         - DEEP RESISTIVITY (DIL)      
DPHI.V/V      00 890 00 00         : PHID         - DENSITY POROSITY (SANDSTONE)
NPHI.V/V      00 330 00 00         : PHIN         - NEUTRON POROSITY (SANDSTONE)
GR  .API      00 310 00 00         : GR           - GAMMA RAY                   
~PARAMETER INFORMATION       
#MNEM.UNIT           DATA             DESCRIPTION OF MNEMONIC
#---------         -----------     ------------------------------
GL  .M        678.3                : gl           - GROUND LEVEL ELEVATION      
EREF.M        682                  : kb           - ELEVATION OF DEPTH REFERENCE
DATM.M        678.3                : datum        - DATUM ELEVATION             
TDD .M        551.5                : tdd          - TOTAL DEPTH DRILLER         
RUN .         ONE                  : Run          - RUN NUMBER                  
ENG .         BILL                 : Engineer     - RECORDING ENGINEER          
WIT .         JIM                  : Witness      - WITNESSED BY                
MUD .         GEL                  : Mud_type     - MUD TYPE                    
MATR.         SANDSTONE            : Logunit      - NEUTRON MATRIX              
TMAX.C        25                   : BHT          - MAXIMUM RECORDED TEMPERATURE
BHTD.M        551.5                : BHTDEP       - MAXIMUM RECORDED TEMPERATURE
MATR.         1                    : LOGUNIT      - NEUTRON MATRIX              
RMT .C        25                   : MDTP         - TEMPERATURE OF MUD          
NEUT.         1                    : NEUTRON      - NEUTRON TYPE                
RESI.         0                    : RESIST       - RESISTIVITY TYPE            
RMC .OHMM     0.25                 : RMC          - RESISTIVITY OF MUD CAKE     
RMF .OHMM     0.25                 : RMF          - RESISTIVITY OF MUD FILTRATE 
SUFT.C        15                   : SUFT         - SURFACE TEMPERATURE         
~A  DEPTH     RESD     PHID     PHIN       GR
# ...
  489.000    7.930    0.209    0.346   90.114
  489.250    8.230    0.197    0.330   88.923
  489.500    8.540    0.180    0.320   90.134
  489.750    8.863    0.173    0.321   91.950
  490.000    9.197    0.161    0.336   91.960
  490.250    9.369    0.176    0.362   78.717
  490.500    9.906    0.207    0.381   68.490
  490.750   10.670    0.206    0.379   69.101
  491.000   12.615    0.168    0.351   70.917
  491.250   17.966    0.246    0.369   58.276
  491.500   27.057    0.303    0.379   46.238
  491.750   35.769    0.320    0.395   38.418
  492.000   44.717    0.320    0.386   42.645
  492.250   46.407    0.310    0.369   52.899
  492.500   33.187    0.297    0.361   58.931
  492.750   20.448    0.279    0.351   66.772
  493.000   13.829    0.273    0.338   72.804
  493.250   11.058    0.263    0.345   84.862
  493.500    9.009    0.256    0.365   86.681
  493.750    8.518    0.260    0.379   79.461
  494.000    9.523    0.267    0.374   73.447
  494.250   10.258    0.272    0.355   71.049
  494.500   11.904    0.257    0.339   72.261
  494.750   14.338    0.238    0.327   68.056
  495.000   20.419    0.236    0.343   54.210
  495.250   26.496    0.278    0.358   45.184
  495.500   33.746    0.315    0.366   40.375
  495.750   38.439    0.334    0.376   37.373
  496.000   46.300    0.326    0.389   41.604
  496.250   53.727    0.323    0.396   44.623
  496.500   39.880    0.317    0.387   51.867
  496.750   31.890    0.301    0.381   54.886
  497.000   25.030    0.293    0.373   59.715
  497.250   17.898    0.278    0.370   62.736
  497.500   16.306    0.272    0.356   65.760
  497.750   13.788    0.258    0.342   67.576
  498.000   12.101    0.244    0.330   68.186
  498.250   10.425    0.231    0.319   73.017
  498.500    9.322    0.217    0.310   77.844
  498.750    8.651    0.204    0.313   82.676
  499.000    8.180    0.195    0.332   83.286
  499.250    8.178    0.224    0.348   84.503
  499.500    8.178    0.248    0.355   81.503
  499.750    9.313    0.256    0.357   76.694
  500.000    9.312    0.270    0.360   76.097
  500.250    9.311    0.278    0.363   84.543
  500.500    8.642    0.252    0.364   88.768
  500.750    7.585    0.230    0.363   94.803
  501.000    7.444    0.211    0.357   97.824
  501.250    7.582    0.196    0.347   98.437
  501.500    7.581    0.180    0.336   96.036
  501.750    7.723    0.170    0.356  102.071
  502.000    8.014    0.159    0.364  106.297
  502.250    8.013    0.152    0.369   99.681
  502.500    8.162    0.183    0.376   84.029
  502.750    8.161    0.201    0.349   77.412
  503.000    8.160    0.218    0.335   76.218
  503.250    8.008    0.230    0.328   76.227
  503.500    8.007    0.247    0.343   70.816
  503.750    7.858    0.242    0.348   70.828
  504.000    8.004    0.230    0.331   73.245
  504.250    8.306    0.216    0.323   77.475
  504.500    8.462    0.212    0.333   76.279
  504.750    8.781    0.238    0.339   69.061
  505.000    8.945    0.258    0.317   69.672
  505.250    9.112    0.247    0.309   76.308
  505.500    9.110    0.205    0.303   84.754
  505.750    9.109    0.177    0.300   88.978
  506.000    9.453    0.159    0.312   81.762
  506.250   10.182    0.190    0.323   77.554
  506.500   11.597    0.202    0.328   79.374
  506.750   12.492    0.192    0.323   81.190
  507.000   14.768    0.182    0.346   75.176
  507.250   16.512    0.202    0.369   69.761
  507.500   18.460    0.239    0.367   65.555
  507.750   20.259    0.258    0.361   62.557
  508.000   21.420    0.278    0.358   58.950
  508.250   21.819    0.280    0.352   55.946
  508.500   21.413    0.276    0.354   57.768
  508.750   20.247    0.258    0.342   58.979
  509.000   20.243    0.246    0.387   62.000
  509.250   21.806    0.271    0.386   52.376
  509.500   26.263    0.285    0.375   48.166
  509.750   28.822    0.297    0.380   45.164
  510.000   32.827    0.295    0.383   47.587
  510.250   34.710    0.293    0.376   49.404
  510.500   35.356    0.293    0.370   52.425
  510.750   31.031    0.293    0.372   57.254
  511.000   27.746    0.280    0.372   60.273
  511.250   26.729    0.272    0.374   63.296
  511.500   31.600    0.281    0.407   60.896
  511.750   42.556    0.302    0.419   52.472
  512.000   52.222    0.326    0.403   44.049
  512.250   62.903    0.342    0.395   37.432
  512.500   78.637    0.337    0.396   29.611
  512.750   83.140    0.329    0.382   26.611
  513.000   77.162    0.326    0.370   29.632
  513.250   55.180    0.322    0.383   32.654
  513.500   44.124    0.319    0.392   35.074
  513.750   38.013    0.322    0.380   35.690
  514.000   32.747    0.321    0.370   37.506
  514.250   28.740    0.307    0.366   41.730
  514.500   27.687    0.292    0.360   46.558
  514.750   26.178    0.284    0.350   49.580
  515.000   27.168    0.278    0.351   47.786
  515.250   28.193    0.295    0.373   45.386
  515.500   28.190    0.306    0.389   47.203
  515.750   26.163    0.306    0.404   53.237
  516.000   24.737    0.245    0.359   58.669
  516.250   24.734    0.233    0.369   64.100
  516.500   23.826    0.252    0.404   46.037
  516.750   22.951    0.276    0.388   46.048
  517.000   19.407    0.287    0.348   55.094
  517.250   15.519    0.252    0.338   64.742
  517.500   12.642    0.224    0.331   73.185
  517.750   12.641    0.215    0.340   80.423
  518.000   17.345    0.203    0.386   68.989
  518.250   30.887    0.257    0.405   34.662
  518.500   40.079    0.301    0.369   23.828
  518.750   51.047    0.335    0.353   22.032
  519.000   60.351    0.337    0.351   22.048
  519.250   65.006    0.339    0.352   22.659
  519.500   53.953    0.331    0.351   22.664
  519.750   46.481    0.327    0.352   24.484
  520.000   39.304    0.337    0.361   25.096
  520.250   27.587    0.329    0.370   25.104
  520.500   21.654    0.327    0.373   23.908
  520.750   13.593    0.327    0.364   24.520
  521.000   10.473    0.328    0.365   27.542
  521.250    7.630    0.323    0.360   25.148
  521.500    5.663    0.312    0.350   23.949
  521.750    4.879    0.304    0.347   25.166
  522.000    4.444    0.295    0.349   26.382
  522.250    4.125    0.290    0.343   26.390
  522.500    3.900    0.298    0.345   27.001
  522.750    3.828    0.313    0.345   42.072
  523.000    3.972    0.316    0.323   53.529
  523.250    4.524    0.290    0.301   61.369
  523.500    5.250    0.175    0.291   69.811
  523.750    5.551    0.148    0.286   78.857
  524.000    5.869    0.132    0.287   71.640
  524.250    5.868    0.157    0.289   55.385
  524.500    5.548    0.271    0.323   43.950
  524.750    4.961    0.317    0.386   34.320
  525.000    4.536    0.293    0.369   50.403
  525.250    4.368    0.292    0.369   42.017
  525.500    4.128    0.318    0.376   27.632
  525.750    3.829    0.347    0.369   24.047
  526.000    3.486    0.359    0.364   22.865
  526.250    3.295    0.370    0.368   23.480
  526.500    3.233    0.361    0.364   24.091
  526.750    3.112    0.358    0.358   27.711
  527.000    3.054    0.354    0.359   29.523
  527.250    3.052    0.351    0.372   27.137
  527.500    3.226    0.351    0.380   24.753
  527.750    3.348    0.354    0.381   31.964
  528.000    3.606    0.335    0.355   43.382
  528.250    3.884    0.313    0.331   49.399
  528.500    4.341    0.263    0.338   53.015
  528.750    4.505    0.258    0.347   55.429
  529.000    4.674    0.254    0.330   56.639
  529.250    4.761    0.247    0.326   59.654
  529.500    4.499    0.276    0.346   54.868
  529.750    4.096    0.298    0.359   44.088
  530.000    3.729    0.316    0.376   38.697
  530.250    3.459    0.329    0.372   35.112
  530.500    3.331    0.327    0.359   36.926
  530.750    3.090    0.316    0.357   37.544
  531.000    2.975    0.309    0.360   34.557
  531.250    2.919    0.329    0.352   31.570
  531.500    2.864    0.355    0.346   31.585
  531.750    2.863    0.342    0.363   33.404
  532.000    2.861    0.331    0.370   33.415
  532.250    2.969    0.340    0.361   31.029
