~VERSION INFORMATION
 VERS.                 2.0:   CWLS LOG ASCII STANDARD -VERSION 2.0
 WRAP.                  NO:   ONE LINE PER DEPTH STEP
~WELL INFORMATION BLOCK
#MNEM.UNIT           DATA                    DESCRIPTION OF MNEMONIC
#---------    -------------------            -------------------------------
# Generated from Intellog Unique Number	CX_WELLS/WELL/2722
WELL.         MAYNARD CLAREN                 : Well_name    - WELL
LOC .         00/06-06-080-12W4/0            : Location     - LOCATION
UWI .         00/06-06-080-12W4/0            : Uwi          - UNIQUE WELL ID
ENTR.         T                              : Entered      - ENTERED BY
SRVC.         SCHLUMBERGER                   : Scn          - SERVICE COMPANY
STRT.M        265                            : top_depth    - START DEPTH
STOP.M        488                            : bot_depth    - STOP DEPTH
STEP.M        0.25                           : increment    - STEP LENGTH
 NULL. -999.2500:NULL Value
~CURVE INFORMATION BLOCK
#MNEM UNIT       ERCB CURVE CODE    CURVE DESCRIPTION
#-----------   ------------------   ----------------------------------
DEPT.M        00 001 00 00         : DEPTH        - DEPTH
GR  .API      00 310 00 00         : GR           - GAMMA RAY
NPHI.V/V      00 330 00 00         : PHIN         - NEUTRON POROSITY (SANDSTONE)
DPHI.V/V      00 890 00 00         : PHID         - DENSITY POROSITY (SANDSTONE)
ILD .OHMM     00 120 00 00         : RESD         - DEEP RESISTIVITY (DIL)
~PARAMETER INFORMATION
#MNEM.UNIT           DATA             DESCRIPTION OF MNEMONIC
#---------         -----------     ------------------------------
GL  .M        683.5                : gl           - GROUND LEVEL ELEVATION
EREF.M        686.8                : kb           - ELEVATION OF DEPTH REFERENCE
DATM.M        686.8                : datum        - DATUM ELEVATION
TDD .M        497                  : tdd          - TOTAL DEPTH DRILLER
RUN .         ONE                  : Run          - RUN NUMBER
ENG .         BILL                 : Engineer     - RECORDING ENGINEER
WIT .         JIM                  : Witness      - WITNESSED BY
MUD .         GEL                  : Mud_type     - MUD TYPE
MATR.         SANDSTONE            : Logunit      - NEUTRON MATRIX
TMAX.C        20                   : BHT          - MAXIMUM RECORDED TEMPERATURE
BHTD.M        497                  : BHTDEP       - MAXIMUM RECORDED TEMPERATURE
MATR.         1                    : LOGUNIT      - NEUTRON MATRIX
RMT .C        20                   : MDTP         - TEMPERATURE OF MUD
NEUT.         1                    : NEUTRON      - NEUTRON TYPE
RESI.         5.13                 : RESIST       - RESISTIVITY TYPE
RMC .OHMM     3.4                  : RMC          - RESISTIVITY OF MUD CAKE
RMF .OHMM     4.4                  : RMF          - RESISTIVITY OF MUD FILTRATE
SUFT.C        3                    : SUFT         - SURFACE TEMPERATURE
~A  DEPTH       GR     PHIN     PHID     RESD
# ...
  308.500   96.777    0.432    0.276   11.296
  308.750   98.018    0.436    0.273   11.136
  309.000   99.262    0.437    0.269   10.896
  309.250   99.877    0.433    0.263   10.657
  309.500   99.861    0.429    0.257   10.497
  309.750  100.471    0.424    0.255   10.257
  310.000  100.454    0.419    0.254   10.017
  310.250  101.065    0.411    0.254    9.697
  310.500  101.679    0.407    0.254    9.617
  310.750  102.297    0.401    0.255    9.377
  311.000  101.020    0.398    0.260    9.057
  311.250   97.852    0.392    0.272    9.057
  311.500   94.687    0.390    0.285    9.135
  311.750   92.149    0.388    0.290    9.214
  312.000   92.133    0.390    0.294    9.372
  312.250   94.008    0.393    0.301    9.690
  312.500   93.992    0.396    0.305    9.928
  312.750   90.820    0.400    0.303   10.245
  313.000   88.286    0.401    0.305   10.244
  313.250   85.117    0.401    0.312   10.164
  313.500   81.949    0.399    0.320   10.083
  313.750   78.150    0.395    0.326    9.923
  314.000   73.090    0.388    0.336    9.842
  314.250   63.613    0.381    0.343    9.841
  314.500   59.179    0.366    0.352    9.920
  314.750   57.902    0.356    0.354   14.537
  315.000   57.256    0.352    0.354   17.879
  315.250   57.239    0.350    0.353   19.152
  315.500   56.597    0.352    0.350   20.186
  315.750   55.946    0.353    0.348   20.663
  316.000   55.930    0.358    0.340   20.742
  316.250   55.283    0.368    0.336   20.900
  316.500   55.271    0.381    0.336   20.979
  316.750   55.255    0.387    0.335   21.137
  317.000   55.239    0.385    0.329   21.375
  317.250   55.223    0.382    0.323   21.692
  317.500   54.576    0.381    0.319   22.089
  317.750   54.556    0.381    0.324   22.805
  318.000   53.909    0.380    0.328   23.441
  318.250   53.889    0.379    0.336   23.679
  318.500   53.881    0.378    0.344   23.757
  318.750   54.495    0.374    0.352   23.756
  319.000   55.109    0.359    0.357   23.835
  319.250   55.720    0.357    0.350   23.993
  319.500   55.708    0.357    0.347   24.390
  319.750   56.322    0.358    0.346   24.867
  320.000   56.302    0.358    0.349   24.866
  320.250   56.285    0.358    0.351   24.308
  320.500   56.896    0.360    0.354   23.750
  320.750   56.880    0.365    0.357   23.191
  321.000   56.867    0.366    0.361   22.872
  321.250   57.478    0.370    0.363   22.552
  321.500   58.096    0.372    0.362   21.994
  321.750   59.341    0.373    0.355   20.958
  322.000   59.316    0.370    0.350   20.559
  322.250   59.304    0.368    0.350   20.240
  322.500   59.288    0.371    0.350   19.841
  322.750   59.276    0.378    0.354   19.442
  323.000   59.252    0.386    0.355   19.043
  323.250   59.240    0.400    0.350   18.724
  323.500   59.227    0.411    0.343   18.325
  323.750   59.203    0.420    0.342   17.925
  324.000   58.561    0.425    0.346   17.845
  324.250   58.548    0.427    0.348   17.843
  324.500   58.528    0.425    0.350   17.763
  324.750   58.516    0.419    0.344   17.762
  325.000   59.122    0.407    0.340   17.761
  325.250   59.106    0.397    0.341   17.760
  325.500   59.094    0.385    0.347   17.680
  325.750   59.082    0.382    0.358   17.519
  326.000   59.066    0.381    0.364   17.439
  326.250   59.045    0.381    0.352   17.358
  326.500   59.029    0.381    0.346   17.278
  326.750   59.017    0.382    0.337   17.117
  327.000   58.997    0.382    0.334   17.116
  327.250   58.342    0.384    0.338   17.036
  327.500   58.330    0.384    0.344   17.035
  327.750   57.687    0.385    0.347   17.034
  328.000   57.037    0.385    0.352   17.033
  328.250   56.386    0.385    0.356   17.191
  328.500   55.748    0.384    0.347   17.191
  328.750   54.470    0.369    0.343   17.428
  329.000   53.185    0.351    0.329   17.746
  329.250   51.912    0.303    0.285   18.302
  329.500   51.261    0.276    0.225   19.336
  329.750   51.253    0.276    0.219   22.679
  330.000   51.868    0.282    0.237   22.360
  330.250   54.373    0.309    0.272   21.642
  330.500   56.248    0.321    0.310   20.765
  330.750   58.754    0.339    0.342   19.889
  331.000   60.629    0.364    0.342   19.410
  331.250   59.979    0.385    0.349   19.170
  331.500   59.336    0.387    0.355   19.169
  331.750   58.681    0.387    0.348   19.089
  332.000   58.673    0.388    0.342   19.008
  332.250   58.657    0.388    0.332   19.007
  332.500   58.641    0.387    0.331   19.006
  332.750   58.621    0.387    0.329   19.005
  333.000   58.608    0.386    0.325   18.924
  333.250   58.592    0.385    0.326   18.844
  333.500   58.572    0.385    0.336   18.683
  333.750   57.929    0.387    0.348   18.524
  334.000   57.909    0.387    0.354   18.443
  334.250   57.267    0.387    0.362   18.362
  334.500   56.616    0.385    0.362   18.361
  334.750   56.596    0.384    0.359   18.361
  335.000   56.576    0.382    0.358   18.360
  335.250   56.563    0.382    0.359   18.359
  335.500   56.543    0.381    0.362   18.358
  335.750   57.166    0.380    0.364   18.356
  336.000   57.149    0.376    0.364   18.356
  336.250   57.133    0.376    0.352   18.355
  336.500   57.109    0.379    0.345   18.274
  336.750   57.097    0.381    0.345   18.273
  337.000   57.077    0.388    0.351   18.272
  337.250   57.069    0.395    0.356   18.271
  337.500   57.675    0.407    0.355   18.270
  337.750   57.663    0.416    0.352   18.270
  338.000   58.281    0.419    0.348   18.189
  338.250   60.148    0.419    0.344   18.029
  338.500   60.766    0.418    0.340   17.869
  338.750   61.381    0.418    0.332   17.628
  339.000   61.999    0.418    0.320   17.389
  339.250   63.240    0.417    0.309   17.308
  339.500   63.858    0.411    0.309   17.148
  339.750   64.472    0.406    0.315   16.988
  340.000   65.713    0.401    0.320   16.748
  340.250   66.331    0.393    0.326   16.428
  340.500   67.572    0.390    0.330   16.348
  340.750   68.817    0.388    0.325   16.108
  341.000   70.057    0.388    0.314   15.948
  341.250   70.049    0.389    0.304   15.708
  341.500   69.399    0.392    0.298   15.389
  341.750   68.126    0.391    0.287   15.149
  342.000   66.844    0.383    0.286   15.148
  342.250   66.832    0.381    0.289   15.147
  342.500   66.808    0.382    0.291   15.146
  342.750   66.800    0.386    0.297   15.225
  343.000   66.776    0.391    0.303   15.462
  343.250   66.755    0.398    0.313   15.541
  343.500   66.113    0.409    0.323   15.620
  343.750   66.101    0.414    0.330   15.778
  344.000   65.454    0.415    0.339   15.936
  344.250   66.068    0.415    0.347   15.936
  344.500   66.052    0.410    0.348   16.093
  344.750   66.032    0.407    0.338   16.093
  345.000   66.020    0.403    0.328   16.171
  345.250   66.634    0.403    0.319   16.171
  345.500   68.505    0.405    0.316   16.169
  345.750   69.124    0.408    0.312   16.089
  346.000   70.368    0.414    0.315   16.008
  346.250   69.713    0.418    0.317   15.848
  346.500   68.445    0.423    0.322   15.768
  346.750   66.537    0.429    0.327   15.448
  347.000   64.625    0.435    0.332   15.129
  347.250   62.718    0.441    0.337   14.491
  347.500   62.067    0.446    0.338   14.172
  347.750   65.207    0.446    0.334   13.454
  348.000   68.974    0.435    0.327   12.737
  348.250   70.853    0.418    0.322   12.019
  348.500   68.942    0.403    0.320   11.302
  348.750   67.034    0.395    0.321   10.584
  349.000   63.865    0.392    0.322    9.946
  349.250   60.701    0.392    0.325   10.025
  349.500   57.529    0.386    0.327   11.696
  349.750   55.621    0.377    0.328   14.004
  350.000   54.966    0.375    0.329   15.914
  350.250   56.215    0.377    0.330   16.629
  350.500   58.090    0.380    0.331   16.787
  350.750   58.709    0.385    0.334   16.786
  351.000   59.953    0.382    0.334   16.785
  351.250   61.194    0.379    0.332   16.785
  351.500   61.178    0.379    0.329   16.784
  351.750   61.158    0.379    0.324   16.783
