~VERSION INFORMATION
 VERS.                 2.0:   CWLS LOG ASCII STANDARD -VERSION 2.0
 WRAP.                  NO:   ONE LINE PER DEPTH STEP
~WELL INFORMATION BLOCK
#MNEM.UNIT           DATA                    DESCRIPTION OF MNEMONIC
#---------    -------------------            -------------------------------
# Generated from Intellog Unique Number	CS_73_76/WELL/4759
WELL.         AMOCO KIRBY                    : Well_name    - WELL
LOC .         00/07-35-073-05W4/0            : Location     - LOCATION
UWI .         00/07-35-073-05W4/0            : Uwi          - UNIQUE WELL ID
ENTR.         T                              : Entered      - ENTERED BY
SRVC.         SCHLUMBERGER                   : Scn          - SERVICE COMPANY
STRT.M        265                            : top_depth    - START DEPTH
STOP.M        495                            : bot_depth    - STOP DEPTH
STEP.M        0.25                           : increment    - STEP LENGTH
 NULL. -999.2500:NULL Value
~CURVE INFORMATION BLOCK
#MNEM UNIT       ERCB CURVE CODE    CURVE DESCRIPTION
#-----------   ------------------   ----------------------------------
DEPT.M        00 001 00 00         : DEPTH        - DEPTH
GR  .API      00 310 00 00         : GR           - GAMMA RAY
NPHI.V/V      00 330 00 00         : PHIN         - NEUTRON POROSITY (SANDSTONE)
DPHI.V/V      00 890 00 00         : PHID         - DENSITY POROSITY (SANDSTONE)
ILD .OHMM     00 120 00 00         : RESD         - DEEP RESISTIVITY (DIL)
~PARAMETER INFORMATION
#MNEM.UNIT           DATA             DESCRIPTION OF MNEMONIC
#---------         -----------     ------------------------------
GL  .M        660.7                : gl           - GROUND LEVEL ELEVATION
EREF.M        664.4                : kb           - ELEVATION OF DEPTH REFERENCE
DATM.M        664.4                : datum        - DATUM ELEVATION
TDD .M        500                  : tdd          - TOTAL DEPTH DRILLER
RUN .         ONE                  : Run          - RUN NUMBER
ENG .         BILL                 : Engineer     - RECORDING ENGINEER
WIT .         JIM                  : Witness      - WITNESSED BY
MUD .         GEL                  : Mud_type     - MUD TYPE
MATR.         SANDSTONE            : Logunit      - NEUTRON MATRIX
TMAX.C        24                   : BHT          - MAXIMUM RECORDED TEMPERATURE
BHTD.M        500                  : BHTDEP       - MAXIMUM RECORDED TEMPERATURE
MATR.         1                    : LOGUNIT      - NEUTRON MATRIX
RMT .C        23                   : MDTP         - TEMPERATURE OF MUD
NEUT.         1                    : NEUTRON      - NEUTRON TYPE
RESI.         0                    : RESIST       - RESISTIVITY TYPE
RMC .OHMM     0.38                 : RMC          - RESISTIVITY OF MUD CAKE
RMF .OHMM     0.45                 : RMF          - RESISTIVITY OF MUD FILTRATE
SUFT.C        15                   : SUFT         - SURFACE TEMPERATURE
~A  DEPTH       GR     PHIN     PHID     RESD
# ...
  395.500   79.147    0.436    0.277    2.673
  395.750   79.734    0.443    0.297    2.673
  396.000   82.728    0.444    0.298    2.672
  396.250   86.344    0.447    0.297    2.574
  396.500   88.739    0.448    0.273    2.434
  396.750   90.536    0.457    0.262    2.258
  397.000   92.931    0.469    0.264    2.096
  397.250   95.925    0.497    0.264    2.096
  397.500   96.501    0.522    0.263    2.135
  397.750   97.065    0.551    0.294    2.215
  398.000   97.630    0.562    0.298    2.215
  398.250   98.194    0.555    0.273    2.134
  398.500   99.968    0.516    0.269    1.980
  398.750  100.533    0.503    0.260    1.838
  399.000  102.306    0.507    0.260    1.803
  399.250  104.114    0.520    0.265    1.674
  399.500  104.678    0.541    0.264    1.673
  399.750  100.350    0.557    0.262    1.705
  400.000   97.852    0.568    0.263    1.871
  400.250   97.829    0.551    0.266    1.905
  400.500   97.784    0.513    0.263    1.905
  400.750   97.738    0.417    0.261    1.905
  401.000   89.748    0.343    0.260    1.869
  401.250   85.431    0.284    0.253    1.869
  401.500   82.945    0.247    0.258    1.904
  401.750   78.017    0.182    0.295    1.976
  402.000   74.310    0.159    0.352    2.013
  402.250   69.993    0.150    0.394    2.089
  402.500   66.275    0.158    0.422    2.208
  402.750   63.788    0.159    0.427    2.379
  403.000   62.522    0.156    0.435    2.610
  403.250   61.245    0.148    0.440    9.791
  403.500   61.211    0.146    0.442   12.471
  403.750   61.154    0.146    0.439   14.744
  404.000   61.108    0.152    0.429   18.780
  404.250   59.842    0.155    0.405   25.294
  404.500   56.745    0.156    0.388   28.279
  404.750   55.479    0.158    0.395   28.804
  405.000   56.055    0.162    0.394   28.270
  405.250   57.230    0.174    0.387   27.744
  405.500   59.015    0.180    0.379   26.230
  405.750   60.190    0.187    0.373   25.743
  406.000   60.144    0.190    0.365   25.264
  406.250   60.087    0.192    0.362   25.259
  406.500   60.041    0.186    0.364   25.255
  406.750   60.617    0.172    0.364   25.250
  407.000   62.379    0.160    0.364   25.246
  407.250   62.967    0.162    0.371   25.717
  407.500   64.752    0.176    0.384   24.314
  407.750   65.305    0.179    0.395   23.863
  408.000   64.638    0.172    0.395   21.737
  408.250   64.005    0.164    0.397   20.552
  408.500   63.337    0.149    0.403   19.433
  408.750   63.303    0.142    0.419   18.373
  409.000   63.235    0.136    0.435   18.031
  409.250   63.811    0.134    0.446   17.695
  409.500   63.776    0.141    0.458   17.046
  409.750   63.731    0.150    0.467   17.042
  410.000   63.052    0.158    0.468   16.726
  410.250   63.018    0.164    0.468   16.723
  410.500   63.594    0.162    0.467   16.720
  410.750   66.576    0.160    0.466   16.718
  411.000   67.763    0.160    0.464   16.715
  411.250   68.937    0.167    0.462   16.712
  411.500   68.892    0.169    0.461   16.709
  411.750   67.015    0.177    0.458   14.939
  412.000   65.738    0.183    0.443   14.125
  412.250   64.460    0.188    0.431   13.109
  412.500   64.438    0.185    0.426   13.106
  412.750   63.149    0.175    0.418   13.350
  413.000   63.126    0.164    0.412   13.600
  413.250   62.459    0.153    0.412   14.113
  413.500   63.023    0.155    0.412   15.201
  413.750   63.588    0.163    0.406   16.374
  414.000   62.943    0.191    0.401   17.638
  414.250   62.287    0.206    0.395   20.091
  414.500   62.230    0.238    0.390   20.087
  414.750   62.196    0.254    0.382   19.350
  415.000   62.738    0.269    0.364   18.638
  415.250   63.325    0.296    0.347   17.954
  415.500   63.878    0.309    0.327   16.976
  415.750   63.833    0.325    0.337   14.354
  416.000   63.188    0.341    0.350   12.834
  416.250   61.312    0.367    0.356   11.264
  416.500   61.266    0.384    0.366    9.524
  416.750   61.808    0.400    0.355    7.759
  417.000   61.785    0.411    0.341    5.867
  417.250   62.949    0.416    0.338    4.604
  417.500   62.281    0.424    0.342    3.966
  417.750   61.637    0.429    0.345    2.944
  418.000   60.992    0.428    0.350    2.226
  418.250   60.935    0.427    0.349    1.848
  418.500   62.099    0.436    0.346    1.533
  418.750   62.675    0.452    0.336    1.346
  419.000   63.861    0.445    0.323    1.272
  419.250   64.403    0.445    0.324    1.296
  419.500   64.368    0.454    0.330    1.345
  419.750   64.334    0.453    0.334    1.396
  420.000   63.057    0.445    0.334    1.449
  420.250   61.791    0.441    0.327    1.503
  420.500   60.513    0.440    0.320    1.681
  420.750   59.247    0.442    0.317    1.777
  421.000   58.602    0.437    0.325    1.879
  421.250   57.947    0.426    0.342    1.914
  421.500   58.511    0.421    0.344    1.986
  421.750   59.675    0.418    0.340    2.023
  422.000   60.849    0.424    0.326    2.023
  422.250   62.024    0.437    0.307    2.022
  422.500   62.600    0.451    0.312    2.098
  422.750   63.165    0.457    0.328    2.178
  423.000   63.096    0.455    0.330    2.346
  423.250   63.062    0.450    0.330    2.672
  423.500   63.028    0.447    0.332    3.044
  423.750   64.790    0.448    0.329    3.403
  424.000   65.366    0.445    0.332    3.804
  424.250   66.541    0.447    0.336    4.333
  424.500   67.715    0.453    0.341    4.936
  424.750   68.280    0.458    0.343    5.122
  425.000   67.014    0.452    0.341    4.666
  425.250   64.527    0.438    0.336    4.412
  425.500   63.273    0.429    0.334    4.172
  425.750   62.007    0.418    0.328    3.944
  426.000   61.351    0.414    0.313    3.729
  426.250   61.915    0.418    0.301    3.526
  426.500   63.700    0.445    0.310    3.334
  426.750   64.875    0.450    0.328    3.272
  427.000   65.440    0.462    0.333    3.211
  427.250   65.394    0.467    0.337    3.151
  427.500   65.947    0.466    0.338    3.092
  427.750   65.913    0.461    0.337    2.979
  428.000   66.466    0.458    0.336    2.923
  428.250   66.409    0.457    0.332    2.869
  428.500   66.386    0.457    0.330    2.922
  428.750   65.109    0.457    0.329    3.033
  429.000   63.221    0.456    0.320    3.207
  429.250   61.955    0.452    0.292    3.652
  429.500   60.689    0.436    0.261    4.160
  429.750   60.044    0.417    0.221    4.651
  430.000   61.818    0.389    0.196    5.200
  430.250   63.603    0.362    0.244    5.297
  430.500   65.388    0.448    0.294    5.198
  430.750   65.964    0.482    0.317    5.102
  431.000   67.139    0.477    0.332    4.824
  431.250   67.703    0.469    0.338    4.313
  431.500   68.256    0.465    0.337    3.856
  431.750   68.211    0.462    0.336    3.448
  432.000   68.787    0.459    0.335    3.321
  432.250   68.741    0.454    0.334    3.140
  432.500   68.695    0.452    0.329    2.969
  432.750   69.237    0.450    0.316    2.860
  433.000   69.825    0.433    0.284    2.654
  433.250   69.779    0.407    0.269    2.605
  433.500   68.513    0.389    0.273    2.463
  433.750   66.614    0.417    0.316    2.373
  434.000   65.981    0.438    0.321    2.202
  434.250   65.290    0.447    0.328    2.161
  434.500   65.256    0.458    0.330    2.201
  434.750   65.234    0.460    0.330    2.242
  435.000   65.165    0.456    0.330    2.284
  435.250   64.520    0.453    0.329    2.283
  435.500   63.876    0.452    0.329    2.200
  435.750   60.768    0.450    0.328    2.119
  436.000   58.903    0.449    0.328    1.966
  436.250   57.626    0.440    0.324    1.930
  436.500   61.863    0.433    0.317    1.894
  436.750   66.077    0.407    0.312    1.824
  437.000   70.303    0.394    0.301    1.790
  437.250   74.540    0.388    0.261    1.757
  437.500   77.546    0.438    0.266    1.790
  437.750   77.489    0.453    0.269    1.928
  438.000   78.053    0.450    0.260    2.155
  438.250   80.460    0.435    0.232    2.365
  438.500   92.019    0.417    0.197    2.409
  438.750  110.269    0.397    0.190    2.195
