~VERSION INFORMATION
 VERS.                 2.0:   CWLS LOG ASCII STANDARD -VERSION 2.0
 WRAP.                  NO:   ONE LINE PER DEPTH STEP
~WELL INFORMATION BLOCK
#MNEM.UNIT           DATA                    DESCRIPTION OF MNEMONIC
#---------    -------------------            -------------------------------
# Generated from Intellog Unique Number	CW_70_72/WELL/637
NULL.         -999.25                        : NULL_VALUE
WELL.         SUN ET AL TOMATO 06-12         : Well_name    - WELL              
LOC .         06-12-072-23W4                 : Location     - LOCATION          
UWI .         00/06-12-072-23W4/0            : Uwi          - UNIQUE WELL ID    
ENTR.         JAYE                           : Entered      - ENTERED BY        
SRVC.         COMPUTALOG                     : Scn          - SERVICE COMPANY   
DATE.         17 FEB 79                      : Date         - LOG DATE          
STRT.M        380                            : top_depth    - START DEPTH       
STOP.M        600                            : bot_depth    - STOP DEPTH        
STEP.M        0.25                           : increment    - STEP LENGTH       
~CURVE INFORMATION BLOCK
#MNEM UNIT       ERCB CURVE CODE    CURVE DESCRIPTION
#-----------   ------------------   ----------------------------------
DEPT.M        00 001 00 00         : DEPTH        - DEPTH                       
DPHI.V/V      00 890 00 00         : PHID         - DENSITY POROSITY (SANDSTONE)
NPHI.V/V      00 330 00 00         : PHIN         - NEUTRON POROSITY (SANDSTONE)
GR  .API      00 310 00 00         : GR           - GAMMA RAY                   
CALI.MM       00 280 01 00         : CAL          - CALIPER                     
ILD .OHMM     00 120 00 00         : RESD         - DEEP RESISTIVITY (DIL)      
~PARAMETER INFORMATION       
#MNEM.UNIT           DATA             DESCRIPTION OF MNEMONIC
#---------         -----------     ------------------------------
GL  .M        619.96               : gl           - GROUND LEVEL ELEVATION      
EREF.M        623.3                : kb           - ELEVATION OF DEPTH REFERENCE
DATM.M        619.96               : datum        - DATUM ELEVATION             
TDD .M        612                  : tdd          - TOTAL DEPTH DRILLER         
RUN .         ONE                  : Run          - RUN NUMBER                  
ENG .         ADAMS                : Engineer     - RECORDING ENGINEER          
WIT .         BOYAN                : Witness      - WITNESSED BY                
BASE.         EDM                  : Branch       - HOME BASE OF LOGGING UNIT   
MUD .         GEL CHEM             : Mud_type     - MUD TYPE                    
MATR.         SANDSTONE            : Logunit      - NEUTRON MATRIX              
TMAX.C        21                   : BHT          - MAXIMUM RECORDED TEMPERATURE
BHTD.M        614                  : BHTDEP       - MAXIMUM RECORDED TEMPERATURE
RMT .C        13                   : MDTP         - TEMPERATURE OF MUD          
MUDD.KG/M     1100                 : MWT          - MUD DENSITY                 
NEUT.         1                    : NEUTRON      - NEUTRON TYPE                
RESI.         0                    : RESIST       - RESISTIVITY TYPE            
RM  .OHMM     3.7                  : RM           - RESISTIVITY OF MUD          
RMC .OHMM     0                    : RMC          - RESISTIVITY OF MUD CAKE     
RMF .OHMM     0                    : RMF          - RESISTIVITY OF MUD FILTRATE 
SUFT.C        0                    : SUFT         - SURFACE TEMPERATURE         
~A  DEPTH     PHID     PHIN       GR      CAL     RESD
# ...
  526.000    0.117    0.322   76.211  163.203    5.494
  526.250    0.125    0.313   80.120  163.410    5.467
  526.500    0.140    0.325   83.285  163.409    5.431
  526.750    0.151    0.399   86.388  163.306    5.446
  527.000    0.152    0.383   89.677  163.305    5.452
  527.250    0.143    0.360   92.469  163.719    5.457
  527.500    0.145    0.371   98.055  164.029    5.441
  527.750    0.158    0.378  101.468  164.442    5.417
  528.000    0.161    0.369   92.531  166.510    5.412
  528.250    0.158    0.351   83.842  170.337    5.385
  528.500    0.148    0.338   80.553  172.199    5.391
  528.750    0.129    0.315   83.718  170.336    5.426
  529.000    0.133    0.295   87.317  166.509    5.442
  529.250    0.147    0.312   90.668  162.475    5.509
  529.500    0.157    0.336   95.260  159.371    5.556
  529.750    0.146    0.345   87.875  163.922    5.646
  530.000    0.143    0.380   90.543  166.714    5.781
  530.250    0.149    0.367   96.129  167.645    5.897
  530.500    0.138    0.344   89.922  169.093    5.913
  530.750    0.129    0.329   83.592  169.816    5.819
  531.000    0.122    0.355   92.839  169.195    5.727
  531.250    0.137    0.393   89.363  167.023    5.636
  531.500    0.155    0.400   84.212  166.712    5.609
  531.750    0.157    0.359   81.419  167.643    5.605
  532.000    0.153    0.341   80.736  168.573    5.620
  532.250    0.154    0.371   84.770  169.607    5.657
  532.500    0.147    0.386   90.852  170.434    5.706
  532.750    0.134    0.378   94.078  171.055    5.743
  533.000    0.121    0.333   97.554  171.365    5.792
  533.250    0.139    0.288   85.328  171.157    5.819
  533.500    0.156    0.302   77.073  170.226    5.925
  533.750    0.166    0.293   80.672  169.191    6.089
  534.000    0.167    0.293   75.273  166.709    6.270
  534.250    0.160    0.284   67.143  164.329    6.395
  534.500    0.129    0.270   72.356  161.743    6.474
  534.750    0.109    0.260   79.741  161.329    6.445
  535.000    0.142    0.269   85.078  162.467    6.318
  535.250    0.150    0.294   91.470  165.776    6.044
  535.500    0.145    0.320   84.829  169.086    5.848
  535.750    0.145    0.320   85.450  170.740    5.658
  536.000    0.146    0.320   91.779  171.774    5.674
  536.250    0.148    0.334   93.951  171.257    5.723
  536.500    0.147    0.322   87.435  169.601    5.728
  536.750    0.144    0.292   84.269  168.774    5.755
  537.000    0.129    0.293   84.642  167.842    5.860
  537.250    0.133    0.306   88.675  168.152    5.976
  537.500    0.130    0.313   92.275  169.600    6.154
  537.750    0.121    0.326   97.984  171.358    6.361
  538.000    0.115    0.335   97.736  172.185    6.513
  538.250    0.122    0.337   95.005  172.081    6.593
  538.500    0.128    0.323   94.074  171.357    6.649
  538.750    0.139    0.312   88.426  170.633    6.680
  539.000    0.148    0.311   76.634  169.805    6.775
  539.250    0.156    0.303   65.897  168.460    7.137
  539.500    0.130    0.293   61.677  167.218    7.939
  539.750    0.103    0.282   77.316  167.942    9.544
  540.000    0.069    0.269   71.793  169.596   11.046
  540.250    0.036    0.231   53.547  171.148   12.858
  540.500    0.018    0.192   45.168  171.975   15.052
  540.750    0.023    0.171   41.879  172.181   18.059
  541.000    0.015    0.149   43.120  173.008   19.458
  541.250    0.005    0.139   45.354  173.629   19.479
  541.500   -0.002    0.149   48.581  173.421   18.846
  541.750    0.019    0.170   50.504  172.387   18.128
  542.000    0.031    0.184   55.904  169.594   15.931
  542.250    0.029    0.204   60.620  167.731   14.429
  542.500    0.029    0.210   60.806  168.455   13.392
  542.750    0.028    0.202   58.013  170.420   11.971
  543.000    0.019    0.195   53.668  171.351   10.801
  543.250    0.001    0.190   54.723  171.661    9.296
  543.500    0.014    0.189   73.527  170.936    8.046
  543.750    0.074    0.201   81.099  169.591    7.084
  544.000    0.103    0.253   89.849  169.487    6.464
  544.250    0.118    0.302   93.945  170.108    6.362
  544.500    0.126    0.315   90.841  171.659    6.379
  544.750    0.126    0.333   85.442  173.107    6.386
  545.000    0.123    0.346   81.904  174.451    6.356
  545.250    0.117    0.321   77.249  174.657    6.278
  545.500    0.119    0.327   80.911  174.450    6.368
  545.750    0.133    0.345   84.510  173.312    6.472
  546.000    0.139    0.330   87.923  172.381    6.601
  546.250    0.119    0.296   78.366  171.346    6.758
  546.500    0.085    0.275   73.028  170.208    7.092
  546.750    0.105    0.275   80.848  169.483    7.399
  547.000    0.125    0.291   81.965  168.552    7.793
  547.250    0.101    0.315   83.516  167.931    7.830
  547.500    0.085    0.301   86.370  167.827    7.619
  547.750    0.111    0.316   87.301  167.620    7.386
  548.000    0.130    0.328   85.936  167.723    7.199
  548.250    0.133    0.334   89.845  167.930    7.045
  548.500    0.121    0.291   88.852  168.033    7.105
  548.750    0.115    0.278   83.142  167.722    7.275
  549.000    0.066    0.261   73.523  167.515    7.407
  549.250    0.040    0.211   66.882  166.998    7.485
  549.500    0.070    0.265   80.907  166.480    7.478
  549.750    0.126    0.285   86.182  166.066    7.442
  550.000    0.126    0.283   85.313  165.962    7.324
  550.250    0.110    0.274   81.838  165.755    7.167
  550.500    0.106    0.283   90.650  165.444    6.986
  550.750    0.130    0.308   98.469  165.237    6.733
  551.000    0.140    0.330  102.876  165.650    6.442
  551.250    0.143    0.305  106.971  166.581    6.221
  551.500    0.144    0.314  107.033  167.925    6.157
  551.750    0.140    0.296   97.103  172.062    6.209
  552.000    0.125    0.290   90.587  174.441    6.357
  552.250    0.093    0.257   80.719  175.268    6.722
  552.500    0.060    0.222   72.216  175.475    7.119
  552.750    0.053    0.223   84.380  175.681    7.471
  553.000    0.100    0.265   94.868  175.888    7.365
  553.250    0.115    0.281   84.318  175.784    6.773
  553.500    0.105    0.285   90.585  175.680    6.134
  553.750    0.111    0.285   93.874  175.059    5.309
  554.000    0.127    0.285   84.689  174.335    4.569
  554.250    0.138    0.435   89.219  173.817    3.809
  554.500    0.162    0.495   99.956  173.196    3.193
  554.750    0.196    0.534  106.162  173.196    2.723
  555.000    0.191    0.364  108.147  173.092    2.475
  555.250    0.193    0.366  110.505  172.885    2.368
  555.500    0.195    0.301  111.808  172.678    2.406
  555.750    0.189    0.340  108.891  172.884    2.592
  556.000    0.164    0.395  104.981  173.194    2.922
  556.250    0.135    0.337   76.123  173.194    3.363
  556.500    0.101    0.303   71.965  173.193    3.806
  556.750    0.018    0.294   93.438  173.193    4.583
  557.000    0.062    0.265   98.650  172.779    5.841
  557.250    0.107    0.260   94.927  172.261    5.958
  557.500    0.112    0.293   95.112  171.744    5.336
  557.750    0.107    0.283   99.270  172.054    5.046
  558.000    0.106    0.308  102.994  173.088    5.375
  558.250    0.114    0.331   96.415  174.122    6.246
  558.500    0.112    0.336  100.759  174.742    7.381
  558.750    0.041    0.233   78.479  175.052    8.773
  559.000   -0.009    0.155   66.501  175.052    9.833
  559.250   -0.022    0.130   63.274  175.465    9.807
  559.500   -0.035    0.217   68.487  175.672    9.170
  559.750    0.048    0.250   75.748  175.878    7.730
  560.000    0.098    0.275   86.360  175.878    6.066
  560.250    0.122    0.304   92.193  175.464    5.727
  560.500    0.140    0.273   84.622  174.946    5.819
  560.750    0.120    0.267   77.919  174.222    6.003
  561.000    0.102    0.275   80.215  173.497    6.101
  561.250    0.082    0.262   85.304  173.083    6.083
  561.500    0.101    0.289   91.013  172.669    6.044
  561.750    0.094    0.307   80.152  172.255    5.959
  562.000    0.088    0.329   91.509  171.634    5.842
  562.250    0.090    0.347  110.748  171.427    5.738
