~VERSION INFORMATION
 VERS.                 2.0:   CWLS LOG ASCII STANDARD -VERSION 2.0
 WRAP.                  NO:   ONE LINE PER DEPTH STEP
~WELL INFORMATION BLOCK
#MNEM.UNIT           DATA                    DESCRIPTION OF MNEMONIC
#---------    -------------------            -------------------------------
# Generated from Intellog Unique Number	CS_67_68/WELL/843
WELL.         MERLAND EXPLORATIONS           : Well_name    - WELL
LOC .         00/05-27-068-11W4/0            : Location     - LOCATION
UWI .         00/05-27-068-11W4/0            : Uwi          - UNIQUE WELL ID
ENTR.         SP                             : Entered      - ENTERED BY
SRVC.         SCHLUMBERGER                   : Scn          - SERVICE COMPANY
STRT.M        300                            : top_depth    - START DEPTH
STOP.M        505                            : bot_depth    - STOP DEPTH
STEP.M        0.25                           : increment    - STEP LENGTH
 NULL. -999.2500:NULL Value
~CURVE INFORMATION BLOCK
#MNEM UNIT       ERCB CURVE CODE    CURVE DESCRIPTION
#-----------   ------------------   ----------------------------------
DEPT.M        00 001 00 00         : DEPTH        - DEPTH
ILD .OHMM     00 120 00 00         : RESD         - DEEP RESISTIVITY (DIL)
DPHI.V/V      00 890 00 00         : PHID         - DENSITY POROSITY (LIMESTONE)
NPHI.V/V      00 330 00 00         : PHIN         - NEUTRON POROSITY (LIMESTONE)
GR  .API      00 310 00 00         : GR           - GAMMA RAY
~PARAMETER INFORMATION
#MNEM.UNIT           DATA             DESCRIPTION OF MNEMONIC
#---------         -----------     ------------------------------
GL  .M        615.2                : gl           - GROUND LEVEL ELEVATION
EREF.M        618                  : kb           - ELEVATION OF DEPTH REFERENCE
DATM.M        615.2                : datum        - DATUM ELEVATION
TDD .M        515                  : tdd          - TOTAL DEPTH DRILLER
RUN .         ONE                  : Run          - RUN NUMBER
ENG .         BILL                 : Engineer     - RECORDING ENGINEER
WIT .         JIM                  : Witness      - WITNESSED BY
MUD .         GEL                  : Mud_type     - MUD TYPE
MATR.         LIMESTONE            : Logunit      - NEUTRON MATRIX
TMAX.C        22                   : BHT          - MAXIMUM RECORDED TEMPERATURE
BHTD.M        515                  : BHTDEP       - MAXIMUM RECORDED TEMPERATURE
MATR.         1                    : LOGUNIT      - NEUTRON MATRIX
RMT .C        25                   : MDTP         - TEMPERATURE OF MUD
NEUT.         1                    : NEUTRON      - NEUTRON TYPE
RESI.         0                    : RESIST       - RESISTIVITY TYPE
RMC .OHMM     0.25                 : RMC          - RESISTIVITY OF MUD CAKE
RMF .OHMM     0.25                 : RMF          - RESISTIVITY OF MUD FILTRATE
SUFT.C        15                   : SUFT         - SURFACE TEMPERATURE
~A  DEPTH     RESD     PHID     PHIN       GR
# ...
  430.500    3.825    0.222    0.434   99.025
  430.750    3.519    0.229    0.429   98.180
  431.000    3.115    0.232    0.441  102.117
  431.250    2.681    0.247    0.475  104.541
  431.500    2.481    0.263    0.509  106.057
  431.750    2.343    0.258    0.539  104.668
  432.000    2.315    0.260    0.523  102.128
  432.250    2.175    0.240    0.507  103.524
  432.500    2.073    0.225    0.512  106.311
  432.750    1.947    0.224    0.524  108.855
  433.000    1.815    0.224    0.532  110.492
  433.250    1.744    0.227    0.534  109.890
  433.500    1.697    0.247    0.528  106.684
  433.750    1.689    0.256    0.549  102.691
  434.000    1.755    0.240    0.549  100.455
  434.250    1.829    0.227    0.520  101.728
  434.500    1.929    0.216    0.497  101.247
  434.750    2.053    0.212    0.487  100.644
  435.000    2.185    0.213    0.486  104.158
  435.250    2.338    0.218    0.488  105.613
  435.500    2.564    0.243    0.495  101.984
  435.750    2.816    0.256    0.481   99.807
  436.000    3.205    0.274    0.455   97.631
  436.250    3.634    0.291    0.423   96.241
  436.500    4.075    0.216    0.402   95.033
  436.750    4.511    0.176    0.388   89.951
  437.000    4.854    0.143    0.372   83.174
  437.250    5.024    0.099    0.357   77.365
  437.500    4.944    0.075    0.377   80.394
  437.750    4.786    0.145    0.403   86.390
  438.000    4.631    0.168    0.419   89.419
  438.250    4.449    0.178    0.422   88.999
  438.500    4.266    0.191    0.428   89.243
  438.750    4.113    0.204    0.437   89.003
  439.000    4.055    0.211    0.424   88.885
  439.250    4.065    0.202    0.413   88.464
  439.500    4.583    0.183    0.404   87.256
  439.750    5.197    0.139    0.405   84.232
  440.000    6.505    0.075    0.408   76.002
  440.250    8.141    0.037    0.372   68.741
  440.500    9.762    0.017    0.231   60.874
  440.750   10.644    0.025    0.219   59.121
  441.000    8.841    0.095    0.284   67.659
  441.250    6.530    0.133    0.346   75.955
  441.500    5.354    0.151    0.382   81.466
  441.750    4.800    0.162    0.399   85.464
  442.000    4.543    0.177    0.409   89.886
  442.250    4.381    0.187    0.414   91.341
  442.500    4.327    0.164    0.418   89.286
  442.750    4.298    0.149    0.422   89.046
  443.000    4.277    0.164    0.402   89.170
  443.250    4.257    0.172    0.394   91.291
  443.500    4.205    0.187    0.406   93.594
  443.750    4.154    0.198    0.416   94.081
  444.000    4.095    0.203    0.414   94.266
  444.250    4.039    0.203    0.407   94.268
  444.500    4.041    0.193    0.400   95.118
  444.750    4.114    0.180    0.413   98.813
  445.000    4.209    0.173    0.424  100.995
  445.250    4.365    0.205    0.413  100.453
  445.500    4.450    0.224    0.409   98.216
  445.750    4.437    0.228    0.415   93.557
  446.000    4.326    0.209    0.418   90.170
  446.250    4.186    0.180    0.406   96.287
  446.500    4.198    0.161    0.399  103.553
  446.750    4.410    0.177    0.406  108.701
  447.000    4.659    0.194    0.413  112.517
  447.250    4.930    0.178    0.408  105.256
  447.500    5.178    0.151    0.383   92.123
  447.750    5.481    0.113    0.336   85.769
  448.000    5.746    0.066    0.296   81.777
  448.250    5.980    0.092    0.293   80.509
  448.500    5.422    0.118    0.314   83.901
  448.750    4.614    0.151    0.336   89.412
  449.000    4.215    0.187    0.368   95.166
  449.250    3.923    0.222    0.391   99.043
  449.500    3.839    0.204    0.404  100.498
  449.750    3.806    0.205    0.410   95.960
  450.000    3.852    0.216    0.402   93.058
  450.250    3.905    0.228    0.402   91.062
  450.500    3.952    0.240    0.387   88.765
  450.750    4.075    0.213    0.369   86.225
  451.000    4.063    0.189    0.360   83.686
  451.250    3.767    0.156    0.372   86.291
  451.500    3.242    0.176    0.406   89.078
  451.750    2.430    0.199    0.440   89.565
  452.000    1.927    0.214    0.467   93.442
  452.250    1.854    0.225    0.481   96.047
  452.500    1.891    0.238    0.477   97.806
  452.750    1.914    0.244    0.464   96.416
  453.000    1.947    0.249    0.460   94.300
  453.250    1.986    0.237    0.463   93.334
  453.500    2.013    0.219    0.468   97.029
  453.750    2.072    0.206    0.469   98.606
  454.000    2.165    0.206    0.465   97.579
  454.250    2.329    0.211    0.468   91.892
  454.500    2.747    0.153    0.468   81.241
  454.750    4.013    0.089    0.394   71.497
  455.000    6.388    0.023    0.351   60.422
  455.250    8.055    0.016    0.308   57.338
  455.500    9.048    0.043    0.271   65.028
  455.750    8.547    0.082    0.251   72.174
  456.000    7.691    0.111    0.230   79.078
  456.250    5.975    0.098    0.272   84.104
  456.500    5.219    0.095    0.307   89.434
  456.750    4.516    0.150    0.337   93.492
  457.000    3.916    0.174    0.357   98.156
  457.250    3.433    0.167    0.372  101.246
  457.500    3.106    0.171    0.381  103.912
  457.750    2.838    0.200    0.389  106.578
  458.000    2.767    0.210    0.419  106.218
  458.250    2.956    0.208    0.430  103.618
  458.500    3.145    0.200    0.417  101.986
  458.750    3.317    0.182    0.405  100.596
  459.000    3.407    0.170    0.398  100.356
  459.250    3.141    0.158    0.391  105.202
  459.500    2.869    0.174    0.390  110.047
  459.750    2.681    0.194    0.415  113.803
  460.000    2.570    0.220    0.425  113.684
  460.250    2.437    0.222    0.442  111.871
  460.500    2.259    0.215    0.461  114.114
  460.750    2.118    0.226    0.467  116.054
  461.000    1.968    0.232    0.468  116.238
  461.250    1.969    0.219    0.479  114.364
  461.500    2.034    0.210    0.488  110.008
  461.750    2.153    0.197    0.496  104.684
  462.000    2.270    0.191    0.495  101.236
  462.250    2.384    0.184    0.462  104.326
  462.500    2.454    0.190    0.447  106.810
  462.750    2.438    0.202    0.457  106.934
  463.000    2.403    0.193    0.464  104.697
  463.250    2.374    0.183    0.457  102.702
  463.500    2.712    0.182    0.420   93.261
  463.750    3.497    0.192    0.373   82.670
  464.000    4.369    0.188    0.357   76.983
  464.250    5.190    0.161    0.355   75.533
  464.500    6.085    0.136    0.362   79.773
  464.750    7.162    0.097    0.335   75.357
  465.000    8.685    0.088    0.313   69.003
  465.250    9.720    0.136    0.314   64.829
  465.500   10.248    0.167    0.321   63.500
  465.750   10.508    0.161    0.321   63.502
  466.000   10.479    0.148    0.323   62.416
  466.250   10.217    0.136    0.325   59.694
  466.500    9.982    0.147    0.326   56.186
  466.750    9.875    0.180    0.328   58.792
  467.000    9.434    0.209    0.332   62.002
  467.250    8.586    0.227    0.345   63.882
  467.500    7.960    0.230    0.358   66.366
  467.750    7.203    0.212    0.353   72.241
  468.000    6.199    0.193    0.348   77.207
  468.250    5.486    0.171    0.345   82.173
  468.500    4.694    0.150    0.360   88.472
  468.750    3.928    0.141    0.405   93.438
  469.000    3.515    0.167    0.438   86.963
  469.250    4.585    0.203    0.462   72.438
  469.500    5.600    0.224    0.413   61.484
  469.750    7.824    0.240    0.387   53.860
  470.000   10.070    0.253    0.370   47.083
  470.250   11.919    0.263    0.353   49.749
  470.500   13.019    0.272    0.341   54.777
  470.750   12.742    0.273    0.334   56.958
  471.000   12.013    0.268    0.334   59.745
  471.250   11.181    0.273    0.341   53.876
  471.500   10.273    0.283    0.348   44.798
  471.750    9.829    0.282    0.357   39.958
  472.000    9.012    0.272    0.360   40.506
  472.250    8.201    0.266    0.365   43.717
  472.500    7.421    0.280    0.368   44.688
  472.750    6.364    0.294    0.367   44.025
  473.000    5.695    0.286    0.357   48.325
  473.250    5.162    0.286    0.353   53.231
  473.500    4.518    0.295    0.350   56.079
  473.750    4.104    0.280    0.354   54.387
