~VERSION INFORMATION
 VERS.                 2.0:   CWLS LOG ASCII STANDARD -VERSION 2.0
 WRAP.                  NO:   ONE LINE PER DEPTH STEP
~WELL INFORMATION BLOCK
#MNEM.UNIT           DATA                    DESCRIPTION OF MNEMONIC
#---------    -------------------            -------------------------------
# Generated from Intellog Unique Number	CS_69_70/WELL/804
WELL.         HUSKEY OIL OPERATIONS          : Well_name    - WELL
LOC .         00/06-22-069-05W4/0            : Location     - LOCATION
UWI .         00/06-22-069-05W4/0            : Uwi          - UNIQUE WELL ID
ENTR.         SP                             : Entered      - ENTERED BY
SRVC.         SCHLUMBERGER                   : Scn          - SERVICE COMPANY
STRT.M        300                            : top_depth    - START DEPTH
STOP.M        580                            : bot_depth    - STOP DEPTH
STEP.M        0.25                           : increment    - STEP LENGTH
 NULL. -999.2500:NULL Value
~CURVE INFORMATION BLOCK
#MNEM UNIT       ERCB CURVE CODE    CURVE DESCRIPTION
#-----------   ------------------   ----------------------------------
DEPT.M        00 001 00 00         : DEPTH        - DEPTH
ILD .OHMM     00 120 00 00         : RESD         - DEEP RESISTIVITY (DIL)
DPHI.V/V      00 890 00 00         : PHID         - DENSITY POROSITY (LIMESTONE)
NPHI.V/V      00 330 00 00         : PHIN         - NEUTRON POROSITY (LIMESTONE)
GR  .API      00 310 00 00         : GR           - GAMMA RAY
~PARAMETER INFORMATION
#MNEM.UNIT           DATA             DESCRIPTION OF MNEMONIC
#---------         -----------     ------------------------------
GL  .M        670.1                : gl           - GROUND LEVEL ELEVATION
EREF.M        673.8                : kb           - ELEVATION OF DEPTH REFERENCE
DATM.M        670.1                : datum        - DATUM ELEVATION
TDD .M        585                  : tdd          - TOTAL DEPTH DRILLER
RUN .         ONE                  : Run          - RUN NUMBER
ENG .         BILL                 : Engineer     - RECORDING ENGINEER
WIT .         JIM                  : Witness      - WITNESSED BY
MUD .         GEL                  : Mud_type     - MUD TYPE
MATR.         LIMESTONE            : Logunit      - NEUTRON MATRIX
TMAX.C        21                   : BHT          - MAXIMUM RECORDED TEMPERATURE
BHTD.M        585                  : BHTDEP       - MAXIMUM RECORDED TEMPERATURE
MATR.         1                    : LOGUNIT      - NEUTRON MATRIX
RMT .C        25                   : MDTP         - TEMPERATURE OF MUD
NEUT.         1                    : NEUTRON      - NEUTRON TYPE
RESI.         0                    : RESIST       - RESISTIVITY TYPE
RMC .OHMM     0.25                 : RMC          - RESISTIVITY OF MUD CAKE
RMF .OHMM     0.25                 : RMF          - RESISTIVITY OF MUD FILTRATE
SUFT.C        15                   : SUFT         - SURFACE TEMPERATURE
~A  DEPTH     RESD     PHID     PHIN       GR
# ...
  343.500    7.154    0.244    0.381   83.787
  343.750    7.023    0.263    0.393   82.339
  344.000    6.920    0.278    0.403   85.306
  344.250    6.881    0.264    0.409   87.124
  344.500    6.806    0.258    0.418   86.220
  344.750    6.743    0.263    0.437   84.106
  345.000    6.694    0.263    0.428   83.323
  345.250    6.683    0.259    0.413   85.322
  345.500    6.836    0.275    0.441   83.148
  345.750    7.343    0.290    0.458   77.647
  346.000    7.798    0.299    0.445   73.658
  346.250    8.439    0.285    0.434   71.181
  346.500    9.047    0.276    0.427   69.551
  346.750    9.342    0.274    0.432   71.793
  347.000    9.274    0.290    0.422   77.542
  347.250    8.884    0.304    0.420   82.082
  347.500    8.182    0.298    0.439   84.686
  347.750    7.464    0.309    0.452   86.685
  348.000    6.991    0.273    0.456   88.381
  348.250    6.585    0.256    0.481   89.957
  348.500    6.415    0.261    0.496   91.110
  348.750    6.357    0.280    0.486   92.081
  349.000    6.370    0.282    0.473   91.660
  349.250    6.419    0.268    0.492   93.538
  349.500    6.493    0.261    0.498   90.820
  349.750    6.494    0.241    0.482   94.210
  350.000    6.483    0.219    0.475   92.036
  350.250    6.496    0.227    0.466   92.705
  350.500    6.461    0.248    0.468   95.491
  350.750    6.402    0.255    0.478   96.945
  351.000    6.355    0.260    0.482   97.795
  351.250    6.321    0.277    0.475   97.194
  351.500    6.418    0.284    0.460   97.378
  351.750    6.528    0.279    0.450   96.293
  352.000    6.753    0.278    0.439   92.606
  352.250    7.013    0.280    0.430   84.142
  352.500    7.228    0.284    0.426   84.327
  352.750    7.449    0.285    0.425   88.866
  353.000    7.809    0.283    0.419   91.409
  353.250    7.973    0.280    0.416   94.135
  353.500    8.064    0.278    0.425   95.227
  353.750    8.081    0.274    0.431   95.472
  354.000    8.022    0.269    0.435   92.995
  354.250    7.934    0.261    0.433   90.276
  354.500    7.862    0.262    0.424   91.308
  354.750    7.804    0.260    0.414   97.420
  355.000    7.689    0.243    0.416  101.778
  355.250    7.604    0.228    0.431  103.112
  355.500    7.478    0.243    0.440   97.370
  355.750    7.354    0.244    0.441   92.474
  356.000    7.273    0.238    0.445   86.005
  356.250    7.248    0.264    0.448   87.459
  356.500    7.262    0.285    0.459   90.850
  356.750    7.277    0.293    0.474   87.829
  357.000    7.347    0.290    0.465   81.300
  357.250    7.404    0.288    0.453   74.650
  357.500    7.475    0.298    0.441   68.484
  357.750    7.618    0.317    0.432   62.317
  358.000    7.852    0.324    0.424   56.937
  358.250    8.062    0.326    0.428   58.453
  358.500    8.278    0.337    0.436   54.222
  358.750    8.500    0.353    0.437   52.955
  359.000    8.598    0.347    0.427   54.168
  359.250    8.615    0.346    0.424   52.115
  359.500    8.457    0.353    0.422   50.666
  359.750    8.010    0.354    0.417   56.295
  360.000    7.775    0.349    0.422   60.653
  360.250    7.704    0.350    0.427   65.011
  360.500    7.705    0.353    0.430   66.708
  360.750    7.735    0.351    0.430   63.022
  361.000    7.781    0.345    0.425   62.178
  361.250    7.841    0.344    0.415   64.964
  361.500    7.857    0.349    0.429   67.084
  361.750    7.858    0.350    0.439   68.418
  362.000    7.874    0.344    0.443   68.360
  362.250    7.861    0.345    0.443   67.093
  362.500    7.863    0.355    0.439   66.128
  362.750    7.589    0.363    0.438   64.922
  363.000    7.604    0.352    0.440   63.716
  363.250    7.663    0.347    0.448   62.630
  363.500    7.708    0.347    0.457   63.299
  363.750    7.665    0.329    0.454   66.387
  364.000    7.710    0.311    0.442   70.684
  364.250    7.770    0.301    0.440   73.591
  364.500    7.815    0.296    0.437   74.501
  364.750    7.906    0.308    0.427   73.657
  365.000    7.936    0.321    0.432   73.903
  365.250    8.014    0.325    0.449   74.511
  365.500    8.029    0.319    0.438   74.333
  365.750    8.046    0.318    0.435   73.912
  366.000    8.108    0.323    0.432   77.787
  366.250    8.217    0.313    0.432   82.085
  366.500    8.264    0.299    0.428   84.084
  366.750    8.406    0.303    0.441   85.357
  367.000    8.665    0.318    0.454   86.449
  367.250    8.698    0.327    0.460   84.516
  367.500    8.782    0.313    0.460   72.725
  367.750    8.816    0.320    0.458   62.567
  368.000    8.885    0.338    0.450   56.038
  368.250    8.903    0.349    0.444   55.739
  368.500    8.921    0.351    0.447   56.408
  368.750    8.923    0.350    0.434   56.834
  369.000    8.925    0.349    0.421   56.656
  369.250    8.859    0.345    0.412   57.203
  369.500    8.811    0.339    0.425   59.384
  369.750    8.747    0.342    0.456   62.048
  370.000    8.523    0.345    0.479   64.653
  370.250    8.459    0.346    0.501   66.107
  370.500    8.164    0.338    0.504   67.502
  370.750    7.807    0.327    0.513   68.110
  371.000    7.506    0.310    0.504   68.355
  371.250    7.258    0.296    0.483   66.846
  371.500    7.287    0.297    0.458   58.261
  371.750    7.371    0.311    0.428   51.187
  372.000    7.639    0.322    0.412   46.170
  372.250    7.830    0.331    0.398   45.327
  372.500    8.176    0.339    0.395   46.116
  372.750    8.490    0.335    0.400   45.031
  373.000    8.735    0.333    0.407   44.188
  373.250    8.818    0.338    0.405   44.069
  373.500    8.886    0.331    0.397   45.827
  373.750    8.955    0.323    0.391   47.765
  374.000    8.973    0.318    0.391   49.402
  374.250    9.060    0.332    0.389   48.135
  374.500    9.113    0.337    0.386   48.440
  374.750    9.148    0.331    0.380   49.230
  375.000    9.220    0.328    0.386   49.414
  375.250    9.238    0.327    0.396   48.329
  375.500    9.327    0.327    0.404   47.062
  375.750    9.381    0.332    0.399   48.033
  376.000    9.525    0.338    0.395   48.520
  376.250    9.562    0.330    0.395   48.160
  376.500    9.582    0.324    0.398   47.438
  376.750    9.620    0.325    0.391   47.683
  377.000    9.604    0.327    0.384   50.711
  377.250    9.605    0.331    0.391   53.315
  377.500    9.625    0.334    0.404   55.193
  377.750    9.626    0.337    0.412   56.405
  378.000    9.628    0.332    0.406   55.200
  378.250    9.452    0.332    0.401   53.812
  378.500    9.365    0.338    0.397   53.089
  378.750    9.455    0.347    0.403   52.850
  379.000    9.474    0.340    0.405   53.217
  379.250    9.529    0.332    0.398   53.764
  379.500    9.549    0.328    0.391   54.311
  379.750    9.659    0.326    0.387   54.859
  380.000    9.715    0.329    0.385   54.439
  380.250    9.808    0.334    0.385   53.776
  380.500   10.014    0.337    0.399   52.630
  380.750   10.776    0.336    0.394   51.061
  381.000   12.547    0.334    0.390   50.157
  381.250   15.630    0.325    0.402   51.612
  381.500   21.465    0.185    0.405   52.281
  381.750   35.696   -0.011    0.178   48.836
  382.000   44.050   -0.020    0.120   42.912
  382.250   64.843   -0.023    0.101   38.923
  382.500   74.513   -0.017    0.095   38.382
  382.750   48.499    0.019    0.174   40.925
  383.000   26.613    0.074    0.247   45.405
  383.250   18.954    0.267    0.333   48.069
  383.500   13.499    0.322    0.383   47.770
  383.750   10.780    0.345    0.410   46.866
  384.000    9.473    0.342    0.421   47.534
  384.250    8.922    0.331    0.412   47.901
  384.500    8.563    0.329    0.407   45.303
  384.750    8.281    0.346    0.404   44.157
  385.000    8.189    0.358    0.409   46.580
  385.250    8.069    0.356    0.418   47.551
  385.500    8.010    0.354    0.424   45.498
  385.750    7.937    0.356    0.427   43.504
  386.000    7.908    0.363    0.423   41.996
  386.250    7.880    0.364    0.419   41.818
  386.500    7.852    0.349    0.413   42.183
  386.750    7.853    0.335    0.414   42.852
