~VERSION INFORMATION
 VERS.                 2.0:   CWLS LOG ASCII STANDARD -VERSION 2.0
 WRAP.                  NO:   ONE LINE PER DEPTH STEP
~WELL INFORMATION BLOCK
#MNEM.UNIT           DATA                    DESCRIPTION OF MNEMONIC
#---------    -------------------            -------------------------------
# Generated from Intellog Unique Number	CS_73_76/WELL/1034
WELL.         ALLIED ROXANNA MINERALS LT     : Well_name    - WELL
LOC .         00/06-08-075-16W4/0            : Location     - LOCATION
UWI .         00/06-08-075-16W4/0            : Uwi          - UNIQUE WELL ID
ENTR.         SP                             : Entered      - ENTERED BY
SRVC.         SCHLUMBERGER                   : Scn          - SERVICE COMPANY
STRT.M        323.088                        : top_depth    - START DEPTH
STOP.M        542.338                        : bot_depth    - STOP DEPTH
STEP.M        0.25                           : increment    - STEP LENGTH
 NULL. -999.2500:NULL Value
~CURVE INFORMATION BLOCK
#MNEM UNIT       ERCB CURVE CODE    CURVE DESCRIPTION
#-----------   ------------------   ----------------------------------
DEPT.M        00 001 00 00         : DEPTH        - DEPTH
GR  .API      00 310 00 00         : GR           - GAMMA RAY
DPHI.V/V      00 890 00 00         : PHID         - DENSITY POROSITY (SANDSTONE)
NPHI.V/V      00 330 00 00         : PHIN         - NEUTRON POROSITY (SANDSTONE)
ILD .OHMM     00 120 00 00         : RESD         - DEEP RESISTIVITY (DIL)
~PARAMETER INFORMATION
#MNEM.UNIT           DATA             DESCRIPTION OF MNEMONIC
#---------         -----------     ------------------------------
GL  .M        675.437              : gl           - GROUND LEVEL ELEVATION
EREF.M        678.485              : kb           - ELEVATION OF DEPTH REFERENCE
DATM.M        675.437              : datum        - DATUM ELEVATION
TDD .M        554.736              : tdd          - TOTAL DEPTH DRILLER
RUN .         ONE                  : Run          - RUN NUMBER
ENG .         BILL                 : Engineer     - RECORDING ENGINEER
WIT .         JIM                  : Witness      - WITNESSED BY
MUD .         GEL                  : Mud_type     - MUD TYPE
MATR.         SANDSTONE            : Logunit      - NEUTRON MATRIX
TMAX.C        22.7778              : BHT          - MAXIMUM RECORDED TEMPERATURE
BHTD.M        554.736              : BHTDEP       - MAXIMUM RECORDED TEMPERATURE
MATR.         1                    : LOGUNIT      - NEUTRON MATRIX
RMT .C        25                   : MDTP         - TEMPERATURE OF MUD
NEUT.         1                    : NEUTRON      - NEUTRON TYPE
RESI.         0                    : RESIST       - RESISTIVITY TYPE
RMC .OHMM     0.25                 : RMC          - RESISTIVITY OF MUD CAKE
RMF .OHMM     0.25                 : RMF          - RESISTIVITY OF MUD FILTRATE
SUFT.C        15                   : SUFT         - SURFACE TEMPERATURE
~A  DEPTH       GR     PHID     PHIN     RESD
  323.088  101.590    0.215    0.583    2.619
  323.338  102.209    0.203    0.644    2.821
  323.588  102.266    0.206    0.627    3.044
  323.838  103.806    0.201    0.587    3.164
  324.088  105.985    0.189    0.565    3.291
  324.338  109.128    0.177    0.580    3.409
  324.588  112.415    0.180    0.598    3.475
  324.838  111.550    0.193    0.590    3.489
  325.088  104.179    0.206    0.568    3.398
  325.338   99.903    0.205    0.549    3.401
  325.588   94.689    0.194    0.532    3.367
  325.838   91.931    0.187    0.593    3.316
  326.088   98.073    0.190    0.621    3.099
  326.338  103.318    0.195    0.637    2.974
  326.588  108.556    0.201    0.608    2.843
  326.838  107.465    0.211    0.613    2.763
  327.088  108.123    0.220    0.624    2.667
  327.338  109.066    0.217    0.604    2.752
  327.588  107.850    0.223    0.588    2.793
  327.838  102.123    0.238    0.571    2.940
  328.088   99.446    0.235    0.574    3.071
  328.338   97.647    0.229    0.587    3.167
  328.588  100.254    0.226    0.624    3.068
  328.838  101.930    0.222    0.622    2.954
  329.088   98.334    0.238    0.613    2.804
  329.338  100.688    0.244    0.641    2.668
  329.588  101.484    0.261    0.649    2.666
  329.838   91.648    0.295    0.565    2.801
  330.088   85.256    0.323    0.501    3.274
  330.338   82.481    0.366    0.467    3.908
  330.588   76.429    0.396    0.484    4.747
  330.838   70.835    0.448    0.513    5.726
  331.088   62.036    0.488    0.566    6.767
  331.338   53.250    0.530    0.616    7.997
  331.588   46.908    0.555    0.662    9.167
  331.838   42.246    0.516    0.706   10.020
  332.088   53.042    0.395    0.746   10.240
  332.338   60.850    0.357    0.747    8.635
  332.588   70.601    0.313    0.690    7.538
  332.838   80.046    0.277    0.576    6.556
  333.088   85.838    0.271    0.542    5.931
  333.338   68.423    0.292    0.520    5.917
  333.588   55.776    0.303    0.501    6.349
  333.838   48.952    0.312    0.484    6.957
  334.088   48.355    0.315    0.474    7.385
  334.338   47.901    0.314    0.460    7.633
  334.588   46.562    0.315    0.441    7.731
  334.838   45.245    0.317    0.432    7.722
  335.088   46.956    0.308    0.432    7.721
  335.338   50.374    0.308    0.437    7.724
  335.588   54.379    0.311    0.462    7.637
  335.838   57.984    0.319    0.475    7.563
  336.088   58.845    0.315    0.490    7.469
  336.338   57.263    0.309    0.501    7.477
  336.588   59.487    0.302    0.498    7.474
  336.838   67.139    0.307    0.476    7.460
  337.088   73.962    0.310    0.478    7.392
  337.338   78.891    0.296    0.473    7.393
  337.588   85.304    0.281    0.453    7.392
  337.838   92.648    0.268    0.449    7.385
  338.088   99.621    0.263    0.465    7.497
  338.338   96.918    0.267    0.496    7.714
  338.588   91.915    0.279    0.500    7.830
  338.838   89.610    0.287    0.484    8.056
  339.088   91.764    0.284    0.487    8.177
  339.338   95.416    0.275    0.495    8.304
  339.588   96.366    0.259    0.495    8.420
  339.838   97.513    0.247    0.472    8.414
  340.088  100.053    0.239    0.483    8.457
  340.338   94.881    0.240    0.468    8.497
  340.588   92.165    0.244    0.469    8.641
  340.838   88.945    0.251    0.455    8.681
  341.088   83.485    0.263    0.437    8.721
  341.338   76.844    0.255    0.406    8.795
  341.588   65.514    0.257    0.388    8.722
  341.838   53.827    0.269    0.398    8.558
  342.088   41.615    0.273    0.407    8.231
  342.338   43.238    0.262    0.391    8.019
  342.588   48.957    0.252    0.390    7.768
  342.838   54.245    0.243    0.429    7.629
  343.088   59.478    0.261    0.459    7.602
  343.338   61.922    0.272    0.486    7.674
  343.588   59.173    0.267    0.445    7.675
  343.838   63.497    0.254    0.402    7.664
  344.088   74.195    0.232    0.420    7.399
  344.338   80.359    0.192    0.438    7.025
  344.588   90.158    0.154    0.474    6.546
  344.838   99.382    0.114    0.513    6.060
  345.088  104.070    0.089    0.544    5.477
  345.338  108.786    0.120    0.551    4.898
  345.588  114.439    0.146    0.557    4.431
  345.838  115.885    0.161    0.577    4.074
  346.088  119.387    0.158    0.597    3.796
  346.338  120.428    0.167    0.636    3.616
  346.588  121.002    0.183    0.657    3.451
  346.838  123.574    0.201    0.676    3.244
  347.088  123.773    0.206    0.594    3.098
  347.338  122.459    0.195    0.605    3.055
  347.588  124.547    0.185    0.616    2.966
  347.838  126.206    0.179    0.594    3.036
  348.088  124.095    0.174    0.592    2.978
  348.338  119.509    0.177    0.606    2.985
  348.588  118.011    0.176    0.619    2.891
  348.838  122.897    0.206    0.602    2.891
  349.088  126.318    0.229    0.560    3.319
  349.338  122.402    0.237    0.518    3.825
  349.588  116.700    0.241    0.472    4.703
  349.838  112.090    0.244    0.459    5.839
  350.088  109.235    0.227    0.463    6.858
  350.338  112.447    0.211    0.471    7.369
  350.588  114.423    0.209    0.486    7.551
  350.838  116.363    0.210    0.481    7.401
  351.088  116.726    0.217    0.465    7.072
  351.338  111.315    0.224    0.466    6.777
  351.588  106.091    0.221    0.466    6.374
  351.838  103.559    0.218    0.467    6.148
  352.088   99.096    0.217    0.493    5.866
  352.338   98.886    0.214    0.512    5.875
  352.588   98.912    0.227    0.484    6.491
  352.838   97.053    0.236    0.466    6.920
  353.088   91.152    0.249    0.478    7.440
  353.338   82.925    0.260    0.504    7.923
  353.588   78.731    0.268    0.509    8.201
  353.838   82.931    0.269    0.518    8.386
  354.088   87.875    0.262    0.529    8.456
  354.338   89.923    0.251    0.524    8.176
  354.588   96.476    0.243    0.446    7.601
  354.838  100.083    0.229    0.446    6.985
  355.088  103.444    0.227    0.466    6.528
  355.338  107.640    0.230    0.465    6.142
  355.588  106.660    0.241    0.459    5.929
  355.838  112.679    0.236    0.464    5.809
  356.088  116.025    0.234    0.475    5.708
  356.338  118.250    0.241    0.479    5.822
  356.588  112.214    0.239    0.491    6.013
  356.838   99.824    0.242    0.513    6.427
  357.088   76.297    0.260    0.532    6.769
  357.338   70.717    0.272    0.521    7.449
  357.588   68.765    0.271    0.494    7.909
  357.838   71.129    0.287    0.479    8.491
  358.088   74.740    0.298    0.480    8.889
  358.338   68.347    0.310    0.515    9.038
  358.588   62.394    0.326    0.506    9.115
  358.838   59.089    0.347    0.492    9.117
  359.088   56.560    0.342    0.495    9.123
  359.338   56.726    0.332    0.515    8.975
  359.588   57.385    0.323    0.517    8.753
  359.838   61.200    0.317    0.503    8.632
  360.088   66.298    0.322    0.475    8.552
  360.338   68.666    0.331    0.465    8.566
  360.588   62.886    0.328    0.485    8.631
  360.838   58.383    0.317    0.512    8.498
  361.088   59.683    0.309    0.530    8.391
  361.338   63.120    0.307    0.536    8.314
  361.588   64.224    0.306    0.505    8.135
  361.838   60.648    0.299    0.469    7.845
  362.088   61.110    0.292    0.462    7.248
  362.338   65.126    0.281    0.478    6.397
  362.588   71.954    0.278    0.506    5.461
  362.838   76.365    0.276    0.513    5.030
  363.088   75.082    0.279    0.523    4.829
  363.338   68.608    0.291    0.536    5.070
  363.588   69.317    0.291    0.496    5.417
  363.838   75.808    0.283    0.461    5.603
  364.088   83.424    0.264    0.477    5.920
  364.338   90.466    0.249    0.489    6.008
  364.588   94.017    0.242    0.481    5.900
  364.838   94.828    0.240    0.511    6.062
  365.088   89.632    0.249    0.529    6.274
  365.338   85.461    0.254    0.502    6.497
  365.588   82.233    0.256    0.478    6.545
  365.838   79.666    0.254    0.488    6.471
  366.088   80.909    0.248    0.475    6.294
  366.338   81.589    0.245    0.454    6.226
