~VERSION INFORMATION
 VERS.                 2.0:   CWLS LOG ASCII STANDARD -VERSION 2.0
 WRAP.                  NO:   ONE LINE PER DEPTH STEP
~WELL INFORMATION BLOCK
#MNEM.UNIT           DATA                    DESCRIPTION OF MNEMONIC
#---------    -------------------            -------------------------------
# Generated from Intellog Unique Number	CS_73_76/WELL/958
WELL.         DOME PETROLEUM LIMITED         : Well_name    - WELL
LOC .         00/05-12-075-05W4/0            : Location     - LOCATION
UWI .         00/05-12-075-05W4/0            : Uwi          - UNIQUE WELL ID
ENTR.         SP                             : Entered      - ENTERED BY
SRVC.         SCHLUMBERGER                   : Scn          - SERVICE COMPANY
STRT.M        200                            : top_depth    - START DEPTH
STOP.M        410                            : bot_depth    - STOP DEPTH
STEP.M        0.25                           : increment    - STEP LENGTH
 NULL. -999.2500:NULL Value
~CURVE INFORMATION BLOCK
#MNEM UNIT       ERCB CURVE CODE    CURVE DESCRIPTION
#-----------   ------------------   ----------------------------------
DEPT.M        00 001 00 00         : DEPTH        - DEPTH
GR  .API      00 310 00 00         : GR           - GAMMA RAY
NPHI.V/V      00 330 00 00         : PHIN         - NEUTRON POROSITY (LIMESTONE)
DPHI.V/V      00 890 00 00         : PHID         - DENSITY POROSITY (LIMESTONE)
ILD .OHMM     00 120 00 00         : RESD         - DEEP RESISTIVITY (DIL)
~PARAMETER INFORMATION
#MNEM.UNIT           DATA             DESCRIPTION OF MNEMONIC
#---------         -----------     ------------------------------
GL  .M        609.08               : gl           - GROUND LEVEL ELEVATION
EREF.M        612.85               : kb           - ELEVATION OF DEPTH REFERENCE
DATM.M        609.08               : datum        - DATUM ELEVATION
TDD .M        415                  : tdd          - TOTAL DEPTH DRILLER
RUN .         ONE                  : Run          - RUN NUMBER
ENG .         BILL                 : Engineer     - RECORDING ENGINEER
WIT .         JIM                  : Witness      - WITNESSED BY
MUD .         GEL                  : Mud_type     - MUD TYPE
MATR.         LIMESTONE            : Logunit      - NEUTRON MATRIX
TMAX.C        19                   : BHT          - MAXIMUM RECORDED TEMPERATURE
BHTD.M        415                  : BHTDEP       - MAXIMUM RECORDED TEMPERATURE
MATR.         1                    : LOGUNIT      - NEUTRON MATRIX
RMT .C        25                   : MDTP         - TEMPERATURE OF MUD
NEUT.         1                    : NEUTRON      - NEUTRON TYPE
RESI.         0                    : RESIST       - RESISTIVITY TYPE
RMC .OHMM     0.25                 : RMC          - RESISTIVITY OF MUD CAKE
RMF .OHMM     0.25                 : RMF          - RESISTIVITY OF MUD FILTRATE
SUFT.C        15                   : SUFT         - SURFACE TEMPERATURE
~A  DEPTH       GR     PHIN     PHID     RESD
  200.000   97.775    0.523    0.298    2.712
  200.250   96.570    0.516    0.301    2.711
  200.500   94.756    0.551    0.307    2.814
  200.750   92.944    0.578    0.309    2.867
  201.000   92.952    0.582    0.302    2.760
  201.250   94.175    0.568    0.302    2.658
  201.500   96.006    0.551    0.313    2.607
  201.750   94.800    0.564    0.316    2.558
  202.000   94.201    0.549    0.311    2.656
  202.250   95.424    0.507    0.305    2.809
  202.500   99.686    0.523    0.304    2.862
  202.750  101.513    0.542    0.298    2.861
  203.000  103.344    0.523    0.291    2.861
  203.250  105.175    0.513    0.283    2.860
  203.500  100.935    0.515    0.280    2.859
  203.750   96.692    0.496    0.277    2.859
  204.000   94.877    0.502    0.284    2.912
  204.250   93.671    0.542    0.297    2.967
  204.500   90.646    0.556    0.300    2.966
  204.750   93.688    0.551    0.288    2.965
  205.000   99.164    0.545    0.278    2.965
  205.250  100.994    0.524    0.269    3.020
  205.500  101.004    0.531    0.276    3.135
  205.750  101.621    0.536    0.284    3.317
  206.000   98.591    0.526    0.250    3.193
  206.250   95.565    0.543    0.234    3.315
  206.500   95.571    0.548    0.235    3.507
  206.750  101.048    0.514    0.246    3.505
  207.000  103.483    0.497    0.256    3.505
  207.250  102.277    0.504    0.244    3.638
  207.500  101.072    0.516    0.244    3.996
  207.750  103.514    0.521    0.257    3.996
  208.000  104.732    0.481    0.246    3.920
  208.250  103.528    0.477    0.235    3.919
  208.500  101.716    0.496    0.237    3.773
  208.750  101.114    0.505    0.249    3.772
  209.000   98.696    0.498    0.261    3.632
  209.250   98.703    0.485    0.221    3.770
  209.500   96.890    0.470    0.205    3.914
  209.750   95.685    0.450    0.204    4.063
  210.000   99.337    0.463    0.219    3.839
  210.250  101.166    0.500    0.232    3.767
  210.500   96.927    0.529    0.236    3.493
  210.750   95.113    0.530    0.247    3.300
  211.000   94.512    0.526    0.268    3.238
  211.250   97.559    0.519    0.254    3.425
  211.500   99.389    0.500    0.239    3.623
  211.750  100.611    0.483    0.231    3.761
  212.000   95.763    0.483    0.241    3.832
  212.250   93.949    0.487    0.252    3.689
  212.500   98.208    0.495    0.260    3.620
  212.750  103.684    0.509    0.260    3.485
  213.000  101.870    0.520    0.257    3.419
  213.250   97.021    0.520    0.262    3.355
  213.500   93.992    0.522    0.259    3.170
  213.750   95.217    0.526    0.256    3.110
  214.000   93.404    0.501    0.247    3.290
  214.250   91.592    0.464    0.207    3.546
  214.500   90.382    0.431    0.179    4.044
  214.750   91.001    0.393    0.196    4.881
  215.000   92.223    0.366    0.226    5.890
  215.250   91.015    0.371    0.241    6.593
  215.500   86.166    0.386    0.256    6.974
  215.750   77.070    0.404    0.270    7.517
  216.000   75.859    0.389    0.285    7.658
  216.250   86.193    0.391    0.294    7.656
  216.500   88.630    0.397    0.279    7.654
  216.750   89.854    0.401    0.268    7.510
  217.000   89.255    0.388    0.279    7.508
  217.250   89.876    0.386    0.284    7.366
  217.500   90.492    0.395    0.295    7.227
  217.750   91.103    0.414    0.295    7.090
  218.000   95.970    0.429    0.289    6.957
  218.250   87.477    0.428    0.295    6.954
  218.500   66.837    0.336    0.306    7.357
  218.750   52.878    0.322    0.304    8.081
  219.000   68.678    0.304    0.262    8.389
  219.250   77.187    0.309    0.227    8.230
  219.500   88.127    0.336    0.219    8.075
  219.750   96.031    0.379    0.215    7.775
  220.000  103.937    0.407    0.227    7.486
  220.250  106.372    0.414    0.241    7.073
  220.500  104.560    0.417    0.242    6.939
  220.750   99.710    0.417    0.248    7.070
  221.000   94.859    0.417    0.252    7.339
  221.250   91.831    0.406    0.261    7.337
  221.500   93.056    0.400    0.280    7.198
  221.750   90.029    0.391    0.275    7.197
  222.000   85.181    0.380    0.282    6.930
  222.250   82.757    0.375    0.297    6.547
  222.500   77.300    0.376    0.327    6.304
  222.750   83.385    0.380    0.343    6.185
  223.000   88.249    0.396    0.280    6.068
  223.250   96.156    0.414    0.237    6.182
  223.500   98.591    0.441    0.221    6.298
  223.750   94.954    0.454    0.242    6.416
  224.000   86.461    0.430    0.263    6.660
  224.250   87.684    0.398    0.258    6.913
  224.500   94.374    0.365    0.233    7.044
  224.750   99.849    0.360    0.216    7.312
  225.000   99.250    0.364    0.214    7.449
  225.250   87.114    0.372    0.223    7.589
  225.500   78.618    0.372    0.243    7.587
  225.750   63.446    0.363    0.255    7.443
  226.000   56.167    0.359    0.272    7.442
  226.250   51.923    0.347    0.299    7.301
  226.500   50.110    0.326    0.319    7.030
  226.750   54.978    0.310    0.297    6.642
  227.000   59.240    0.323    0.278    6.517
  227.250   61.676    0.366    0.268    6.394
  227.500   68.971    0.394    0.264    6.041
  227.750   82.340    0.424    0.245    5.927
  228.000   97.532    0.446    0.226    5.600
  228.250  103.005    0.458    0.212    5.392
  228.500  106.051    0.443    0.185    5.192
  228.750  105.451    0.433    0.165    4.905
  229.000  110.926    0.464    0.179    4.635
  229.250  115.187    0.485    0.199    4.379
  229.500  115.802    0.490    0.201    4.138
  229.750  115.811    0.476    0.201    3.984
  230.000  118.250    0.477    0.197    3.625
  230.250  120.689    0.496    0.210    3.425
  230.500  122.516    0.513    0.226    3.237
  230.750  126.778    0.511    0.236    3.116
  231.000  128.606    0.510    0.245    2.945
  231.250  124.365    0.526    0.249    2.835
  231.500  123.158    0.544    0.257    3.056
  231.750  119.524    0.519    0.267    3.552
  232.000  106.173    0.500    0.256    4.367
  232.250   97.678    0.465    0.255    5.271
  232.500   83.115    0.442    0.290    6.361
  232.750   74.620    0.406    0.324    7.822
  233.000   67.341    0.350    0.355   10.178
  233.250   64.312    0.306    0.377   15.108
  233.500   62.501    0.291    0.393   20.032
  233.750   61.899    0.269    0.387   25.101
  234.000   61.909    0.266    0.370   26.057
  234.250   63.742    0.290    0.373   26.049
  234.500   64.962    0.290    0.380   25.558
  234.750   64.971    0.292    0.384   23.699
  235.000   69.840    0.311    0.362   21.565
  235.250   75.925    0.330    0.349   19.257
  235.500   77.751    0.344    0.336   17.197
  235.750   75.331    0.354    0.319   15.357
  236.000   75.340    0.360    0.301   13.207
  236.250   76.565    0.371    0.285   11.794
  236.500   77.785    0.389    0.295   11.571
  236.750   77.794    0.389    0.314   11.567
  237.000   79.016    0.388    0.318   11.566
  237.250   81.455    0.380    0.314   11.562
  237.500   83.285    0.372    0.308   11.344
  237.750   83.900    0.396    0.303   11.341
  238.000   86.340    0.407    0.306   11.773
  238.250   88.169    0.419    0.311   11.994
  238.500   88.786    0.430    0.301   12.450
  238.750   82.721    0.438    0.260   12.925
  239.000   72.406    0.367    0.226   13.418
  239.250   67.556    0.340    0.196   14.195
  239.500   65.743    0.330    0.220   15.015
  239.750   59.071    0.334    0.263   15.297
  240.000   50.579    0.335    0.291   15.584
  240.250   53.017    0.330    0.302   15.580
  240.500   56.060    0.337    0.323   15.286
  240.750   59.714    0.341    0.336   15.282
  241.000   62.153    0.346    0.339   15.566
  241.250   63.984    0.352    0.337   15.564
  241.500   64.597    0.354    0.325   15.855
  241.750   64.606    0.359    0.318   15.853
  242.000   64.615    0.365    0.313   15.848
  242.250   64.629    0.362    0.326   16.145
  242.500   64.635    0.360    0.341   15.841
  242.750   67.071    0.362    0.347   15.541
  243.000   70.722    0.368    0.319   14.964
  243.250   71.945    0.371    0.302   14.139
