~VERSION INFORMATION
 VERS.                 2.0:   CWLS LOG ASCII STANDARD -VERSION 2.0
 WRAP.                  NO:   ONE LINE PER DEPTH STEP
~WELL INFORMATION BLOCK
#MNEM.UNIT           DATA                    DESCRIPTION OF MNEMONIC
#---------    -------------------            -------------------------------
# Generated from Intellog Unique Number	CW_82_90/WELL/3067
WELL.         PARAMOUNT ET AL LIVOCK         : Well_name    - WELL
LOC .         00/07-29-086-21W4/0            : Location     - LOCATION
UWI .         00/07-29-086-21W4/0            : Uwi          - UNIQUE WELL ID
ENTR.         MAX                            : Entered      - ENTERED BY
SRVC.         COMPUTALOG                     : Scn          - SERVICE COMPANY
STRT.M        188.976                        : top_depth    - START DEPTH
STOP.M        368.726                        : bot_depth    - STOP DEPTH
STEP.M        0.25                           : increment    - STEP LENGTH
 NULL. -999.2500:NULL Value
~CURVE INFORMATION BLOCK
#MNEM UNIT       ERCB CURVE CODE    CURVE DESCRIPTION
#-----------   ------------------   ----------------------------------
DEPT.M        00 001 00 00         : DEPTH        - DEPTH
ILD .OHMM     00 120 00 00         : RESD         - DEEP RESISTIVITY (DIL)
NPHI.V/V      00 330 00 00         : PHIN         - NEUTRON POROSITY (SANDSTONE)
DPHI.V/V      00 890 00 00         : PHID         - DENSITY POROSITY (SANDSTONE)
CALI.MM       00 280 01 00         : CAL          - CALIPER
GR  .API      00 310 00 00         : GR           - GAMMA RAY
~PARAMETER INFORMATION
#MNEM.UNIT           DATA             DESCRIPTION OF MNEMONIC
#---------         -----------     ------------------------------
GL  .M        575.158              : gl           - GROUND LEVEL ELEVATION
EREF.M        578.206              : kb           - ELEVATION OF DEPTH REFERENCE
DATM.M        575.158              : datum        - DATUM ELEVATION
TDD .M        370.637              : tdd          - TOTAL DEPTH DRILLER
RUN .         ONE                  : Run          - RUN NUMBER
ENG .         BILL                 : Engineer     - RECORDING ENGINEER
WIT .         JIM                  : Witness      - WITNESSED BY
MUD .         GEL                  : Mud_type     - MUD TYPE
MATR.         SANDSTONE            : Logunit      - NEUTRON MATRIX
TMAX.C        16.6667              : BHT          - MAXIMUM RECORDED TEMPERATURE
BHTD.M        370.637              : BHTDEP       - MAXIMUM RECORDED TEMPERATURE
MATR.         1                    : LOGUNIT      - NEUTRON MATRIX
RMT .C        11.1111              : MDTP         - TEMPERATURE OF MUD
NEUT.         1                    : NEUTRON      - NEUTRON TYPE
RESI.         0                    : RESIST       - RESISTIVITY TYPE
RMC .OHMM     1.9                  : RMC          - RESISTIVITY OF MUD CAKE
RMF .OHMM     1.6                  : RMF          - RESISTIVITY OF MUD FILTRATE
SUFT.C        -26.1111             : SUFT         - SURFACE TEMPERATURE
~A  DEPTH     RESD     PHIN     PHID      CAL       GR
# ...
  261.976    5.247    0.416    0.231  167.624   97.173
  262.226    5.175    0.444    0.233  168.680  100.113
  262.476    5.180    0.444    0.235  168.726  103.638
  262.726    5.224    0.435    0.230  168.289  107.450
  262.976    5.582    0.425    0.230  167.351  104.283
  263.226    6.174    0.430    0.228  166.413   93.555
  263.476    6.765    0.422    0.227  164.980   86.611
  263.726    7.437    0.411    0.229  161.566   83.149
  263.976    7.833    0.398    0.255  158.166   77.655
  264.226    8.347    0.375    0.265  155.247   71.580
  264.476    8.743    0.341    0.246  153.814   65.796
  264.726    9.061    0.334    0.261  153.866   70.194
  264.976    9.302    0.328    0.266  152.928   70.225
  265.226    9.386    0.347    0.267  153.475   73.169
  265.476    9.390    0.355    0.267  155.013   70.002
  265.726    9.396    0.349    0.258  157.052   78.176
  265.976    9.206    0.383    0.246  159.580   78.212
  266.226    9.016    0.375    0.240  164.597   84.060
  266.476    9.022    0.378    0.231  166.623   92.239
  266.726    9.183    0.392    0.225  165.197   91.107
  266.976    9.462    0.389    0.230  165.255   77.761
  267.226    9.819    0.365    0.220  164.806   80.705
  267.476    9.942    0.350    0.205  162.382   83.358
  267.726    9.986    0.361    0.191  169.875   86.876
  267.976   10.070    0.366    0.218  168.442   94.473
  268.226   10.192    0.373    0.229  171.458   96.249
  268.476   10.275    0.386    0.221  171.524  103.268
  268.726   10.320    0.356    0.223  168.605   98.938
  268.976   10.247    0.379    0.223  169.641  100.715
  269.226   10.291    0.386    0.214  171.185   96.384
  269.476   10.220    0.405    0.205  173.713   92.344
  269.726   10.186    0.411    0.219  172.286   94.412
  269.976   10.230    0.398    0.219  170.847  103.172
  270.226   10.431    0.382    0.213  169.427   96.224
  270.476   10.750    0.359    0.219  163.035   92.189
  270.726   11.186    0.345    0.218  162.592   93.674
  270.976   11.504    0.375    0.217  167.114   96.041
  271.226   11.743    0.361    0.234  166.170   98.972
  271.476   11.788    0.341    0.240  157.309   92.025
  271.726   11.675    0.332    0.247  153.400   89.156
  271.976   11.955    0.348    0.247  151.974   87.730
  272.226   12.155    0.334    0.235  152.026   83.985
  272.476   12.044    0.327    0.214  151.596   79.073
  272.726   11.893    0.316    0.199  151.642   77.073
  272.976   11.743    0.322    0.238  151.212   78.559
  273.226   11.591    0.338    0.268  151.258   80.913
  273.476   11.479    0.335    0.275  151.303   81.240
  273.726   11.406    0.341    0.269  150.873   80.104
  273.976   11.490    0.341    0.244  150.431   83.924
  274.226   11.573    0.338    0.226  150.476   87.442
  274.476   11.619    0.335    0.227  153.011   91.840
  274.726   11.583    0.353    0.222  155.545   95.362
  274.976   11.433    0.359    0.222  156.093   94.234
  275.226   11.360    0.356    0.225  156.151   90.485
  275.476   11.326    0.352    0.228  156.204   89.644
  275.726   11.213    0.346    0.232  155.761   88.804
  275.976   10.594    0.334    0.243  154.334   86.218
  276.226   10.130    0.330    0.238  153.885   88.875
  276.476    9.666    0.376    0.232  153.448   88.907
  276.726    9.358    0.394    0.226  157.957   88.644
  276.976    9.208    0.397    0.240  158.517   92.755
  277.226    9.331    0.392    0.233  158.556   93.659
  277.476    9.296    0.414    0.239  158.622   94.854
  277.726    9.067    0.415    0.247  157.684   93.432
  277.976    8.017    0.409    0.244  154.765   94.921
  278.226    6.262    0.412    0.258  155.814   94.085
  278.476    4.507    0.457    0.264  157.345   98.475
  278.726    4.240    0.474    0.283  157.899  108.103
  278.976    4.598    0.466    0.281  158.460  112.501
  279.226    4.954    0.460    0.276  159.991  106.717
  279.476    5.546    0.454    0.268  160.043   98.024
  279.726    6.137    0.435    0.187  162.076   89.622
  279.976    6.730    0.426    0.197  166.584   86.459
  280.226    7.362    0.421    0.222  166.148   89.399
  280.476    7.835    0.391    0.214  159.763   90.598
  280.726    8.427    0.351    0.196  154.864   93.825
  280.976    9.020    0.341    0.186  154.916   91.239
  281.226    9.299    0.330    0.186  154.480   88.661
  281.476    9.225    0.321    0.157  154.539   81.128
  281.726    9.153    0.343    0.139  158.552   78.833
  281.976    9.159    0.377    0.184  161.575   79.737
  282.226    9.204    0.392    0.219  163.113   85.880
  282.476    9.287    0.387    0.220  163.165   89.697
  282.726    9.409    0.385    0.217  162.722   87.402
  282.976    9.493    0.384    0.211  162.787   86.856
  283.226    9.498    0.382    0.193  160.853   90.083
  283.476    9.386    0.386    0.225  160.410   96.225
  283.726    9.275    0.389    0.220  160.964  101.201
  283.976    9.280    0.394    0.215  158.051  103.272
  284.226    9.481    0.402    0.212  158.592   99.814
  284.476    9.838    0.395    0.208  162.117   98.687
  284.726   10.391    0.387    0.234  161.681   98.722
  284.976   10.904    0.357    0.230  159.752   97.583
  285.226   11.536    0.337    0.225  157.831   94.715
  285.476   11.814    0.333    0.220  156.899   92.711
  285.726   12.173    0.324    0.212  155.453   91.284
  285.976   12.373    0.305    0.199  155.016   88.990
  286.226   12.769    0.288    0.176  155.075   84.950
  286.476   13.244    0.266    0.149  159.082   80.918
  286.726   14.070    0.230    0.106  159.636   65.529
  286.976   15.601    0.117    0.089  158.203   56.546
  287.226   22.528    0.060    0.069  157.278   55.996
  287.476   24.372    0.029    0.052  156.333   57.486
  287.726   19.802    0.046    0.127  154.907   57.226
  287.976   18.399    0.222    0.194  154.464   52.900
  288.226   18.678    0.227    0.170  154.509   54.382
  288.476   20.170    0.104    0.146  156.054   52.967
  288.726   22.092    0.007    0.072  157.591   49.796
  288.976   22.919    0.004    0.046  158.634   47.211
  289.226   23.511    0.018    0.081  156.718   51.605
  289.476   23.711    0.142    0.145  154.784   59.492
  289.726   23.090    0.262    0.216  153.846   65.926
  289.976   19.029    0.322    0.202  154.393   74.973
  290.226   12.973    0.349    0.186  157.429   82.570
  290.476   11.766    0.337    0.184  157.488   86.968
  290.726   12.632    0.325    0.207  157.527   91.361
  290.976   13.498    0.314    0.209  157.592   93.142
  291.226   14.519    0.289    0.192  157.645   87.648
  291.476   16.323    0.258    0.158  157.697   76.334
  291.726   20.318    0.161    0.095  157.749   59.790
  291.976   22.161    0.057    0.078  157.801   51.974
  292.226   22.950    0.040    0.081  157.854   49.679
  292.476   24.597    0.023    0.076  157.919   47.970
  292.726   25.619    0.002    0.071  157.971   45.093
  292.976   26.876    0.001    0.071  158.512   46.579
  293.226   27.782    0.014    0.091  159.079   50.391
  293.476   27.826    0.136    0.153  159.125   60.892
  293.726   27.831    0.134    0.140  159.672   76.632
  293.976   27.837    0.043    0.105  159.731   74.628
  294.226   27.803    0.003    0.049  159.281   61.573
  294.476   27.651    0.002    0.027  159.829   60.733
  294.726   27.148    0.015    0.034  158.409   63.095
  294.976   25.198    0.099    0.065  154.506   66.907
  295.226   20.980    0.291    0.135  153.060   76.830
  295.476   15.393    0.328    0.201  153.607   82.969
  295.726   13.991    0.364    0.209  153.666   88.530
  295.976   13.762    0.369    0.206  154.715   89.434
  296.226   13.806    0.366    0.192  156.253   89.765
  296.476   13.852    0.352    0.169  156.305   88.924
  296.726   13.816    0.346    0.154  156.364   89.538
  296.976   13.705    0.376    0.191  156.410   91.023
  297.226   13.633    0.376    0.204  156.475   93.390
  297.476   13.559    0.364    0.209  156.521   94.577
  297.726   13.447    0.386    0.205  157.068   95.489
  297.976   13.376    0.378    0.190  157.133   95.811
  298.226   13.380    0.357    0.177  157.687   93.513
