~VERSION INFORMATION
 VERS.                 2.0:   CWLS LOG ASCII STANDARD -VERSION 2.0
 WRAP.                  NO:   ONE LINE PER DEPTH STEP
~WELL INFORMATION BLOCK
#MNEM.UNIT           DATA                    DESCRIPTION OF MNEMONIC
#---------    -------------------            -------------------------------
# Generated from Intellog Unique Number	CS_77_79/WELL/911
WELL.         HOME LEISMER                   : Well_name    - WELL
LOC .         00/07-29-078-07W4/0            : Location     - LOCATION
UWI .         00/07-29-078-07W4/0            : Uwi          - UNIQUE WELL ID
ENTR.         JHS                            : Entered      - ENTERED BY
SRVC.         SCHLUMBERGER                   : Scn          - SERVICE COMPANY
STRT.M        129.845                        : top_depth    - START DEPTH
STOP.M        344.095                        : bot_depth    - STOP DEPTH
STEP.M        0.25                           : increment    - STEP LENGTH
 NULL. -999.2500:NULL Value
~CURVE INFORMATION BLOCK
#MNEM UNIT       ERCB CURVE CODE    CURVE DESCRIPTION
#-----------   ------------------   ----------------------------------
DEPT.M        00 001 00 00         : DEPTH        - DEPTH
RHOB.KG/M3    00 350 00 00         : DENS         - BULK DENSITY
GR  .API      00 310 00 00         : GR           - GAMMA RAY
DPHI.V/V      00 890 00 00         : PHID         - DENSITY POROSITY (SANDSTONE)
NPHI.V/V      00 330 00 00         : PHIN         - NEUTRON POROSITY (SANDSTONE)
ILD .OHMM     00 120 00 00         : RESD         - DEEP RESISTIVITY (DIL)
~PARAMETER INFORMATION
#MNEM.UNIT           DATA             DESCRIPTION OF MNEMONIC
#---------         -----------     ------------------------------
GL  .M        545.592              : gl           - GROUND LEVEL ELEVATION
EREF.M        549.432              : kb           - ELEVATION OF DEPTH REFERENCE
DATM.M        549.432              : datum        - DATUM ELEVATION
TDD .M        446.227              : tdd          - TOTAL DEPTH DRILLER
RUN .         ONE                  : Run          - RUN NUMBER
ENG .         BILL                 : Engineer     - RECORDING ENGINEER
WIT .         JIM                  : Witness      - WITNESSED BY
MUD .         GEL                  : Mud_type     - MUD TYPE
MATR.         SANDSTONE            : Logunit      - NEUTRON MATRIX
TMAX.C        21.6667              : BHT          - MAXIMUM RECORDED TEMPERATURE
BHTD.M        446.227              : BHTDEP       - MAXIMUM RECORDED TEMPERATURE
MATR.         1                    : LOGUNIT      - NEUTRON MATRIX
RMT .C        25                   : MDTP         - TEMPERATURE OF MUD
NEUT.         1                    : NEUTRON      - NEUTRON TYPE
RESI.         0                    : RESIST       - RESISTIVITY TYPE
RMC .OHMM     0.25                 : RMC          - RESISTIVITY OF MUD CAKE
RMF .OHMM     0.25                 : RMF          - RESISTIVITY OF MUD FILTRATE
SUFT.C        15                   : SUFT         - SURFACE TEMPERATURE
~A  DEPTH     DENS       GR     PHID     PHIN     RESD
  129.845    0.000  114.647    0.274    0.505   14.173
  130.095    0.000  113.442    0.289    0.521   14.662
  130.345    0.000  108.672    0.307    0.519   14.792
  130.595    0.000  100.589    0.326    0.525   15.305
  130.845    0.000   90.349    0.334    0.483   15.969
  131.095    0.000   83.376    0.290    0.431   16.636
  131.345    0.000   74.810    0.289    0.422   17.761
  131.595    0.000   71.268    0.300    0.445   18.351
  131.845    0.000   71.774    0.318    0.457   18.936
  132.095    0.000   75.515    0.328    0.467   18.701
  132.345    0.000   78.541    0.320    0.476   17.667
  132.595    0.000   81.881    0.312    0.453   16.301
  132.845    0.000   81.234    0.310    0.440   15.552
  133.095    0.000   81.610    0.299    0.458   15.170
  133.345    0.000   82.552    0.295    0.466   15.209
  133.595    0.000   79.818    0.299    0.479   15.196
  133.845    0.000   79.718    0.308    0.487   15.552
  134.095    0.000   81.838    0.307    0.500   15.780
  134.345    0.000   82.654    0.306    0.492   16.623
  134.595    0.000   81.862    0.314    0.463   17.552
  134.845    0.000   77.896    0.313    0.452   18.391
  135.095    0.000   70.590    0.321    0.459   18.975
  135.345    0.000   64.686    0.317    0.461   19.582
  135.595    0.000   61.975    0.326    0.447   20.215
  135.845    0.000   60.932    0.317    0.444   20.902
  136.095    0.000   58.243    0.305    0.441   21.133
  136.345    0.000   56.268    0.307    0.437   21.490
  136.595    0.000   58.216    0.315    0.429   22.432
  136.845    0.000   60.669    0.310    0.435   23.238
  137.095    0.000   60.150    0.332    0.454   23.754
  137.345    0.000   56.880    0.355    0.475   24.740
  137.595    0.000   60.231    0.362    0.483   25.593
  137.845    0.000   65.580    0.351    0.491   25.685
  138.095    0.000   70.785    0.343    0.499   25.138
  138.345    0.000   71.115    0.349    0.482   24.454
  138.595    0.000   73.075    0.351    0.474   23.216
  138.845    0.000   77.479    0.341    0.488   22.584
  139.095    0.000   80.998    0.328    0.508   22.234
  139.345    0.000   84.616    0.315    0.486   21.787
  139.595    0.000   85.889    0.332    0.487   21.849
  139.845    0.000   84.991    0.342    0.467   22.334
  140.095    0.000   80.134    0.331    0.459   22.407
  140.345    0.000   74.585    0.325    0.472   22.741
  140.595    0.000   72.564    0.313    0.485   23.495
  140.845    0.000   69.703    0.300    0.471   23.725
  141.095    0.000   65.750    0.318    0.467   24.154
  141.345    0.000   61.230    0.317    0.463   24.149
  141.595    0.000   59.106    0.323    0.453   24.122
  141.845    0.000   60.377    0.319    0.456   23.058
  142.095    0.000   66.768    0.314    0.454   21.461
  142.345    0.000   73.273    0.294    0.445   20.505
  142.595    0.000   73.598    0.289    0.442   20.286
  142.845    0.000   70.718    0.304    0.440   20.185
  143.095    0.000   67.262    0.324    0.468   20.192
  143.345    0.000   66.562    0.347    0.461   20.026
  143.595    0.000   67.673    0.352    0.463   19.427
  143.845    0.000   71.170    0.353    0.478   18.546
  144.095    0.000   75.299    0.332    0.480   17.229
  144.345    0.000   78.807    0.314    0.464   14.894
  144.595    0.000   84.829    0.312    0.469   11.564
  144.845    0.000   92.726    0.289    0.493    8.413
  145.095    0.000  103.167    0.267    0.516    6.589
  145.345    0.000  112.755    0.283    0.555    5.310
  145.595    0.000  117.197    0.269    0.574    4.574
  145.845    0.000  116.746    0.244    0.580    4.104
  146.095    0.000  113.746    0.226    0.581    3.744
  146.345    0.000  111.925    0.232    0.592    3.505
  146.595    0.000  109.643    0.224    0.600    3.398
  146.845    0.000  106.537    0.242    0.588    3.953
  147.095    0.000   99.666    0.273    0.580    4.889
  147.345    0.000   88.531    0.295    0.579    7.724
  147.595    0.000   65.411    0.296    0.558   12.070
  147.845    0.000   53.939    0.284    0.500   18.838
  148.095    0.000   45.285    0.321    0.468   26.325
  148.345    0.000   45.488    0.356    0.458   29.197
  148.595    0.000   48.609    0.325    0.466   28.909
  148.845    0.000   49.245    0.316    0.461   27.928
  149.095    0.000   49.490    0.300    0.458   25.968
  149.345    0.000   51.615    0.291    0.471   24.130
  149.595    0.000   54.225    0.327    0.477   21.703
  149.845    0.000   59.201    0.359    0.471   21.420
  150.095    0.000   64.867    0.364    0.499   20.742
  150.345    0.000   66.050    0.354    0.494   21.236
  150.595    0.000   66.309    0.320    0.473   21.192
  150.845    0.000   65.210    0.324    0.467   20.528
  151.095    0.000   66.229    0.335    0.424   19.636
  151.345    0.000   68.945    0.324    0.437   18.646
  151.595    0.000   72.126    0.320    0.461   17.704
  151.845    0.000   76.964    0.312    0.470   15.023
  152.095    0.000   83.490    0.310    0.482   13.656
  152.345    0.000   92.837    0.313    0.462   11.204
  152.595    0.000  102.780    0.289    0.456    8.228
  152.845    0.000  112.256    0.269    0.461    7.045
  153.095    0.000  119.866    0.243    0.485    6.337
  153.345    0.000  119.278    0.213    0.517    6.126
  153.595    0.000  124.863    0.227    0.535    5.932
  153.845    0.000  123.444    0.212    0.522    6.092
  154.095    0.000  125.632    0.221    0.515    6.422
  154.345    0.000  121.813    0.239    0.530    6.706
  154.595    0.000  121.815    0.229    0.540    7.471
  154.845    0.000  125.759    0.249    0.541    9.025
  155.095    0.000  122.248    0.260    0.548   11.398
  155.345    0.000  115.600    0.274    0.503   13.498
  155.595    0.000  110.064    0.307    0.485   14.917
  155.845    0.000  103.971    0.315    0.492   14.992
  156.095    0.000   99.491    0.329    0.478   13.869
  156.345    0.000   99.534    0.290    0.477   12.685
  156.595    0.000  100.658    0.270    0.473   12.284
  156.845    0.000   99.370    0.270    0.473   12.519
  157.095    0.000   94.806    0.289    0.488   13.290
  157.345    0.000   88.912    0.292    0.469   14.985
  157.595    0.000   81.389    0.284    0.455   16.566
  157.845    0.000   72.535    0.302    0.446   17.066
  158.095    0.000   71.586    0.303    0.451   17.533
  158.345    0.000   72.281    0.313    0.447   17.531
  158.595    0.000   73.948    0.319    0.443   17.572
  158.845    0.000   73.693    0.308    0.451   17.804
  159.095    0.000   71.255    0.302    0.458   18.911
  159.345    0.000   66.971    0.307    0.467   19.924
  159.595    0.000   63.442    0.323    0.452   20.496
  159.845    0.000   67.909    0.311    0.444   20.167
  160.095    0.000   72.534    0.303    0.455   19.605
  160.345    0.000   72.980    0.305    0.474   18.624
  160.595    0.000   73.031    0.309    0.474   17.932
  160.845    0.000   73.355    0.296    0.457   16.243
  161.095    0.000   76.839    0.273    0.456   15.533
  161.345    0.000   80.382    0.259    0.456   15.091
  161.595    0.000   80.605    0.289    0.451   14.574
  161.845    0.000   85.079    0.279    0.441   13.715
  162.095    0.000   94.383    0.285    0.433   12.162
  162.345    0.000  101.991    0.264    0.460   10.497
  162.595    0.000  112.202    0.254    0.483    9.202
  162.845    0.000  116.857    0.256    0.507    7.885
  163.095    0.000  119.028    0.244    0.509    7.093
  163.345    0.000  122.518    0.239    0.513    6.694
  163.595    0.000  127.400    0.245    0.532    6.458
  163.845    0.000  126.002    0.231    0.519    6.697
  164.095    0.000  119.564    0.221    0.521    7.514
  164.345    0.000  112.684    0.234    0.530    9.190
  164.595    0.000  106.124    0.263    0.506   10.475
  164.845    0.000  101.407    0.274    0.468   11.649
  165.095    0.000   96.671    0.259    0.453   12.438
  165.345    0.000   96.373    0.250    0.454   12.228
  165.595    0.000   98.892    0.253    0.474   10.961
  165.845    0.000  104.288    0.271    0.492    9.808
  166.095    0.000  112.920    0.257    0.479    8.980
