~VERSION INFORMATION
 VERS.                 2.0:   CWLS LOG ASCII STANDARD -VERSION 2.0
 WRAP.                  NO:   ONE LINE PER DEPTH STEP
~WELL INFORMATION BLOCK
#MNEM.UNIT           DATA                    DESCRIPTION OF MNEMONIC
#---------    -------------------            -------------------------------
# Generated from Intellog Unique Number	CS_71_72/WELL/786
WELL.         BOW VALLEY EXPLORATION         : Well_name    - WELL
LOC .         00/06-34-072-18W4/0            : Location     - LOCATION
UWI .         00/06-34-072-18W4/0            : Uwi          - UNIQUE WELL ID
ENTR.         SP                             : Entered      - ENTERED BY
SRVC.         SCHLUMBERGER                   : Scn          - SERVICE COMPANY
STRT.M        268.224                        : top_depth    - START DEPTH
STOP.M        462.974                        : bot_depth    - STOP DEPTH
STEP.M        0.25                           : increment    - STEP LENGTH
 NULL. -999.2500:NULL Value
~CURVE INFORMATION BLOCK
#MNEM UNIT       ERCB CURVE CODE    CURVE DESCRIPTION
#-----------   ------------------   ----------------------------------
DEPT.M        00 001 00 00         : DEPTH        - DEPTH
GR  .API      00 310 00 00         : GR           - GAMMA RAY
DPHI.V/V      00 890 00 00         : PHID         - DENSITY POROSITY (SANDSTONE)
NPHI.V/V      00 330 00 00         : PHIN         - NEUTRON POROSITY (SANDSTONE)
ILD .OHMM     00 120 00 00         : RESD         - DEEP RESISTIVITY (DIL)
~PARAMETER INFORMATION
#MNEM.UNIT           DATA             DESCRIPTION OF MNEMONIC
#---------         -----------     ------------------------------
GL  .M        585.734              : gl           - GROUND LEVEL ELEVATION
EREF.M        588.874              : kb           - ELEVATION OF DEPTH REFERENCE
DATM.M        585.734              : datum        - DATUM ELEVATION
TDD .M        472.44               : tdd          - TOTAL DEPTH DRILLER
RUN .         ONE                  : Run          - RUN NUMBER
ENG .         BILL                 : Engineer     - RECORDING ENGINEER
WIT .         JIM                  : Witness      - WITNESSED BY
MUD .         GEL                  : Mud_type     - MUD TYPE
MATR.         SANDSTONE            : Logunit      - NEUTRON MATRIX
TMAX.C        21.1111              : BHT          - MAXIMUM RECORDED TEMPERATURE
BHTD.M        472.44               : BHTDEP       - MAXIMUM RECORDED TEMPERATURE
MATR.         1                    : LOGUNIT      - NEUTRON MATRIX
RMT .C        25                   : MDTP         - TEMPERATURE OF MUD
NEUT.         1                    : NEUTRON      - NEUTRON TYPE
RESI.         0                    : RESIST       - RESISTIVITY TYPE
RMC .OHMM     0.25                 : RMC          - RESISTIVITY OF MUD CAKE
RMF .OHMM     0.25                 : RMF          - RESISTIVITY OF MUD FILTRATE
SUFT.C        15                   : SUFT         - SURFACE TEMPERATURE
~A  DEPTH       GR     PHID     PHIN     RESD
  268.224  111.151    0.255    0.518    2.593
  268.474  111.122    0.266    0.530    2.644
  268.724  112.070    0.260    0.538    2.644
  268.974  114.140    0.241    0.529    2.649
  269.224  113.981    0.217    0.528    2.596
  269.474  112.374    0.236    0.532    2.602
  269.724  111.946    0.243    0.516    2.600
  269.974  111.872    0.232    0.512    2.654
  270.224  112.642    0.235    0.529    2.707
  270.474  114.140    0.239    0.539    2.748
  270.724  114.292    0.254    0.514    2.779
  270.974  113.180    0.259    0.502    2.814
  271.224  114.593    0.241    0.512    2.860
  271.474  116.984    0.248    0.512    3.002
  271.724  118.609    0.286    0.486    3.087
  271.974  117.465    0.271    0.466    3.129
  272.224  114.119    0.253    0.491    3.164
  272.474  113.875    0.234    0.513    3.267
  272.724  114.126    0.212    0.525    3.300
  272.974  116.002    0.199    0.526    3.410
  273.224  117.987    0.197    0.513    3.465
  273.474  119.657    0.203    0.513    3.466
  273.724  120.579    0.210    0.510    3.469
  273.974  119.444    0.216    0.526    3.471
  274.224  115.099    0.228    0.528    3.479
  274.474  111.015    0.235    0.515    3.412
  274.724  107.367    0.247    0.506    3.338
  274.974  106.070    0.258    0.519    3.218
  275.224  103.387    0.254    0.534    3.178
  275.474  102.829    0.274    0.525    3.195
  275.724   98.963    0.319    0.551    3.546
  275.974   89.932    0.400    0.577    3.998
  276.224   81.574    0.431    0.595    4.520
  276.474   78.715    0.451    0.617    4.985
  276.724   76.575    0.364    0.601    5.475
  276.974   76.463    0.310    0.495    5.618
  277.224   74.111    0.316    0.428    5.336
  277.474   72.165    0.328    0.420    5.276
  277.724   71.218    0.312    0.416    5.254
  277.974   71.260    0.309    0.410    5.254
  278.224   72.341    0.300    0.406    5.241
  278.474   72.729    0.296    0.413    5.512
  278.724   74.234    0.306    0.428    5.861
  278.974   76.181    0.297    0.437    6.067
  279.224   78.150    0.279    0.424    5.976
  279.474   80.411    0.285    0.430    5.715
  279.724   86.653    0.276    0.446    5.539
  279.974   91.421    0.283    0.405    5.381
  280.224   94.412    0.251    0.419    5.311
  280.474   97.119    0.230    0.432    5.262
  280.724   98.378    0.298    0.437    5.202
  280.974   99.021    0.282    0.417    5.129
  281.224   97.772    0.260    0.434    5.228
  281.474   94.869    0.299    0.429    5.595
  281.724   93.465    0.285    0.421    5.836
  281.974   98.595    0.274    0.419    6.064
  282.224  103.207    0.278    0.412    6.263
  282.474  109.590    0.275    0.409    6.274
  282.724  106.739    0.282    0.405    6.269
  282.974  108.983    0.286    0.400    6.175
  283.224  110.186    0.275    0.406    6.009
  283.474  110.546    0.281    0.416    5.961
  283.724  111.354    0.276    0.408    5.964
  283.974  107.643    0.254    0.415    5.975
  284.224  101.662    0.270    0.424    5.867
  284.474  100.685    0.276    0.424    5.698
  284.724   99.456    0.264    0.421    5.533
  284.974   96.589    0.257    0.406    5.369
  285.224   88.749    0.251    0.419    5.376
  285.474   81.496    0.228    0.408    5.412
  285.724   72.653    0.153    0.386    5.776
  285.974   75.551    0.198    0.380    5.732
  286.224   78.075    0.253    0.397    5.671
  286.474   81.520    0.287    0.412    5.492
  286.724   87.149    0.311    0.407    5.241
  286.974   94.276    0.307    0.399    5.103
  287.224  108.917    0.291    0.400    4.898
  287.474  112.714    0.295    0.425    4.585
  287.724  115.082    0.310    0.448    4.343
  287.974  110.783    0.336    0.487    4.087
  288.224  108.489    0.329    0.506    3.942
  288.474  111.082    0.274    0.479    3.640
  288.724  116.364    0.289    0.475    3.501
  288.974  120.850    0.282    0.482    3.294
  289.224  124.186    0.246    0.493    3.256
  289.474  126.719    0.255    0.520    3.218
  289.724  125.207    0.257    0.537    3.195
  289.974  121.222    0.300    0.556    3.117
  290.224  118.345    0.248    0.550    2.992
  290.474  120.603    0.234    0.534    2.923
  290.724  124.871    0.224    0.526    2.941
  290.974  126.842    0.209    0.542    3.281
  291.224  127.796    0.202    0.558    3.900
  291.474  128.731    0.273    0.549    4.361
  291.724  130.427    0.294    0.517    4.976
  291.974  131.877    0.276    0.487    5.438
  292.224  133.784    0.245    0.463    5.908
  292.474  127.996    0.258    0.437    6.132
  292.724  122.716    0.257    0.413    6.238
  292.974  119.318    0.244    0.412    6.205
  293.224  117.833    0.269    0.431    6.015
  293.474  118.905    0.268    0.449    5.900
  293.724  119.897    0.245    0.467    6.064
  293.974  120.301    0.247    0.478    6.358
  294.224  118.672    0.256    0.491    7.093
  294.474  114.321    0.243    0.502    7.942
  294.724  105.873    0.208    0.473    9.111
  294.974   99.835    0.210    0.453   10.525
  295.224   98.862    0.251    0.439   11.582
  295.474   89.929    0.267    0.449   12.094
  295.724   85.992    0.290    0.460   12.661
  295.974   81.410    0.311    0.450   12.626
  296.224   78.995    0.314    0.443   11.915
  296.474   77.531    0.299    0.439   11.049
  296.724   78.673    0.286    0.436   10.158
  296.974   78.942    0.277    0.435    8.993
  297.224   78.829    0.267    0.442    8.194
  297.474   80.420    0.261    0.452    7.476
  297.724   82.350    0.282    0.459    7.612
  297.974   85.084    0.292    0.465    8.140
  298.224   85.980    0.283    0.459    9.075
  298.474   85.861    0.267    0.452    9.583
  298.724   83.448    0.242    0.437    9.866
  298.974   80.517    0.264    0.429    9.596
  299.224   80.735    0.281    0.422    8.997
  299.474   86.816    0.214    0.409    8.048
  299.724   92.458    0.178    0.405    7.098
  299.974   98.230    0.194    0.410    6.258
  300.224   99.840    0.248    0.421    5.622
  300.474  103.205    0.248    0.440    4.902
  300.724  112.253    0.239    0.454    5.110
  300.974  116.869    0.255    0.448    5.805
  301.224  120.918    0.258    0.438    5.932
  301.474  124.279    0.248    0.428    6.187
  301.724  127.960    0.240    0.421    6.214
  301.974  128.603    0.244    0.417    5.692
  302.224  132.512    0.236    0.414    5.323
  302.474  137.595    0.257    0.418    5.309
  302.724  126.173    0.240    0.439    5.511
  302.974  115.546    0.230    0.461    5.865
  303.224  111.874    0.271    0.474    6.365
  303.474  110.650    0.256    0.406    6.585
  303.724  114.952    0.225    0.398    6.797
  303.974  116.579    0.204    0.396    6.752
  304.224  118.244    0.203    0.395    6.395
  304.474  119.749    0.216    0.394    6.042
  304.724  120.895    0.195    0.407    5.424
  304.974  120.468    0.199    0.420    4.870
  305.224  121.409    0.172    0.440    4.392
  305.474  124.375    0.175    0.463    4.017
  305.724  126.654    0.194    0.487    3.948
  305.974  128.907    0.222    0.502    4.094
  306.224  124.776    0.228    0.496    4.475
  306.474  113.016    0.259    0.484    4.749
  306.724  106.312    0.277    0.489    5.352
  306.974  100.301    0.277    0.486    5.689
  307.224   97.592    0.263    0.473    6.367
  307.474   94.273    0.251    0.456    6.651
  307.724   91.775    0.232    0.446    6.771
  307.974   89.722    0.266    0.437    6.892
  308.224   89.730    0.301    0.426    6.894
  308.474   89.765    0.297    0.421    6.900
  308.724   91.092    0.307    0.430    6.812
  308.974   94.546    0.291    0.433    6.575
  309.224   97.025    0.281    0.430    6.187
  309.474  101.657    0.279    0.422    5.603
  309.724  106.432    0.279    0.415    4.859
  309.974  110.564    0.262    0.405    4.321
  310.224  113.182    0.251    0.429    3.857
  310.474  115.813    0.298    0.443    3.826
  310.724  116.694    0.270    0.461    4.200
  310.974  115.527    0.257    0.481    4.774
  311.224  110.419    0.274    0.494    5.572
  311.474  106.093    0.281    0.489    6.879
