~VERSION INFORMATION
 VERS.                 2.0:   CWLS LOG ASCII STANDARD -VERSION 2.0
 WRAP.                  NO:   ONE LINE PER DEPTH STEP
~WELL INFORMATION BLOCK
#MNEM.UNIT           DATA                    DESCRIPTION OF MNEMONIC
#---------    -------------------            -------------------------------
# Generated from Intellog Unique Number	CW_70_72/WELL/185
NULL.         -999.25                        : NULL_VALUE
WELL.         GLOBAL ET AL CALLS 02-22       : Well_name    - WELL              
LOC .         02-22-071-22W4                 : Location     - LOCATION          
UWI .         00/02-22-071-22W4/0            : Uwi          - UNIQUE WELL ID    
ENTR.         JAYE                           : Entered      - ENTERED BY        
SRVC.         SCHLUMBERGER                   : Scn          - SERVICE COMPANY   
DATE.         22 FEB 81                      : Date         - LOG DATE          
STRT.M        410                            : top_depth    - START DEPTH       
STOP.M        605                            : bot_depth    - STOP DEPTH        
STEP.M        0.25                           : increment    - STEP LENGTH       
~CURVE INFORMATION BLOCK
#MNEM UNIT       ERCB CURVE CODE    CURVE DESCRIPTION
#-----------   ------------------   ----------------------------------
DEPT.M        00 001 00 00         : DEPTH        - DEPTH                       
DPHI.V/V      00 890 00 00         : PHID         - DENSITY POROSITY (SANDSTONE)
NPHI.V/V      00 330 00 00         : PHIN         - NEUTRON POROSITY (SANDSTONE)
GR  .API      00 310 00 00         : GR           - GAMMA RAY                   
CALI.MM       00 280 01 00         : CAL          - CALIPER                     
ILD .OHMM     00 120 00 00         : RESD         - DEEP RESISTIVITY (DIL)      
~PARAMETER INFORMATION       
#MNEM.UNIT           DATA             DESCRIPTION OF MNEMONIC
#---------         -----------     ------------------------------
GL  .M        652.55               : gl           - GROUND LEVEL ELEVATION      
EREF.M        656.1                : kb           - ELEVATION OF DEPTH REFERENCE
DATM.M        652.55               : datum        - DATUM ELEVATION             
TDD .M        660                  : tdd          - TOTAL DEPTH DRILLER         
RUN .         ONE                  : Run          - RUN NUMBER                  
ENG .         DOWNIE               : Engineer     - RECORDING ENGINEER          
WIT .         SAUNDERS             : Witness      - WITNESSED BY                
BASE.         EDSON                : Branch       - HOME BASE OF LOGGING UNIT   
MUD .         GEL CHEM             : Mud_type     - MUD TYPE                    
MATR.         SANDSTONE            : Logunit      - NEUTRON MATRIX              
TMAX.C        31.7                 : BHT          - MAXIMUM RECORDED TEMPERATURE
BHTD.M        660                  : BHTDEP       - MAXIMUM RECORDED TEMPERATURE
RMT .C        22.2                 : MDTP         - TEMPERATURE OF MUD          
MUDD.KG/M     1060                 : MWT          - MUD DENSITY                 
NEUT.         1                    : NEUTRON      - NEUTRON TYPE                
RESI.         0                    : RESIST       - RESISTIVITY TYPE            
RM  .OHMM     5.69                 : RM           - RESISTIVITY OF MUD          
RMC .OHMM     0                    : RMC          - RESISTIVITY OF MUD CAKE     
RMF .OHMM     2.56                 : RMF          - RESISTIVITY OF MUD FILTRATE 
SUFT.C        0                    : SUFT         - SURFACE TEMPERATURE         
~A  DEPTH     PHID     PHIN       GR      CAL     RESD
# ...
  519.500    0.303    0.583  100.012  200.299    4.416
  519.750    0.257    0.501  100.321  182.743    4.924
  520.000    0.200    0.413   99.082  169.112    5.206
  520.250    0.174    0.378   93.133  156.823    5.344
  520.500    0.152    0.387   86.627  155.996    5.411
  520.750    0.176    0.410   91.336  155.479    5.482
  521.000    0.191    0.410   94.433  155.375    5.594
  521.250    0.202    0.406   95.424  156.097    5.673
  521.500    0.202    0.405   94.742  156.716    5.801
  521.750    0.189    0.403   93.874  157.232    5.852
  522.000    0.173    0.394   93.316  158.161    5.927
  522.250    0.168    0.377   92.387  160.122    6.002
  522.500    0.169    0.376   89.970  162.083    6.057
  522.750    0.147    0.384   89.164  163.632    6.076
  523.000    0.130    0.394   91.766  165.490    6.038
  523.250    0.136    0.394   97.899  166.832    5.968
  523.500    0.155    0.402  101.059  164.662    5.897
  523.750    0.170    0.415  105.891  162.183    5.796
  524.000    0.178    0.430  107.130  161.150    5.727
  524.250    0.173    0.421  105.271  161.046    5.608
  524.500    0.165    0.407  102.668  161.355    5.551
  524.750    0.167    0.413  102.730  161.561    5.518
  525.000    0.173    0.431  104.154  161.664    5.536
  525.250    0.180    0.415  105.393  160.837    5.574
  525.500    0.181    0.412  104.339  159.184    5.603
  525.750    0.177    0.413   96.594  157.325    5.610
  526.000    0.156    0.395   90.026  156.704    5.618
  526.250    0.145    0.383   87.610  156.910    5.574
  526.500    0.144    0.373   90.397  158.252    5.489
  526.750    0.169    0.368   95.106  159.181    5.403
  527.000    0.181    0.391   98.451  160.316    5.310
  527.250    0.187    0.404  100.309  161.348    5.247
  527.500    0.188    0.404   96.901  161.451    5.205
  527.750    0.186    0.412   92.626  161.656    5.182
  528.000    0.179    0.427   93.121  161.759    5.189
  528.250    0.170    0.430   94.856  161.758    5.187
  528.500    0.163    0.419   96.156  161.654    5.184
  528.750    0.168    0.409   96.590  161.757    5.182
  529.000    0.191    0.405   97.209  161.963    5.188
  529.250    0.194    0.405   99.315  162.582    5.226
  529.500    0.188    0.413  101.731  162.684    5.232
  529.750    0.183    0.420  105.076  162.890    5.268
  530.000    0.183    0.412  102.721  162.890    5.286
  530.250    0.176    0.400   99.871  162.889    5.293
  530.500    0.165    0.386   98.631  162.475    5.292
  530.750    0.145    0.371   94.170  162.062    5.298
  531.000    0.161    0.378   90.886  161.132    5.275
  531.250    0.187    0.389   91.319  160.718    5.332
  531.500    0.191    0.393   92.372  160.924    5.370
  531.750    0.177    0.404   92.310  162.059    5.378
  532.000    0.151    0.427   94.726  165.879    5.334
  532.250    0.164    0.422   98.071  169.802    5.311
  532.500    0.176    0.415   94.663  168.046    5.299
  532.750    0.176    0.410   93.423  164.121    5.345
  533.000    0.173    0.406   94.910  162.469    5.185
  533.250    0.169    0.404   96.582  160.299    5.048
  533.500    0.167    0.409   97.016  158.234    4.988
  533.750    0.187    0.410   94.103  155.858    4.948
  534.000    0.191    0.405   87.783  153.585    4.817
  534.250    0.181    0.398   82.640  152.552    4.725
  534.500    0.168    0.385   83.755  151.932    4.731
  534.750    0.200    0.380   88.587  151.415    4.800
  535.000    0.209    0.395   91.065  151.104    5.422
  535.250    0.197    0.418   91.313  151.104    6.372
  535.500    0.189    0.420   91.746  151.413    7.688
  535.750    0.171    0.383   94.162  151.412    9.257
  536.000    0.133    0.228   81.894  151.825   11.065
  536.250    0.032    0.187   58.102  152.134   12.882
  536.500    0.004    0.167   50.790  152.546   13.245
  536.750    0.022    0.200   46.081  153.062   11.559
  537.000    0.086    0.252   53.020  153.061    8.596
  537.250    0.137    0.284   62.499  152.544    6.676
  537.500    0.212    0.324   66.650  151.821    5.686
  537.750    0.242    0.357   68.942  151.097    4.953
  538.000    0.236    0.388   69.685  150.683    4.661
  538.250    0.232    0.393   69.499  150.476    4.487
  538.500    0.232    0.389   69.189  150.476    4.442
  538.750    0.234    0.402   68.755  150.268    4.482
  539.000    0.231    0.408   66.957  149.958    4.566
  539.250    0.231    0.394   64.541  149.957    4.632
  539.500    0.231    0.400   65.470  150.060    4.682
  539.750    0.228    0.395   64.044  150.163    4.715
  540.000    0.222    0.381   62.185  150.368    4.748
  540.250    0.215    0.376   60.016  150.677    4.783
  540.500    0.207    0.368   59.210  150.987    4.779
  540.750    0.200    0.364   62.122  151.089    4.768
  541.000    0.205    0.366   62.121  151.295    4.738
  541.250    0.211    0.370   59.643  151.398    4.674
  541.500    0.218    0.377   62.368  151.397    4.594
  541.750    0.225    0.385   64.599  151.396    4.514
  542.000    0.234    0.395   66.085  151.396    4.427
  542.250    0.243    0.407   65.341  151.395    4.351
  542.500    0.239    0.406   64.969  151.704    4.291
  542.750    0.235    0.402   65.650  152.220    4.210
  543.000    0.240    0.406   67.075  152.632    4.129
  543.250    0.256    0.424   68.438  152.941    4.104
  543.500    0.269    0.410   69.986  153.044    4.109
  543.750    0.270    0.398   71.968  153.353    4.145
  544.000    0.253    0.394   67.817  153.456    4.335
  544.250    0.210    0.391   62.054  153.455    4.636
  544.500    0.136    0.323   57.655  153.558    5.408
  544.750    0.038    0.256   53.565  153.764    6.212
  545.000    0.037    0.239   50.095  153.969    7.137
  545.250    0.151    0.278   55.299  153.969    7.927
  545.500    0.205    0.343   59.512  154.278    7.294
  545.750    0.239    0.383   66.327  154.690    5.915
  546.000    0.251    0.404   66.698  155.309    5.162
  546.250    0.262    0.417   64.034  155.721    4.514
  546.500    0.237    0.397   62.423  156.134    4.153
  546.750    0.162    0.370   60.687  156.443    4.352
  547.000    0.119    0.310   58.085  156.442    4.672
  547.250    0.118    0.318   55.916  156.235    5.219
  547.500    0.150    0.320   55.915  156.131    5.665
  547.750    0.116    0.303   58.765  156.131    6.521
  548.000    0.111    0.281   65.704  156.749    6.883
  548.250    0.154    0.352   74.068  157.162    6.828
  548.500    0.208    0.385   87.079  157.987    6.258
  548.750    0.239    0.452  101.700  163.873    5.586
  549.000    0.226    0.432  100.709  169.758    5.257
  549.250    0.159    0.395  100.212  168.725    5.129
  549.500    0.150    0.403  102.319  167.588    5.135
  549.750    0.146    0.393  105.416  167.587    5.200
  550.000    0.150    0.377  108.885  167.380    5.316
  550.250    0.156    0.375  110.000  167.070    5.508
  550.500    0.165    0.394  104.671  166.759    5.673
  550.750    0.144    0.415   96.802  166.449    5.799
  551.000    0.133    0.407   98.165  165.725    5.963
  551.250    0.131    0.397  104.113  165.002    6.073
  551.500    0.126    0.384  105.537  164.588    6.104
  551.750    0.114    0.373  103.430  164.588    6.078
  552.000    0.130    0.399  107.333  164.793    6.029
  552.250    0.142    0.401  111.422  164.896    5.993
  552.500    0.153    0.389  108.138  164.999    5.967
  552.750    0.154    0.382   97.729  164.688    5.941
  553.000    0.155    0.382   98.162  164.584    5.904
  553.250    0.156    0.383  100.206  164.584    5.957
  553.500    0.165    0.385   96.302  164.583    6.000
  553.750    0.165    0.398   93.700  164.582    6.043
  554.000    0.156    0.399   95.496  164.272    6.050
  554.250    0.149    0.390   96.425  164.374    5.990
  554.500    0.143    0.385   95.991  164.580    5.932
  554.750    0.153    0.386   98.903  164.580    5.894
  555.000    0.154    0.390  104.107  164.269    5.892
  555.250    0.142    0.383  109.992  164.062    5.911
  555.500    0.119    0.391  104.540  164.164    5.919
  555.750    0.104    0.429   99.273  164.164    5.915
