~VERSION INFORMATION
 VERS.                 2.0:   CWLS LOG ASCII STANDARD -VERSION 2.0
 WRAP.                  NO:   ONE LINE PER DEPTH STEP
~WELL INFORMATION BLOCK
#MNEM.UNIT           DATA                    DESCRIPTION OF MNEMONIC
#---------    -------------------            -------------------------------
# Generated from Intellog Unique Number	CS_67_68/WELL/2181
WELL.         07-34-067-08W4                 : Well_name    - WELL
LOC .         00/07-34-067-08W4/0            : Location     - LOCATION
UWI .         00/07-34-067-08W4/0            : Uwi          - UNIQUE WELL ID
ENTR.         SP                             : Entered      - ENTERED BY
SRVC.         SCHLUMBERGER                   : Scn          - SERVICE COMPANY
STRT.M        340                            : top_depth    - START DEPTH
STOP.M        563                            : bot_depth    - STOP DEPTH
STEP.M        0.25                           : increment    - STEP LENGTH
 NULL. -999.2500:NULL Value
~CURVE INFORMATION BLOCK
#MNEM UNIT       ERCB CURVE CODE    CURVE DESCRIPTION
#-----------   ------------------   ----------------------------------
DEPT.M        00 001 00 00         : DEPTH        - DEPTH
ILD .OHMM     00 120 00 00         : RESD         - DEEP RESISTIVITY (DIL)
DPHI.V/V      00 890 00 00         : PHID         - DENSITY POROSITY (LIMESTONE)
NPHI.V/V      00 330 00 00         : PHIN         - NEUTRON POROSITY (LIMESTONE)
GR  .API      00 310 00 00         : GR           - GAMMA RAY
CALI.MM       00 280 01 00         : CAL          - CALIPER
~PARAMETER INFORMATION
#MNEM.UNIT           DATA             DESCRIPTION OF MNEMONIC
#---------         -----------     ------------------------------
GL  .M        644.13               : gl           - GROUND LEVEL ELEVATION
EREF.M        648.68               : kb           - ELEVATION OF DEPTH REFERENCE
DATM.M        648.68               : datum        - DATUM ELEVATION
TDD .M        572                  : tdd          - TOTAL DEPTH DRILLER
RUN .         ONE                  : Run          - RUN NUMBER
ENG .         BILL                 : Engineer     - RECORDING ENGINEER
WIT .         JIM                  : Witness      - WITNESSED BY
MUD .         GEL                  : Mud_type     - MUD TYPE
MATR.         LIMESTONE            : Logunit      - NEUTRON MATRIX
TMAX.C        23                   : BHT          - MAXIMUM RECORDED TEMPERATURE
BHTD.M        571                  : BHTDEP       - MAXIMUM RECORDED TEMPERATURE
MATR.         1                    : LOGUNIT      - NEUTRON MATRIX
RMT .C        25                   : MDTP         - TEMPERATURE OF MUD
NEUT.         1                    : NEUTRON      - NEUTRON TYPE
RESI.         0                    : RESIST       - RESISTIVITY TYPE
RMC .OHMM     0.25                 : RMC          - RESISTIVITY OF MUD CAKE
RMF .OHMM     0.25                 : RMF          - RESISTIVITY OF MUD FILTRATE
SUFT.C        15                   : SUFT         - SURFACE TEMPERATURE
~A  DEPTH     RESD     PHID     PHIN       GR      CAL
# ...
  486.000    1.381    0.305    0.523   84.219  210.719
  486.250    1.544    0.291    0.536   85.684  210.707
  486.500    1.789    0.273    0.545   82.608  211.408
  486.750    2.004    0.257    0.525   77.320  211.810
  487.000    2.182    0.179    0.503   73.138  212.716
  487.250    2.279    0.143    0.508   74.114  213.320
  487.500    2.368    0.216    0.526   78.097  214.127
  487.750    2.441    0.266    0.538   80.055  215.443
  488.000    2.516    0.264    0.552   80.354  216.149
  488.250    2.560    0.263    0.567   81.085  216.650
  488.500    2.595    0.258    0.541   82.797  217.764
  488.750    2.566    0.263    0.516   84.386  218.878
  489.000    2.552    0.267    0.498   84.808  218.865
  489.250    2.732    0.271    0.513   83.820  218.445
  489.500    2.914    0.262    0.529   79.636  217.717
  489.750    3.114    0.235    0.498   76.375  216.784
  490.000    3.346    0.199    0.469   76.492  216.057
  490.250    3.515    0.161    0.498   76.853  215.430
  490.500    3.637    0.152    0.469   69.601  214.701
  490.750    3.666    0.130    0.434   65.235  214.177
  491.000    3.618    0.168    0.483   70.937  214.165
  491.250    3.512    0.219    0.505   75.965  214.871
  491.500    3.389    0.257    0.496   80.502  215.371
  491.750    3.276    0.266    0.484   85.160  215.256
  492.000    3.144    0.257    0.489   87.978  215.243
  492.250    3.097    0.236    0.470   84.901  215.336
  492.500    3.086    0.222    0.462   85.815  215.529
  492.750    3.146    0.215    0.474   88.878  215.925
  493.000    3.213    0.210    0.482   91.019  216.220
  493.250    3.293    0.208    0.466   92.792  216.004
  493.500    3.414    0.211    0.456   94.751  216.094
  493.750    3.594    0.209    0.452   92.041  215.880
  494.000    3.928    0.209    0.460   87.307  215.662
  494.250    4.301    0.228    0.458   83.800  215.136
  494.500    4.782    0.254    0.440   80.355  214.923
  494.750    5.459    0.266    0.436   77.155  215.216
  495.000    5.910    0.268    0.435   74.201  215.102
  495.250    6.448    0.265    0.432   77.141  214.579
  495.500    6.851    0.266    0.429   83.519  213.749
  495.750    7.170    0.274    0.429   89.958  213.227
  496.000    7.378    0.260    0.421   95.601  213.521
  496.250    7.379    0.238    0.406  101.181  214.636
  496.500    6.922    0.219    0.432  105.227  216.978
  496.750    6.494    0.204    0.461  105.404  217.067
  497.000    6.326    0.222    0.402   74.574  214.804
  497.250    6.595    0.244    0.373   62.226  211.928
  497.500    6.812    0.267    0.375   52.026  208.641
  497.750    6.970    0.282    0.376   46.678  204.536
  498.000    6.428    0.295    0.367   43.355  200.942
  498.250    5.719    0.289    0.339   45.190  197.964
  498.500    5.157    0.280    0.323   47.699  204.603
  498.750    4.765    0.274    0.323   50.947  204.387
  499.000    4.650    0.265    0.330   55.545  204.478
  499.250    4.749    0.254    0.340   61.062  204.772
  499.500    4.942    0.248    0.350   63.759  205.066
  499.750    5.076    0.257    0.367   65.716  205.464
  500.000    5.077    0.264    0.377   64.174  205.555
  500.250    5.078    0.273    0.368   66.377  205.544
  500.500    5.186    0.280    0.368   68.274  205.839
  500.750    5.417    0.260    0.372   71.521  206.134
  501.000    5.778    0.237    0.377   74.092  206.224
  501.250    6.104    0.223    0.391   74.822  206.619
  501.500    6.522    0.232    0.398   73.649  206.917
  501.750    7.009    0.214    0.328   64.002  207.212
  502.000    7.419    0.147    0.344   55.338  207.405
  502.250    7.883    0.112    0.363   48.945  207.494
  502.500    8.203    0.152    0.379   44.579  207.587
  502.750    8.330    0.212    0.359   52.000  207.469
  503.000    7.610    0.289    0.350   60.099  207.563
  503.250    6.810    0.272    0.369   67.705  207.347
  503.500    6.151    0.253    0.384   63.953  207.130
  503.750    5.727    0.299    0.400   52.587  207.116
  504.000    5.413    0.326    0.393   47.729  207.105
  504.250    5.204    0.321    0.398   51.712  207.095
  504.500    5.031    0.318    0.407   55.635  206.979
  504.750    4.910    0.313    0.405   59.742  207.071
  505.000    4.902    0.293    0.398   65.261  207.366
  505.250    5.092    0.258    0.381   73.235  207.864
  505.500    5.370    0.237    0.363   77.895  208.160
  505.750    5.588    0.218    0.376   81.449  208.558
  506.000    5.949    0.201    0.391   84.634  209.058
  506.250    6.132    0.205    0.392   88.126  210.376
  506.500    6.334    0.214    0.389   90.331  211.387
  506.750    6.468    0.203    0.383   91.981  212.195
  507.000    6.618    0.209    0.368   92.833  212.999
  507.250    6.822    0.214    0.364   91.169  213.909
  507.500    6.928    0.203    0.367   87.048  214.818
  507.750    7.061    0.189    0.388   89.804  215.423
  508.000    7.117    0.182    0.401   88.753  215.615
  508.250    7.118    0.216    0.372   80.703  215.297
  508.500    6.947    0.239    0.351   64.302  213.850
  508.750    6.616    0.264    0.383   56.190  212.715
  509.000    6.068    0.252    0.411   53.052  211.680
  509.250    5.596    0.262    0.435   46.844  210.952
  509.500    5.132    0.286    0.368   38.240  210.531
  509.750    4.742    0.309    0.334   32.339  209.598
  510.000    4.439    0.321    0.333   30.674  209.379
  510.250    4.172    0.324    0.345   35.027  209.370
  510.500    3.989    0.326    0.366   40.360  209.050
  510.750    3.849    0.318    0.390   46.493  209.346
  511.000    3.749    0.313    0.387   50.723  209.436
  511.250    3.729    0.316    0.394   53.049  209.321
  511.500    3.780    0.300    0.408   45.552  209.002
  511.750    3.956    0.275    0.368   47.018  208.685
  512.000    4.070    0.262    0.364   51.555  208.571
  512.250    4.228    0.265    0.373   56.644  208.252
  512.500    4.309    0.277    0.384   59.645  208.236
  512.750    4.081    0.294    0.375   51.472  208.225
  513.000    3.894    0.308    0.385   43.115  207.907
  513.250    3.902    0.316    0.372   39.178  207.795
  513.500    4.053    0.298    0.349   47.521  207.477
  513.750    4.364    0.281    0.337   54.944  207.258
  514.000    5.076    0.256    0.332   63.532  207.249
  514.250    6.260    0.217    0.338   69.297  207.339
  514.500    6.986    0.099    0.310   73.649  207.735
  514.750    7.409    0.041    0.266   73.273  208.441
  515.000    7.652    0.012    0.274   71.179  209.349
  515.250    7.874    0.016    0.300   77.987  210.566
  515.500    7.905    0.089    0.338   83.751  212.089
  515.750    7.629    0.168    0.373   88.471  213.101
  516.000    7.076    0.203    0.370   91.719  214.215
  516.250    6.662    0.213    0.362   93.554  215.534
  516.500    6.405    0.201    0.377   94.160  216.033
  516.750    6.467    0.191    0.380   95.873  216.019
  517.000    6.617    0.184    0.373   96.296  215.702
  517.250    6.783    0.184    0.376   94.076  214.974
  517.500    6.875    0.187    0.385   93.211  214.042
  517.750    6.889    0.185    0.392   89.889  212.700
  518.000    6.839    0.176    0.404   86.076  211.460
  518.250    6.688    0.178    0.411   83.059  210.118
  518.500    6.405    0.200    0.410   81.210  208.468
  518.750    6.065    0.220    0.405   79.792  207.330
  519.000    5.831    0.240    0.413   84.819  207.013
  519.250    5.876    0.223    0.409   93.100  206.386
  519.500    6.197    0.200    0.405   99.049  206.373
  519.750    6.437    0.210    0.399  102.911  206.669
  520.000    6.660    0.219    0.386   91.852  207.474
  520.250    7.050    0.225    0.362   74.100  208.181
  520.500    8.453    0.181    0.351   71.944  209.500
  520.750    9.777    0.156    0.362   74.209  211.022
  521.000   10.707    0.243    0.364   60.203  211.728
  521.250   11.571    0.262    0.358   49.819  211.307
  521.500   12.201    0.267    0.355   61.478  209.350
  521.750   12.698    0.245    0.366   86.091  208.724
  522.000   13.041    0.214    0.378   91.549  209.940
  522.250   11.131    0.166    0.374   92.648  212.282
