~VERSION INFORMATION
 VERS.                 2.0:   CWLS LOG ASCII STANDARD -VERSION 2.0
 WRAP.                  NO:   ONE LINE PER DEPTH STEP
~WELL INFORMATION BLOCK
#MNEM.UNIT           DATA                    DESCRIPTION OF MNEMONIC
#---------    -------------------            -------------------------------
# Generated from Intellog Unique Number	CW_76_78/WELL/2797
WELL.         SCURRY ATKINSON MCMULLEN 07-13 : Well_name    - WELL
LOC .         00/07-13-078-26W4/0            : Location     - LOCATION
UWI .         00/07-13-078-26W4/0            : Uwi          - UNIQUE WELL ID
ENTR.         JJ                             : Entered      - ENTERED BY
SRVC.         WESTERN ATLAS                  : Scn          - SERVICE COMPANY
DATE.         7 FEB 73                       : Date         - LOG DATE
STRT.M        374.904                        : top_depth    - START DEPTH
STOP.M        502.904                        : bot_depth    - STOP DEPTH
STEP.M        0.25                           : increment    - STEP LENGTH
 NULL. -999.2500:NULL Value
~CURVE INFORMATION BLOCK
#MNEM UNIT       ERCB CURVE CODE    CURVE DESCRIPTION
#-----------   ------------------   ----------------------------------
DEPT.M        00 001 00 00         : DEPTH        - DEPTH
ILD .OHMM     00 120 00 00         : RESD         - DEEP RESISTIVITY (DIL)
GR  .API      00 310 00 00         : GR           - GAMMA RAY
DELT.US/F     00 520 00 00         : DELT         - SONIC TRAVEL TIME
CALI.MM       00 280 01 00         : CAL          - CALIPER
~PARAMETER INFORMATION
#MNEM.UNIT           DATA             DESCRIPTION OF MNEMONIC
#---------         -----------     ------------------------------
GL  .M        591.16               : gl           - GROUND LEVEL ELEVATION
EREF.M        594.482              : kb           - ELEVATION OF DEPTH REFERENCE
DATM.M        591.16               : datum        - DATUM ELEVATION
TDD .M        502.92               : tdd          - TOTAL DEPTH DRILLER
RUN .         ONE                  : Run          - RUN NUMBER
ENG .         CLARK                : Engineer     - RECORDING ENGINEER
WIT .         GALLOWAY             : Witness      - WITNESSED BY
BASE.         V.V.                 : Branch       - HOME BASE OF LOGGING UNIT
MUD .         MUD/GEL              : Mud_type     - MUD TYPE
MATR.         SANDSTONE            : Logunit      - NEUTRON MATRIX
TMAX.C        25                   : BHT          - MAXIMUM RECORDED TEMPERATURE
BHTD.M        501.396              : BHTDEP       - MAXIMUM RECORDED TEMPERATURE
RMT .C        16.6667              : MDTP         - TEMPERATURE OF MUD
MUDD.KG/M     1140                 : MWT          - MUD DENSITY
NEUT.         1                    : NEUTRON      - NEUTRON TYPE
RESI.         0                    : RESIST       - RESISTIVITY TYPE
RM  .OHMM     8.5                  : RM           - RESISTIVITY OF MUD
RMC .OHMM     9.7                  : RMC          - RESISTIVITY OF MUD CAKE
RMF .OHMM     6.5                  : RMF          - RESISTIVITY OF MUD FILTRATE
SUFT.C        5                    : SUFT         - SURFACE TEMPERATURE
~A  DEPTH     RESD       GR     DELT      CAL
# ...
  418.404    9.875   88.588  381.329  177.936
  418.654   10.683   90.997  386.180  174.050
  418.904   12.046   95.056  383.999  172.789
  419.154   13.459   96.726  366.580  175.868
  419.404   16.079   94.484  346.280  177.238
  419.654   19.929   85.879  312.839  176.574
  419.904   23.656   79.355  276.275  176.029
  420.154   26.929   74.300  259.024  175.380
  420.404   31.469   74.383  270.337  174.925
  420.654   34.866   71.526  277.092  173.461
  420.904   35.963   69.405  263.120  172.199
  421.154   34.448   70.287  276.637  172.156
  421.404   34.345   72.750  319.993  173.513
  421.654   36.562   77.424  319.465  174.786
  421.904   35.686   80.380  290.313  176.049
  422.154   30.709   82.294  292.354  176.305
  422.404   26.881   83.845  370.640  176.051
  422.654   23.245   85.212  379.503  175.904
  422.904   20.089   87.373  373.436  175.859
  423.154   20.838   90.819  380.084  175.405
  423.404   21.700   90.901  378.093  173.140
  423.654   22.326   92.206  374.444  171.070
  423.904   22.232   92.656  373.682  172.437
  424.154   21.391   90.535  374.401  176.227
  424.404   20.032   91.597  370.100  176.784
  424.654   18.583   93.330  372.298  177.140
  424.904   18.056   93.105  378.343  176.784
  425.154   18.424   91.661  375.988  176.639
  425.404   19.148   92.169  366.801  175.680
  425.654   19.100   94.575  353.624  175.636
  425.904   18.351   92.944  356.220  175.276
  426.154   18.249   90.029  374.521  175.034
  426.404   19.332   90.539  371.918  175.589
  426.654   20.825   91.110  331.227  175.744
  426.904   22.139   88.502  286.282  175.799
  427.154   23.116   87.910  284.384  176.049
  427.404   23.209   83.406  350.008  176.107
  427.654   22.657   84.283  370.440  174.441
  427.904   21.938   87.605  362.218  172.981
  428.154   21.369   91.051  332.602  172.227
  428.404   21.336   92.173  300.710  171.771
  428.654   21.848   93.050  335.414  171.214
  428.904   21.399   89.527  354.026  170.669
  429.154   19.657   87.953  334.509  170.314
  429.404   18.472   93.969  298.128  170.672
  429.654   18.132   93.198  328.722  171.331
  429.904   17.761   90.893  373.161  174.816
  430.154   16.867   90.790  373.351  176.986
  430.404   15.503   94.299  364.743  177.249
  430.654   14.692   98.479  363.687  176.999
  430.904   14.711   98.498  366.695  176.444
  431.154   15.017   99.194  361.691  176.095
  431.404   15.454  101.356  358.942  176.351
  431.654   15.891  100.888  358.849  176.199
  431.904   16.151   97.727  362.566  176.155
  432.154   15.688   98.175  365.864  175.500
  432.404   15.081   96.974  368.933  173.836
  432.654   14.524   97.178  369.526  171.863
  432.904   14.392   98.482  360.131  171.418
  433.154   14.646   98.686  361.898  174.297
  433.404   14.727   98.095  360.967  176.877
  433.654   15.009   98.303  355.889  178.643
  433.904   15.556  100.217  354.923  178.998
  434.154   15.296   97.118  361.840  178.751
  434.404   14.930   97.690  363.193  178.400
  434.654   14.671  100.219  362.478  178.148
  434.904   14.469  101.401  363.572  178.103
  435.154   14.697  104.114  365.784  177.854
  435.404   15.297  100.404  369.209  177.297
  435.654   15.872   99.933  357.517  177.250
  435.904   15.527  103.749  343.860  176.691
  436.154   15.134   99.610  358.208  176.750
  436.404   14.236   96.448  368.484  176.392
  436.654   13.200   98.429  368.338  176.451
  436.904   12.415  100.344  367.911  176.401
  437.154   11.938  101.710  368.689  176.962
  437.404   11.791  101.302  372.127  179.944
  437.654   11.854  104.933  372.290  181.211
  437.904   12.055  103.732  368.492  180.758
  438.154   12.476   99.778  363.562  178.788
  438.404   13.001   97.228  358.287  177.928
  438.654   13.653   97.920  351.493  177.272
  438.904   14.382   99.898  345.500  177.235
  439.154   15.017   97.900  339.052  177.086
  439.404   15.513   94.863  334.427  178.250
  439.654   15.914   93.111  335.185  180.423
  439.904   16.080   92.764  333.814  180.067
  440.154   14.897   93.030  331.937  179.004
  440.404   13.084   93.661  346.903  180.276
  440.654   11.773   95.399  363.964  182.952
  440.904   10.954   97.007  376.647  185.129
  441.154   10.962   99.963  384.481  185.283
  441.404   11.301  104.082  370.211  181.294
  441.654   11.828  104.348  348.566  178.619
  441.904   12.382   98.987  337.982  177.869
  442.154   12.991   94.420  360.956  177.419
  442.404   13.288   89.545  365.230  180.099
  442.654   14.838   91.707  360.919  179.539
  442.904   17.745   92.035  351.641  178.883
  443.154   20.797   92.424  319.820  177.832
  443.404   24.554   84.187  297.693  175.462
  443.654   29.321   77.354  283.328  172.178
  443.904   33.946   71.256  277.991  169.810
  444.154   36.862   67.180  287.110  174.603
  444.404   39.511   68.608  239.734  177.285
  444.654   41.565   69.424  197.601  177.533
  444.904   43.769   67.853  194.074  177.696
  445.154   44.691   66.041  211.979  177.649
  445.404   41.315   68.692  244.801  178.007
  445.654   36.060   72.935  292.529  181.696
  445.904   27.682   76.811  306.475  181.841
  446.154   22.591   80.135  303.299  181.194
  446.404   18.670   82.966  313.635  179.929
  446.654   17.462   88.249  326.845  178.868
  446.904   17.130   92.306  342.292  178.121
  447.154   17.497   94.591  320.112  177.670
  447.404   18.515   91.123  285.132  177.311
  447.654   17.692   87.477  335.082  178.078
  447.904   15.814   86.271  347.501  181.463
  448.154   14.224   87.882  352.391  183.136
  448.404   13.292   93.534  353.617  183.389
  448.654   12.980   98.385  357.861  185.261
  448.904   13.104  100.242  359.147  185.307
  449.154   13.366   98.059  351.172  184.247
  449.404   13.771   98.877  343.800  182.986
  449.654   14.327  100.976  350.583  182.840
  449.904   14.592   98.489  354.440  182.587
  450.154   14.692  100.100  347.572  181.737
  450.404   15.426  101.712  350.340  181.585
  450.654   15.954  100.508  359.868  181.442
  450.904   16.155   95.269  354.987  180.885
  451.154   16.082   96.390  356.811  180.742
  451.404   15.835   96.962  360.794  181.098
  451.654   15.529   93.926  359.848  181.554
  451.904   15.458   93.639  356.528  180.594
  452.154   15.145   94.823  359.005  179.530
  452.404   15.316   96.190  362.983  179.188
  452.654   15.458   97.434  354.795  178.830
  452.904   15.514   98.373  352.135  179.087
  453.154   15.359   98.637  357.355  180.658
  453.404   15.129  100.187  357.704  184.344
  453.654   15.061  100.209  352.174  184.703
  453.904   15.059   99.983  355.056  181.831
  454.154   14.951   99.333  357.917  179.559
  454.404   14.787   97.886  353.990  179.511
  454.654   14.539   97.172  348.123  182.896
  454.904   14.176   97.559  347.373  182.038
  455.154   13.744   99.414  345.688  181.486
  455.404   13.520   97.968  350.802  186.287
  455.654   13.400   95.237  359.179  188.556
  455.904   13.073   96.174  358.019  188.915
  456.154   12.625   97.051  356.622  185.132
  456.404   12.315   97.074  355.527  180.233
  456.654   12.339   98.928  354.295  180.189
  456.904   12.557  100.479  354.712  184.980
  457.154   13.037  100.070  359.467  188.475
  457.404   13.616   98.195  348.094  187.617
  457.654   13.858   97.116  348.093  186.661
  457.904   13.754   95.606  338.311  187.218
  458.154   13.678   92.691  335.456  190.002
  458.404   13.493   92.774  356.966  190.659
  458.654   13.358   95.057  362.753  188.081
  458.904   13.278   97.340  358.895  186.626
  459.154   13.024   94.486  360.070  184.757
  459.404   12.787   94.571  358.694  184.006
  459.654   13.286   95.080  353.360  183.954
  459.904   14.456   95.895  361.162  187.848
  460.154   16.145   96.467  352.819  187.995
  460.404   17.908   95.385  337.402  183.291
  460.654   19.709   92.838  328.753  181.036
  460.904   21.486   88.393  336.939  179.370
  461.154   23.670   86.579  339.777  181.545
  461.404   25.549   86.417  326.279  183.618
  461.654   27.625   86.438  291.206  184.176
