~VERSION INFORMATION
 VERS.                 2.0:   CWLS LOG ASCII STANDARD -VERSION 2.0
 WRAP.                  NO:   ONE LINE PER DEPTH STEP
~WELL INFORMATION BLOCK
#MNEM.UNIT           DATA                    DESCRIPTION OF MNEMONIC
#---------    -------------------            -------------------------------
# Generated from Intellog Unique Number	CS_77_79/WELL/907
WELL.         HOME OIL COMPANY LIMITED       : Well_name    - WELL
LOC .         00/07-25-077-06W4/0            : Location     - LOCATION
UWI .         00/07-25-077-06W4/0            : Uwi          - UNIQUE WELL ID
ENTR.         SP                             : Entered      - ENTERED BY
SRVC.         SCHLUMBERGER                   : Scn          - SERVICE COMPANY
STRT.M        145                            : top_depth    - START DEPTH
STOP.M        420                            : bot_depth    - STOP DEPTH
STEP.M        0.25                           : increment    - STEP LENGTH
 NULL. -999.2500:NULL Value
~CURVE INFORMATION BLOCK
#MNEM UNIT       ERCB CURVE CODE    CURVE DESCRIPTION
#-----------   ------------------   ----------------------------------
DEPT.M        00 001 00 00         : DEPTH        - DEPTH
ILD .OHMM     00 120 00 00         : RESD         - DEEP RESISTIVITY (DIL)
DPHI.V/V      00 890 00 00         : PHID         - DENSITY POROSITY (LIMESTONE)
NPHI.V/V      00 330 00 00         : PHIN         - NEUTRON POROSITY (LIMESTONE)
GR  .API      00 310 00 00         : GR           - GAMMA RAY
~PARAMETER INFORMATION
#MNEM.UNIT           DATA             DESCRIPTION OF MNEMONIC
#---------         -----------     ------------------------------
GL  .M        565.83               : gl           - GROUND LEVEL ELEVATION
EREF.M        568.85               : kb           - ELEVATION OF DEPTH REFERENCE
DATM.M        565.83               : datum        - DATUM ELEVATION
TDD .M        420.8                : tdd          - TOTAL DEPTH DRILLER
RUN .         ONE                  : Run          - RUN NUMBER
ENG .         BILL                 : Engineer     - RECORDING ENGINEER
WIT .         JIM                  : Witness      - WITNESSED BY
MUD .         GEL                  : Mud_type     - MUD TYPE
MATR.         LIMESTONE            : Logunit      - NEUTRON MATRIX
TMAX.C        16                   : BHT          - MAXIMUM RECORDED TEMPERATURE
BHTD.M        420.8                : BHTDEP       - MAXIMUM RECORDED TEMPERATURE
MATR.         1                    : LOGUNIT      - NEUTRON MATRIX
RMT .C        25                   : MDTP         - TEMPERATURE OF MUD
NEUT.         1                    : NEUTRON      - NEUTRON TYPE
RESI.         0                    : RESIST       - RESISTIVITY TYPE
RMC .OHMM     0.25                 : RMC          - RESISTIVITY OF MUD CAKE
RMF .OHMM     0.25                 : RMF          - RESISTIVITY OF MUD FILTRATE
SUFT.C        15                   : SUFT         - SURFACE TEMPERATURE
~A  DEPTH     RESD     PHID     PHIN       GR
# ...
  232.000    8.753    0.220    0.379   96.640
  232.250    8.922    0.226    0.406   91.173
  232.500    8.929    0.231    0.432   91.795
  232.750    8.934    0.234    0.453   92.421
  233.000    8.938    0.225    0.432   93.050
  233.250    9.111    0.207    0.395   96.119
  233.500    8.946    0.218    0.416   97.960
  233.750    8.951    0.221    0.428   96.146
  234.000    8.790    0.221    0.420   96.775
  234.250    8.795    0.214    0.432   94.352
  234.500    8.636    0.216    0.448   94.372
  234.750    8.480    0.213    0.471   96.824
  235.000    8.172    0.210    0.484   99.281
  235.250    7.877    0.198    0.405  102.957
  235.500    7.881    0.206    0.401  101.752
  235.750    7.887    0.212    0.426  103.597
  236.000    7.891    0.212    0.456  103.008
  236.250    7.895    0.199    0.485  102.416
  236.500    7.900    0.204    0.446  103.039
  236.750    7.756    0.203    0.412  107.327
  237.000    7.759    0.188    0.369  107.952
  237.250    7.764    0.194    0.390  104.923
  237.500    7.914    0.202    0.401  103.714
  237.750    7.919    0.189    0.440  101.902
  238.000    7.922    0.199    0.414  103.139
  238.250    7.780    0.200    0.433  105.594
  238.500    7.498    0.202    0.442  103.783
  238.750    6.705    0.192    0.462  102.578
  239.000    5.885    0.191    0.496  107.479
  239.250    5.671    0.192    0.512  111.153
  239.500    5.167    0.199    0.533  113.605
  239.750    4.621    0.201    0.522  114.841
  240.000    4.453    0.202    0.509  114.247
  240.250    4.373    0.211    0.527  114.262
  240.500    4.295    0.223    0.489  108.182
  240.750    4.297    0.198    0.464  106.370
  241.000    4.218    0.206    0.509  108.215
  241.250    4.143    0.223    0.558  111.283
  241.500    3.993    0.219    0.586  110.078
  241.750    3.848    0.215    0.572  113.147
  242.000    3.850    0.219    0.546  116.823
  242.250    3.999    0.264    0.540  113.786
  242.500    4.477    0.302    0.384  110.146
  242.750    5.932    0.349    0.314  103.453
  243.000    6.765    0.370    0.240   94.322
  243.250    7.716    0.251    0.260   90.682
  243.500    7.032    0.224    0.400   87.037
  243.750    6.527    0.210    0.438   91.935
  244.000    5.730    0.216    0.462   94.999
  244.250    5.521    0.209    0.502   97.453
  244.500    5.321    0.220    0.503   98.691
  244.750    5.129    0.237    0.505   93.829
  245.000    5.130    0.206    0.575   99.946
  245.250    5.135    0.219    0.543   98.740
  245.500    5.137    0.212    0.527  101.199
  245.750    5.140    0.209    0.569  103.041
  246.000    5.047    0.219    0.556  101.231
  246.250    5.051    0.218    0.547   97.587
  246.500    5.147    0.207    0.566   93.334
  246.750    4.868    0.207    0.592   95.790
  247.000    5.153    0.218    0.549   97.027
  247.250    5.556    0.233    0.545  100.092
  247.500    6.458    0.260    0.598  108.651
  247.750    7.229    0.288    0.575  105.614
  248.000    8.722    0.333    0.527   95.873
  248.250   10.329    0.330    0.453   81.253
  248.500   11.347    0.331    0.457   69.072
  248.750   12.009    0.330    0.522   62.992
  249.000   12.950    0.323    0.563   66.058
  249.250   13.453    0.325    0.557   67.902
  249.500   13.459    0.333    0.551   63.041
  249.750   13.981    0.321    0.479   65.497
  250.000   14.520    0.318    0.447   61.858
  250.250   15.366    0.312    0.465   61.871
  250.500   15.962    0.310    0.523   63.721
  250.750   16.274    0.299    0.531   64.343
  251.000   16.902    0.295    0.512   64.969
  251.250   17.233    0.293    0.469   63.767
  251.500   17.238    0.306    0.432   64.397
  251.750   17.579    0.319    0.508   66.849
  252.000   17.586    0.310    0.539   63.819
  252.250   17.928    0.301    0.537   66.884
  252.500   17.938    0.297    0.535   67.511
  252.750   17.949    0.301    0.590   65.088
  253.000   18.296    0.296    0.576   65.109
  253.250   19.004    0.301    0.553   65.120
  253.500   19.013    0.296    0.480   66.361
  253.750   19.020    0.291    0.475   67.592
  254.000   19.036    0.287    0.455   65.783
  254.250   19.044    0.285    0.424   65.796
  254.500   19.053    0.286    0.442   68.861
  254.750   19.064    0.286    0.530   66.439
  255.000   19.436    0.292    0.557   65.237
  255.250   20.568    0.297    0.583   64.642
  255.500   22.180    0.299    0.604   62.221
  255.750   23.037    0.248    0.122   57.358
  256.000   23.485    0.000    0.100   51.886
  256.250   23.942    0.000    0.133   47.023
  256.500   23.510    0.111    0.387   42.772
  256.750   22.657    0.287    0.436   52.550
  257.000   21.035    0.276    0.460   58.662
  257.250   20.274    0.273    0.475   62.339
  257.500   19.904    0.283    0.486   66.018
  257.750   19.553    0.281    0.499   66.027
  258.000   19.565    0.297    0.489   62.999
  258.250   19.211    0.298    0.462   61.183
  258.500   19.220    0.301    0.453   58.150
  258.750   19.227    0.298    0.454   56.339
  259.000   18.528    0.306    0.479   57.574
  259.250   17.859    0.314    0.500   60.036
  259.500   17.209    0.322    0.479   61.268
  259.750   16.898    0.318    0.463   64.339
  260.000   16.288    0.312    0.460   65.570
  260.250   15.696    0.309    0.491   65.584
  260.500   15.131    0.333    0.512   60.113
  260.750   14.582    0.329    0.501   63.794
  261.000   14.053    0.327    0.499   65.024
  261.250   13.798    0.317    0.485   66.869
  261.500   13.302    0.333    0.490   71.768
  261.750   13.307    0.334    0.517   71.174
  262.000   12.827    0.321    0.507   69.360
  262.250   12.831    0.318    0.499   66.937
  262.500   12.600    0.318    0.485   70.616
  262.750   12.604    0.322    0.467   72.458
  263.000   12.851    0.324    0.466   71.864
  263.250   12.856    0.317    0.470   70.051
  263.500   12.866    0.312    0.502   68.849
  263.750   12.873    0.308    0.526   71.917
  264.000   12.638    0.313    0.548   70.101
  264.250   12.412    0.318    0.550   71.947
  264.500   11.961    0.325    0.521   76.233
  264.750   11.530    0.313    0.505   78.082
  265.000   11.110    0.303    0.495   78.705
  265.250   10.509    0.304    0.523   75.676
  265.500    9.756    0.296    0.522   79.349
  265.750    9.228    0.269    0.517   89.734
  266.000    8.252    0.234    0.543   94.628
  266.250    7.519    0.233    0.569   93.425
  266.500    6.981    0.231    0.522   92.834
  266.750    6.602    0.231    0.464   95.900
  267.000    6.245    0.219    0.483   95.914
  267.250    5.907    0.230    0.469   97.154
  267.500    5.485    0.224    0.489   96.557
  267.750    5.187    0.224    0.519   96.573
  268.000    4.817    0.203    0.548  102.080
  268.250    4.641    0.194    0.478  108.197
  268.500    4.390    0.198    0.380  108.822
  268.750    4.000    0.186    0.389  108.226
  269.000    3.783    0.241    0.399  108.243
  269.250    3.512    0.247    0.432  105.214
  269.500    3.322    0.249    0.462  103.399
  269.750    3.027    0.245    0.493  106.464
  270.000    2.917    0.235    0.470  108.310
  270.250    2.708    0.230    0.517  106.505
  270.500    2.562    0.228    0.559  108.345
  270.750    2.515    0.219    0.605  110.189
  271.000    2.662    0.217    0.572  109.595
  271.250    2.817    0.213    0.525  110.223
  271.500    3.096    0.214    0.546  113.291
  271.750    3.338    0.227    0.575  118.183
  272.000    3.880    0.231    0.607  113.932
  272.250    4.343    0.215    0.591  107.850
  272.500    4.771    0.232    0.499  100.548
  272.750    5.651    0.240    0.522   97.515
  273.000    6.093    0.269    0.543   99.362
  273.250    6.694    0.270    0.498   92.672
  273.500    7.219    0.260    0.428   88.420
  273.750    7.784    0.291    0.389   86.603
  274.000    8.084    0.313    0.340   81.135
  274.250    8.556    0.290    0.364   76.879
  274.500    8.561    0.277    0.432   76.288
  274.750    8.566    0.272    0.410   80.572
  275.000    8.732    0.263    0.419   81.200
  275.250    9.241    0.266    0.456   81.216
