~VERSION INFORMATION
 VERS.                 2.0:   CWLS LOG ASCII STANDARD -VERSION 2.0
 WRAP.                  NO:   ONE LINE PER DEPTH STEP
~WELL INFORMATION BLOCK
#MNEM.UNIT           DATA                    DESCRIPTION OF MNEMONIC
#---------    -------------------            -------------------------------
# Generated from Intellog Unique Number	CS_77_79/WELL/902
WELL.         ICGR GRAHAM                    : Well_name    - WELL
LOC .         00/07-20-079-04W4/0            : Location     - LOCATION
UWI .         00/07-20-079-04W4/0            : Uwi          - UNIQUE WELL ID
ENTR.         JHS                            : Entered      - ENTERED BY
SRVC.         SCHLUMBERGER                   : Scn          - SERVICE COMPANY
STRT.M        130                            : top_depth    - START DEPTH
STOP.M        355                            : bot_depth    - STOP DEPTH
STEP.M        0.25                           : increment    - STEP LENGTH
 NULL. -999.2500:NULL Value
~CURVE INFORMATION BLOCK
#MNEM UNIT       ERCB CURVE CODE    CURVE DESCRIPTION
#-----------   ------------------   ----------------------------------
DEPT.M        00 001 00 00         : DEPTH        - DEPTH
DPHI.V/V      00 890 00 00         : PHID         - DENSITY POROSITY (LIMESTONE)
NPHI.V/V      00 330 00 00         : PHIN         - NEUTRON POROSITY (LIMESTONE)
GR  .API      00 310 00 00         : GR           - GAMMA RAY
ILD .OHMM     00 120 00 00         : RESD         - DEEP RESISTIVITY (DIL)
RHOB.KG/M3    00 350 00 00         : DENS         - BULK DENSITY
~PARAMETER INFORMATION
#MNEM.UNIT           DATA             DESCRIPTION OF MNEMONIC
#---------         -----------     ------------------------------
GL  .M        503                  : gl           - GROUND LEVEL ELEVATION
EREF.M        506.6                : kb           - ELEVATION OF DEPTH REFERENCE
DATM.M        506.6                : datum        - DATUM ELEVATION
TDD .M        355                  : tdd          - TOTAL DEPTH DRILLER
RUN .         ONE                  : Run          - RUN NUMBER
ENG .         BILL                 : Engineer     - RECORDING ENGINEER
WIT .         JIM                  : Witness      - WITNESSED BY
MUD .         GEL                  : Mud_type     - MUD TYPE
MATR.         LIMESTONE            : Logunit      - NEUTRON MATRIX
TMAX.C        19                   : BHT          - MAXIMUM RECORDED TEMPERATURE
BHTD.M        355                  : BHTDEP       - MAXIMUM RECORDED TEMPERATURE
MATR.         1                    : LOGUNIT      - NEUTRON MATRIX
RMT .C        25                   : MDTP         - TEMPERATURE OF MUD
NEUT.         1                    : NEUTRON      - NEUTRON TYPE
RESI.         0                    : RESIST       - RESISTIVITY TYPE
RMC .OHMM     0.25                 : RMC          - RESISTIVITY OF MUD CAKE
RMF .OHMM     0.25                 : RMF          - RESISTIVITY OF MUD FILTRATE
SUFT.C        15                   : SUFT         - SURFACE TEMPERATURE
~A  DEPTH     PHID     PHIN       GR     RESD     DENS
# ...
  203.000    0.286    0.460   78.589    7.393    0.000
  203.250    0.260    0.456   80.428    7.261    0.000
  203.500    0.245    0.445   84.091    6.494    0.000
  203.750    0.242    0.447   88.359    6.146    0.000
  204.000    0.247    0.466   88.388    6.036    0.000
  204.250    0.251    0.478   86.576    5.932    0.000
  204.500    0.252    0.469   87.811    5.828    0.000
  204.750    0.251    0.461   93.909    5.723    0.000
  205.000    0.246    0.454   96.350    5.314    0.000
  205.250    0.237    0.461  100.628    4.845    0.000
  205.500    0.230    0.489  101.858    4.584    0.000
  205.750    0.233    0.527   98.840    4.419    0.000
  206.000    0.238    0.479   95.215    4.180    0.000
  206.250    0.249    0.467   99.488    3.534    0.000
  206.500    0.264    0.477  105.579    3.044    0.000
  206.750    0.286    0.557  108.639    2.775    0.000
  207.000    0.292    0.584  106.229    2.675    0.000
  207.250    0.282    0.590   94.707    2.629    0.000
  207.500    0.264    0.575   94.122    2.732    0.000
  207.750    0.259    0.568   98.999    2.839    0.000
  208.000    0.260    0.543  102.660    2.950    0.000
  208.250    0.264    0.526  103.295    3.124    0.000
  208.500    0.261    0.518  103.307    3.247    0.000
  208.750    0.249    0.517  105.147    3.374    0.000
  209.000    0.242    0.527  108.819    3.508    0.000
  209.250    0.242    0.539  110.052    3.646    0.000
  209.500    0.254    0.537  109.461    3.788    0.000
  209.750    0.251    0.524  100.980    4.324    0.000
  210.000    0.271    0.495   99.177    4.937    0.000
  210.250    0.262    0.465   96.761    5.428    0.000
  210.500    0.252    0.441   88.889    5.969    0.000
  210.750    0.262    0.434   86.478    6.204    0.000
  211.000    0.262    0.458   85.284    6.446    0.000
  211.250    0.271    0.471   81.658    6.828    0.000
  211.500    0.250    0.471   77.428    7.228    0.000
  211.750    0.230    0.454   75.625    7.947    0.000
  212.000    0.215    0.453   78.073    8.579    0.000
  212.250    0.209    0.481   82.343    8.585    0.000
  212.500    0.231    0.489   81.149    8.758    0.000
  212.750    0.275    0.472   73.880    8.935    0.000
  213.000    0.294    0.457   74.507    9.109    0.000
  213.250    0.306    0.449   81.209    9.466    0.000
  213.500    0.301    0.458   84.262   10.409    0.000
  213.750    0.274    0.485   77.603   12.108    0.000
  214.000    0.162    0.450   61.831   13.313    0.000
  214.250    0.091    0.306   54.565   13.837    0.000
  214.500    0.045    0.248   58.230   14.113    0.000
  214.750    0.067    0.321   65.533   13.353    0.000
  215.000    0.268    0.420   75.275   12.170    0.000
  215.250    0.301    0.437   78.336   11.513    0.000
  215.500    0.312    0.430   78.349   11.104    0.000
  215.750    0.311    0.420   77.154   11.321    0.000
  216.000    0.301    0.420   75.352   12.216    0.000
  216.250    0.275    0.441   75.977   13.688    0.000
  216.500    0.165    0.419   72.351   14.223    0.000
  216.750    0.127    0.283   68.123   14.513    0.000
  217.000    0.123    0.285   71.785   14.253    0.000
  217.250    0.240    0.357   74.844   13.486    0.000
  217.500    0.281    0.394   71.826   12.291    0.000
  217.750    0.298    0.415   68.809   11.628    0.000
  218.000    0.281    0.433   69.434   11.008    0.000
  218.250    0.236    0.431   69.453   11.018    0.000
  218.500    0.204    0.381   74.941   11.031    0.000
  218.750    0.217    0.416   79.211   11.037    0.000
  219.000    0.293    0.415   80.441   10.640    0.000
  219.250    0.305    0.397   75.605    9.700    0.000
  219.500    0.298    0.403   77.447    9.005    0.000
  219.750    0.280    0.432   84.151    8.207    0.000
  220.000    0.273    0.448   88.418    7.914    0.000
  220.250    0.277    0.487   92.079    7.631    0.000
  220.500    0.279    0.476   95.133    7.636    0.000
  220.750    0.265    0.461   95.157    7.224    0.000
  221.000    0.257    0.461   96.997    6.966    0.000
  221.250    0.257    0.468   98.234    7.242    0.000
  221.500    0.252    0.469   94.002    7.817    0.000
  221.750    0.248    0.446   89.159    7.970    0.000
  222.000    0.259    0.415   88.576    7.977    0.000
  222.250    0.255    0.408   87.987    7.408    0.000
  222.500    0.263    0.415   84.967    6.381    0.000
  222.750    0.254    0.446   82.558    5.394    0.000
  223.000    0.238    0.452   86.827    5.104    0.000
  223.250    0.249    0.458   91.707    5.108    0.000
  223.500    0.250    0.465   91.120    5.412    0.000
  223.750    0.243    0.460   93.568    5.623    0.000
  224.000    0.233    0.467   89.947    5.955    0.000
  224.250    0.229    0.503   89.354    6.073    0.000
  224.500    0.241    0.471   97.877    5.856    0.000
  224.750    0.232    0.455  100.328    5.336    0.000
  225.000    0.229    0.461   99.129    4.683    0.000
  225.250    0.249    0.498   98.544    4.035    0.000
  225.500    0.266    0.516   99.776    3.746    0.000
  225.750    0.281    0.534   98.581    3.681    0.000
  226.000    0.295    0.538   91.920    3.684    0.000
  226.250    0.292    0.498   87.083    3.552    0.000
  226.500    0.274    0.464   94.390    3.298    0.000
  226.750    0.262    0.534   98.659    3.302    0.000
  227.000    0.268    0.579  102.929    3.496 2251.500
  227.250    0.272    0.529   97.484    3.991 2245.270
  227.500    0.285    0.454   86.573    4.911 2222.220
  227.750    0.284    0.417   85.381    6.043 2224.380
  228.000    0.254    0.398   82.968    6.645 2274.920
  228.250    0.243    0.407   84.809    7.170 2293.920
  228.500    0.243    0.445   90.905    7.595 2293.990
  228.750    0.246    0.433   91.537    7.602 2289.840
  229.000    0.248    0.414   90.338    7.608 2285.710
  229.250    0.253    0.410   89.744    7.477 2277.370
  229.500    0.266    0.425   84.906    7.482 2254.300
  229.750    0.275    0.457   77.030    7.925 2239.660
  230.000    0.242    0.468   70.373    8.392 2296.490
  230.250    0.099    0.341   63.104    8.560 2540.460
  230.500    0.045    0.279   97.739    8.410 2633.040
  230.750    0.046    0.287  114.762    7.807 2631.010
  231.000    0.157    0.416  116.605    6.600 2441.850
  231.250    0.244    0.444   98.404    5.176 2292.640
  231.500    0.259    0.454   84.459    4.807 2267.480
  231.750    0.235    0.460   81.438    4.813 2307.510
  232.000    0.234    0.479   81.458    4.909 2309.670
  232.250    0.265    0.489   87.554    4.912 2257.190
  232.500    0.268    0.486   87.577    4.919 2250.950
  232.750    0.257    0.482   82.735    4.831 2269.950
  233.000    0.265    0.475   83.969    4.657 2257.390
  233.250    0.272    0.486   87.630    4.491 2244.840
  233.500    0.239    0.504   87.654    4.581 2301.690
  233.750    0.214    0.488   88.882    4.671 2343.800
  234.000    0.276    0.469   88.297    4.855 2238.750
  234.250    0.288    0.456   83.457    5.338 2217.800
  234.500    0.291    0.459   78.618    5.982 2211.560
  234.750    0.295    0.446   74.388    6.216 2205.310
  235.000    0.305    0.448   73.192    6.340 2188.560
  235.250    0.314    0.420   78.678    6.112 2173.920
  235.500    0.284    0.400   86.594    5.572 2224.450
  235.750    0.248    0.424   87.222    5.076 2285.500
  236.000    0.227    0.463   84.808    4.540 2321.310
  236.250    0.228    0.447   84.222    4.217 2319.280
  236.500    0.249    0.430   87.280    3.843 2283.600
  236.750    0.281    0.490   87.908    3.372 2229.000
  237.000    0.302    0.569   88.538    2.695 2193.350
  237.250    0.303    0.587   88.549    2.457 2191.300
  237.500    0.292    0.547   87.357    2.325 2210.290
  237.750    0.293    0.517   84.946    2.327 2208.270
  238.000    0.287    0.509   81.322    2.286 2218.850
  238.250    0.280    0.524   75.268    2.288 2231.540
  238.500    0.288    0.545   75.894    2.291 2216.880
  238.750    0.303    0.556   78.341    2.381 2191.730
  239.000    0.299    0.546   83.223    2.473 2198.100
  239.250    0.281    0.535   80.815    2.824 2229.700
