~VERSION INFORMATION
 VERS.                 2.0:   CWLS LOG ASCII STANDARD -VERSION 2.0
 WRAP.                  NO:   ONE LINE PER DEPTH STEP
~WELL INFORMATION BLOCK
#MNEM.UNIT           DATA                    DESCRIPTION OF MNEMONIC
#---------    -------------------            -------------------------------
# Generated from Intellog Unique Number	CS_71_72/WELL/844
WELL.         AEC IPIATIK KIRBY              : Well_name    - WELL
LOC .         00/09-24-071-06W4/0            : Location     - LOCATION
UWI .         00/09-24-071-06W4/0            : Uwi          - UNIQUE WELL ID
ENTR.         SP                             : Entered      - ENTERED BY
SRVC.         SCHLUMBERGER                   : Scn          - SERVICE COMPANY
STRT.M        315                            : top_depth    - START DEPTH
STOP.M        550                            : bot_depth    - STOP DEPTH
STEP.M        0.25                           : increment    - STEP LENGTH
 NULL. -999.2500:NULL Value
~CURVE INFORMATION BLOCK
#MNEM UNIT       ERCB CURVE CODE    CURVE DESCRIPTION
#-----------   ------------------   ----------------------------------
DEPT.M        00 001 00 00         : DEPTH        - DEPTH
ILD .OHMM     00 120 00 00         : RESD         - DEEP RESISTIVITY (DIL)
DPHI.V/V      00 890 00 00         : PHID         - DENSITY POROSITY (LIMESTONE)
NPHI.V/V      00 330 00 00         : PHIN         - NEUTRON POROSITY (LIMESTONE)
GR  .API      00 310 00 00         : GR           - GAMMA RAY
~PARAMETER INFORMATION
#MNEM.UNIT           DATA             DESCRIPTION OF MNEMONIC
#---------         -----------     ------------------------------
GL  .M        676.91               : gl           - GROUND LEVEL ELEVATION
EREF.M        681.65               : kb           - ELEVATION OF DEPTH REFERENCE
DATM.M        676.91               : datum        - DATUM ELEVATION
TDD .M        572                  : tdd          - TOTAL DEPTH DRILLER
RUN .         ONE                  : Run          - RUN NUMBER
ENG .         BILL                 : Engineer     - RECORDING ENGINEER
WIT .         JIM                  : Witness      - WITNESSED BY
MUD .         GEL                  : Mud_type     - MUD TYPE
MATR.         LIMESTONE            : Logunit      - NEUTRON MATRIX
TMAX.C        15                   : BHT          - MAXIMUM RECORDED TEMPERATURE
BHTD.M        572                  : BHTDEP       - MAXIMUM RECORDED TEMPERATURE
MATR.         1                    : LOGUNIT      - NEUTRON MATRIX
RMT .C        25                   : MDTP         - TEMPERATURE OF MUD
NEUT.         1                    : NEUTRON      - NEUTRON TYPE
RESI.         0                    : RESIST       - RESISTIVITY TYPE
RMC .OHMM     0.25                 : RMC          - RESISTIVITY OF MUD CAKE
RMF .OHMM     0.25                 : RMF          - RESISTIVITY OF MUD FILTRATE
SUFT.C        15                   : SUFT         - SURFACE TEMPERATURE
~A  DEPTH     RESD     PHID     PHIN       GR
# ...
  445.500    6.122    0.225    0.436   88.627
  445.750    6.079    0.235    0.438   88.640
  446.000    6.003    0.226    0.438   86.955
  446.250    5.939    0.210    0.443   86.058
  446.500    5.876    0.196    0.453   85.645
  446.750    5.824    0.217    0.466   86.142
  447.000    5.719    0.236    0.472   89.679
  447.250    5.574    0.242    0.457   91.390
  447.500    5.546    0.233    0.457   92.556
  447.750    5.685    0.231    0.459   87.105
  448.000    6.051    0.216    0.444   80.078
  448.250    6.488    0.111    0.301   70.134
  448.500    7.075    0.084    0.252   60.374
  448.750    7.773    0.096    0.283   61.297
  449.000    8.273    0.143    0.385   70.478
  449.250    7.552    0.203    0.412   80.871
  449.500    6.361    0.244    0.423   88.958
  449.750    5.774    0.250    0.436   93.524
  450.000    5.320    0.246    0.447   91.291
  450.250    5.215    0.234    0.449   94.279
  450.500    5.227    0.220    0.460   97.874
  450.750    5.220    0.242    0.461   93.030
  451.000    5.194    0.255    0.453   87.155
  451.250    5.167    0.242    0.444   87.411
  451.500    5.170    0.236    0.450   89.245
  451.750    5.115    0.240    0.463   86.953
  452.000    5.062    0.237    0.447   86.844
  452.250    5.017    0.231    0.435   88.865
  452.500    4.945    0.245    0.464   88.812
  452.750    4.883    0.263    0.467   82.511
  453.000    4.876    0.274    0.469   75.484
  453.250    5.008    0.154    0.472   72.764
  453.500    5.320    0.135    0.310   75.389
  453.750    5.537    0.150    0.360   80.501
  454.000    5.518    0.187    0.421   85.432
  454.250    5.065    0.249    0.467   86.415
  454.500    4.211    0.253    0.504   84.668
  454.750    3.520    0.260    0.524   86.017
  455.000    2.824    0.273    0.542   89.551
  455.250    2.415    0.271    0.531   93.207
  455.500    2.250    0.260    0.517   94.979
  455.750    2.298    0.263    0.524   92.262
  456.000    2.464    0.269    0.513   85.902
  456.250    2.842    0.263    0.485   81.846
  456.500    3.176    0.266    0.468   77.913
  456.750    3.582    0.272    0.455   75.801
  457.000    4.025    0.244    0.451   79.517
  457.250    4.364    0.231    0.455   82.326
  457.500    4.636    0.254    0.460   82.761
  457.750    4.843    0.280    0.465   82.531
  458.000    4.918    0.193    0.430   78.235
  458.250    4.866    0.161    0.414   79.644
  458.500    4.707    0.209    0.441   84.091
  458.750    4.436    0.248    0.454   87.141
  459.000    4.219    0.243    0.449   88.667
  459.250    4.051    0.228    0.479   88.681
  459.500    3.963    0.219    0.484   86.448
  459.750    3.900    0.213    0.472   86.947
  460.000    3.865    0.219    0.481   87.627
  460.250    3.845    0.232    0.482   86.548
  460.500    3.957    0.228    0.457   85.229
  460.750    4.397    0.231    0.444   83.782
  461.000    4.912    0.253    0.452   78.030
  461.250    5.634    0.274    0.465   71.849
  461.500    6.760    0.296    0.456   67.552
  461.750    8.064    0.308    0.462   66.291
  462.000    9.407    0.302    0.474   62.236
  462.250   10.316    0.276    0.458   55.329
  462.500   10.876    0.254    0.445   52.853
  462.750   11.192    0.252    0.448   56.573
  463.000   11.219    0.260    0.450   59.192
  463.250   11.225    0.238    0.444   61.817
  463.500   11.336    0.192    0.375   62.923
  463.750   11.492    0.174    0.340   62.936
  464.000   11.671    0.230    0.376   63.131
  464.250   11.898    0.278    0.407   64.297
  464.500   11.927    0.298    0.436   67.408
  464.750   11.712    0.303    0.453   69.302
  465.000   11.436    0.306    0.468   70.044
  465.250   11.022    0.307    0.464   68.418
  465.500   10.195    0.307    0.454   67.096
  465.750    9.150    0.299    0.450   67.533
  466.000    7.564    0.260    0.436   72.584
  466.250    6.057    0.252    0.430   79.276
  466.500    4.568    0.237    0.471   86.027
  466.750    3.597    0.221    0.490   93.870
  467.000    3.104    0.210    0.505   97.404
  467.250    3.165    0.213    0.477   90.012
  467.500    3.747    0.225    0.433   79.583
  467.750    4.572    0.240    0.409   68.913
  468.000    5.516    0.256    0.406   67.104
  468.250    6.580    0.226    0.419   70.214
  468.500    7.561    0.179    0.433   70.713
  468.750    8.722    0.165    0.415   68.785
  469.000    9.440    0.186    0.395   72.560
  469.250    8.634    0.231    0.399   78.158
  469.500    6.926    0.257    0.424   82.665
  469.750    5.515    0.244    0.450   85.773
  470.000    4.611    0.235    0.467   87.303
  470.250    4.217    0.229    0.455   83.067
  470.500    4.547    0.235    0.433   78.044
  470.750    5.414    0.252    0.424   74.657
  471.000    6.681    0.263    0.419   71.393
  471.250    7.423    0.265    0.417   69.946
  471.500    8.482    0.255    0.417   68.685
  471.750    9.112    0.252    0.416   68.637
  472.000    9.518    0.251    0.401   69.865
  472.250    9.722    0.251    0.391   71.398
  472.500    9.781    0.250    0.386   72.015
  472.750    9.860    0.242    0.385   71.482
  473.000   10.051    0.210    0.405   70.160
  473.250   10.558    0.160    0.347   68.052
  473.500   11.132    0.004    0.316   66.665
  473.750   11.476    0.051    0.315   65.525
  474.000   11.482    0.088    0.352   67.117
  474.250   10.502    0.208    0.391   70.105
  474.500    9.251    0.225    0.413   74.062
  474.750    8.493    0.227    0.404   78.447
  475.000    8.215    0.231    0.408   81.009
  475.250    9.026    0.245    0.415   82.784
  475.500   10.431    0.274    0.419   82.189
  475.750   11.876    0.288    0.416   80.684
  476.000   12.614    0.292    0.408   79.063
  476.250   13.226    0.276    0.390   79.072
  476.500   12.939    0.252    0.385   84.185
  476.750   11.967    0.230    0.373   89.237
  477.000   10.783    0.203    0.362   90.524
  477.250   10.199    0.200    0.355   84.892
  477.500   10.814    0.200    0.358   77.258
  477.750   12.567    0.209    0.375   71.867
  478.000   15.392    0.242    0.386   69.269
  478.250   17.260    0.280    0.373   68.796
  478.500   21.944    0.266    0.350   67.718
  478.750   20.680    0.266    0.340   64.515
  479.000   18.118    0.274    0.355   68.472
  479.250   16.231    0.251    0.389   77.591
  479.500   14.623    0.239    0.410   87.073
  479.750   13.601    0.242    0.401   77.617
  480.000   15.340    0.262    0.375   67.310
  480.250   18.680    0.249    0.362   67.019
  480.500   24.198    0.240    0.352   59.080
  480.750   36.820    0.282    0.340   46.710
  481.000   53.664    0.303    0.329   37.617
  481.250   63.544    0.304    0.322   30.406
  481.500   76.095    0.301    0.317   28.294
  481.750   90.097    0.304    0.313   32.678
  482.000   88.476    0.304    0.329   37.185
  482.250   55.236    0.279    0.347   41.873
  482.500   37.303    0.264    0.364   50.261
  482.750   26.849    0.251    0.362   68.062
  483.000   20.826    0.244    0.354   70.745
  483.250   17.476    0.252    0.337   66.450
  483.500   15.570    0.251    0.328   64.702
  483.750   14.893    0.247    0.339   64.656
  484.000   14.901    0.241    0.358   65.641
  484.250   15.478    0.254    0.343   66.384
  484.500   17.424    0.276    0.356   66.153
  484.750   21.381    0.296    0.374   65.745
  485.000   25.313    0.310    0.392   65.328
  485.250   32.485    0.299    0.382   65.343
  485.500   36.093    0.290    0.369   66.264
  485.750   29.782    0.295    0.363   69.374
  486.000   23.058    0.275    0.370   72.726
  486.250   17.752    0.261    0.381   75.348
  486.500   13.565    0.266    0.386   77.607
  486.750   11.404    0.255    0.387   81.505
  487.000   10.294    0.245    0.365   85.041
  487.250    9.592    0.243    0.344   87.785
  487.500    9.332    0.230    0.328   90.834
  487.750    9.622    0.216    0.348   92.363
  488.000   10.239    0.226    0.372   83.698
  488.250   11.485    0.243    0.385   76.790
  488.500   12.883    0.256    0.383   71.763
  488.750   13.328    0.251    0.373   74.630
