~VERSION INFORMATION
 VERS.                 2.0:   CWLS LOG ASCII STANDARD -VERSION 2.0
 WRAP.                  NO:   ONE LINE PER DEPTH STEP
~WELL INFORMATION BLOCK
#MNEM.UNIT           DATA                    DESCRIPTION OF MNEMONIC
#---------    -------------------            -------------------------------
# Generated from Intellog Unique Number	CS_77_79/WELL/856
WELL.         CANADIAN WORLDWIDE ENERGY      : Well_name    - WELL
LOC .         00/05-19-077-04W4/0            : Location     - LOCATION
UWI .         00/05-19-077-04W4/0            : Uwi          - UNIQUE WELL ID
ENTR.         SP                             : Entered      - ENTERED BY
SRVC.         SCHLUMBERGER                   : Scn          - SERVICE COMPANY
STRT.M        150                            : top_depth    - START DEPTH
STOP.M        405                            : bot_depth    - STOP DEPTH
STEP.M        0.25                           : increment    - STEP LENGTH
 NULL. -999.2500:NULL Value
~CURVE INFORMATION BLOCK
#MNEM UNIT       ERCB CURVE CODE    CURVE DESCRIPTION
#-----------   ------------------   ----------------------------------
DEPT.M        00 001 00 00         : DEPTH        - DEPTH
ILD .OHMM     00 120 00 00         : RESD         - DEEP RESISTIVITY (DIL)
DPHI.V/V      00 890 00 00         : PHID         - DENSITY POROSITY (LIMESTONE)
NPHI.V/V      00 330 00 00         : PHIN         - NEUTRON POROSITY (LIMESTONE)
GR  .API      00 310 00 00         : GR           - GAMMA RAY
~PARAMETER INFORMATION
#MNEM.UNIT           DATA             DESCRIPTION OF MNEMONIC
#---------         -----------     ------------------------------
GL  .M        563.2                : gl           - GROUND LEVEL ELEVATION
EREF.M        566.2                : kb           - ELEVATION OF DEPTH REFERENCE
DATM.M        563.2                : datum        - DATUM ELEVATION
TDD .M        405.5                : tdd          - TOTAL DEPTH DRILLER
RUN .         ONE                  : Run          - RUN NUMBER
ENG .         BILL                 : Engineer     - RECORDING ENGINEER
WIT .         JIM                  : Witness      - WITNESSED BY
MUD .         GEL                  : Mud_type     - MUD TYPE
MATR.         LIMESTONE            : Logunit      - NEUTRON MATRIX
TMAX.C        24                   : BHT          - MAXIMUM RECORDED TEMPERATURE
BHTD.M        405.5                : BHTDEP       - MAXIMUM RECORDED TEMPERATURE
MATR.         1                    : LOGUNIT      - NEUTRON MATRIX
RMT .C        25                   : MDTP         - TEMPERATURE OF MUD
NEUT.         1                    : NEUTRON      - NEUTRON TYPE
RESI.         0                    : RESIST       - RESISTIVITY TYPE
RMC .OHMM     0.25                 : RMC          - RESISTIVITY OF MUD CAKE
RMF .OHMM     0.25                 : RMF          - RESISTIVITY OF MUD FILTRATE
SUFT.C        15                   : SUFT         - SURFACE TEMPERATURE
~A  DEPTH     RESD     PHID     PHIN       GR
# ...
  193.500   30.470    0.296    0.367   54.964
  193.750   28.269    0.286    0.364   56.232
  194.000   27.244    0.269    0.364   58.722
  194.250   26.244    0.258    0.377   68.012
  194.500   25.786    0.261    0.383   79.772
  194.750   25.799    0.267    0.389   87.201
  195.000   25.822    0.274    0.403   86.616
  195.250   26.852    0.280    0.415   85.406
  195.500   27.382    0.283    0.430   89.762
  195.750   28.470    0.280    0.415   94.112
  196.000   30.164    0.274    0.405   96.606
  196.250   31.962    0.259    0.384   98.483
  196.500   33.217    0.251    0.374   87.403
  196.750   35.202    0.270    0.369   62.743
  197.000   37.295    0.289    0.360   51.658
  197.250   38.764    0.305    0.363   44.900
  197.500   39.544    0.312    0.359   40.606
  197.750   37.401    0.312    0.354   38.781
  198.000   36.026    0.309    0.363   40.046
  198.250   34.067    0.303    0.359   47.484
  198.500   32.211    0.287    0.355   54.917
  198.750   30.462    0.291    0.351   59.886
  199.000   29.352    0.297    0.356   64.856
  199.250   29.929    0.298    0.369   65.494
  199.500   31.125    0.297    0.380   63.069
  199.750   32.965    0.290    0.382   62.465
  200.000   36.987    0.300    0.383   69.899
  200.250   38.438    0.305    0.380   61.910
  200.500   39.961    0.305    0.371   56.392
  200.750   39.996    0.309    0.367   55.171
  201.000   39.285    0.311    0.377   57.059
  201.250   35.756    0.317    0.381   58.935
  201.500   30.176    0.305    0.393   67.602
  201.750   26.947    0.291    0.402   74.423
  202.000   24.071    0.284    0.410   76.919
  202.250   22.325    0.280    0.416   78.198
  202.500   20.323    0.270    0.405   79.446
  202.750   19.586    0.269    0.398   83.177
  203.000   19.231    0.269    0.404   86.912
  203.250   18.890    0.267    0.407   85.705
  203.500   18.909    0.255    0.407   86.972
  203.750   19.662    0.252    0.405   88.847
  204.000   20.055    0.261    0.387   86.415
  204.250   20.455    0.270    0.381   85.816
  204.500   20.472    0.260    0.385   85.229
  204.750   20.882    0.257    0.400   84.641
  205.000   21.295    0.263    0.407   84.672
  205.250   21.319    0.277    0.413   84.080
  205.500   20.938    0.282    0.416   82.873
  205.750   20.948    0.287    0.398   84.141
  206.000   20.187    0.277    0.387   86.645
  206.250   18.376    0.264    0.381   89.132
  206.500   16.730    0.251    0.375   93.481
  206.750   15.524    0.236    0.374   95.361
  207.000   14.672    0.231    0.395  100.327
  207.250   13.358    0.217    0.423  109.624
  207.500   12.158    0.202    0.423  114.593
  207.750   11.072    0.206    0.420  117.087
  208.000   10.665    0.209    0.421  118.958
  208.250   10.281    0.211    0.434  118.379
  208.500   10.096    0.214    0.452  117.782
  208.750   10.100    0.219    0.447  114.115
  209.000   10.706    0.226    0.457  112.910
  209.250   11.126    0.228    0.463  112.932
  209.500   12.017    0.236    0.463  114.193
  209.750   13.223    0.261    0.446  108.047
  210.000   14.275    0.275    0.423  100.679
  210.250   15.712    0.283    0.406   95.766
  210.500   16.334    0.276    0.415   90.236
  210.750   16.660    0.255    0.396   93.972
  211.000   16.363    0.262    0.386   99.554
  211.250   15.773    0.263    0.382   96.507
  211.500   15.486    0.253    0.387   94.675
  211.750   15.204    0.238    0.390   94.698
  212.000   15.220    0.223    0.434  100.287
  212.250   16.129    0.227    0.434  105.247
  212.500   17.418    0.249    0.430  100.957
  212.750   18.103    0.294    0.425   86.173
  213.000   19.550    0.311    0.416   69.533
  213.250   20.713    0.302    0.419   57.214
  213.500   21.528    0.295    0.424   64.039
  213.750   21.964    0.305    0.406   70.235
  214.000   21.159    0.294    0.391   67.799
  214.250   20.008    0.285    0.383   70.911
  214.500   18.561    0.287    0.385   75.261
  214.750   15.661    0.285    0.389   74.678
  215.000   13.214    0.264    0.400   76.552
  215.250   11.362    0.254    0.412   84.602
  215.500    9.957    0.268    0.423   97.597
  215.750   10.550    0.283    0.426   97.010
  216.000   12.291    0.303    0.417   92.111
  216.250   13.784    0.304    0.406   90.281
  216.500   16.368    0.294    0.396   87.833
  216.750   17.340    0.278    0.388   84.778
  217.000   17.362    0.271    0.382   83.573
  217.250   17.047    0.262    0.387   88.535
  217.500   16.429    0.258    0.393   91.648
  217.750   16.129    0.249    0.389   87.975
  218.000   15.249    0.234    0.396   87.388
  218.250   15.264    0.232    0.407   90.500
  218.500   15.871    0.243    0.410   80.660
  218.750   16.498    0.249    0.392   74.512
  219.000   17.476    0.239    0.369   72.685
  219.250   18.172    0.150    0.348   72.096
  219.500   18.188    0.216    0.359   65.334
  219.750   17.527    0.245    0.368   56.106
  220.000   16.888    0.281    0.378   57.370
  220.250   17.224    0.301    0.390   58.634
  220.500   17.913    0.310    0.390   59.280
  220.750   18.614    0.331    0.394   58.687
  221.000   19.724    0.344    0.399   58.102
  221.250   20.502    0.353    0.406   57.512
  221.500   21.727    0.359    0.408   57.543
  221.750   22.168    0.358    0.407   59.432
  222.000   22.605    0.355    0.403   60.698
  222.250   23.057    0.350    0.400   61.333
  222.500   23.521    0.356    0.397   61.365
  222.750   23.542    0.352    0.388   60.164
  223.000   23.124    0.347    0.393   58.948
  223.250   22.281    0.341    0.397   57.739
  223.500   21.876    0.335    0.399   58.389
  223.750   21.490    0.340    0.394   59.656
  224.000   21.107    0.342    0.393   60.292
  224.250   20.725    0.342    0.393   61.560
  224.500   20.738    0.338    0.394   63.449
  224.750   20.367    0.336    0.398   64.707
  225.000   20.774    0.340    0.406   62.258
  225.250   21.609    0.343    0.420   58.592
  225.500   22.459    0.344    0.421   56.152
  225.750   22.907    0.346    0.414   54.940
  226.000   23.370    0.346    0.410   54.966
  226.250   23.386    0.345    0.405   55.000
  226.500   23.404    0.344    0.401   54.413
  226.750   22.986    0.345    0.418   55.674
  227.000   22.162    0.347    0.422   56.933
  227.250   22.180    0.349    0.422   57.582
  227.500   21.784    0.350    0.420   56.993
  227.750   21.804    0.349    0.420   55.170
  228.000   21.823    0.345    0.426   54.587
  228.250   22.256    0.341    0.429   55.228
  228.500   22.697    0.339    0.423   55.259
  228.750   22.717    0.336    0.406   54.056
  229.000   22.731    0.336    0.396   52.224
  229.250   23.194    0.334    0.397   49.791
  229.500   23.207    0.336    0.398   49.206
  229.750   23.677    0.341    0.397   49.223
  230.000   23.692    0.343    0.383   48.642
  230.250   24.642    0.343    0.377   48.043
  230.500   24.657    0.342    0.368   46.845
  230.750   25.156    0.337    0.366   46.262
  231.000   25.171    0.332    0.364   46.279
  231.250   25.193    0.331    0.365   47.540
  231.500   25.219    0.329    0.367   48.814
  231.750   25.245    0.328    0.363   47.597
  232.000   25.255    0.328    0.362   47.013
  232.250   24.803    0.331    0.368   48.273
  232.500   24.365    0.337    0.371   48.920
  232.750   23.926    0.342    0.378   47.099
  233.000   23.492    0.346    0.377   45.888
  233.250   23.074    0.346    0.370   46.541
  233.500   23.095    0.344    0.364   47.801
  233.750   22.683    0.343    0.376   47.834
  234.000   21.859    0.345    0.380   49.103
  234.250   21.460    0.346    0.382   50.362
  234.500   21.482    0.344    0.399   51.617
  234.750   21.102    0.345    0.409   52.261
  235.000   21.113    0.349    0.407   49.824
  235.250   20.343    0.346    0.402   51.702
  235.500   18.877    0.352    0.410   53.581
  235.750   17.510    0.360    0.421   53.623
  236.000   13.955    0.353    0.434   55.491
  236.250   11.123    0.322    0.441   67.245
  236.500    8.375    0.255    0.441   80.240
  236.750    6.803    0.235    0.442   98.165
