~VERSION INFORMATION
 VERS.                 2.0:   CWLS LOG ASCII STANDARD -VERSION 2.0
 WRAP.                  NO:   ONE LINE PER DEPTH STEP
~WELL INFORMATION BLOCK
#MNEM.UNIT           DATA                    DESCRIPTION OF MNEMONIC
#---------    -------------------            -------------------------------
# Generated from Intellog Unique Number	CS_73_76/WELL/2807
WELL.         EAGLE RESOURCES LTD.           : Well_name    - WELL
LOC .         00/02-15-076-18W4/0            : Location     - LOCATION
UWI .         00/02-15-076-18W4/0            : Uwi          - UNIQUE WELL ID
ENTR.         JO                             : Entered      - ENTERED BY
SRVC.         COMPUTALOG                     : Scn          - SERVICE COMPANY
DATE.         05/22/92                       : Date         - LOG DATE
STRT.M        210                            : top_depth    - START DEPTH
STOP.M        440                            : bot_depth    - STOP DEPTH
STEP.M        0.25                           : increment    - STEP LENGTH
 NULL. -999.2500:NULL Value
~CURVE INFORMATION BLOCK
#MNEM UNIT       ERCB CURVE CODE    CURVE DESCRIPTION
#-----------   ------------------   ----------------------------------
DEPT.M        00 001 00 00         : DEPTH        - DEPTH
ILD .OHMM     00 120 00 00         : RESD         - DEEP RESISTIVITY (DIL)
DPHI.V/V      00 890 00 00         : PHID         - DENSITY POROSITY (SANDSTONE)
NPHI.V/V      00 330 00 00         : PHIN         - NEUTRON POROSITY (SANDSTONE)
GR  .API      00 310 00 00         : GR           - GAMMA RAY
~PARAMETER INFORMATION
#MNEM.UNIT           DATA             DESCRIPTION OF MNEMONIC
#---------         -----------     ------------------------------
GL  .M        610.59               : gl           - GROUND LEVEL ELEVATION
EREF.M        614.26               : kb           - ELEVATION OF DEPTH REFERENCE
DATM.M        614.26               : datum        - DATUM ELEVATION
TDD .M        446.6                : tdd          - TOTAL DEPTH DRILLER
RUN .         ONE                  : Run          - RUN NUMBER
ENG .         BILL                 : Engineer     - RECORDING ENGINEER
WIT .         JIM                  : Witness      - WITNESSED BY
MUD .         GEL                  : Mud_type     - MUD TYPE
MATR.         SANDSTONE            : Logunit      - NEUTRON MATRIX
TMAX.C        28                   : BHT          - MAXIMUM RECORDED TEMPERATURE
BHTD.M        446.6                : BHTDEP       - MAXIMUM RECORDED TEMPERATURE
RMT .C        16.7                 : MDTP         - TEMPERATURE OF MUD
MUDD.KG/M     1140                 : MWT          - MUD DENSITY
NEUT.         1                    : NEUTRON      - NEUTRON TYPE
RESI.         0                    : RESIST       - RESISTIVITY TYPE
RM  .OHMM     3.4                  : RM           - RESISTIVITY OF MUD
RMC .OHMM     3.4                  : RMC          - RESISTIVITY OF MUD CAKE
RMF .OHMM     3.4                  : RMF          - RESISTIVITY OF MUD FILTRATE
SUFT.C        4                    : SUFT         - SURFACE TEMPERATURE
~A  DEPTH     RESD     PHID     PHIN       GR
# ...
  253.500    3.779    0.192    0.474  103.502
  253.750    3.857    0.195    0.474  109.983
  254.000    3.861    0.191    0.448  108.880
  254.250    3.792    0.180    0.450  105.413
  254.500    3.657    0.172    0.476  101.374
  254.750    3.664    0.187    0.479  106.700
  255.000    3.668    0.201    0.492  109.674
  255.250    3.742    0.206    0.490  110.324
  255.500    3.970    0.200    0.488  109.221
  255.750    4.210    0.194    0.499  108.078
  256.000    4.295    0.194    0.534  104.637
  256.250    4.222    0.200    0.545  104.677
  256.500    3.992    0.193    0.504  104.145
  256.750    3.776    0.187    0.475  103.613
  257.000    3.641    0.189    0.486  101.938
  257.250    3.934    0.200    0.486  101.964
  257.500    4.332    0.208    0.463  104.939
  257.750    5.663    0.209    0.451  107.342
  258.000    8.454    0.198    0.437  102.706
  258.250   13.369    0.188    0.407   88.147
  258.500   17.799    0.268    0.358   70.081
  258.750   23.259    0.368    0.321   64.276
  259.000   29.271    0.380    0.268   54.977
  259.250   35.475    0.376    0.253   53.861
  259.500   36.876    0.371    0.266   59.173
  259.750   36.260    0.356    0.275   62.759
  260.000   34.933    0.333    0.317   65.733
  260.250   32.422    0.319    0.358   69.279
  260.500   29.525    0.306    0.369   74.008
  260.750   26.887    0.300    0.387   81.671
  261.000   24.963    0.291    0.400   82.893
  261.250   23.614    0.281    0.399   78.854
  261.500   22.758    0.258    0.392   74.231
  261.750   21.940    0.253    0.396   69.607
  262.000   21.175    0.245    0.398   64.400
  262.250   21.190    0.260    0.395   59.764
  262.500   21.221    0.288    0.397   54.556
  262.750   21.259    0.299    0.398   49.348
  263.000   21.290    0.310    0.392   49.401
  263.250   21.321    0.313    0.392   47.713
  263.500   20.964    0.295    0.393   48.921
  263.750   20.980    0.290    0.385   58.922
  264.000   20.614    0.279    0.394   56.053
  264.250   20.644    0.273    0.405   55.521
  264.500   20.674    0.284    0.413   60.249
  264.750   20.718    0.282    0.413   65.588
  265.000   21.139    0.284    0.406   64.471
  265.250   21.162    0.307    0.397   61.588
  265.500   21.614    0.314    0.386   56.367
  265.750   22.045    0.266    0.384   51.757
  266.000   22.941    0.216    0.392   53.563
  266.250   23.855    0.157    0.389   53.044
  266.500   24.824    0.172    0.378   53.084
  266.750   24.860    0.205    0.377   57.812
  267.000   23.516    0.226    0.383   64.293
  267.250   21.004    0.236    0.394   81.321
  267.500   18.767    0.253    0.403   84.880
  267.750   16.453    0.242    0.393   89.609
  268.000   14.424    0.233    0.385   94.337
  268.250   12.645    0.210    0.391   99.065
  268.500   11.086    0.207    0.397  104.391
  268.750    9.360    0.215    0.403  107.950
  269.000    9.020    0.218    0.408  106.833
  269.250   10.928    0.215    0.422  102.795
  269.500   13.235    0.227    0.438   96.418
  269.750   15.431    0.263    0.428   92.366
  270.000   17.658    0.276    0.404   87.158
  270.250   18.030    0.243    0.394   85.471
  270.500   18.056    0.234    0.392   91.952
  270.750   17.735    0.224    0.387   96.680
  271.000   17.426    0.238    0.372   99.084
  271.250   17.799    0.254    0.396   96.201
  271.500   18.154    0.267    0.409   90.993
  271.750   19.247    0.274    0.425   81.110
  272.000   21.211    0.290    0.426   73.564
  272.250   21.634    0.307    0.398   60.174
  272.500   22.089    0.305    0.370   51.447
  272.750   21.704    0.308    0.362   42.732
  273.000   21.334    0.316    0.359   47.460
  273.250   20.568    0.324    0.364   50.435
  273.500   19.456    0.297    0.371   54.579
  273.750   18.410    0.286    0.381   65.762
  274.000   18.077    0.260    0.388   66.984
  274.250   17.434    0.235    0.393   69.361
  274.500   17.453    0.228    0.388   72.920
  274.750   17.149    0.241    0.380   78.246
  275.000   16.850    0.263    0.373   76.545
  275.250   15.945    0.259    0.365   74.844
  275.500   15.083    0.247    0.375   78.988
  275.750   13.735    0.259    0.385   84.885
  276.000   11.588    0.274    0.384   84.366
  276.250    9.064    0.264    0.382   80.314
  276.500    7.226    0.238    0.386   74.522
  276.750    6.218    0.209    0.397   87.445
  277.000    5.556    0.186    0.428   92.174
  277.250    5.156    0.174    0.462  109.773
  277.500    4.876    0.150    0.488  118.605
  277.750    4.527    0.134    0.509  118.086
  278.000    4.364    0.158    0.512  117.554
  278.250    4.206    0.183    0.510  117.607
  278.500    3.980    0.191    0.529  119.426
  278.750    3.912    0.202    0.536  122.374
  279.000    3.841    0.210    0.523  127.700
  279.250    3.705    0.203    0.520  126.570
  279.500    3.504    0.203    0.513  121.960
  279.750    3.443    0.208    0.514  120.259
  280.000    3.721    0.215    0.531  125.572
  280.250    4.256    0.221    0.529  130.885
  280.500    5.058    0.222    0.493  130.366
  280.750    6.010    0.219    0.456  125.729
  281.000    7.421    0.210    0.448  120.522
  281.250    8.173    0.206    0.446  117.652
  281.500    8.030    0.210    0.440  119.458
  281.750    7.742    0.214    0.435  117.757
  282.000    7.464    0.223    0.432  113.147
  282.250    7.334    0.230    0.432  112.030
  282.500    7.212    0.220    0.441  114.408
  282.750    7.219    0.210    0.449  114.486
  283.000    7.507    0.216    0.460  113.928
  283.250    8.432    0.230    0.471  109.318
  283.500    9.283    0.241    0.464  105.266
  283.750   10.827    0.253    0.462  100.058
  284.000   12.148    0.246    0.457   89.591
  284.250   14.169    0.196    0.390   78.525
  284.500   15.903    0.131    0.342   70.395
  284.750   18.199    0.196    0.314   71.032
  285.000   18.569    0.292    0.344   85.722
  285.250   18.245    0.301    0.373   88.684
  285.500   16.621    0.296    0.398   93.997
  285.750   15.130    0.284    0.424   99.322
  286.000   13.269    0.255    0.429  101.713
  286.250   12.079    0.250    0.431  102.934
  286.500   10.797    0.243    0.436  100.649
  286.750    9.836    0.254    0.441   98.363
  287.000    9.850    0.279    0.444   99.000
  287.250   10.046    0.282    0.440  104.313
  287.500    9.871    0.249    0.445  111.976
  287.750    9.162    0.241    0.428  120.796
  288.000    8.343    0.245    0.428  130.797
  288.250    7.460    0.241    0.436  128.512
  288.500    7.327    0.231    0.445  125.642
  288.750    7.338    0.236    0.445  119.265
  289.000    8.084    0.287    0.437  113.460
  289.250    9.425    0.304    0.437   98.901
  289.500   10.778    0.320    0.449   86.095
  289.750   12.808    0.305    0.442   75.030
  290.000   13.594    0.289    0.429   76.836
  290.250   12.859    0.306    0.428   79.824
  290.500   12.155    0.314    0.437   81.058
  290.750   10.864    0.317    0.450   81.682
  291.000    9.890    0.294    0.455   84.657
  291.250    8.670    0.288    0.446   85.294
  291.500    7.898    0.284    0.434   85.931
  291.750    8.219    0.288    0.430   91.854
  292.000    8.383    0.295    0.437   88.386
  292.250    8.559    0.301    0.452   84.932
  292.500    8.736    0.304    0.460   82.076
  292.750    8.581    0.297    0.447   81.530
  293.000    7.964    0.265    0.440   80.440
  293.250    6.982    0.250    0.443   79.895
  293.500    5.893    0.239    0.445   79.350
  293.750    5.267    0.190    0.436   78.831
  294.000    4.980    0.223    0.430   77.130
  294.250    5.487    0.246    0.434   76.014
  294.500    6.277    0.273    0.440   82.482
  294.750    7.602    0.282    0.454   83.132
  295.000    8.863    0.284    0.491   80.249
  295.250    8.384    0.301    0.488   76.210
  295.500    7.635    0.292    0.468   82.705
  295.750    7.646    0.279    0.457   85.095
  296.000    8.268    0.285    0.460   88.070
  296.250    8.597    0.292    0.449   93.980
  296.500    9.118    0.298    0.441   92.877
  296.750    8.959    0.289    0.444   89.410
