~VERSION INFORMATION
 VERS.                 2.0:   CWLS LOG ASCII STANDARD -VERSION 2.0
 WRAP.                  NO:   ONE LINE PER DEPTH STEP
~WELL INFORMATION BLOCK
#MNEM.UNIT           DATA                    DESCRIPTION OF MNEMONIC
#---------    -------------------            -------------------------------
# Generated from Intellog Unique Number	CX_WELLS/WELL/2759
WELL.         05-20-080-13W4                 : Well_name    - WELL
LOC .         00/05-20-080-13W4/0            : Location     - LOCATION
UWI .         00/05-20-080-13W4/0            : Uwi          - UNIQUE WELL ID
ENTR.         T                              : Entered      - ENTERED BY
SRVC.         SCHLUMBERGER                   : Scn          - SERVICE COMPANY
STRT.M        270                            : top_depth    - START DEPTH
STOP.M        500                            : bot_depth    - STOP DEPTH
STEP.M        0.25                           : increment    - STEP LENGTH
 NULL. -999.2500:NULL Value
~CURVE INFORMATION BLOCK
#MNEM UNIT       ERCB CURVE CODE    CURVE DESCRIPTION
#-----------   ------------------   ----------------------------------
DEPT.M        00 001 00 00         : DEPTH        - DEPTH
GR  .API      00 310 00 00         : GR           - GAMMA RAY
NPHI.V/V      00 330 00 00         : PHIN         - NEUTRON POROSITY (SANDSTONE)
DPHI.V/V      00 890 00 00         : PHID         - DENSITY POROSITY (SANDSTONE)
ILD .OHMM     00 120 00 00         : RESD         - DEEP RESISTIVITY (DLL)
~PARAMETER INFORMATION
#MNEM.UNIT           DATA             DESCRIPTION OF MNEMONIC
#---------         -----------     ------------------------------
GL  .M        689.7                : gl           - GROUND LEVEL ELEVATION
EREF.M        692.9                : kb           - ELEVATION OF DEPTH REFERENCE
DATM.M        692.9                : datum        - DATUM ELEVATION
TDD .M        502                  : tdd          - TOTAL DEPTH DRILLER
RUN .         ONE                  : Run          - RUN NUMBER
ENG .         BILL                 : Engineer     - RECORDING ENGINEER
WIT .         JIM                  : Witness      - WITNESSED BY
MUD .         GEL                  : Mud_type     - MUD TYPE
MATR.         SANDSTONE            : Logunit      - NEUTRON MATRIX
TMAX.C        20                   : BHT          - MAXIMUM RECORDED TEMPERATURE
BHTD.M        504                  : BHTDEP       - MAXIMUM RECORDED TEMPERATURE
MATR.         1                    : LOGUNIT      - NEUTRON MATRIX
RMT .C        19                   : MDTP         - TEMPERATURE OF MUD
NEUT.         1                    : NEUTRON      - NEUTRON TYPE
RESI.         5.36                 : RESIST       - RESISTIVITY TYPE
RMC .OHMM     5.2                  : RMC          - RESISTIVITY OF MUD CAKE
RMF .OHMM     5.5                  : RMF          - RESISTIVITY OF MUD FILTRATE
SUFT.C        4                    : SUFT         - SURFACE TEMPERATURE
~A  DEPTH       GR     PHIN     PHID     RESD
  270.000  101.838    0.524    0.264    3.626
  270.250  100.700    0.516    0.273    3.841
  270.500  100.136    0.513    0.276    3.919
  270.750  100.163    0.517    0.273    3.922
  271.000  100.791    0.526    0.267    3.851
  271.250  100.245    0.532    0.263    3.855
  271.500   99.107    0.535    0.259    3.859
  271.750   98.534    0.529    0.255    3.936
  272.000   97.978    0.519    0.249    3.940
  272.250   98.024    0.516    0.244    4.095
  272.500   96.303    0.524    0.243    4.178
  272.750   95.720    0.531    0.242    4.342
  273.000   95.766    0.520    0.242    4.601
  273.250   92.843    0.470    0.243    4.693
  273.500   83.992    0.469    0.264    5.067
  273.750   73.375    0.480    0.281    5.367
  274.000   59.207    0.493    0.295    5.907
  274.250   53.916    0.351    0.331    6.748
  274.500   58.688    0.384    0.328    7.567
  274.750   63.459    0.398    0.326    9.153
  275.000   70.617    0.409    0.334   13.898
  275.250   71.236    0.416    0.339   17.132
  275.500   72.456    0.425    0.341   19.210
  275.750   73.686    0.420    0.341   17.166
  276.000   74.888    0.413    0.339   15.336
  276.250   78.484    0.419    0.334   14.233
  276.500   78.521    0.425    0.329   13.710
  276.750   76.782    0.441    0.321   13.465
  277.000   75.644    0.443    0.317   13.479
  277.250   74.496    0.435    0.310   13.235
  277.500   75.125    0.424    0.310   12.521
  277.750   92.908    0.414    0.281   11.615
  278.000   99.465    0.414    0.260   10.777
  278.250   94.757    0.420    0.249   10.000
  278.500   90.650    0.425    0.253    9.456
  278.750   85.360    0.416    0.270    8.774
  279.000   92.499    0.404    0.289    8.950
  279.250  102.607    0.401    0.281    9.481
  279.500  106.786    0.411    0.230    9.312
  279.750  107.424    0.431    0.221    8.480
  280.000  108.043    0.454    0.223    7.576
  280.250  110.447    0.477    0.231    6.896
  280.500  111.676    0.489    0.238    6.161
  280.750  112.897    0.501    0.245    5.505
  281.000  111.740    0.508    0.253    5.205
  281.250  108.225    0.500    0.258    4.741
  281.500  103.527    0.492    0.259    4.654
  281.750   98.829    0.498    0.262    4.747
  282.000   94.130    0.498    0.260    5.323
  282.250   88.840    0.489    0.259    6.318
  282.500   84.141    0.470    0.264    7.500
  282.750   76.484    0.465    0.270    9.245
  283.000   69.418    0.434    0.281   10.972
  283.250   63.526    0.415    0.293   13.784
  283.500   60.603    0.357    0.299   16.994
  283.750   64.209    0.370    0.291   18.698
  284.000   67.196    0.392    0.300   19.437
  284.250   70.210    0.399    0.313   19.831
  284.500   70.820    0.410    0.326   19.848
  284.750   74.408    0.412    0.324   19.493
  285.000   80.964    0.407    0.320   18.437
  285.250   76.858    0.405    0.312   17.764
  285.500   77.486    0.412    0.311   17.115
  285.750   82.840    0.410    0.304   15.297
  286.000   90.580    0.402    0.284   14.190
  286.250   95.944    0.393    0.233   12.675
  286.500  101.316    0.394    0.232   10.903
  286.750  103.711    0.408    0.228    9.378
  287.000  101.981    0.420    0.216    8.221
  287.250  100.825    0.428    0.205    7.630
  287.500   97.911    0.426    0.206    7.215
  287.750   96.773    0.426    0.209    7.084
  288.000   95.626    0.428    0.221    7.228
  288.250   95.061    0.433    0.250    7.371
  288.500   94.506    0.434    0.264    7.958
  288.750   93.950    0.429    0.269    8.762
  289.000   93.987    0.424    0.268    8.933
  289.250   94.023    0.423    0.266    8.777
  289.500   95.826    0.424    0.264    8.781
  289.750   97.639    0.425    0.256    8.624
  290.000   96.491    0.426    0.247    8.470
  290.250   92.977    0.427    0.239    8.320
  290.500   85.911    0.427    0.244    8.169
  290.750   81.804    0.427    0.265    8.176
  291.000   81.249    0.415    0.279    9.346
  291.250   83.070    0.398    0.343   10.884
  291.500   85.474    0.383    0.336   12.675
  291.750   87.878    0.400    0.324   13.688
  292.000   87.915    0.428    0.313   14.226
  292.250   89.135    0.411    0.304   15.070
  292.500   89.190    0.406    0.310   15.966
  292.750   88.024    0.412    0.315   16.289
  293.000   83.918    0.427    0.317   16.611
  293.250   81.596    0.436    0.321   16.626
  293.500   88.134    0.444    0.325   16.962
  293.750   97.048    0.445    0.325   16.977
  294.000   98.278    0.445    0.319   16.996
  294.250   95.938    0.441    0.314   16.688
  294.500   91.840    0.432    0.306   16.393
  294.750   88.908    0.430    0.292   16.104
  295.000   83.026    0.442    0.292   15.809
  295.250   84.856    0.431    0.291   15.235
  295.500   87.242    0.408    0.287   14.681
  295.750   90.238    0.400    0.271   13.883
  296.000   93.826    0.395    0.260   12.884
  296.250   96.840    0.395    0.241   12.414
  296.500   98.051    0.396    0.208   11.741
  296.750  101.648    0.396    0.191   11.317
  297.000  104.634    0.403    0.184   11.110
  297.250  109.406    0.416    0.186   10.309
  297.500  112.411    0.432    0.171    9.565
  297.750  113.622    0.447    0.179    8.549
  298.000  114.851    0.455    0.185    7.931
  298.250  116.673    0.467    0.184    7.219
  298.500  117.292    0.455    0.195    6.573
  298.750  117.328    0.444    0.196    5.763
  299.000  116.773    0.462    0.181    5.346
  299.250  113.258    0.481    0.168    5.055
  299.500  109.143    0.499    0.159    5.565
  299.750  105.637    0.496    0.144    5.897
  300.000  114.552    0.459    0.127    6.127
  300.250  120.507    0.443    0.139    5.904
  300.500  122.911    0.444    0.151    5.177
  300.750  123.539    0.460    0.169    4.803
  301.000  122.993    0.471    0.205    4.456
  301.250  123.030    0.487    0.210    4.214
  301.500  121.891    0.508    0.217    4.464
  301.750  121.318    0.538    0.231    4.912
  302.000  118.996    0.550    0.241    5.613
  302.250  116.656    0.563    0.251    6.791
  302.500  111.957    0.464    0.270    7.908
  302.750  106.667    0.425    0.279    9.210
  303.000  106.704    0.420    0.275   10.728
  303.250  109.709    0.417    0.254   11.363
  303.500  111.512    0.412    0.246   11.815
  303.750  108.589    0.404    0.248   12.051
  304.000  102.115    0.399    0.254   12.062
  304.250  102.151    0.392    0.251   11.192
  304.500  107.515    0.400    0.204   10.190
  304.750  111.102    0.427    0.189    8.601
  305.000  113.525    0.432    0.180    7.398
  305.250  113.552    0.446    0.209    7.548
  305.500  111.230    0.463    0.232    8.465
  305.750  108.890    0.450    0.248    8.966
  306.000  104.201    0.423    0.251   10.056
  306.250  100.668    0.416    0.252   10.451
  306.500   94.795    0.421    0.259   10.658
  306.750   92.454    0.435    0.264   11.084
  307.000   97.235    0.429    0.274   11.089
  307.250  102.016    0.422    0.265   11.106
  307.500  103.828    0.414    0.260   11.114
  307.750  104.456    0.411    0.259   11.126
  308.000  103.901    0.406    0.265   11.131
  308.250  100.377    0.401    0.277   11.140
  308.500   93.912    0.394    0.288   11.150
  308.750   95.132    0.401    0.283   11.374
  309.000   94.577    0.395    0.268   11.384
  309.250   92.829    0.387    0.261   11.611
  309.500   85.763    0.379    0.270   11.624
  309.750   79.280    0.402    0.287   11.632
  310.000   78.151    0.415    0.293   11.424
  310.250   78.770    0.415    0.294   11.220
  310.500   78.224    0.418    0.290   11.019
  310.750   77.659    0.424    0.288   10.826
  311.000   83.624    0.439    0.283   10.836
  311.250   87.211    0.437    0.277   10.640
  311.500   91.382    0.425    0.274   10.654
  311.750   93.795    0.411    0.277   10.661
  312.000   94.414    0.401    0.256   10.670
  312.250   95.043    0.399    0.249   10.680
  312.500   94.496    0.400    0.250   10.491
  312.750   92.165    0.406    0.257   10.496
  313.000   91.018    0.412    0.259   10.308
  313.250   91.055    0.423    0.259   10.517
