~VERSION INFORMATION
 VERS.                 2.0:   CWLS LOG ASCII STANDARD -VERSION 2.0
 WRAP.                  NO:   ONE LINE PER DEPTH STEP
~WELL INFORMATION BLOCK
#MNEM.UNIT           DATA                    DESCRIPTION OF MNEMONIC
#---------    -------------------            -------------------------------
# Generated from Intellog Unique Number	CS_67_68/WELL/2169
WELL.         CHIEFCO et al TWEEDIE          : Well_name    - WELL
LOC .         00/06-13-067-12W4/0            : Location     - LOCATION
UWI .         00/06-13-067-12W4/0            : Uwi          - UNIQUE WELL ID
ENTR.         SP                             : Entered      - ENTERED BY
SRVC.         SCHLUMBERGER                   : Scn          - SERVICE COMPANY
STRT.M        320                            : top_depth    - START DEPTH
STOP.M        525                            : bot_depth    - STOP DEPTH
STEP.M        0.25                           : increment    - STEP LENGTH
 NULL. -999.2500:NULL Value
~CURVE INFORMATION BLOCK
#MNEM UNIT       ERCB CURVE CODE    CURVE DESCRIPTION
#-----------   ------------------   ----------------------------------
DEPT.M        00 001 00 00         : DEPTH        - DEPTH
ILD .OHMM     00 120 00 00         : RESD         - DEEP RESISTIVITY (DIL)
DPHI.V/V      00 890 00 00         : PHID         - DENSITY POROSITY (LIMESTONE)
NPHI.V/V      00 330 00 00         : PHIN         - NEUTRON POROSITY (LIMESTONE)
GR  .API      00 310 00 00         : GR           - GAMMA RAY
CALI.MM       00 280 01 00         : CAL          - CALIPER
~PARAMETER INFORMATION
#MNEM.UNIT           DATA             DESCRIPTION OF MNEMONIC
#---------         -----------     ------------------------------
GL  .M        604.6                : gl           - GROUND LEVEL ELEVATION
EREF.M        607.6                : kb           - ELEVATION OF DEPTH REFERENCE
DATM.M        607.6                : datum        - DATUM ELEVATION
TDD .M        532                  : tdd          - TOTAL DEPTH DRILLER
RUN .         ONE                  : Run          - RUN NUMBER
ENG .         BILL                 : Engineer     - RECORDING ENGINEER
WIT .         JIM                  : Witness      - WITNESSED BY
MUD .         GEL                  : Mud_type     - MUD TYPE
MATR.         LIMESTONE            : Logunit      - NEUTRON MATRIX
TMAX.C        20                   : BHT          - MAXIMUM RECORDED TEMPERATURE
BHTD.M        529                  : BHTDEP       - MAXIMUM RECORDED TEMPERATURE
MATR.         1                    : LOGUNIT      - NEUTRON MATRIX
RMT .C        25                   : MDTP         - TEMPERATURE OF MUD
NEUT.         1                    : NEUTRON      - NEUTRON TYPE
RESI.         0                    : RESIST       - RESISTIVITY TYPE
RMC .OHMM     0.25                 : RMC          - RESISTIVITY OF MUD CAKE
RMF .OHMM     0.25                 : RMF          - RESISTIVITY OF MUD FILTRATE
SUFT.C        15                   : SUFT         - SURFACE TEMPERATURE
~A  DEPTH     RESD     PHID     PHIN       GR      CAL
# ...
  502.500    5.278    0.161    0.296   95.533  146.681
  502.750    5.235    0.149    0.298   93.141  146.671
  503.000    5.220    0.166    0.295   94.419  146.660
  503.250    5.215    0.156    0.292   96.186  146.649
  503.500    5.220    0.132    0.290   95.507  146.946
  503.750    5.215    0.119    0.289  102.046  146.934
  504.000    5.182    0.113    0.292  108.402  147.128
  504.250    5.091    0.105    0.298   87.107  147.117
  504.500    4.819    0.097    0.297   63.731  147.106
  504.750    4.347    0.090    0.289   53.265  146.892
  505.000    4.068    0.147    0.275   44.327  146.574
  505.250    3.739    0.194    0.261   51.904  146.155
  505.500    3.526    0.141    0.258   57.833  146.044
  505.750    3.375    0.139    0.258   61.559  145.726
  506.000    3.195    0.174    0.275   62.653  145.410
  506.250    3.035    0.217    0.280   64.849  145.705
  506.500    2.982    0.236    0.282   59.031  145.795
  506.750    3.127    0.249    0.276   58.902  145.887
  507.000    3.304    0.256    0.271   64.157  145.673
  507.250    3.630    0.214    0.265   68.983  145.560
  507.500    3.979    0.138    0.259   64.633  145.447
  507.750    4.388    0.134    0.254   64.137  145.232
  508.000    4.670    0.144    0.250   73.796  145.118
  508.250    4.780    0.120    0.249   83.272  144.803
  508.500    4.492    0.111    0.263   89.750  144.486
  508.750    3.955    0.125    0.271   74.021  144.169
  509.000    3.600    0.173    0.275   50.830  143.547
  509.250    3.357    0.205    0.273   40.301  143.434
  509.500    3.051    0.233    0.271   45.923  143.117
  509.750    2.792    0.215    0.280   49.771  142.699
  510.000    2.653    0.204    0.286   49.642  142.688
  510.250    2.641    0.210    0.287   53.979  142.576
  510.500    2.718    0.218    0.283   56.358  142.564
  510.750    3.094    0.224    0.282   66.201  142.452
  511.000    3.567    0.194    0.279   77.389  142.542
  511.250    3.993    0.149    0.276   90.168  142.634
  511.500    4.345    0.139    0.283  106.862  142.623
  511.750    4.702    0.127    0.295  117.683  142.817
  512.000    4.978    0.115    0.305  122.815  143.111
  512.250    5.123    0.108    0.293   96.259  143.407
  512.500    5.253    0.121    0.280   88.117  143.905
  512.750    5.377    0.128    0.268   86.091  143.996
  513.000    5.444    0.127    0.262   87.308  144.190
  513.250    5.468    0.113    0.279   89.137  144.281
  513.500    5.455    0.098    0.287   82.585  144.678
  513.750    5.377    0.090    0.291   79.642  144.974
  514.000    5.109    0.114    0.287   82.509  145.064
  514.250    4.801    0.140    0.286   79.691  145.257
  514.500    4.544    0.156    0.291   84.822  145.553
  514.750    4.343    0.151    0.296   87.141  145.848
  515.000    4.226    0.143    0.294   81.383  145.837
  515.250    4.091    0.132    0.291   81.132  145.725
  515.500    3.975    0.123    0.288   81.860  145.510
  515.750    3.892    0.146    0.285   82.466  144.887
  516.000    3.888    0.159    0.281   81.541  144.671
  516.250    3.834    0.166    0.279   78.538  144.866
  516.500    3.766    0.162    0.284   74.616  144.651
  516.750    3.470    0.159    0.290   75.770  144.433
  517.000    3.419    0.163    0.285   78.579  144.220
  517.250    3.316    0.164    0.283   70.497  144.107
  517.500    3.258    0.167    0.294   71.774  143.894
  517.750    3.190    0.174    0.302   74.644  143.781
  518.000    3.162    0.166    0.300   76.963  143.872
  518.250    3.159    0.160    0.297   78.424  143.861
  518.500    3.258    0.166    0.296   77.072  143.747
  518.750    3.404    0.176    0.300   77.616  143.737
  519.000    3.497    0.193    0.304   78.894  143.523
  519.250    3.572    0.204    0.309   73.260  143.307
  519.500    3.543    0.214    0.312   63.221  143.092
  519.750    3.166    0.211    0.312   51.592  143.796
  520.000    2.829    0.204    0.308   53.236  144.499
  520.250    2.692    0.215    0.303   52.313  145.610
  520.500    2.577    0.223    0.299   55.304  146.516
  520.750    2.481    0.211    0.296   52.789  147.117
  521.000    2.402    0.270    0.298   45.625  147.921
  521.250    2.444    0.282    0.306   77.490  148.113
  521.500    2.887    0.144    0.310  112.781  148.309
  521.750    3.280    0.117    0.321  127.151  148.706
  522.000    3.478    0.093    0.347  127.755  149.409
  522.250    3.607    0.061    0.363  119.063  150.416
  522.500    3.761    0.051    0.353  116.120  151.221
  522.750    3.915    0.063    0.346  118.193  151.722
  523.000    4.090    0.075    0.340  112.497  151.915
  523.250    4.281    0.069    0.346  108.698  151.904
  523.500    4.365    0.062    0.344  119.397  151.892
  523.750    4.370    0.074    0.338  123.978  151.882
  524.000    4.261    0.085    0.334  128.682  151.769
  524.250    4.179    0.092    0.337  128.982  151.555
  524.500    4.121    0.092    0.344  126.039  151.136
  524.750    4.049    0.093    0.351  127.745  150.717
  525.000    3.970    0.096    0.355  125.781  150.401
