~VERSION INFORMATION
 VERS.                 2.0:   CWLS LOG ASCII STANDARD -VERSION 2.0
 WRAP.                  NO:   ONE LINE PER DEPTH STEP
~WELL INFORMATION BLOCK
#MNEM.UNIT           DATA                    DESCRIPTION OF MNEMONIC
#---------    -------------------            -------------------------------
# Generated from Intellog Unique Number	CW_73_75/WELL/2723
WELL.         TRICENT ET AL MITSUE 02-26     : Well_name    - WELL
LOC .         00/02-26-073-05W5/0            : Location     - LOCATION
UWI .         00/02-26-073-05W5/0            : Uwi          - UNIQUE WELL ID
ENTR.         JAYE                           : Entered      - ENTERED BY
SRVC.         SCHLUMBERGER                   : Scn          - SERVICE COMPANY
DATE.         23 MAR 82                      : Date         - LOG DATE
STRT.M        350                            : top_depth    - START DEPTH
STOP.M        590                            : bot_depth    - STOP DEPTH
STEP.M        0.25                           : increment    - STEP LENGTH
 NULL. -999.2500:NULL Value
~CURVE INFORMATION BLOCK
#MNEM UNIT       ERCB CURVE CODE    CURVE DESCRIPTION
#-----------   ------------------   ----------------------------------
DEPT.M        00 001 00 00         : DEPTH        - DEPTH
DPHI.V/V      00 890 00 00         : PHID         - DENSITY POROSITY (SANDSTONE)
NPHI.V/V      00 330 00 00         : PHIN         - NEUTRON POROSITY (SANDSTONE)
GR  .API      00 310 00 00         : GR           - GAMMA RAY
CALI.MM       00 280 01 00         : CAL          - CALIPER
ILD .OHMM     00 120 00 00         : RESD         - DEEP RESISTIVITY (DIL)
~PARAMETER INFORMATION
#MNEM.UNIT           DATA             DESCRIPTION OF MNEMONIC
#---------         -----------     ------------------------------
GL  .M        576                  : gl           - GROUND LEVEL ELEVATION
EREF.M        583                  : kb           - ELEVATION OF DEPTH REFERENCE
DATM.M        576                  : datum        - DATUM ELEVATION
TDD .M        1695                 : tdd          - TOTAL DEPTH DRILLER
RUN .         ONE                  : Run          - RUN NUMBER
ENG .         HEATH                : Engineer     - RECORDING ENGINEER
WIT .         MACKASEY             : Witness      - WITNESSED BY
BASE.         EDM                  : Branch       - HOME BASE OF LOGGING UNIT
MUD .         GEL CHEM             : Mud_type     - MUD TYPE
MATR.         SANDSTONE            : Logunit      - NEUTRON MATRIX
TMAX.C        46.1                 : BHT          - MAXIMUM RECORDED TEMPERATURE
BHTD.M        1695.8               : BHTDEP       - MAXIMUM RECORDED TEMPERATURE
RMT .C        17.7                 : MDTP         - TEMPERATURE OF MUD
MUDD.KG/M     1090                 : MWT          - MUD DENSITY
NEUT.         1                    : NEUTRON      - NEUTRON TYPE
RESI.         0                    : RESIST       - RESISTIVITY TYPE
RM  .OHMM     1.08                 : RM           - RESISTIVITY OF MUD
RMC .OHMM     0                    : RMC          - RESISTIVITY OF MUD CAKE
RMF .OHMM     0.79                 : RMF          - RESISTIVITY OF MUD FILTRATE
SUFT.C        0                    : SUFT         - SURFACE TEMPERATURE
~A  DEPTH     PHID     PHIN       GR      CAL     RESD
# ...
  386.500    0.302    0.492  111.973  249.045    3.293
  386.750    0.304    0.468  103.123  246.874    3.955
  387.000    0.297    0.441   96.501  266.248    4.952
  387.250    0.314    0.431   92.230  264.490    6.295
  387.500    0.313    0.440   86.473  245.309    6.792
  387.750    0.301    0.432   84.862  226.642    6.733
  388.000    0.291    0.415   86.838  209.833    6.490
  388.250    0.282    0.398   88.195  219.826    6.255
  388.500    0.271    0.393   79.655  220.336    6.096
  388.750    0.277    0.392   66.414  218.783    5.955
  389.000    0.303    0.366   50.081  216.507    5.836
  389.250    0.330    0.367   45.005  215.368    5.584
  389.500    0.321    0.371   51.928  214.847    5.402
  389.750    0.328    0.355   59.533  216.283    5.186
  390.000    0.323    0.347   69.674  217.206    4.961
  390.250    0.293    0.359   79.196  219.054    4.728
  390.500    0.273    0.373   84.141  220.285    4.643
  390.750    0.259    0.387   93.786  221.208    4.771
  391.000    0.247    0.402   98.855  223.469    5.499
  391.250    0.239    0.412   91.181  224.701    6.242
  391.500    0.274    0.393   80.971  225.209    6.710
  391.750    0.462    0.461   70.699  224.894    6.986
  392.000    0.483    0.599   59.933  224.372    6.900
  392.250    0.401    0.435   68.218  223.231    6.663
  392.500    0.344    0.432   72.606  223.020    6.326
  392.750    0.309    0.424   71.303  223.426    5.961
  393.000    0.320    0.404   68.516  223.420    5.734
  393.250    0.327    0.409   69.130  222.692    5.363
  393.500    0.324    0.416   71.107  222.377    5.034
  393.750    0.315    0.416   72.649  221.648    4.815
  394.000    0.302    0.416   71.655  221.229    4.756
  394.250    0.303    0.423   70.724  221.740    4.924
  394.500    0.297    0.435   70.968  224.311    5.204
  394.750    0.276    0.439   75.789  226.675    5.448
  395.000    0.286    0.459   76.094  227.391    5.411
  395.250    0.300    0.454   72.132  227.590    5.206
  395.500    0.324    0.437   67.860  227.481    5.142
  395.750    0.330    0.454   68.970  227.166    5.254
  396.000    0.318    0.469   71.688  226.438    5.553
  396.250    0.313    0.457   72.179  225.917    5.980
  396.500    0.316    0.461   70.072  225.291    6.064
  396.750    0.324    0.445   67.409  224.770    5.989
  397.000    0.334    0.421   62.890  224.351    5.675
  397.250    0.346    0.411   62.824  224.758    5.209
  397.500    0.359    0.402   58.614  224.958    5.077
  397.750    0.370    0.403   66.033  226.086    5.091
  398.000    0.362    0.436   70.854  229.482    5.241
  398.250    0.343    0.474   77.283  236.898    5.426
  398.500    0.329    0.432   79.321  229.573    5.554
  398.750    0.317    0.417   76.039  225.752    5.664
  399.000    0.314    0.436   72.757  224.818    5.733
  399.250    0.341    0.468   70.712  224.708    5.758
  399.500    0.343    0.480   67.615  225.115    5.806
  399.750    0.347    0.460   64.024  224.800    5.843
  400.000    0.364    0.419   63.093  224.175    5.870
  400.250    0.361    0.404   67.728  223.344    5.853
  400.500    0.358    0.427   70.013  223.132    5.846
  400.750    0.353    0.441   71.802  223.331    5.829
  401.000    0.352    0.458   71.799  224.045    5.790
  401.250    0.361    0.461   70.373  224.453    5.708
  401.500    0.366    0.417   66.101  225.066    5.648
  401.750    0.368    0.425   64.489  225.883    5.578
  402.000    0.372    0.460   63.991  226.495    5.593
  402.250    0.372    0.457   65.657  226.902    5.672
  402.500    0.362    0.457   69.241  227.103    5.697
  402.750    0.364    0.471   74.371  227.199    5.691
  403.000    0.363    0.481   77.893  227.399    5.684
  403.250    0.345    0.469   74.364  227.393    5.798
  403.500    0.348    0.448   68.298  227.284    6.104
  403.750    0.352    0.434   63.470  227.175    6.464
  404.000    0.354    0.392   61.734  226.963    6.667
  404.250    0.350    0.416   67.297  227.163    6.659
  404.500    0.326    0.457   74.964  228.393    6.346
  404.750    0.275    0.406   71.248  229.727    5.759
  405.000    0.199    0.262   68.400  231.267    5.305
  405.250    0.150    0.361   68.953  233.013    4.859
  405.500    0.247    0.396   70.433  232.698    4.570
  405.750    0.285    0.429   70.553  231.352    4.405
  406.000    0.347    0.443   69.003  230.108    4.433
  406.250    0.340    0.458   65.659  229.793    4.616
  406.500    0.343    0.451   62.378  230.303    4.925
  406.750    0.358    0.439   65.096  231.533    5.137
  407.000    0.364    0.454   68.803  232.970    5.278
  407.250    0.369    0.445   72.510  234.613    5.372
  407.500    0.373    0.435   69.909  236.051    5.449
  407.750    0.374    0.443   62.297  237.693    5.514
  408.000    0.372    0.451   61.489  238.616    5.581
  408.250    0.367    0.437   63.898  240.361    5.692
  408.500    0.363    0.423   63.214  241.078    5.793
  408.750    0.373    0.413   64.014  241.793    5.975
  409.000    0.371    0.421   68.526  242.096    6.162
  409.250    0.358    0.414   69.512  241.368    6.343
  409.500    0.361    0.409   64.312  239.919    6.433
  409.750    0.357    0.410   64.123  239.088    6.437
  410.000    0.348    0.415   65.233  238.876    6.406
  410.250    0.347    0.421   68.198  238.869    6.244
  410.500    0.346    0.441   71.349  239.172    6.075
  410.750    0.344    0.464   69.985  240.093    5.746
  411.000    0.345    0.448   62.743  240.707    5.560
  411.250    0.344    0.432   63.977  241.422    5.480
  411.500    0.343    0.421   68.736  241.415    5.705
  411.750    0.345    0.428   74.361  240.481    5.985
  412.000    0.342    0.447   77.079  238.827    6.057
  412.250    0.351    0.451   72.004  236.963    5.882
  412.500    0.360    0.459   70.824  235.411    5.648
  412.750    0.359    0.479   72.676  232.622    5.414
  413.000    0.353    0.471   70.693  230.554    5.316
  413.250    0.346    0.457   68.277  229.517    5.173
  413.500    0.341    0.444   69.263  229.717    5.041
  413.750    0.342    0.434   66.723  231.360    4.877
  414.000    0.349    0.451   66.658  233.828    4.692
  414.250    0.360    0.460   68.139  235.884    4.582
  414.500    0.371    0.462   64.981  236.599    4.542
  414.750    0.383    0.474   64.173  236.181    4.589
  415.000    0.397    0.485   67.138  235.659    4.805
  415.250    0.385    0.476   66.515  234.828    4.900
  415.500    0.383    0.463   66.017  234.409    4.830
  415.750    0.386    0.455   69.787  234.816    4.417
  416.000    0.366    0.430   74.051  237.078    3.918
  416.250    0.338    0.396   77.697  240.886    3.354
  416.500    0.291    0.350   82.889  247.374    2.898
  416.750    0.322    0.442   90.741  252.008    2.448
  417.000    0.333    0.575   99.026  261.074    2.423
  417.250    0.284    0.600  108.424  271.789    2.756
  417.500    0.344    0.605  122.090  267.763    3.218
  417.750    0.364    0.512  104.891  279.921    4.106
  418.000    0.339    0.483   94.434  274.141    4.732
  418.250    0.337    0.466   80.327  266.713    5.312
  418.500    0.357    0.457   73.890  255.573    5.377
  418.750    0.349    0.446   70.856  245.567    5.221
  419.000    0.333    0.436   72.027  238.241    4.855
  419.250    0.320    0.424   78.085  234.936    4.473
  419.500    0.322    0.411   85.380  235.548    4.152
  419.750    0.325    0.442   80.057  237.190    3.934
  420.000    0.327    0.504   75.662  238.009    3.835
  420.250    0.331    0.494   74.297  238.415    4.107
  420.500    0.336    0.467   78.932  238.923    4.423
  420.750    0.336    0.452   82.516  239.330    4.764
  421.000    0.325    0.465   86.904  239.634    5.064
  421.250    0.310    0.463   83.128  239.113    5.272
  421.500    0.333    0.435   72.547  237.251    5.336
  421.750    0.355    0.424   64.130  234.461    5.191
  422.000    0.361    0.408   58.189  232.289    4.873
  422.250    0.354    0.420   65.113  231.150    4.768
  422.500    0.344    0.422   73.212  230.525    4.862
  422.750    0.341    0.399   74.322  230.313    5.034
