~VERSION INFORMATION
 VERS.                 2.0:   CWLS LOG ASCII STANDARD -VERSION 2.0
 WRAP.                  NO:   ONE LINE PER DEPTH STEP
~WELL INFORMATION BLOCK
#MNEM.UNIT           DATA                    DESCRIPTION OF MNEMONIC
#---------    -------------------            -------------------------------
# Generated from Intellog Unique Number	CS_69_70/WELL/620
NULL.         -999.25                        : NULL_VALUE
WELL.         MAYNARD ENERGY                 : Well_name    - WELL              
LOC .         00/03-20-070-15W4/0            : Location     - LOCATION          
UWI .         00/03-20-070-15W4/0            : Uwi          - UNIQUE WELL ID    
ENTR.         SP                             : Entered      - ENTERED BY        
SRVC.         SCHLUMBERGER                   : Scn          - SERVICE COMPANY   
STRT.M        270                            : top_depth    - START DEPTH       
STOP.M        489                            : bot_depth    - STOP DEPTH        
STEP.M        0.25                           : increment    - STEP LENGTH       
~CURVE INFORMATION BLOCK
#MNEM UNIT       ERCB CURVE CODE    CURVE DESCRIPTION
#-----------   ------------------   ----------------------------------
DEPT.M        00 001 00 00         : DEPTH        - DEPTH                       
ILD .OHMM     00 120 00 00         : RESD         - DEEP RESISTIVITY (DIL)      
DPHI.V/V      00 890 00 00         : PHID         - DENSITY POROSITY (LIMESTONE)
NPHI.V/V      00 330 00 00         : PHIN         - NEUTRON POROSITY (LIMESTONE)
GR  .API      00 310 00 00         : GR           - GAMMA RAY                   
~PARAMETER INFORMATION       
#MNEM.UNIT           DATA             DESCRIPTION OF MNEMONIC
#---------         -----------     ------------------------------
GL  .M        566.63               : gl           - GROUND LEVEL ELEVATION      
EREF.M        569.83               : kb           - ELEVATION OF DEPTH REFERENCE
DATM.M        566.63               : datum        - DATUM ELEVATION             
TDD .M        495                  : tdd          - TOTAL DEPTH DRILLER         
RUN .         ONE                  : Run          - RUN NUMBER                  
ENG .         BILL                 : Engineer     - RECORDING ENGINEER          
WIT .         JIM                  : Witness      - WITNESSED BY                
MUD .         GEL                  : Mud_type     - MUD TYPE                    
MATR.         LIMESTONE            : Logunit      - NEUTRON MATRIX              
TMAX.C        21                   : BHT          - MAXIMUM RECORDED TEMPERATURE
BHTD.M        495                  : BHTDEP       - MAXIMUM RECORDED TEMPERATURE
MATR.         1                    : LOGUNIT      - NEUTRON MATRIX              
RMT .C        25                   : MDTP         - TEMPERATURE OF MUD          
NEUT.         1                    : NEUTRON      - NEUTRON TYPE                
RESI.         0                    : RESIST       - RESISTIVITY TYPE            
RMC .OHMM     0.25                 : RMC          - RESISTIVITY OF MUD CAKE     
RMF .OHMM     0.25                 : RMF          - RESISTIVITY OF MUD FILTRATE 
SUFT.C        15                   : SUFT         - SURFACE TEMPERATURE         
~A  DEPTH     RESD     PHID     PHIN       GR
# ...
  313.500    5.105    0.217    0.404  108.398
  313.750    5.220    0.205    0.397  111.188
  314.000    5.269    0.204    0.396  113.312
  314.250    5.269    0.209    0.405  115.436
  314.500    5.197    0.222    0.419  116.779
  314.750    4.905    0.214    0.435  116.791
  315.000    4.549    0.205    0.449  115.961
  315.250    4.281    0.201    0.456  116.395
  315.500    3.998    0.199    0.458  119.124
  315.750    3.901    0.204    0.457  121.673
  316.000    3.820    0.245    0.450  123.316
  316.250    3.804    0.245    0.439  120.733
  316.500    3.829    0.243    0.433  113.869
  316.750    3.830    0.245    0.431  106.519
  317.000    3.782    0.229    0.433   98.690
  317.250    3.669    0.216    0.435   91.703
  317.500    3.588    0.217    0.434   89.485
  317.750    3.572    0.227    0.429   90.464
  318.000    3.589    0.249    0.422   92.165
  318.250    3.663    0.248    0.414   94.471
  318.500    3.761    0.250    0.410   95.877
  318.750    3.786    0.263    0.408   96.007
  319.000    3.908    0.272    0.407   95.900
  319.250    4.047    0.277    0.409   95.732
  319.500    4.291    0.275    0.409   95.323
  319.750    4.357    0.270    0.414   94.192
  320.000    4.447    0.289    0.425   93.419
  320.250    4.472    0.305    0.437   96.210
  320.500    4.432    0.294    0.443   97.307
  320.750    4.392    0.284    0.449   97.984
  321.000    4.311    0.267    0.444   98.603
  321.250    4.198    0.260    0.435  100.003
  321.500    4.109    0.281    0.434  102.248
  321.750    4.012    0.296    0.435  103.106
  322.000    3.948    0.298    0.435   99.861
  322.250    3.924    0.295    0.429   93.297
  322.500    3.925    0.290    0.426   86.433
  322.750    3.933    0.291    0.425   82.282
  323.000    4.007    0.280    0.424   80.486
  323.250    4.081    0.273    0.427   85.929
  323.500    4.122    0.280    0.433   89.442
  323.750    4.334    0.275    0.437   92.716
  324.000    4.456    0.270    0.439   94.839
  324.250    4.522    0.264    0.437   95.697
  324.500    4.547    0.265    0.434   94.866
  324.750    4.515    0.272    0.429   93.254
  325.000    4.443    0.280    0.426   92.780
  325.250    4.321    0.271    0.424   94.302
  325.500    4.289    0.261    0.423   96.005
  325.750    4.290    0.252    0.428   97.346
  326.000    4.339    0.247    0.435   98.447
  326.250    4.397    0.241    0.439   99.665
  326.500    4.422    0.236    0.444  101.248
  326.750    4.414    0.243    0.447  103.198
  327.000    4.382    0.233    0.443  104.357
  327.250    4.326    0.227    0.438  105.337
  327.500    4.326    0.242    0.434  105.164
  327.750    4.441    0.248    0.430  102.945
  328.000    4.531    0.261    0.426   99.638
  328.250    4.572    0.277    0.423   95.429
  328.500    4.548    0.245    0.421   93.691
  328.750    4.459    0.221    0.426   94.248
  329.000    4.322    0.208    0.436   96.856
  329.250    4.119    0.201    0.446  100.248
  329.500    3.917    0.219    0.455  103.282
  329.750    3.788    0.216    0.462  104.740
  330.000    3.675    0.204    0.465  106.020
  330.250    3.594    0.213    0.466  105.495
  330.500    3.643    0.229    0.463  105.082
  330.750    3.952    0.249    0.456  105.641
  331.000    4.359    0.250    0.443  107.648
  331.250    4.676    0.233    0.432  108.259
  331.500    5.026    0.221    0.423  108.817
  331.750    5.319    0.220    0.415  109.313
  332.000    5.539    0.219    0.408  109.630
  332.250    5.726    0.226    0.400  110.187
  332.500    5.897    0.231    0.394  110.197
  332.750    6.044    0.226    0.389  109.488
  333.000    6.167    0.221    0.386  108.119
  333.250    6.191    0.223    0.384  107.402
  333.500    6.087    0.220    0.386  106.208
  333.750    5.811    0.210    0.387  103.988
  334.000    5.438    0.225    0.386   99.296
  334.250    5.138    0.241    0.381   94.904
  334.500    5.017    0.260    0.378   88.952
  334.750    4.944    0.283    0.377   87.208
  335.000    4.945    0.280    0.378   83.662
  335.250    5.124    0.268    0.380   84.035
  335.500    5.271    0.271    0.384   88.817
  335.750    5.442    0.261    0.390   93.719
  336.000    5.548    0.245    0.396   97.715
  336.250    5.638    0.232    0.400  100.745
  336.500    5.598    0.214    0.407  102.687
  336.750    5.485    0.193    0.410  104.208
  337.000    5.404    0.201    0.410  105.067
  337.250    5.210    0.215    0.406  102.790
  337.500    5.040    0.225    0.408   99.483
  337.750    4.870    0.256    0.415   93.946
  338.000    4.692    0.288    0.424   88.475
  338.250    4.433    0.312    0.431   86.492
  338.500    4.287    0.334    0.434   84.214
  338.750    4.126    0.328    0.427   83.559
  339.000    4.029    0.315    0.419   82.006
  339.250    3.956    0.292    0.411   80.569
  339.500    3.770    0.290    0.404   78.048
  339.750    3.690    0.306    0.402   73.965
  340.000    3.512    0.332    0.399   72.343
  340.250    3.455    0.359    0.398   68.562
  340.500    3.448    0.374    0.395   67.723
  340.750    3.489    0.375    0.392   66.230
  341.000    3.514    0.370    0.387   66.000
  341.250    3.506    0.359    0.380   65.953
  341.500    3.499    0.344    0.377   65.543
  341.750    3.467    0.316    0.373   64.109
  342.000    3.395    0.301    0.374   61.833
  342.250    3.371    0.302    0.377   60.877
  342.500    3.298    0.310    0.380   59.866
  342.750    3.258    0.328    0.383   59.517
  343.000    3.226    0.338    0.384   61.104
  343.250    3.219    0.349    0.387   62.446
  343.500    3.195    0.356    0.390   63.178
  343.750    3.179    0.342    0.393   64.701
  344.000    3.180    0.341    0.397   66.166
  344.250    3.156    0.338    0.400   66.907
  344.500    3.141    0.338    0.405   67.403
  344.750    3.149    0.345    0.408   67.777
  345.000    3.158    0.350    0.406   68.269
  345.250    3.175    0.352    0.405   69.063
  345.500    3.338    0.352    0.410   70.163
  345.750    3.436    0.354    0.418   72.954
  346.000    3.770    0.337    0.424   78.159
  346.250    3.843    0.297    0.428   81.847
  346.500    4.104    0.266    0.432   91.215
  346.750    4.275    0.243    0.431   95.088
  347.000    4.470    0.224    0.428   98.481
  347.250    4.625    0.228    0.427  100.786
  347.500    4.739    0.231    0.426  102.851
  347.750    4.732    0.215    0.424  104.735
  348.000    4.692    0.198    0.423  107.165
  348.250    4.627    0.201    0.423  108.688
  348.500    4.571    0.212    0.426  109.545
  348.750    4.547    0.220    0.428  108.893
  349.000    4.524    0.250    0.429  106.372
  349.250    4.532    0.286    0.428  101.437
  349.500    4.557    0.297    0.427   94.573
  349.750    4.558    0.273    0.423   89.520
  350.000    4.558    0.250    0.421   87.357
  350.250    4.527    0.248    0.418   83.148
  350.500    4.478    0.260    0.415   79.662
  350.750    4.463    0.276    0.413   77.442
  351.000    4.423    0.289    0.409   78.000
  351.250    4.367    0.299    0.406   78.977
  351.500    4.351    0.287    0.406   79.895
  351.750    4.311    0.286    0.410   81.246
  352.000    4.295    0.286    0.411   79.805
  352.250    4.279    0.281    0.410   80.296
  352.500    4.288    0.294    0.409   81.759
  352.750    4.289    0.282    0.408   83.220
  353.000    4.298    0.270    0.407   84.319
  353.250    4.298    0.265    0.407   84.575
  353.500    4.290    0.265    0.407   83.744
  353.750    4.250    0.275    0.408   82.008
  354.000    4.186    0.287    0.410   78.582
  354.250    4.162    0.299    0.410   75.882
  354.500    4.122    0.303    0.411   73.851
  354.750    4.091    0.297    0.411   73.856
  355.000    4.075    0.287    0.412   76.522
  355.250    4.059    0.274    0.412   79.072
  355.500    4.011    0.267    0.416   79.870
  355.750    3.971    0.266    0.425   78.374
  356.000    3.939    0.287    0.435   75.973
  356.250    3.899    0.313    0.444   75.746
  356.500    3.859    0.331    0.457   78.291
  356.750    3.811    0.316    0.467   81.866
