~VERSION INFORMATION
 VERS.                 2.0:   CWLS LOG ASCII STANDARD -VERSION 2.0
 WRAP.                  NO:   ONE LINE PER DEPTH STEP
~WELL INFORMATION BLOCK
#MNEM.UNIT           DATA                    DESCRIPTION OF MNEMONIC
#---------    -------------------            -------------------------------
# Generated from Intellog Unique Number	CS_73_76/WELL/1033
WELL.         CANADIAN SUPERIOR OIL          : Well_name    - WELL
LOC .         00/06-05-076-14W4/0            : Location     - LOCATION
UWI .         00/06-05-076-14W4/0            : Uwi          - UNIQUE WELL ID
ENTR.         SP                             : Entered      - ENTERED BY
SRVC.         SCHLUMBERGER                   : Scn          - SERVICE COMPANY
STRT.F        1150                           : top_depth    - START DEPTH
STOP.F        1839.8                         : bot_depth    - STOP DEPTH
STEP.F        0.82                           : increment    - STEP LENGTH
 NULL. -999.2500:NULL Value
~CURVE INFORMATION BLOCK
#MNEM UNIT       ERCB CURVE CODE    CURVE DESCRIPTION
#-----------   ------------------   ----------------------------------
DEPT.F        00 001 00 00         : DEPTH        - DEPTH
GR  .API      00 310 00 00         : GR           - GAMMA RAY
NPHI.V/V      00 330 00 00         : PHIN         - NEUTRON POROSITY (SANDSTONE)
DPHI.V/V      00 890 00 00         : PHID         - DENSITY POROSITY (SANDSTONE)
ILD .OHMM     00 120 00 00         : RESD         - DEEP RESISTIVITY (DIL)
~PARAMETER INFORMATION
#MNEM.UNIT           DATA             DESCRIPTION OF MNEMONIC
#---------         -----------     ------------------------------
GL  .F        2386                 : gl           - GROUND LEVEL ELEVATION
EREF.F        2398                 : kb           - ELEVATION OF DEPTH REFERENCE
DATM.F        2386                 : datum        - DATUM ELEVATION
TDD .F        1806                 : tdd          - TOTAL DEPTH DRILLER
RUN .         ONE                  : Run          - RUN NUMBER
ENG .         BILL                 : Engineer     - RECORDING ENGINEER
WIT .         JIM                  : Witness      - WITNESSED BY
MUD .         GEL                  : Mud_type     - MUD TYPE
MATR.         SANDSTONE            : Logunit      - NEUTRON MATRIX
TMAX.C        22.7778              : BHT          - MAXIMUM RECORDED TEMPERATURE
BHTD.M        550.469              : BHTDEP       - MAXIMUM RECORDED TEMPERATURE
MATR.         1                    : LOGUNIT      - NEUTRON MATRIX
RMT .C        25                   : MDTP         - TEMPERATURE OF MUD
NEUT.         1                    : NEUTRON      - NEUTRON TYPE
RESI.         0                    : RESIST       - RESISTIVITY TYPE
RMC .OHMM     0.25                 : RMC          - RESISTIVITY OF MUD CAKE
RMF .OHMM     0.25                 : RMF          - RESISTIVITY OF MUD FILTRATE
SUFT.C        15                   : SUFT         - SURFACE TEMPERATURE
~A  DEPTH       GR     PHIN     PHID     RESD
# ...
 1578.150   74.046    0.557    0.415   12.144
 1578.970   69.370    0.544    0.369   15.711
 1579.790   65.276    0.503    0.300   18.885
 1580.610   61.769    0.374    0.231   21.894
 1581.430   65.285    0.310    0.174   22.746
 1582.250   68.217    0.303    0.146   22.768
 1583.070   69.980    0.307    0.178   23.218
 1583.890   69.983    0.307    0.187   23.256
 1584.710   69.991    0.308    0.181   22.051
 1585.530   69.409    0.309    0.176   21.295
 1586.350   70.000    0.310    0.175   20.544
 1587.170   71.177    0.312    0.178   18.447
 1587.990   71.765    0.314    0.188   16.852
 1588.810   73.526    0.316    0.201   14.579
 1589.630   75.287    0.328    0.227   12.384
 1590.450   78.809    0.347    0.254   10.714
 1591.270   80.569    0.395    0.277    9.269
 1592.090   81.743    0.423    0.302    8.320
 1592.910   84.093    0.450    0.309    7.606
 1593.730   85.268    0.512    0.331    7.207
 1594.550   85.857    0.546    0.356    6.834
 1595.370   87.034    0.571    0.404    6.597
 1596.190   87.624    0.578    0.427    6.606
 1597.010   86.458    0.567    0.433    6.614
 1597.830   85.876    0.555    0.431    6.623
 1598.650   84.710    0.570    0.431    6.754
 1599.480   84.130    0.577    0.426    6.890
 1600.300   84.722    0.582    0.411    7.026
 1601.120   85.311    0.589    0.406    7.037
 1601.940   85.318    0.594    0.402    7.047
 1602.760   85.321    0.595    0.395    6.926
 1603.580   85.329    0.585    0.394    6.811
 1604.400   85.332    0.589    0.394    6.580
 1605.220   85.336    0.594    0.395    6.586
 1606.040   85.343    0.597    0.402    6.473
 1606.860   85.347    0.600    0.405    6.369
 1607.680   85.353    0.603    0.411    6.261
 1608.500   85.358    0.608    0.415    6.156
 1609.320   85.362    0.616    0.418    6.051
 1610.140   84.783    0.606    0.417    5.951
 1610.960   84.787    0.602    0.415    5.958
 1611.780   84.206    0.602    0.413    5.858
 1612.600   83.627    0.602    0.412    5.870
 1613.420   83.046    0.602    0.408    5.984
 1614.240   82.464    0.596    0.403    6.331
 1615.060   81.298    0.596    0.394    6.818
 1615.880   79.548    0.592    0.387    7.904
 1616.700   78.381    0.580    0.363    9.160
 1617.520   73.702    0.533    0.342   10.812
 1618.340   65.512    0.420    0.318   12.085
 1619.160   61.420    0.400    0.273   11.248
 1619.980   64.936    0.421    0.242    9.910
 1620.800   70.210    0.467    0.239    8.116
 1621.620   74.313    0.477    0.294    7.153
 1622.440   77.830    0.510    0.397    6.655
 1623.260   80.177    0.553    0.419    6.313
 1624.080   81.941    0.621    0.427    6.204
 1624.900   81.944    0.602    0.416    6.100
 1625.720   81.951    0.602    0.414    6.110
 1626.540   82.541    0.599    0.414    6.118
 1627.360   83.131    0.597    0.415    6.130
 1628.180   84.307    0.595    0.418    6.136
 1629.000   84.311    0.595    0.420    6.255
 1629.820   86.073    0.591    0.424    6.267
 1630.640   85.493    0.580    0.428    6.393
 1631.460   84.327    0.587    0.428    6.400
 1632.280   84.332    0.603    0.427    6.528
 1633.100   84.337    0.599    0.427    6.657
 1633.920   84.926    0.592    0.427    6.666
 1634.740   87.274    0.593    0.428    6.673
 1635.560   89.036    0.590    0.429    6.807
 1636.380   87.870    0.585    0.432    6.818
 1637.200   85.533    0.584    0.433    6.827
 1638.020   84.366    0.587    0.434    6.836
 1638.850   82.031    0.598    0.434    6.971
 1639.670   80.864    0.598    0.435    7.240
 1640.490   80.284    0.591    0.435    7.522
 1641.310   79.121    0.591    0.432    7.670
 1642.130   79.124    0.578    0.426    7.680
 1642.950   79.129    0.577    0.423    7.690
 1643.770   80.303    0.578    0.423    7.845
 1644.590   82.065    0.578    0.420    7.858
 1645.410   84.999    0.578    0.416    7.865
 1646.230   86.759    0.578    0.411    7.881
 1647.050   89.692    0.575    0.410    7.888
 1647.870   93.209    0.570    0.411    7.904
 1648.690   95.555    0.566    0.411    7.912
 1649.510   99.073    0.563    0.411    7.922
 1650.330  101.419    0.563    0.405    7.791
 1651.150  102.013    0.562    0.398    7.660
 1651.970  102.015    0.563    0.391    7.531
 1652.790  102.021    0.564    0.385    7.405
 1653.610  101.441    0.567    0.384    7.412
 1654.430  100.273    0.569    0.375    7.424
 1655.250   99.109    0.574    0.366    7.436
 1656.070   99.112    0.603    0.369    7.583
 1656.890   98.534    0.591    0.371    7.873
 1657.710   97.952    0.581    0.379    8.484
 1658.530   96.201    0.585    0.390    9.142
 1659.350   95.036    0.587    0.393    9.151
 1660.170   94.457    0.580    0.362    9.335
 1660.990   93.874    0.570    0.341    9.520
 1661.810   92.707    0.555    0.320    9.535
 1662.630   87.446    0.509    0.254    9.205
 1663.450   85.694    0.457    0.239    9.050
 1664.270   86.870    0.471    0.230    8.737
 1665.090   90.972    0.538    0.259    8.434
 1665.910  102.685    0.556    0.313    8.000
 1666.730  110.301    0.571    0.332    7.860
 1667.550  109.724    0.575    0.333    7.590
 1668.370  108.556    0.574    0.329    7.600
 1669.190  107.390    0.573    0.317    7.753
 1670.010  106.225    0.573    0.306    7.904
 1670.830  105.644    0.574    0.312    8.063
 1671.650  104.478    0.582    0.318    8.374
 1672.470  103.899    0.589    0.323    8.542
 1673.290  103.317    0.587    0.321    8.872
 1674.110  103.323    0.582    0.318    9.220
 1674.930  103.329    0.580    0.315    9.396
 1675.750  103.333    0.581    0.311    9.758
 1676.570  103.337    0.581    0.299   10.138
 1677.400  102.757    0.575    0.300   10.342
 1678.220  101.591    0.563    0.301   10.741
 1679.040  101.011    0.550    0.299   11.155
 1679.860  100.431    0.535    0.287   11.803
 1680.680  101.021    0.509    0.283   12.033
 1681.500  102.197    0.545    0.281   12.497
 1682.320  103.373    0.569    0.331   12.517
 1683.140  101.621    0.568    0.342   12.765
 1683.960   99.283    0.559    0.343   12.786
 1684.780   94.606    0.535    0.314   12.570
 1685.600   91.098    0.510    0.289   12.135
 1686.420   91.689    0.479    0.272   11.298
 1687.240   95.207    0.472    0.241   10.519
 1688.060   99.308    0.516    0.266   10.151
 1688.880  105.753    0.546    0.291    9.797
 1689.700  111.027    0.569    0.310    9.289
 1690.520  119.815    0.574    0.318    9.133
 1691.340  122.162    0.569    0.326    8.979
 1692.160  121.582    0.562    0.333    8.994
 1692.980  121.001    0.559    0.334    8.842
 1693.800  121.006    0.559    0.331    8.694
 1694.620  119.840    0.558    0.323    8.393
 1695.440  116.332    0.557    0.314    7.955
 1696.260  112.239    0.548    0.319    7.404
 1697.080  111.660    0.541    0.327    5.848
 1697.900  112.250    0.551    0.323    4.878
 1698.720  111.084    0.554    0.300    4.143
 1699.540  109.917    0.553    0.277    3.520
 1700.360  108.165    0.576    0.299    3.046
 1701.180  108.758    0.605    0.328    2.783
 1702.000  109.347    0.624    0.351    2.590
 1702.820  112.280    0.621    0.371    2.500
 1703.640  114.627    0.626    0.381    2.371
 1704.460  115.217    0.630    0.383    2.375
 1705.280  115.221    0.640    0.375    2.377
 1706.100  115.813    0.628    0.369    2.424
 1706.920  116.403    0.625    0.368    2.613
 1707.740  117.578    0.621    0.366    2.763
 1708.560  119.925    0.616    0.363    3.032
 1709.380  121.686    0.621    0.358    3.328
 1710.200  122.276    0.627    0.351    3.585
 1711.020  121.110    0.619    0.350    3.790
 1711.840  118.189    0.608    0.345    4.558
 1712.660  115.267    0.597    0.338    5.282
 1713.480  111.174    0.579    0.329    6.588
 1714.300  114.691    0.560    0.307    7.635
 1715.120  118.794    0.554    0.289    7.929
 1715.940  115.286    0.565    0.278    6.862
 1716.770  112.949    0.565    0.266    6.504
 1717.590  111.200    0.553    0.253    6.633
 1718.410  112.960    0.521    0.245    6.889
 1719.230  114.721    0.541    0.296    7.289
 1720.050  108.286    0.564    0.298    7.855
