~VERSION INFORMATION
 VERS.                 2.0:   CWLS LOG ASCII STANDARD -VERSION 2.0
 WRAP.                  NO:   ONE LINE PER DEPTH STEP
~WELL INFORMATION BLOCK
#MNEM.UNIT           DATA                    DESCRIPTION OF MNEMONIC
#---------    -------------------            -------------------------------
# Generated from Intellog Unique Number	CS_67_68/WELL/2164
WELL.         TOTAL ATMORE                   : Well_name    - WELL
LOC .         00/03-34-067-16W4/0            : Location     - LOCATION
UWI .         00/03-34-067-16W4/0            : Uwi          - UNIQUE WELL ID
ENTR.         SP                             : Entered      - ENTERED BY
SRVC.         SCHLUMBERGER                   : Scn          - SERVICE COMPANY
STRT.M        300                            : top_depth    - START DEPTH
STOP.M        462                            : bot_depth    - STOP DEPTH
STEP.M        0.25                           : increment    - STEP LENGTH
 NULL. -999.2500:NULL Value
~CURVE INFORMATION BLOCK
#MNEM UNIT       ERCB CURVE CODE    CURVE DESCRIPTION
#-----------   ------------------   ----------------------------------
DEPT.M        00 001 00 00         : DEPTH        - DEPTH
ILD .OHMM     00 120 00 00         : RESD         - DEEP RESISTIVITY (DIL)
DPHI.V/V      00 890 00 00         : PHID         - DENSITY POROSITY (LIMESTONE)
NPHI.V/V      00 330 00 00         : PHIN         - NEUTRON POROSITY (LIMESTONE)
GR  .API      00 310 00 00         : GR           - GAMMA RAY
CALI.MM       00 280 01 00         : CAL          - CALIPER
~PARAMETER INFORMATION
#MNEM.UNIT           DATA             DESCRIPTION OF MNEMONIC
#---------         -----------     ------------------------------
GL  .M        549.7                : gl           - GROUND LEVEL ELEVATION
EREF.M        553                  : kb           - ELEVATION OF DEPTH REFERENCE
DATM.M        553                  : datum        - DATUM ELEVATION
TDD .M        510                  : tdd          - TOTAL DEPTH DRILLER
RUN .         ONE                  : Run          - RUN NUMBER
ENG .         BILL                 : Engineer     - RECORDING ENGINEER
WIT .         JIM                  : Witness      - WITNESSED BY
MUD .         GEL                  : Mud_type     - MUD TYPE
MATR.         LIMESTONE            : Logunit      - NEUTRON MATRIX
TMAX.C        32                   : BHT          - MAXIMUM RECORDED TEMPERATURE
BHTD.M        509                  : BHTDEP       - MAXIMUM RECORDED TEMPERATURE
MATR.         1                    : LOGUNIT      - NEUTRON MATRIX
RMT .C        25                   : MDTP         - TEMPERATURE OF MUD
NEUT.         1                    : NEUTRON      - NEUTRON TYPE
RESI.         0                    : RESIST       - RESISTIVITY TYPE
RMC .OHMM     0.25                 : RMC          - RESISTIVITY OF MUD CAKE
RMF .OHMM     0.25                 : RMF          - RESISTIVITY OF MUD FILTRATE
SUFT.C        15                   : SUFT         - SURFACE TEMPERATURE
~A  DEPTH     RESD     PHID     PHIN       GR      CAL
  300.000    2.550    0.253    0.543  101.181  202.705
  300.250    2.648    0.347    0.530   96.272  206.734
  300.500    2.785    0.370    0.522   92.040  214.327
  300.750    2.953    0.312    0.522   91.834  212.765
  301.000    2.969    0.220    0.502   97.792  203.778
  301.250    2.844    0.200    0.486   96.493  203.128
  301.500    2.663    0.213    0.498   95.856  208.382
  301.750    2.517    0.249    0.516   94.553  211.296
  302.000    2.424    0.242    0.528   91.173  210.649
  302.250    2.383    0.236    0.530   89.695  210.609
  302.500    2.424    0.255    0.544   91.072  213.319
  302.750    2.465    0.271    0.555   91.045  209.310
  303.000    2.526    0.249    0.531   90.719  205.205
  303.250    2.618    0.249    0.515   91.371  206.088
  303.500    2.713    0.259    0.506   95.067  207.065
  303.750    2.796    0.248    0.493   99.016  203.779
  304.000    2.870    0.211    0.509  100.457  201.805
  304.250    2.903    0.202    0.522   99.581  201.055
  304.500    2.908    0.208    0.516   98.520  201.220
  304.750    2.881    0.249    0.515   96.604  201.490
  305.000    2.817    0.269    0.529   92.797  201.860
  305.250    2.708    0.281    0.542   91.005  202.123
  305.500    2.569    0.291    0.552   85.001  202.292
  305.750    2.414    0.254    0.508   81.380  202.255
  306.000    2.410    0.229    0.477   88.681  206.387
  306.250    2.369    0.269    0.504   87.624  213.264
  306.500    2.338    0.348    0.536   83.999  221.873
  306.750    2.343    0.382    0.530   81.900  226.412
  307.000    2.369    0.398    0.534   73.031  223.323
  307.250    2.708    0.294    0.379   68.065  207.220
  307.500    3.393    0.261    0.359   63.893  183.282
  307.750    3.877    0.261    0.378   79.798  171.137
  308.000    4.056    0.255    0.393   91.308  164.899
  308.250    3.980    0.227    0.406   97.143  168.536
  308.500    3.685    0.225    0.421  102.431  170.008
  308.750    3.516    0.274    0.447  101.614  167.538
  309.000    3.826    0.296    0.459   84.750  165.166
  309.250    5.247    0.315    0.351   73.316  163.591
  309.500    6.285    0.328    0.326   60.053  162.537
  309.750    6.943    0.340    0.316   52.097  161.588
  310.000    7.061    0.325    0.312   47.558  161.652
  310.250    6.943    0.314    0.319   46.620  162.323
  310.500    6.356    0.298    0.331   51.848  164.733
  310.750    5.646    0.280    0.351   57.013  165.712
  311.000    5.316    0.268    0.376   63.151  166.292
  311.250    5.130    0.262    0.389   66.366  166.868
  311.500    4.968    0.257    0.389   63.660  167.532
  311.750    4.848    0.281    0.408   61.075  167.597
  312.000    4.848    0.304    0.426   54.275  168.372
  312.250    4.913    0.310    0.431   48.822  168.858
  312.500    4.857    0.291    0.412   53.076  168.300
  312.750    4.643    0.287    0.403   57.507  167.443
  313.000    4.438    0.291    0.396   61.814  166.801
  313.250    4.117    0.274    0.398   66.738  166.664
  313.500    3.755    0.264    0.408   70.923  166.622
  313.750    3.602    0.252    0.419   73.890  167.297
  314.000    3.444    0.238    0.419   76.190  167.972
  314.250    3.249    0.226    0.408   76.468  168.236
  314.500    3.206    0.220    0.396   76.080  168.510
  314.750    3.292    0.213    0.384   79.353  169.079
  315.000    3.405    0.205    0.402   83.913  169.549
  315.250    3.542    0.196    0.407   86.998  171.960
  315.500    3.733    0.208    0.423   89.110  173.444
  315.750    3.811    0.228    0.445   89.149  174.840
  316.000    3.664    0.253    0.460   83.760  174.079
  316.250    3.291    0.275    0.458   74.102  170.790
  316.500    3.323    0.287    0.462   70.470  168.005
  316.750    3.542    0.295    0.473   64.897  165.531
  317.000    3.733    0.310    0.474   59.320  164.062
  317.250    4.002    0.328    0.457   55.089  163.324
  317.500    4.163    0.337    0.449   52.380  163.074
  317.750    4.210    0.338    0.437   50.588  163.545
  318.000    4.078    0.318    0.448   49.100  164.227
  318.250    3.804    0.293    0.450   50.612  164.794
  318.500    3.437    0.268    0.448   52.353  165.678
  318.750    3.140    0.269    0.466   54.101  166.552
  319.000    2.832    0.288    0.482   54.931  166.925
  319.250    2.617    0.306    0.449   56.982  167.297
  319.500    2.446    0.303    0.437   60.378  167.250
  319.750    2.303    0.294    0.452   62.676  166.703
  320.000    2.214    0.287    0.454   63.444  167.177
  320.250    2.140    0.284    0.450   62.143  168.361
  320.500    2.092    0.285    0.444   60.900  169.847
  320.750    2.124    0.289    0.437   66.431  170.833
  321.000    2.239    0.290    0.454   72.084  170.383
  321.250    2.351    0.292    0.482   76.513  169.636
  321.500    2.432    0.296    0.478   80.946  168.788
  321.750    2.506    0.296    0.449   82.571  168.239
  322.000    2.515    0.283    0.445   83.832  167.799
  322.250    2.382    0.277    0.455   84.482  167.762
  322.500    2.273    0.277    0.446   83.848  168.124
  322.750    2.128    0.276    0.440   81.994  168.507
  323.000    2.015    0.273    0.445   80.509  169.067
  323.250    2.000    0.276    0.447   76.521  170.149
  323.500    2.080    0.278    0.429   73.323  172.254
  323.750    2.205    0.263    0.419   70.920  173.842
  324.000    2.333    0.242    0.442   83.653  174.724
  324.250    2.478    0.215    0.447   88.084  175.189
  324.500    2.651    0.193    0.441   84.710  174.946
  324.750    2.815    0.166    0.437   83.157  174.604
  325.000    2.979    0.165    0.438   83.746  174.979
  325.250    3.110    0.181    0.456   85.066  175.660
  325.500    3.236    0.199    0.475   87.059  175.915
  325.750    3.372    0.212    0.456   90.269  176.692
  326.000    3.469    0.204    0.438   92.748  177.570
  326.250    3.541    0.192    0.448   91.872  178.245
  326.500    3.588    0.182    0.477   91.606  179.533
  326.750    3.629    0.189    0.490   91.949  180.512
  327.000    3.663    0.194    0.463   91.747  182.000
  327.250    3.601    0.181    0.468   95.565  185.112
  327.500    3.410    0.186    0.478  100.554  190.781
  327.750    3.229    0.221    0.470  101.016  195.310
  328.000    3.297    0.271    0.491  103.556  196.493
  328.250    3.436    0.296    0.503  111.284  192.903
  328.500    3.588    0.242    0.462  115.470  186.458
  328.750    3.704    0.211    0.436  113.924  180.313
  329.000    3.861    0.206    0.416  110.786  175.294
  329.250    3.993    0.213    0.401  105.580  173.023
  329.500    4.108    0.221    0.395  101.284  171.975
  329.750    4.241    0.217    0.389   99.858  171.823
  330.000    4.338    0.209    0.399  100.813  171.588
  330.250    4.420    0.203    0.417  102.011  171.144
  330.500    4.445    0.199    0.415  101.868  170.596
  330.750    4.445    0.199    0.409  100.626  169.959
  331.000    4.420    0.206    0.418   97.366  169.809
  331.250    4.313    0.206    0.422   97.899  169.364
  331.500    4.162    0.206    0.419  100.255  169.329
  331.750    3.993    0.211    0.421  100.717  169.494
  332.000    3.817    0.214    0.429   99.290  170.270
  332.250    3.711    0.204    0.464   99.999  171.352
  332.500    3.649    0.200    0.481  104.739  172.232
  332.750    3.621    0.207    0.467  108.194  173.017
  333.000    3.601    0.214    0.470  110.489  172.663
  333.250    3.608    0.223    0.520  105.103  171.505
  333.500    3.635    0.232    0.507  102.450  169.949
  333.750    3.676    0.239    0.469  103.106  169.498
  334.000    3.718    0.228    0.449  104.604  169.969
  334.250    3.788    0.195    0.433  106.419  171.056
  334.500    3.875    0.185    0.420  107.550  172.038
  334.750    3.978    0.182    0.427  109.117  171.894
  335.000    4.053    0.181    0.412  110.129  170.939
  335.250    3.867    0.180    0.405  109.983  170.599
  335.500    3.711    0.173    0.420  109.291  171.175
  335.750    3.487    0.159    0.431  110.554  172.761
  336.000    3.278    0.180    0.454  112.968  174.756
  336.250    3.186    0.228    0.506  119.419  171.777
