~VERSION INFORMATION
 VERS.                 2.0:   CWLS LOG ASCII STANDARD -VERSION 2.0
 WRAP.                  NO:   ONE LINE PER DEPTH STEP
~WELL INFORMATION BLOCK
#MNEM.UNIT           DATA                    DESCRIPTION OF MNEMONIC
#---------    -------------------            -------------------------------
# Generated from Intellog Unique Number	CS_77_79/WELL/875
WELL.         HOME OIL COMPANY               : Well_name    - WELL
LOC .         00/06-16-077-06W4/0            : Location     - LOCATION
UWI .         00/06-16-077-06W4/0            : Uwi          - UNIQUE WELL ID
ENTR.         SP                             : Entered      - ENTERED BY
SRVC.         SCHLUMBERGER                   : Scn          - SERVICE COMPANY
STRT.M        143.256                        : top_depth    - START DEPTH
STOP.M        362.506                        : bot_depth    - STOP DEPTH
STEP.M        0.25                           : increment    - STEP LENGTH
 NULL. -999.2500:NULL Value
~CURVE INFORMATION BLOCK
#MNEM UNIT       ERCB CURVE CODE    CURVE DESCRIPTION
#-----------   ------------------   ----------------------------------
DEPT.M        00 001 00 00         : DEPTH        - DEPTH
GR  .API      00 310 00 00         : GR           - GAMMA RAY
DPHI.V/V      00 890 00 00         : PHID         - DENSITY POROSITY (SANDSTONE)
NPHI.V/V      00 330 00 00         : PHIN         - NEUTRON POROSITY (SANDSTONE)
ILD .OHMM     00 120 00 00         : RESD         - DEEP RESISTIVITY (DIL)
~PARAMETER INFORMATION
#MNEM.UNIT           DATA             DESCRIPTION OF MNEMONIC
#---------         -----------     ------------------------------
GL  .M        566.105              : gl           - GROUND LEVEL ELEVATION
EREF.M        569.641              : kb           - ELEVATION OF DEPTH REFERENCE
DATM.M        566.105              : datum        - DATUM ELEVATION
TDD .M        368.808              : tdd          - TOTAL DEPTH DRILLER
RUN .         ONE                  : Run          - RUN NUMBER
ENG .         BILL                 : Engineer     - RECORDING ENGINEER
WIT .         JIM                  : Witness      - WITNESSED BY
MUD .         GEL                  : Mud_type     - MUD TYPE
MATR.         SANDSTONE            : Logunit      - NEUTRON MATRIX
TMAX.C        23.3333              : BHT          - MAXIMUM RECORDED TEMPERATURE
BHTD.M        389.534              : BHTDEP       - MAXIMUM RECORDED TEMPERATURE
MATR.         1                    : LOGUNIT      - NEUTRON MATRIX
RMT .C        25                   : MDTP         - TEMPERATURE OF MUD
NEUT.         1                    : NEUTRON      - NEUTRON TYPE
RESI.         0                    : RESIST       - RESISTIVITY TYPE
RMC .OHMM     0.25                 : RMC          - RESISTIVITY OF MUD CAKE
RMF .OHMM     0.25                 : RMF          - RESISTIVITY OF MUD FILTRATE
SUFT.C        15                   : SUFT         - SURFACE TEMPERATURE
~A  DEPTH       GR     PHID     PHIN     RESD
# ...
  186.756   82.146    0.298    0.388   24.248
  187.006   84.781    0.276    0.384   22.133
  187.256   86.590    0.255    0.390   20.117
  187.506   87.809    0.256    0.399   18.549
  187.756   85.390    0.276    0.406   17.816
  188.006   77.369    0.300    0.412   19.980
  188.256   70.196    0.312    0.403   22.103
  188.506   70.761    0.307    0.404   23.870
  188.756   76.812    0.262    0.404   22.155
  189.006   85.751    0.250    0.404   19.664
  189.256   96.772    0.253    0.403   17.355
  189.506   99.864    0.257    0.404   16.611
  189.756   94.479    0.269    0.404   15.608
  190.006   91.136    0.266    0.404   15.404
  190.256   90.016    0.278    0.404   15.303
  190.506   92.015    0.275    0.408   14.224
  190.756   95.264    0.260    0.414   13.547
  191.006  104.993    0.250    0.414   12.187
  191.256  109.907    0.258    0.416   11.439
  191.506  110.049    0.235    0.425   11.006
  191.756  108.932    0.234    0.433   10.113
  192.006  110.635    0.211    0.442    9.531
  192.256  116.395    0.224    0.454    8.862
  192.506  118.167    0.235    0.453    8.653
  192.756  114.571    0.234    0.447    8.777
  193.006  113.265    0.237    0.442    9.247
  193.256  108.501    0.237    0.429   10.040
  193.506  106.865    0.233    0.414   10.888
  193.756  109.498    0.224    0.400   11.305
  194.006  114.685    0.220    0.413   11.586
  194.256  121.060    0.217    0.428    9.902
  194.506  128.393    0.228    0.451    9.187
  194.756  133.646    0.239    0.461    8.810
  195.006  134.174    0.225    0.462    8.214
  195.256  132.462    0.225    0.472    7.838
  195.506  130.599    0.230    0.477    7.850
  195.756  126.998    0.244    0.483    8.007
  196.006  122.602    0.241    0.491    8.170
  196.256  114.897    0.250    0.491    8.973
  196.506  113.835    0.243    0.479    9.498
  196.756  114.185    0.228    0.454   10.555
  197.006  114.502    0.230    0.434   11.635
  197.256  116.171    0.242    0.415   12.312
  197.506  114.854    0.256    0.411   13.332
  197.756  114.506    0.273    0.410   13.753
  198.006  115.511    0.264    0.413   13.797
  198.256  117.163    0.246    0.418   13.365
  198.506  116.833    0.243    0.423   12.856
  198.756  118.055    0.248    0.426   11.963
  199.006  120.263    0.238    0.431   11.285
  199.256  120.066    0.228    0.442   11.058
  199.506  120.793    0.224    0.456   11.080
  199.756  120.713    0.221    0.452   11.203
  200.006  108.273    0.238    0.429   11.879
  200.256  100.576    0.280    0.430   12.364
  200.506   94.042    0.274    0.423   13.127
  200.756   92.845    0.256    0.423   13.881
  201.006   93.419    0.239    0.434   12.891
  201.256   95.262    0.223    0.463   11.486
  201.506   98.705    0.179    0.477    9.564
  201.756  101.511    0.128    0.482    8.391
  202.006  104.816    0.224    0.484    6.959
  202.256  111.842    0.257    0.491    6.184
  202.506  115.821    0.258    0.481    5.723
  202.756  105.964    0.269    0.459    6.390
  203.006  100.572    0.288    0.424    7.822
  203.256   97.153    0.282    0.408    8.691
  203.506   93.824    0.275    0.395    9.855
  203.756   92.984    0.250    0.406   11.612
  204.006   93.854    0.254    0.426   11.986
  204.256   96.339    0.259    0.443   10.913
  204.506   98.244    0.266    0.449   10.101
  204.756   96.931    0.268    0.456    9.504
  205.006   88.788    0.289    0.453    9.239
  205.256   83.674    0.310    0.438   10.122
  205.506   77.005    0.300    0.416   11.564
  205.756   72.624    0.282    0.420   12.363
  206.006   70.302    0.281    0.433   13.829
  206.256   73.708    0.274    0.440   14.982
  206.506   74.612    0.295    0.437   15.866
  206.756   73.224    0.318    0.431   16.930
  207.006   72.009    0.347    0.433   18.282
  207.256   69.375    0.363    0.435   20.761
  207.506   68.689    0.358    0.428   23.066
  207.756   68.775    0.342    0.423   24.273
  208.006   69.896    0.330    0.425   25.931
  208.256   69.245    0.335    0.432   25.206
  208.506   69.334    0.358    0.439   25.037
  208.756   68.886    0.345    0.449   25.021
  209.006   67.834    0.330    0.456   25.010
  209.256   68.225    0.317    0.445   25.000
  209.506   69.553    0.306    0.434   25.334
  209.756   68.162    0.322    0.452   25.445
  210.006   69.946    0.336    0.462   25.444
  210.256   70.395    0.332    0.469   24.916
  210.506   67.957    0.313    0.465   23.333
  210.756   66.994    0.315    0.453   21.270
  211.006   68.535    0.320    0.444   19.587
  211.256   70.070    0.346    0.433   19.004
  211.506   70.535    0.358    0.439   19.981
  211.756   71.092    0.359    0.446   20.132
  212.006   72.459    0.355    0.459   20.777
  212.256   73.196    0.347    0.464   21.090
  212.506   70.766    0.339    0.470   21.539
  212.756   68.251    0.338    0.467   21.487
  213.006   67.893    0.327    0.450   21.724
  213.256   67.709    0.336    0.451   22.425
  213.506   67.689    0.319    0.445   22.676
  213.756   67.392    0.317    0.431   23.388
  214.006   66.369    0.299    0.417   23.487
  214.256   65.909    0.239    0.369   23.909
  214.506   65.626    0.274    0.378   24.170
  214.756   65.322    0.284    0.389   24.448
  215.006   63.857    0.222    0.285   25.986
  215.256   62.041    0.095    0.238   28.371
  215.506   58.084    0.030    0.185   34.827
  215.756   54.525    0.123    0.180   41.078
  216.006   57.048    0.164    0.220   49.224
  216.256   60.016    0.208    0.296   48.081
  216.506   64.029    0.260    0.407   39.843
  216.756   64.222    0.366    0.456   33.982
  217.006   64.212    0.361    0.460   30.546
  217.256   65.214    0.351    0.461   27.805
  217.506   65.358    0.347    0.457   25.971
  217.756   64.345    0.341    0.455   24.394
  218.006   63.113    0.319    0.435   24.723
  218.256   61.840    0.262    0.393   25.201
  218.506   60.804    0.185    0.324   27.078
  218.756   60.650    0.270    0.390   24.492
  219.006   61.961    0.331    0.464   22.923
  219.256   63.929    0.363    0.459   22.891
  219.506   64.797    0.330    0.455   23.355
  219.756   63.765    0.340    0.452   23.769
  220.006   62.072    0.339    0.446   23.316
  220.256   61.848    0.330    0.437   22.771
  220.506   60.931    0.330    0.429   22.463
  220.756   64.415    0.331    0.429   22.299
  221.006   69.346    0.347    0.445   21.041
  221.256   72.089    0.347    0.452   18.733
  221.506   73.219    0.333    0.448   14.665
  221.756   74.508    0.324    0.441   12.858
  222.006   77.552    0.307    0.463   11.375
  222.256   82.381    0.306    0.474   10.331
  222.506   84.645    0.307    0.471    9.806
  222.756   86.764    0.289    0.473    8.833
  223.006   89.208    0.279    0.475    8.261
  223.256   89.489    0.287    0.460    8.009
  223.506   89.688    0.282    0.441    7.921
  223.756   91.403    0.280    0.436    7.856
  224.006   92.314    0.289    0.447    7.850
  224.256   94.718    0.290    0.459    7.848
  224.506   97.944    0.277    0.453    7.848
  224.756  100.437    0.268    0.444    7.729
  225.006  101.870    0.265    0.439    7.701
  225.256  102.583    0.261    0.435    7.694
  225.506  102.291    0.228    0.438    7.691
  225.756  100.533    0.233    0.440    7.686
  226.006  100.233    0.225    0.440    7.690
  226.256  100.638    0.236    0.436    7.532
  226.506  101.051    0.242    0.432    7.540
  226.756  102.589    0.237    0.427    7.546
  227.006  103.619    0.244    0.429    7.311
  227.256  103.894    0.253    0.441    7.246
  227.506  104.930    0.238    0.438    7.133
  227.756  105.909    0.232    0.422    6.981
  228.006  106.889    0.221    0.422    6.992
  228.256  107.946    0.221    0.438    7.005
  228.506  108.283    0.221    0.434    6.847
  228.756  108.053    0.214    0.431    6.859
  229.006  108.496    0.214    0.434    6.857
  229.256  108.778    0.215    0.436    6.855
  229.506  109.819    0.217    0.428    6.853
  229.756  110.467    0.219    0.417    6.836
  230.006  111.239    0.227    0.425    6.052
