~VERSION INFORMATION
 VERS.                 2.0:   CWLS LOG ASCII STANDARD -VERSION 2.0
 WRAP.                  NO:   ONE LINE PER DEPTH STEP
~WELL INFORMATION BLOCK
#MNEM.UNIT           DATA                    DESCRIPTION OF MNEMONIC
#---------    -------------------            -------------------------------
# Generated from Intellog Unique Number	CW_82_90/WELL/3060
WELL.         TEXEX WABASCA                  : Well_name    - WELL
LOC .         00/07-01-085-22W4/0            : Location     - LOCATION
UWI .         00/07-01-085-22W4/0            : Uwi          - UNIQUE WELL ID
ENTR.         JAYE                           : Entered      - ENTERED BY
SRVC.         WESTERN ATLAS                  : Scn          - SERVICE COMPANY
DATE.         4 FEB 75                       : Date         - LOG DATE
STRT.M        192.024                        : top_depth    - START DEPTH
STOP.M        426.774                        : bot_depth    - STOP DEPTH
STEP.M        0.25                           : increment    - STEP LENGTH
 NULL. -999.2500:NULL Value
~CURVE INFORMATION BLOCK
#MNEM UNIT       ERCB CURVE CODE    CURVE DESCRIPTION
#-----------   ------------------   ----------------------------------
DEPT.M        00 001 00 00         : DEPTH        - DEPTH
CALI.MM       00 280 01 00         : CAL          - CALIPER
GR  .API      00 310 00 00         : GR           - GAMMA RAY
NPHI.V/V      00 330 00 00         : PHIN         - NEUTRON POROSITY (SANDSTONE)
DPHI.V/V      00 890 00 00         : PHID         - DENSITY POROSITY (SANDSTONE)
ILD .OHMM     00 120 00 00         : RESD         - DEEP RESISTIVITY (DIL)
~PARAMETER INFORMATION
#MNEM.UNIT           DATA             DESCRIPTION OF MNEMONIC
#---------         -----------     ------------------------------
GL  .M        605.485              : gl           - GROUND LEVEL ELEVATION
EREF.M        608.533              : kb           - ELEVATION OF DEPTH REFERENCE
DATM.M        605.485              : datum        - DATUM ELEVATION
TDD .M        380.695              : tdd          - TOTAL DEPTH DRILLER
RUN .         ONE                  : Run          - RUN NUMBER
ENG .         CLARK                : Engineer     - RECORDING ENGINEER
WIT .         McDOUGAL             : Witness      - WITNESSED BY
MUD .         CHEM GEL             : Mud_type     - MUD TYPE
MATR.         SANDSTONE            : Logunit      - NEUTRON MATRIX
TMAX.C        25                   : BHT          - MAXIMUM RECORDED TEMPERATURE
BHTD.M        380.695              : BHTDEP       - MAXIMUM RECORDED TEMPERATURE
RMT .C        15.5556              : MDTP         - TEMPERATURE OF MUD
MUDD.KG/M     9200                 : MWT          - MUD DENSITY
NEUT.         1                    : NEUTRON      - NEUTRON TYPE
RESI.         0                    : RESIST       - RESISTIVITY TYPE
RM  .OHMM     8.8                  : RM           - RESISTIVITY OF MUD
RMC .OHMM     0                    : RMC          - RESISTIVITY OF MUD CAKE
RMF .OHMM     0                    : RMF          - RESISTIVITY OF MUD FILTRATE
SUFT.C        4                    : SUFT         - SURFACE TEMPERATURE
~A  DEPTH      CAL       GR     PHIN     PHID     RESD
# ...
  301.524  222.114   28.185    0.419    0.294   18.098
  301.774  222.770   26.740    0.423    0.302   18.935
  302.024  222.909   30.743    0.426    0.293   19.810
  302.274  222.633   33.334    0.430    0.274   20.726
  302.524  222.258   33.968    0.431    0.240   21.295
  302.774  221.676   30.992    0.429    0.237   20.166
  303.024  221.203   32.543    0.421    0.237   18.756
  303.274  220.613   33.120    0.411    0.265   17.286
  303.524  220.958   30.569    0.406    0.273   15.931
  303.774  220.682   34.021    0.403    0.254   14.550
  304.024  220.204   36.495    0.403    0.239   13.169
  304.274  219.932   36.512    0.403    0.238   12.248
  304.524  220.278   33.903    0.397    0.249   11.704
  304.774  220.632   34.416    0.393    0.262   10.984
  305.024  220.359   31.868    0.397    0.249   10.497
  305.274  218.942   32.992    0.410    0.224   10.032
  305.524  217.222   33.322    0.416    0.225    9.500
  305.774  215.701   33.283    0.419    0.242    9.414
  306.024  216.156   35.079    0.414    0.240    9.328
  306.274  220.235   35.905    0.412    0.204    9.327
  306.524  221.829   36.348    0.413    0.186    9.411
  306.774  222.078   34.350    0.413    0.140    9.582
  307.024  221.807   34.495    0.410    0.155    9.845
  307.274  221.118   35.742    0.404    0.262   10.024
  307.524  219.599   34.297    0.397    0.261   10.300
  307.774  218.601   31.503    0.393    0.256   10.487
  308.024  218.022   32.565    0.389    0.256   10.581
  308.274  218.158   34.977    0.375    0.261   10.774
  308.524  219.760   32.366    0.362    0.272   10.871
  308.774  221.349   34.166    0.347    0.260   10.969
  309.024  223.974   33.084    0.327    0.190   10.968
  309.274  226.720   31.578    0.307    0.195   10.967
  309.524  227.784   25.109    0.295    0.051   11.066
  309.774  228.761   23.911    0.350    0.011   11.065
  310.024  229.006   29.686    0.373    0.036   11.064
  310.274  229.250   35.400    0.396    0.068   11.063
  310.524  229.184   40.935    0.404    0.170   11.162
  310.774  228.705   41.633    0.407    0.183   11.263
  311.024  227.285   37.856    0.407    0.184   11.262
  311.274  225.977   38.983    0.409    0.182   11.261
  311.524  225.604   40.229    0.413    0.168   11.260
  311.774  225.848   41.111    0.418    0.156   11.157
  312.024  228.171   43.395    0.418    0.164   10.956
  312.274  230.067   45.197    0.412    0.175   10.758
  312.524  230.105   45.522    0.401    0.183   10.375
  312.774  229.531   45.245    0.394    0.183    9.914
  313.024  228.938   45.017    0.390    0.171    9.561
  313.274  227.632   44.063    0.387    0.177    9.220
  313.524  226.635   44.086    0.385    0.189    8.972
  313.774  226.575   44.231    0.373    0.193    8.971
  314.024  226.509   44.494    0.373    0.200    9.052
  314.274  226.642   44.274    0.377    0.211    9.133
  314.524  226.783   43.315    0.378    0.217    9.300
  314.774  227.663   35.565    0.374    0.214    9.469
  315.024  229.041   33.869    0.366    0.203    9.641
  315.274  230.845   29.545    0.360    0.085    9.467
  315.524  231.608   36.123    0.356    0.069    8.339
  315.774  231.638   42.817    0.393    0.081    7.279
  316.024  229.816   48.655    0.394    0.105    6.529
  316.274  228.815   52.230    0.406    0.186    6.127
  316.524  227.710   51.640    0.401    0.190    5.908
  316.774  227.126   45.355    0.400    0.194    6.016
  317.024  227.584   41.520    0.402    0.190    6.743
  317.274  228.346   39.645    0.410    0.190    8.608
  317.524  229.210   39.547    0.414    0.193    9.591
  317.774  230.292   38.713    0.390    0.193    9.758
  318.024  231.050   36.651    0.328    0.181    9.750
  318.274  230.988   32.388    0.302    0.139    9.653
  318.524  228.433   25.920    0.281    0.032    9.471
  318.774  227.228   31.085    0.346    0.023    9.464
  319.024  225.504   34.415    0.394    0.123    9.543
  319.274  223.060   34.686    0.392    0.178   11.749
  319.524  223.193   33.357    0.395    0.205   15.135
  319.774  224.163   38.094    0.393    0.202   16.559
  320.024  224.831   43.509    0.383    0.201   14.836
  320.274  225.381   44.139    0.378    0.206   13.056
  320.524  226.462   42.386    0.377    0.204   10.979
  320.774  227.226   35.552    0.372    0.194    9.403
  321.024  227.257   31.778    0.363    0.179    8.052
  321.274  226.777   30.273    0.354    0.165    7.481
  321.524  225.886   28.457    0.322    0.138    7.475
  321.774  224.988   27.008    0.291    0.119    7.469
  322.024  225.136   28.931    0.292    0.041    7.600
  322.274  225.067   27.115    0.294    0.027    7.803
  322.524  223.549   29.221    0.291    0.085    8.010
  322.774  222.653   37.263    0.286    0.160    8.152
  323.024  220.617   37.965    0.372    0.164    8.369
  323.274  219.100   37.246    0.377    0.168    8.594
  323.524  218.102   39.534    0.380    0.175    8.985
  323.774  216.591   40.173    0.384    0.183    9.394
  324.024  216.420   39.885    0.395    0.188    9.821
  324.274  217.183   39.239    0.400    0.183    9.992
  324.524  218.569   38.034    0.408    0.165   10.076
  324.774  220.576   39.770    0.410    0.145   10.440
  325.024  221.444   41.265    0.413    0.162   11.115
  325.274  220.441   41.899    0.416    0.159   12.051
  325.524  217.578   42.348    0.405    0.139   13.186
  325.774  215.956   42.984    0.397    0.133   16.531
  326.024  214.340   43.372    0.390    0.145   16.974
  326.274  216.135   43.150    0.403    0.177   15.629
  326.524  218.562   43.294    0.402    0.177   13.877
  326.774  221.606   43.134    0.393    0.173   12.549
  327.024  221.135   43.341    0.399    0.175   11.347
  327.274  219.402   43.303    0.404    0.170   11.133
  327.524  215.187   43.446    0.396    0.158   11.225
  327.774  212.641   43.532    0.391    0.148   11.736
  328.024  213.195   43.798    0.393    0.128   12.161
  328.274  214.482   43.822    0.389    0.132   13.065
  328.524  216.067   43.782    0.382    0.165   14.426
  328.774  218.800   43.742    0.379    0.160   16.667
  329.024  222.571   44.072    0.383    0.203   21.862
  329.274  227.064   44.095    0.393    0.189   20.317
  329.524  230.741   43.259    0.411    0.164   17.556
  329.774  231.608   42.671    0.408    0.163   15.589
  330.024  232.055   42.020    0.402    0.162   14.355
  330.274  232.298   39.163    0.401    0.152   13.339
  330.524  232.029   38.763    0.410    0.138   12.169
  330.774  231.753   42.515    0.410    0.169   11.728
  331.024  231.897   47.008    0.402    0.164   11.508
  331.274  231.936   46.419    0.401    0.155   11.814
  331.524  231.871   45.643    0.400    0.144   12.694
  331.774  231.706   44.381    0.386    0.129   14.143
  332.024  231.643   40.851    0.384    0.107   15.902
  332.274  231.571   40.997    0.390    0.108   18.706
  332.524  232.022   44.756    0.397    0.194   21.031
  332.774  232.271   42.879    0.397    0.172   21.012
  333.024  232.406   41.494    0.399    0.169   19.883
  333.274  232.348   43.606    0.398    0.176   18.986
  333.524  232.180   44.355    0.396    0.175   17.802
  333.774  231.800   45.540    0.392    0.165   16.688
  334.024  229.658   43.420    0.385    0.127   15.938
  334.274  226.483   41.912    0.384    0.106   15.219
  334.524  224.757   40.649    0.381    0.083   14.533
  334.774  224.486   44.039    0.380    0.093   13.750
  335.024  224.834   41.065    0.388    0.193   13.130
  335.274  225.389   39.246    0.382    0.187   12.649
  335.524  226.570   43.127    0.379    0.181   12.642
  335.774  228.166   41.681    0.382    0.177   12.859
  336.024  229.973   38.579    0.382    0.159   13.087
  336.274  226.894   41.119    0.377    0.140   13.194
  336.524  222.055   40.403    0.371    0.185   13.304
  336.774  223.238   38.465    0.360    0.183   13.292
  337.024  224.311   40.694    0.352    0.186   13.282
  337.274  227.668   45.490    0.337    0.180   13.271
  337.524  233.410   31.186    0.312    0.163   13.141
  337.774  236.246   27.901    0.290    0.129   13.009
