~VERSION INFORMATION
 VERS.                 2.0:   CWLS LOG ASCII STANDARD -VERSION 2.0
 WRAP.                  NO:   ONE LINE PER DEPTH STEP
~WELL INFORMATION BLOCK
#MNEM.UNIT           DATA                    DESCRIPTION OF MNEMONIC
#---------    -------------------            -------------------------------
# Generated from Intellog Unique Number	CW_70_72/WELL/3016
NULL.         -999.25                        : NULL_VALUE
WELL.         GULF CHISHOLM 07-10            : Well_name    - WELL              
LOC .         07-10-070-26W4                 : Location     - LOCATION          
UWI .         00/07-10-070-26W4/0            : Uwi          - UNIQUE WELL ID    
ENTR.         J                              : Entered      - ENTERED BY        
SRVC.         SCHLUMBERGER                   : Scn          - SERVICE COMPANY   
DATE.         12 MAR 77                      : Date         - LOG DATE          
STRT.M        463.296                        : top_depth    - START DEPTH       
STOP.M        701.046                        : bot_depth    - STOP DEPTH        
STEP.M        0.25                           : increment    - STEP LENGTH       
~CURVE INFORMATION BLOCK
#MNEM UNIT       ERCB CURVE CODE    CURVE DESCRIPTION
#-----------   ------------------   ----------------------------------
DEPT.M        00 001 00 00         : DEPTH        - DEPTH                       
ILD .OHMM     00 120 00 00         : RESD         - DEEP RESISTIVITY (DIL)      
CALI.MM       00 280 01 00         : CAL          - CALIPER                     
GR  .API      00 310 00 00         : GR           - GAMMA RAY                   
NPHI.V/V      00 330 00 00         : PHIN         - NEUTRON POROSITY (SANDSTONE)
DPHI.V/V      00 890 00 00         : PHID         - DENSITY POROSITY (SANDSTONE)
~PARAMETER INFORMATION       
#MNEM.UNIT           DATA             DESCRIPTION OF MNEMONIC
#---------         -----------     ------------------------------
GL  .M        638.861              : gl           - GROUND LEVEL ELEVATION      
EREF.M        642.214              : kb           - ELEVATION OF DEPTH REFERENCE
DATM.M        638.861              : datum        - DATUM ELEVATION             
TDD .M        701.345              : tdd          - TOTAL DEPTH DRILLER         
RUN .         ONE                  : Run          - RUN NUMBER                  
ENG .         FIGGURES             : Engineer     - RECORDING ENGINEER          
WIT .         LANE                 : Witness      - WITNESSED BY                
BASE.         EDM                  : Branch       - HOME BASE OF LOGGING UNIT   
MATR.         SANDSTONE            : Logunit      - NEUTRON MATRIX              
TMAX.C        25.5556              : BHT          - MAXIMUM RECORDED TEMPERATURE
BHTD.M        701.345              : BHTDEP       - MAXIMUM RECORDED TEMPERATURE
RMT .C        16.6667              : MDTP         - TEMPERATURE OF MUD          
MUDD.KG/M     1116                 : MWT          - MUD DENSITY                 
NEUT.         1                    : NEUTRON      - NEUTRON TYPE                
RESI.         0                    : RESIST       - RESISTIVITY TYPE            
RM  .OHMM     0.54                 : RM           - RESISTIVITY OF MUD          
RMC .OHMM     0.25                 : RMC          - RESISTIVITY OF MUD CAKE     
RMF .OHMM     0.25                 : RMF          - RESISTIVITY OF MUD FILTRATE 
SUFT.C        -17.7778             : SUFT         - SURFACE TEMPERATURE         
~A  DEPTH     RESD      CAL       GR     PHIN     PHID
# ...
  609.296    2.335  153.313   76.861    0.440    0.288
  609.546    2.262  153.304   77.219    0.443    0.288
  609.796    2.248  151.355   75.574    0.452    0.299
  610.046    2.238  151.066   73.351    0.446    0.293
  610.296    2.207  150.384   71.961    0.440    0.272
  610.546    2.189  149.887   71.615    0.432    0.288
  610.796    2.167  149.403   72.422    0.428    0.295
  611.046    2.161  149.231   73.663    0.425    0.299
  611.296    2.152  148.945   75.435    0.425    0.300
  611.546    2.169  148.762   76.005    0.434    0.298
  611.796    2.216  148.706   75.110    0.445    0.290
  612.046    2.284  148.422   74.022    0.451    0.268
  612.296    2.315  148.239   73.925    0.445    0.232
  612.546    2.305  148.471   74.482    0.378    0.203
  612.796    2.233  148.082   75.784    0.386    0.224
  613.046    2.127  147.817   72.395    0.408    0.253
  613.296    2.061  147.315   69.259    0.360    0.247
  613.546    2.025  147.365   73.030    0.348    0.192
  613.796    2.057  147.389   74.995    0.384    0.199
  614.046    2.063  147.509   77.260    0.403    0.266
  614.296    2.027  147.654   79.277    0.421    0.250
  614.546    1.989  147.361   80.630    0.444    0.240
  614.796    1.933  147.802   79.921    0.452    0.257
  615.046    1.876  148.234   77.572    0.440    0.275
  615.296    1.858  148.778   75.024    0.426    0.287
  615.546    1.859  149.230   75.954    0.421    0.295
  615.796    1.879  149.350   77.674    0.427    0.277
  616.046    1.922  149.495   80.115    0.435    0.246
  616.296    2.017  149.507   81.836    0.446    0.238
  616.546    2.149  149.328   83.552    0.453    0.283
  616.796    2.255  149.473   85.879    0.459    0.279
  617.046    2.312  149.813   85.228    0.462    0.265
  617.296    2.248  150.251   80.993    0.459    0.251
  617.546    2.201  150.671   75.975    0.453    0.245
  617.796    2.315  150.606   74.580    0.442    0.255
  618.046    2.470  150.737   75.456    0.411    0.262
  618.296    2.621  150.981   78.259    0.366    0.258
  618.546    2.746  151.202   80.531    0.354    0.229
  618.796    2.831  151.450   82.366    0.381    0.199
  619.046    2.844  151.662   82.680    0.410    0.226
  619.296    2.805  151.802   83.069    0.426    0.266
  619.546    2.722  151.940   84.297    0.442    0.255
  619.796    2.680  151.972   86.443    0.446    0.263
  620.046    2.713  151.998   90.771    0.447    0.256
  620.296    2.765  152.133   93.515    0.434    0.267
  620.546    2.820  153.482   93.480    0.429    0.259
  620.796    2.801  153.319   90.758    0.437    0.240
  621.046    2.779  152.927   89.679    0.442    0.235
  621.296    2.727  153.040   89.699    0.440    0.238
  621.546    2.723  153.380   90.929    0.436    0.249
  621.796    2.701  153.635   90.648    0.427    0.253
  622.046    2.720  153.750   90.058    0.420    0.246
  622.296    2.747  154.185   91.103    0.409    0.240
  622.546    2.785  154.540   93.362    0.413    0.257
  622.796    2.823  154.665   95.689    0.407    0.257
  623.046    2.889  155.317   96.067    0.401    0.253
  623.296    2.962  155.852   95.661    0.395    0.245
  623.546    3.024  155.880   96.648    0.390    0.224
  623.796    3.123  155.916   99.399    0.390    0.216
  624.046    3.284  155.839   98.440    0.396    0.204
  624.296    3.416  155.972   96.269    0.399    0.195
  624.546    3.572  155.679   94.592    0.396    0.200
  624.796    3.819  155.907   93.747    0.387    0.186
  625.046    4.120  156.251   93.838    0.376    0.180
  625.296    4.309  157.104   94.695    0.360    0.175
  625.546    4.599  157.744   95.615    0.335    0.147
  625.796    4.961  157.891   96.011    0.325    0.143
  626.046    4.966  157.281   96.636    0.335    0.137
  626.296    4.722  156.813   97.258    0.379    0.117
  626.546    4.745  156.123   95.029    0.413    0.135
  626.796    5.091  155.928   88.123    0.403    0.160
  627.046    5.493  156.073   77.578    0.364    0.136
  627.296    5.786  156.821   77.231    0.330    0.108
  627.546    5.605  158.370   85.503    0.307    0.084
  627.796    5.263  159.334   92.670    0.350    0.068
  628.046    4.924  160.087   97.670    0.373    0.098
  628.296    4.640  160.106  102.665    0.394    0.117
  628.546    4.364  159.826  106.212    0.413    0.123
  628.796    4.083  159.338  104.711    0.420    0.138
  629.046    4.029  158.563  101.934    0.418    0.145
  629.296    4.167  157.866  100.854    0.419    0.146
  629.546    4.553  157.384  100.633    0.417    0.145
  629.796    5.003  156.788   98.455    0.408    0.138
  630.046    5.309  156.399   96.288    0.391    0.123
  630.296    5.314  156.844   96.065    0.354    0.112
  630.546    5.026  157.290   98.695    0.341    0.093
  630.796    4.668  157.520  108.725    0.328    0.094
  631.046    4.297  157.449  112.433    0.335    0.101
  631.296    4.131  157.373  112.755    0.409    0.095
  631.546    3.937  157.284  111.324    0.419    0.120
  631.796    3.847  157.216  112.133    0.417    0.158
  632.046    3.788  157.141  114.994    0.412    0.167
  632.296    3.785  156.973  115.010    0.410    0.167
  632.546    3.838  156.897  113.567    0.409    0.158
  632.796    3.919  157.127  112.988    0.409    0.153
  633.046    4.055  157.056  112.145    0.409    0.139
  633.296    4.248  156.772  110.769    0.411    0.154
  633.546    4.541  156.787  108.364    0.412    0.169
  633.796    4.828  157.030  105.521    0.412    0.164
  634.046    4.931  157.366  101.596    0.410    0.147
  634.296    4.856  158.209  101.187    0.403    0.127
  634.546    4.729  158.762  104.904    0.378    0.108
  634.796    4.622  159.098  108.140    0.390    0.095
  635.046    4.543  159.732  110.102    0.402    0.111
  635.296    4.483  159.971  110.601    0.388    0.146
  635.546    4.487  160.014  106.253    0.378    0.153
  635.796    4.515  159.932  108.085    0.376    0.146
  636.046    4.544  159.450  112.355    0.378    0.131
  636.296    4.676  158.755  111.576    0.367    0.144
  636.546    4.775  158.269  108.442    0.359    0.149
  636.796    4.814  157.891  105.115    0.358    0.144
  637.046    4.793  158.219  105.981    0.365    0.129
  637.296    4.728  158.353  108.549    0.371    0.142
  637.546    4.674  158.982  111.107    0.371    0.160
  637.796    4.660  158.920  112.529    0.368    0.157
  638.046    4.632  158.944  114.846    0.363    0.145
  638.296    4.653  158.961  117.543    0.360    0.141
  638.546    4.716  158.907  121.445    0.377    0.145
  638.796    4.852  159.127  123.890    0.393    0.129
  639.046    4.938  159.653  126.333    0.404    0.146
  639.296    4.925  159.997  127.690    0.409    0.134
  639.546    4.770  160.447  120.233    0.397    0.149
  639.796    4.487  160.594  107.622    0.390    0.135
  640.046    4.114  161.030  106.369    0.379    0.129
  640.296    3.458  160.856  110.440    0.370    0.128
  640.546    3.372  160.251  113.138    0.361    0.117
  640.796    2.975  159.884  116.788    0.385    0.135
  641.046    2.573  159.166  119.479    0.412    0.138
  641.296    2.225  159.201  121.931    0.443    0.126
  641.546    2.003  159.545  117.820    0.477    0.134
  641.796    1.909  159.674  116.198    0.526    0.197
  642.046    1.887  159.610  114.628    0.573    0.235
  642.296    1.930  159.827  109.783    0.602    0.274
  642.546    2.257  159.762  106.289    0.577    0.308
  642.796    2.634  159.694   98.779    0.483    0.266
  643.046    3.125  159.504   97.035    0.396    0.167
  643.296    3.633  159.018  102.937    0.374    0.113
  643.546    4.414  158.943  104.289    0.380    0.107
  643.796    4.959  158.661  103.582    0.387    0.109
  644.046    4.928  158.500  110.031    0.393    0.107
  644.296    4.825  158.099  110.658    0.401    0.100
  644.546    4.623  157.821  110.490    0.401    0.130
  644.796    4.468  158.056  111.106    0.381    0.100
  645.046    4.320  158.090  114.471    0.391    0.061
  645.296    4.163  158.120  119.953    0.419    0.094
  645.546    4.106  158.252  119.844    0.412    0.112
