~VERSION INFORMATION
 VERS.                 2.0:   CWLS LOG ASCII STANDARD -VERSION 2.0
 WRAP.                  NO:   ONE LINE PER DEPTH STEP
~WELL INFORMATION BLOCK
#MNEM.UNIT           DATA                    DESCRIPTION OF MNEMONIC
#---------    -------------------            -------------------------------
# Generated from Intellog Unique Number	CW_79_81/WELL/2458
WELL.         AMOCO BRINTNELL                : Well_name    - WELL
LOC .         00/07-15-081-23W4/0            : Location     - LOCATION
UWI .         00/07-15-081-23W4/0            : Uwi          - UNIQUE WELL ID
ENTR.         MAX                            : Entered      - ENTERED BY
SRVC.         COMPUTALOG                     : Scn          - SERVICE COMPANY
STRT.M        230                            : top_depth    - START DEPTH
STOP.M        455                            : bot_depth    - STOP DEPTH
STEP.M        0.25                           : increment    - STEP LENGTH
 NULL. -999.2500:NULL Value
~CURVE INFORMATION BLOCK
#MNEM UNIT       ERCB CURVE CODE    CURVE DESCRIPTION
#-----------   ------------------   ----------------------------------
DEPT.M        00 001 00 00         : DEPTH        - DEPTH
ILD .OHMM     00 120 00 00         : RESD         - DEEP RESISTIVITY (DIL)
NPHI.V/V      00 330 00 00         : PHIN         - NEUTRON POROSITY (SANDSTONE)
DPHI.V/V      00 890 00 00         : PHID         - DENSITY POROSITY (SANDSTONE)
GR  .API      00 310 00 00         : GR           - GAMMA RAY
CALI.MM       00 280 01 00         : CAL          - CALIPER
~PARAMETER INFORMATION
#MNEM.UNIT           DATA             DESCRIPTION OF MNEMONIC
#---------         -----------     ------------------------------
GL  .M        605                  : gl           - GROUND LEVEL ELEVATION
EREF.M        608.6                : kb           - ELEVATION OF DEPTH REFERENCE
DATM.M        605                  : datum        - DATUM ELEVATION
TDD .M        453.3                : tdd          - TOTAL DEPTH DRILLER
RUN .         ONE                  : Run          - RUN NUMBER
ENG .         BILL                 : Engineer     - RECORDING ENGINEER
WIT .         JIM                  : Witness      - WITNESSED BY
MUD .         GEL                  : Mud_type     - MUD TYPE
MATR.         SANDSTONE            : Logunit      - NEUTRON MATRIX
TMAX.C        32                   : BHT          - MAXIMUM RECORDED TEMPERATURE
BHTD.M        453.3                : BHTDEP       - MAXIMUM RECORDED TEMPERATURE
MATR.         1                    : LOGUNIT      - NEUTRON MATRIX
RMT .C        26.7                 : MDTP         - TEMPERATURE OF MUD
NEUT.         1                    : NEUTRON      - NEUTRON TYPE
RESI.         0                    : RESIST       - RESISTIVITY TYPE
RMC .OHMM     4                    : RMC          - RESISTIVITY OF MUD CAKE
RMF .OHMM     7.5                  : RMF          - RESISTIVITY OF MUD FILTRATE
SUFT.C        5                    : SUFT         - SURFACE TEMPERATURE
~A  DEPTH     RESD     PHIN     PHID       GR      CAL
# ...
  266.500    4.515    0.459    0.243   80.931  224.428
  266.750    4.236    0.473    0.218   85.276  223.839
  267.000    4.050    0.484    0.195   89.003  222.734
  267.250    3.984    0.487    0.184   91.761  222.198
  267.500    4.112    0.484    0.177   94.356  223.515
  267.750    4.430    0.471    0.184   91.650  223.540
  268.000    5.116    0.448    0.227   80.041  223.260
  268.250    6.185    0.426    0.259   66.082  221.433
  268.500    7.707    0.408    0.269   53.547  218.473
  268.750   10.263    0.392    0.271   43.374  216.358
  269.000   12.741    0.397    0.265   43.133  215.955
  269.250   13.729    0.396    0.272   43.890  215.570
  269.500   14.317    0.388    0.275   44.651  215.492
  269.750   14.591    0.381    0.277   45.161  216.757
  270.000   14.728    0.376    0.279   45.360  218.744
  270.250   14.928    0.380    0.286   45.380  219.189
  270.500   14.810    0.397    0.296   45.397  219.212
  270.750   14.587    0.410    0.304   45.166  219.242
  271.000   14.367    0.401    0.309   46.790  219.268
  271.250   14.151    0.386    0.310   48.290  219.501
  271.500   13.992    0.377    0.308   48.986  219.837
  271.750   14.012    0.388    0.312   49.916  219.954
  272.000   14.122    0.414    0.319   51.993  220.415
  272.250   14.662    0.416    0.320   52.502  220.439
  272.500   15.392    0.414    0.320   51.901  220.466
  272.750   16.343    0.414    0.322   51.052  220.492
  273.000   17.338    0.417    0.329   50.696  220.519
  273.250   17.981    0.426    0.338   51.560  220.469
  273.500   18.556    0.449    0.345   52.096  220.068
  273.750   18.695    0.450    0.349   52.111  219.271
  274.000   18.835    0.428    0.352   50.642  219.709
  274.250   18.834    0.403    0.355   49.793  220.560
  274.500   18.656    0.389    0.359   50.367  221.206
  274.750   18.288    0.398    0.360   51.714  221.152
  275.000   17.862    0.407    0.356   50.957  220.749
  275.250   17.996    0.399    0.355   50.975  221.189
  275.500   18.131    0.406    0.354   51.362  221.319
  275.750   18.199    0.417    0.353   50.761  221.345
  276.000   18.300    0.426    0.354   49.233  221.372
  276.250   18.776    0.427    0.355   48.415  221.321
  276.500   19.073    0.415    0.352   49.203  220.918
  276.750   19.072    0.394    0.351   50.455  220.536
  277.000   19.504    0.392    0.351   50.225  220.768
  277.250   20.026    0.404    0.352   49.499  221.617
  277.500   20.369    0.413    0.353   49.392  222.674
  277.750   20.368    0.403    0.349   51.712  223.122
  278.000   20.366    0.405    0.350   54.560  223.148
  278.250   19.908    0.406    0.350   92.916  223.175
  278.500   19.572    0.403    0.348  107.710  222.582
  278.750   19.352    0.400    0.345  103.398  221.990
  279.000   19.205    0.399    0.344   87.770  221.915
  279.250   19.059    0.396    0.346   70.002  222.775
  279.500   19.058    0.393    0.349   60.227  222.801
  279.750   18.914    0.394    0.348   54.801  222.829
  280.000   18.984    0.396    0.345   52.531  222.545
  280.250   19.126    0.404    0.342   51.928  222.161
  280.500   19.270    0.414    0.343   51.758  221.778
  280.750   19.475    0.417    0.346   51.037  221.313
  281.000   19.783    0.412    0.353   51.051  220.912
  281.250   19.782    0.417    0.358   51.316  220.522
  281.500   19.780    0.429    0.358   51.395  219.829
  281.750   19.779    0.440    0.357   51.411  219.445
  282.000   19.778    0.444    0.357   51.426  219.469
  282.250   19.776    0.434    0.358   51.497  219.500
  282.500   19.775    0.418    0.362   51.770  219.532
  282.750   19.923    0.416    0.360   51.294  219.147
  283.000   20.073    0.429    0.357   53.784  219.070
  283.250   20.224    0.436    0.356   55.285  219.096
  283.500   20.451    0.430    0.357   54.559  219.123
  283.750   20.919    0.414    0.358   52.989  219.327
  284.000   20.918    0.409    0.356   52.492  220.223
  284.250   20.759    0.407    0.355   53.744  221.067
  284.500   20.485    0.404    0.358   54.440  221.298
  284.750   20.254    0.408    0.361   54.950  221.326
  285.000   20.100    0.417    0.361   55.337  221.250
  285.250   19.948    0.416    0.359   55.358  220.868
  285.500   19.947    0.416    0.354   55.374  220.897
  285.750   19.795    0.418    0.346   55.391  221.755
  286.000   19.757    0.409    0.343   55.407  221.985
  286.250   19.681    0.408    0.344   54.929  221.804
  286.500   19.606    0.418    0.346   53.523  221.007
  286.750   19.753    0.429    0.343   50.823  218.722
  287.000   19.752    0.426    0.345   50.842  217.462
  287.250   19.602    0.430    0.347   50.111  219.548
  287.500   19.897    0.426    0.347   49.385  218.233
  287.750   20.576    0.419    0.346   49.278  215.375
  288.000   21.759    0.416    0.347   49.912  213.035
  288.250   24.344    0.429    0.350   50.974  213.740
  288.500   27.205    0.430    0.351   51.250  215.051
  288.750   31.085    0.409    0.348   51.264  217.962
  289.000   33.517    0.292    0.280   49.795  219.637
  289.250   34.689    0.201    0.166   46.596  218.636
  289.500   34.611    0.176    0.059   42.841  215.265
  289.750   32.141    0.180    0.050   41.799  211.587
  290.000   29.050    0.217    0.069   45.164  211.613
  290.250   22.127    0.270    0.199   46.421  213.705
  290.500   19.252    0.333    0.299   44.891  215.171
  290.750   17.882    0.384    0.335   43.298  216.228
  291.000   17.192    0.414    0.315   43.375  216.876
  291.250   16.701    0.428    0.292   46.691  216.820
  291.500   16.185    0.439    0.285   50.833  216.416
  291.750   15.820    0.441    0.332   51.342  214.388
  292.000   15.377    0.439    0.359   51.667  213.279
  292.250   14.919    0.440    0.366   52.055  213.098
  292.500   14.390    0.449    0.359   52.628  214.157
  292.750   13.545    0.476    0.342   53.392  217.339
  293.000   13.024    0.480    0.327   53.407  218.656
  293.250   12.731    0.468    0.338   54.164  219.088
  293.500   13.164    0.459    0.351   54.737  218.909
  293.750   13.977    0.454    0.357   55.124  218.320
  294.000   14.746    0.451    0.352   55.329  217.522
  294.250   14.880    0.434    0.337   55.410  216.726
  294.500   14.997    0.424    0.331   55.671  216.757
  294.750   14.996    0.420    0.338   55.687  217.200
  295.000   15.080    0.421    0.348   55.706  217.636
  295.250   15.136    0.425    0.354   55.847  217.867
  295.500   15.164    0.425    0.352   56.048  217.894
  295.750   15.277    0.418    0.346   56.066  218.011
  296.000   15.276    0.416    0.350   56.081  218.472
  296.250   15.275    0.430    0.350   56.345  218.909
  296.500   15.447    0.436    0.346   56.425  219.348
  296.750   15.623    0.432    0.344   56.193  219.580
  297.000   15.770    0.420    0.345   55.837  218.680
  297.250   16.008    0.406    0.347   55.911  215.008
  297.500   16.007    0.407    0.347   56.184  215.034
  297.750   16.005    0.412    0.355   56.199  217.532
  298.000   16.005    0.416    0.357   56.402  217.866
  298.250   16.004    0.425    0.351   56.294  217.277
  298.500   16.063    0.439    0.335   55.629  216.792
  298.750   16.383    0.447    0.317   54.261  217.493
  299.000   16.773    0.439    0.335   53.503  218.810
  299.250   17.544    0.421    0.350   52.778  219.662
  299.500   18.862    0.399    0.348   50.938  221.128
  299.750   20.997    0.370    0.317   47.614  222.389
  300.000   23.711    0.323    0.235   44.105  223.138
  300.250   25.020    0.225    0.064   43.384  223.585
  300.500   23.322    0.156    0.037   43.400  223.616
  300.750   20.473    0.157    0.031   43.415  223.644
  301.000   18.315    0.184    0.043   46.028  223.671
  301.250   16.209    0.263    0.090   50.497  223.697
  301.500   14.287    0.368    0.176   55.089  223.516
  301.750   12.749    0.423    0.292   57.038  222.723
  302.000   12.164    0.449    0.341   56.796  222.754
  302.250   11.890    0.444    0.351   57.556  222.364
  302.500   11.890    0.462    0.353   57.756  222.599
  302.750   11.889    0.473    0.350   57.647  222.834
