~VERSION INFORMATION
 VERS.                 2.0:   CWLS LOG ASCII STANDARD -VERSION 2.0
 WRAP.                  NO:   ONE LINE PER DEPTH STEP
~WELL INFORMATION BLOCK
#MNEM.UNIT           DATA                    DESCRIPTION OF MNEMONIC
#---------    -------------------            -------------------------------
# Generated from Intellog Unique Number	CS_77_79/WELL/853
WELL.         CANADIAN OCCIDENTAL            : Well_name    - WELL
LOC .         00/05-06-077-02W4/0            : Location     - LOCATION
UWI .         00/05-06-077-02W4/0            : Uwi          - UNIQUE WELL ID
ENTR.         SP                             : Entered      - ENTERED BY
SRVC.         SCHLUMBERGER                   : Scn          - SERVICE COMPANY
STRT.M        243.84                         : top_depth    - START DEPTH
STOP.M        527.09                         : bot_depth    - STOP DEPTH
STEP.M        0.25                           : increment    - STEP LENGTH
 NULL. -999.2500:NULL Value
~CURVE INFORMATION BLOCK
#MNEM UNIT       ERCB CURVE CODE    CURVE DESCRIPTION
#-----------   ------------------   ----------------------------------
DEPT.M        00 001 00 00         : DEPTH        - DEPTH
GR  .API      00 310 00 00         : GR           - GAMMA RAY
DPHI.V/V      00 890 00 00         : PHID         - DENSITY POROSITY (SANDSTONE)
NPHI.V/V      00 330 00 00         : PHIN         - NEUTRON POROSITY (SANDSTONE)
ILD .OHMM     00 120 00 00         : RESD         - DEEP RESISTIVITY (DIL)
~PARAMETER INFORMATION
#MNEM.UNIT           DATA             DESCRIPTION OF MNEMONIC
#---------         -----------     ------------------------------
GL  .M        612.648              : gl           - GROUND LEVEL ELEVATION
EREF.M        615.696              : kb           - ELEVATION OF DEPTH REFERENCE
DATM.M        612.648              : datum        - DATUM ELEVATION
TDD .M        536.448              : tdd          - TOTAL DEPTH DRILLER
RUN .         ONE                  : Run          - RUN NUMBER
ENG .         BILL                 : Engineer     - RECORDING ENGINEER
WIT .         JIM                  : Witness      - WITNESSED BY
MUD .         GEL                  : Mud_type     - MUD TYPE
MATR.         SANDSTONE            : Logunit      - NEUTRON MATRIX
TMAX.C        23.8889              : BHT          - MAXIMUM RECORDED TEMPERATURE
BHTD.M        536.448              : BHTDEP       - MAXIMUM RECORDED TEMPERATURE
MATR.         1                    : LOGUNIT      - NEUTRON MATRIX
RMT .C        25                   : MDTP         - TEMPERATURE OF MUD
NEUT.         1                    : NEUTRON      - NEUTRON TYPE
RESI.         0                    : RESIST       - RESISTIVITY TYPE
RMC .OHMM     0.25                 : RMC          - RESISTIVITY OF MUD CAKE
RMF .OHMM     0.25                 : RMF          - RESISTIVITY OF MUD FILTRATE
SUFT.C        15                   : SUFT         - SURFACE TEMPERATURE
~A  DEPTH       GR     PHID     PHIN     RESD
# ...
  287.340   80.568    0.264    0.467   15.457
  287.590   82.934    0.280    0.458   15.009
  287.840   85.243    0.293    0.465   14.326
  288.090   89.020    0.274    0.457   13.534
  288.340   93.603    0.270    0.443   13.264
  288.590   93.893    0.263    0.448   13.035
  288.840   92.915    0.263    0.441   12.772
  289.090   91.341    0.256    0.450   13.044
  289.340   90.324    0.272    0.453   13.054
  289.590   90.257    0.283    0.452   13.043
  289.840   93.919    0.277    0.443   12.820
  290.090   94.618    0.280    0.421   13.070
  290.340   94.401    0.271    0.409   13.619
  290.590   96.436    0.264    0.405   14.007
  290.840   97.202    0.267    0.409   14.193
  291.090   92.950    0.274    0.416   14.677
  291.340   86.567    0.280    0.414   15.153
  291.590   85.098    0.283    0.408   15.154
  291.840   88.669    0.272    0.406   14.990
  292.090   90.379    0.254    0.410   14.864
  292.340   81.019    0.225    0.408   15.023
  292.590   63.755    0.194    0.419   15.815
  292.840   53.526    0.225    0.440   16.650
  293.090   45.953    0.269    0.418   17.517
  293.340   42.239    0.305    0.407   19.011
  293.590   44.497    0.308    0.412   19.768
  293.840   45.328    0.321    0.403   20.595
  294.090   45.862    0.315    0.404   20.592
  294.340   46.831    0.316    0.420   20.502
  294.590   49.451    0.330    0.438   20.267
  294.840   52.265    0.310    0.442   20.037
  295.090   56.678    0.307    0.422   19.940
  295.340   59.416    0.316    0.410   19.951
  295.590   63.757    0.303    0.415   19.965
  295.840   65.733    0.299    0.404   19.998
  296.090   67.285    0.306    0.408   19.678
  296.340   66.183    0.303    0.414   19.653
  296.590   64.904    0.310    0.420   19.634
  296.840   63.322    0.297    0.408   19.343
  297.090   63.644    0.289    0.416   18.972
  297.340   65.033    0.290    0.420   18.651
  297.590   64.987    0.301    0.413   18.116
  297.840   65.987    0.317    0.405   17.589
  298.090   67.958    0.329    0.406   17.082
  298.340   72.599    0.314    0.411   16.584
  298.590   82.682    0.302    0.421   16.052
  298.840   89.320    0.295    0.427   15.361
  299.090   89.849    0.273    0.434   14.908
  299.340   89.625    0.264    0.435   14.425
  299.590   90.590    0.268    0.424   13.551
  299.840   92.588    0.282    0.424   13.172
  300.090  100.705    0.261    0.431   12.784
  300.340  107.843    0.240    0.434   12.213
  300.590  113.086    0.223    0.428   11.615
  300.840  113.457    0.202    0.416   11.302
  301.090  113.165    0.184    0.420   10.966
  301.340  113.994    0.172    0.434   10.570
  301.590  115.779    0.183    0.441    9.969
  301.840  116.280    0.183    0.433    9.789
  302.090  116.114    0.212    0.425    9.451
  302.340  120.349    0.209    0.438    9.319
  302.590  123.322    0.211    0.447    9.114
  302.840  120.834    0.226    0.461    9.136
  303.090  116.645    0.217    0.469    9.124
  303.340  110.205    0.193    0.478    9.324
  303.590  109.265    0.183    0.472    9.508
  303.840  106.874    0.202    0.469    9.805
  304.090  103.665    0.231    0.465   10.100
  304.340   98.635    0.267    0.458   10.620
  304.590   96.112    0.276    0.452   11.067
  304.840   98.270    0.276    0.445   11.827
  305.090   98.576    0.266    0.437   12.559
  305.340   97.145    0.277    0.443   12.575
  305.590   98.088    0.265    0.437   12.592
  305.840  103.175    0.268    0.428   12.420
  306.090  110.861    0.255    0.431   12.053
  306.340  119.074    0.212    0.451   11.704
  306.590  119.542    0.190    0.466   11.537
  306.840  116.326    0.202    0.481   11.308
  307.090  111.688    0.220    0.488   11.120
  307.340  106.825    0.222    0.492   10.611
  307.590  102.195    0.200    0.475   10.083
  307.840   98.217    0.216    0.438    9.994
  308.090   96.497    0.243    0.445   10.099
  308.340  104.089    0.229    0.465   10.456
  308.590   97.515    0.276    0.459   11.091
  308.840   90.523    0.296    0.442   12.276
  309.090   83.232    0.296    0.435   13.265
  309.340   80.278    0.316    0.449   13.852
  309.590   79.410    0.339    0.455   14.250
  309.840   80.143    0.329    0.461   14.248
  310.090   81.698    0.318    0.448   14.262
  310.340   83.686    0.317    0.433   14.285
  310.590   86.040    0.313    0.435   14.029
  310.840   87.514    0.316    0.439   13.768
  311.090   85.173    0.320    0.457   13.790
  311.340   84.855    0.310    0.458   13.809
  311.590   86.138    0.272    0.451   13.956
  311.840   87.383    0.246    0.455   14.078
  312.090   87.862    0.223    0.462   14.100
  312.340   87.327    0.228    0.453   14.173
  312.590   85.100    0.220    0.436   14.946
  312.840   80.016    0.152    0.429   14.894
  313.090   80.439    0.145    0.427   15.240
  313.340   78.885    0.210    0.471   15.231
  313.590   80.521    0.217    0.470   14.979
  313.840   82.954    0.241    0.431   14.666
  314.090   86.008    0.240    0.439   13.476
  314.340   88.040    0.227    0.429   12.944
  314.590   89.252    0.213    0.420   12.125
  314.840   89.199    0.204    0.427   11.456
  315.090   88.304    0.226    0.431   10.513
  315.340   90.541    0.233    0.424    9.649
  315.590   91.872    0.217    0.413    9.511
  315.840   92.865    0.175    0.419    9.718
  316.090   89.028    0.177    0.433    9.912
  316.340   86.945    0.206    0.454   10.352
  316.590   83.059    0.216    0.433   11.081
  316.840   80.168    0.207    0.416   11.914
  317.090   77.823    0.223    0.404   12.789
  317.340   78.724    0.241    0.407   13.170
  317.590   79.049    0.231    0.411   13.331
  317.840   76.697    0.236    0.419   13.601
  318.090   74.157    0.259    0.428   13.909
  318.340   67.716    0.275    0.448   14.534
  318.590   59.545    0.294    0.463   15.789
  318.840   52.882    0.313    0.436   16.739
  319.090   47.929    0.296    0.414   17.274
  319.340   45.819    0.289    0.407   17.426
  319.590   45.508    0.281    0.399   18.011
  319.840   45.509    0.289    0.408   17.980
  320.090   45.543    0.296    0.416   18.409
  320.340   44.946    0.303    0.419   18.374
  320.590   43.967    0.301    0.419   18.730
  320.840   42.969    0.291    0.420   19.136
  321.090   42.492    0.284    0.410   19.116
  321.340   43.481    0.294    0.396   19.130
  321.590   43.658    0.303    0.391   19.147
  321.840   42.708    0.304    0.388   19.197
  322.090   41.025    0.314    0.389   18.829
  322.340   40.110    0.314    0.401   18.495
  322.590   41.107    0.321    0.412   18.312
  322.840   40.509    0.322    0.414   17.873
  323.090   39.562    0.324    0.398   17.563
  323.340   39.189    0.311    0.395   17.376
  323.590   39.075    0.305    0.394   17.299
  323.840   40.655    0.305    0.383   16.988
  324.090   42.617    0.314    0.390   17.028
  324.340   44.533    0.313    0.387   16.665
  324.590   47.640    0.316    0.382   16.707
  324.840   49.056    0.300    0.395   16.722
  325.090   50.353    0.294    0.397   16.734
  325.340   50.333    0.294    0.398   16.714
  325.590   50.302    0.302    0.406   17.079
  325.840   51.639    0.317    0.408   17.409
  326.090   55.636    0.309    0.412   17.401
  326.340   61.944    0.299    0.428   17.359
  326.590   68.681    0.294    0.444   16.820
  326.840   76.461    0.320    0.454   16.650
  327.090   72.317    0.319    0.456   16.561
  327.340   67.634    0.317    0.468   16.278
  327.590   58.969    0.320    0.472   16.272
  327.840   54.302    0.317    0.469   16.278
  328.090   52.776    0.328    0.460   16.290
  328.340   53.642    0.336    0.447   16.303
  328.590   53.835    0.333    0.428   16.318
  328.840   52.349    0.313    0.446   16.586
  329.090   54.974    0.310    0.453   16.203
  329.340   54.556    0.325    0.459   16.069
  329.590   54.306    0.337    0.459   16.066
  329.840   51.459    0.329    0.468   16.012
  330.090   48.646    0.324    0.465   15.820
  330.340   49.876    0.331    0.458   15.398
  330.590   52.313    0.330    0.449   14.638
