~VERSION INFORMATION
 VERS.                 2.0:   CWLS LOG ASCII STANDARD -VERSION 2.0
 WRAP.                  NO:   ONE LINE PER DEPTH STEP
~WELL INFORMATION BLOCK
#MNEM.UNIT           DATA                    DESCRIPTION OF MNEMONIC
#---------    -------------------            -------------------------------
# Generated from Intellog Unique Number	CS_73_76/WELL/699
WELL.         PEX KIRBY                      : Well_name    - WELL
LOC .         00/06-34-073-08W4/0            : Location     - LOCATION
UWI .         00/06-34-073-08W4/0            : Uwi          - UNIQUE WELL ID
ENTR.         SP                             : Entered      - ENTERED BY
SRVC.         SCHLUMBERGER                   : Scn          - SERVICE COMPANY
STRT.M        325                            : top_depth    - START DEPTH
STOP.M        550                            : bot_depth    - STOP DEPTH
STEP.M        0.25                           : increment    - STEP LENGTH
 NULL. -999.2500:NULL Value
~CURVE INFORMATION BLOCK
#MNEM UNIT       ERCB CURVE CODE    CURVE DESCRIPTION
#-----------   ------------------   ----------------------------------
DEPT.M        00 001 00 00         : DEPTH        - DEPTH
ILD .OHMM     00 120 00 00         : RESD         - DEEP RESISTIVITY (DIL)
DPHI.V/V      00 890 00 00         : PHID         - DENSITY POROSITY (LIMESTONE)
NPHI.V/V      00 330 00 00         : PHIN         - NEUTRON POROSITY (LIMESTONE)
GR  .API      00 310 00 00         : GR           - GAMMA RAY
~PARAMETER INFORMATION
#MNEM.UNIT           DATA             DESCRIPTION OF MNEMONIC
#---------         -----------     ------------------------------
GL  .M        705.44               : gl           - GROUND LEVEL ELEVATION
EREF.M        708.84               : kb           - ELEVATION OF DEPTH REFERENCE
DATM.M        705.44               : datum        - DATUM ELEVATION
TDD .M        555                  : tdd          - TOTAL DEPTH DRILLER
RUN .         ONE                  : Run          - RUN NUMBER
ENG .         BILL                 : Engineer     - RECORDING ENGINEER
WIT .         JIM                  : Witness      - WITNESSED BY
MUD .         GEL                  : Mud_type     - MUD TYPE
MATR.         LIMESTONE            : Logunit      - NEUTRON MATRIX
TMAX.C        20                   : BHT          - MAXIMUM RECORDED TEMPERATURE
BHTD.M        555                  : BHTDEP       - MAXIMUM RECORDED TEMPERATURE
MATR.         1                    : LOGUNIT      - NEUTRON MATRIX
RMT .C        25                   : MDTP         - TEMPERATURE OF MUD
NEUT.         1                    : NEUTRON      - NEUTRON TYPE
RESI.         0                    : RESIST       - RESISTIVITY TYPE
RMC .OHMM     0.25                 : RMC          - RESISTIVITY OF MUD CAKE
RMF .OHMM     0.25                 : RMF          - RESISTIVITY OF MUD FILTRATE
SUFT.C        15                   : SUFT         - SURFACE TEMPERATURE
~A  DEPTH     RESD     PHID     PHIN       GR
# ...
  368.500   12.017    0.196    0.353   86.486
  368.750   12.019    0.204    0.342   88.317
  369.000   10.745    0.209    0.331   89.535
  369.250    9.972    0.188    0.348   95.039
  369.500    8.915    0.160    0.372  102.380
  369.750    8.274    0.172    0.359  109.720
  370.000    7.824    0.180    0.358  113.388
  370.250    7.398    0.189    0.389  111.545
  370.500    7.127    0.194    0.401  106.640
  370.750    6.997    0.203    0.383   99.286
  371.000    7.131    0.206    0.378   96.221
  371.250    7.545    0.191    0.367   94.991
  371.500    7.982    0.184    0.362   90.086
  371.750    8.445    0.190    0.365   91.305
  372.000    9.103    0.203    0.360   93.134
  372.250   10.188    0.217    0.352   99.249
  372.500   10.579    0.228    0.350  102.305
  372.750   11.405    0.222    0.349  100.462
  373.000   11.843    0.207    0.338   97.395
  373.250   12.070    0.196    0.335   94.328
  373.500   12.072    0.200    0.337   91.873
  373.750   12.304    0.213    0.344   88.806
  374.000   12.539    0.234    0.336   84.514
  374.250   12.778    0.211    0.329   80.221
  374.500   13.269    0.203    0.341   77.768
  374.750   13.521    0.205    0.355   75.313
  375.000   13.781    0.177    0.363   77.143
  375.250   13.784    0.143    0.364   82.647
  375.500   13.786    0.128    0.361   85.703
  375.750   13.038    0.165    0.375   88.758
  376.000   12.328    0.180    0.391   88.138
  376.250   11.657    0.191    0.399   88.132
  376.500   10.421    0.187    0.381   89.352
  376.750    9.854    0.190    0.370   91.182
  377.000    9.318    0.199    0.370   89.340
  377.250    9.148    0.217    0.368   86.885
  377.500    9.150    0.229    0.361   85.041
  377.750   10.050    0.244    0.353   81.362
  378.000   11.897    0.251    0.343   83.804
  378.250   13.315    0.241    0.338   83.186
  378.500   14.086    0.247    0.351   77.057
  378.750   15.185    0.228    0.357   74.601
  379.000   15.767    0.209    0.358   74.595
  379.250   16.070    0.212    0.355   79.486
  379.500   15.484    0.224    0.353   82.542
  379.750   15.199    0.233    0.358   83.762
  380.000   14.107    0.222    0.359   81.916
  380.250   13.590    0.179    0.351   81.913
  380.500   12.851    0.161    0.343   84.354
  380.750   12.152    0.151    0.345   86.185
  381.000   11.278    0.164    0.343   85.567
  381.250   10.468    0.182    0.341   86.173
  381.500   10.275    0.190    0.348   87.392
  381.750   10.278    0.205    0.352   84.326
  382.000   10.474    0.201    0.360   84.319
  382.250   10.875    0.210    0.392   86.150
  382.500   11.946    0.227    0.382   87.981
  382.750   12.404    0.229    0.367   84.299
  383.000   12.881    0.233    0.358   81.234
  383.250   13.375    0.243    0.352   78.167
  383.500   13.630    0.241    0.357   76.323
  383.750   13.891    0.226    0.347   77.538
  384.000   13.637    0.220    0.341   78.758
  384.250   13.389    0.220    0.339   79.976
  384.500   13.142    0.216    0.329   80.585
  384.750   13.145    0.223    0.325   76.905
  385.000   12.903    0.232    0.336   74.450
  385.250   12.906    0.242    0.351   78.113
  385.500   12.670    0.240    0.353   80.557
  385.750   12.674    0.235    0.351   82.390
  386.000   12.441    0.232    0.357   84.221
  386.250   11.765    0.225    0.353   84.212
  386.500   11.549    0.209    0.357   84.821
  386.750   11.551    0.186    0.367   83.591
  387.000   12.222    0.199    0.353   78.074
  387.250   12.930    0.216    0.336   72.558
  387.500   14.203    0.234    0.346   70.103
  387.750   15.026    0.251    0.359   65.199
  388.000   15.898    0.271    0.367   60.295
  388.250   16.508    0.264    0.372   60.289
  388.500   17.467    0.271    0.374   62.120
  388.750   17.800    0.281    0.356   60.275
  389.000   18.140    0.284    0.355   58.433
  389.250   18.487    0.284    0.357   57.815
  389.500   17.158    0.294    0.351   60.258
  389.750   16.224    0.309    0.352   62.700
  390.000   15.058    0.318    0.367   63.919
  390.250   14.507    0.319    0.383   65.136
  390.500   14.785    0.336    0.400   66.354
  390.750   16.547    0.368    0.419   66.350
  391.000   17.837    0.408    0.423   65.730
  391.250   18.871    0.367    0.357   62.051
  391.500   19.595    0.290    0.351   55.312
  391.750   20.348    0.293    0.341   52.243
  392.000   21.128    0.296    0.350   52.238
  392.250   21.942    0.281    0.361   53.456
  392.500   21.946    0.279    0.350   52.837
  392.750   22.365    0.279    0.340   49.156
  393.000   22.369    0.279    0.337   47.928
  393.250   22.797    0.303    0.338   49.758
  393.500   22.805    0.309    0.351   51.589
  393.750   22.811    0.312    0.338   50.969
  394.000   22.816    0.304    0.332   50.352
  394.250   23.252    0.299    0.341   49.122
  394.500   23.257    0.295    0.352   49.727
  394.750   23.262    0.303    0.350   50.332
  395.000   23.267    0.292    0.352   50.938
  395.250   23.272    0.283    0.357   52.156
  395.500   23.277    0.276    0.354   53.987
  395.750   23.284    0.294    0.345   54.595
  396.000   23.288    0.294    0.335   52.752
  396.250   23.292    0.301    0.332   52.133
  396.500   23.300    0.305    0.337   53.353
  396.750   23.306    0.293    0.329   49.672
  397.000   23.753    0.286    0.316   48.443
  397.250   23.758    0.276    0.331   51.495
  397.500   24.210    0.291    0.334   53.328
  397.750   23.767    0.291    0.354   55.159
  398.000   23.330    0.286    0.363   53.316
  398.250   23.335    0.294    0.351   50.861
  398.500   24.235    0.305    0.348   52.079
  398.750   24.240    0.285    0.342   55.743
  399.000   24.244    0.277    0.334   57.574
  399.250   23.799    0.311    0.339   58.795
  399.500   23.361    0.333    0.348   55.727
  399.750   22.509    0.336    0.359   55.721
  400.000   22.096    0.323    0.353   56.941
  400.250   22.104    0.321    0.354   56.933
  400.500   21.698    0.310    0.350   56.316
  400.750   22.115    0.317    0.345   56.922
  401.000   22.120    0.321    0.349   61.200
  401.250   22.125    0.325    0.350   62.420
  401.500   22.126    0.317    0.350   59.964
  401.750   22.131    0.310    0.358   58.120
  402.000   22.137    0.296    0.366   58.727
  402.250   22.143    0.288    0.360   59.947
  402.500   22.146    0.301    0.352   61.776
  402.750   21.745    0.308    0.345   61.159
  403.000   20.946    0.316    0.335   56.255
  403.250   21.348    0.321    0.328   51.963
  403.500   21.354    0.320    0.311   53.792
  403.750   21.762    0.287    0.269   53.785
  404.000   22.596    0.265    0.258   52.555
  404.250   23.463    0.274    0.239   51.325
  404.500   26.757    0.205    0.214   50.094
  404.750   28.306    0.151    0.186   48.865
  405.000   32.279    0.055    0.158   47.020
  405.250   34.149    0.014    0.143   47.016
  405.500   36.132    0.014    0.138   48.847
  405.750   37.520    0.007    0.145   49.453
  406.000   38.236    0.003    0.156   48.833
  406.250   38.244    0.025    0.171   50.664
  406.500   37.543    0.052    0.208   54.331
  406.750   32.329    0.095    0.244   57.998
  407.000   27.838    0.171    0.275   60.442
  407.250   22.664    0.236    0.315   62.273
  407.500   20.642    0.314    0.341   64.104
  407.750   18.111    0.309    0.354   66.547
  408.000   14.744    0.306    0.361   67.153
  408.250   12.230    0.300    0.376   65.310
  408.500    9.771    0.289    0.409   67.140
  408.750    8.258    0.280    0.426   72.031
  409.000    7.383    0.278    0.416   74.475
  409.250    6.852    0.286    0.387   75.694
  409.500    6.726    0.285    0.381   73.239
  409.750    7.670    0.286    0.394   70.784
  410.000    7.964    0.286    0.404   70.165
  410.250    8.748    0.287    0.394   71.995
  410.500    9.083    0.285    0.383   73.826
  410.750    8.589    0.290    0.379   73.206
  411.000    7.259    0.283    0.389   75.038
  411.250    4.064    0.290    0.391   80.542
  411.500    3.499    0.261    0.414   85.433
  411.750    3.014    0.215    0.442   89.102
