~VERSION INFORMATION
 VERS.                 2.0:   CWLS LOG ASCII STANDARD -VERSION 2.0
 WRAP.                  NO:   ONE LINE PER DEPTH STEP
~WELL INFORMATION BLOCK
#MNEM.UNIT           DATA                    DESCRIPTION OF MNEMONIC
#---------    -------------------            -------------------------------
# Generated from Intellog Unique Number	CC_80_83/WELL/1184
NULL.         -999.25                        : NULL_VALUE
WELL.         CWWE KEANE                     : Well_name    - WELL
LOC .         07-15-080-14W4                 : Location     - LOCATION          
UWI .         00/07-15-080-14W4/0            : Uwi          - UNIQUE WELL ID    
ENTR.         DW                             : Entered      - ENTERED BY        
SRVC.         SCHLUMBERGER                   : Scn          - SERVICE COMPANY   
DATE.         23 DEC 84                      : Date         - LOG DATE
STRT.M        255                            : top_depth    - START DEPTH       
STOP.M        494.99                         : bot_depth    - STOP DEPTH        
STEP.M        0.3                            : increment    - STEP LENGTH       
~CURVE INFORMATION BLOCK
#MNEM UNIT       ERCB CURVE CODE    CURVE DESCRIPTION
#-----------   ------------------   ----------------------------------
DEPT.M        00 001 00 00         : DEPTH        - DEPTH                       
DPHI.V/V      00 890 00 00         : PHID         - DENSITY POROSITY (LIMESTONE)
NPHI.V/V      00 330 00 00         : PHIN         - NEUTRON POROSITY (LIMESTONE)
GR  .API      00 310 00 00         : GR           - GAMMA RAY                   
ILD .OHMM     00 120 00 00         : RESD         - DEEP RESISTIVITY (DIL)      
~PARAMETER INFORMATION       
#MNEM.UNIT           DATA             DESCRIPTION OF MNEMONIC
#---------         -----------     ------------------------------
GL  .M        674.75               : gl           - GROUND LEVEL ELEVATION      
EREF.M        678.8                : kb           - ELEVATION OF DEPTH REFERENCE
DATM.M        678.8                : datum        - DATUM ELEVATION             
TDD .M        504                  : tdd          - TOTAL DEPTH DRILLER         
RUN .         ONE                  : Run          - RUN NUMBER                  
ENG .         BILL                 : Engineer     - RECORDING ENGINEER          
WIT .         JIM                  : Witness      - WITNESSED BY                
MUD .         GEL                  : Mud_type     - MUD TYPE                    
MATR.         LIMESTONE            : Logunit      - NEUTRON MATRIX              
TMAX.C        20                   : BHT          - MAXIMUM RECORDED TEMPERATURE
BHTD.M        503                  : BHTDEP       - MAXIMUM RECORDED TEMPERATURE
MATR.         1                    : LOGUNIT      - NEUTRON MATRIX              
RMT .C        25                   : MDTP         - TEMPERATURE OF MUD          
NEUT.         1                    : NEUTRON      - NEUTRON TYPE                
RESI.         0                    : RESIST       - RESISTIVITY TYPE            
RMC .OHMM     0.25                 : RMC          - RESISTIVITY OF MUD CAKE     
RMF .OHMM     0.25                 : RMF          - RESISTIVITY OF MUD FILTRATE 
SUFT.C        15                   : SUFT         - SURFACE TEMPERATURE         
~A  DEPTH     PHID     PHIN       GR     RESD
# ...
  359.396    0.268    0.546   75.449    3.041
  359.696    0.256    0.555   74.822    3.282
  359.996    0.242    0.525   85.969    3.409
  360.296    0.264    0.535   90.299    3.678
  360.596    0.277    0.525   82.853    3.969
  360.896    0.264    0.514   79.748    4.536
  361.196    0.237    0.492   79.742    5.282
  361.496    0.219    0.489   84.070    5.593
  361.796    0.219    0.478   85.303    5.809
  362.096    0.241    0.464   79.719    5.919
  362.396    0.247    0.474   77.231    6.032
  362.696    0.248    0.480   82.800    6.509
  362.996    0.248    0.470   84.034    7.159
  363.296    0.245    0.468   75.351    7.436
  363.596    0.248    0.479   72.243    7.294
  363.896    0.248    0.468   71.616    7.433
  364.196    0.247    0.469   72.850    7.720
  364.496    0.253    0.461   72.842    8.331
  364.796    0.268    0.443   70.355    8.820
  365.096    0.283    0.434   72.207    9.161
  365.396    0.294    0.425   68.481    8.986
  365.696    0.301    0.409   68.474    8.324
  365.996    0.277    0.408   80.240    5.367
  366.296    0.267    0.528   88.908    3.954
  366.596    0.256    0.553   88.280    3.330
  366.896    0.242    0.540   88.272    2.969
  367.195    0.250    0.555   87.646    2.647
  367.495    0.251    0.591   88.878    2.452
  367.795    0.244    0.575   91.969    2.187
  368.095    0.242    0.548   91.960    1.877
  368.395    0.231    0.538   85.756    1.550
  368.695    0.234    0.518   83.271    1.210
  368.995    0.255    0.523   88.219    0.586
  369.295    0.269    0.550   90.692    0.543
  369.595    0.282    0.556   91.924    0.682
  369.895    0.284    0.599   86.339    0.961
  370.195    0.259    0.542   88.189    2.101
  370.495    0.240    0.499   88.801    3.450
  370.795    0.242    0.482   87.555    3.868
  371.095    0.236    0.517   85.689    3.794
  371.395    0.261    0.552   82.582    3.793
  371.695    0.260    0.570   80.096    3.792
  371.995    0.260    0.539   82.567    3.865
  372.295    0.266    0.502   82.560    4.014
  372.595    0.259    0.504   81.933    4.169
  372.895    0.223    0.489   84.404    4.499
  373.195    0.230    0.494   85.636    4.855
  373.495    0.225    0.476   80.671    5.239
  373.795    0.211    0.462   82.522    5.653
  374.095    0.215    0.448   83.755    5.984
  374.395    0.215    0.442   83.126    5.983
  374.695    0.199    0.445   83.119    5.649
  374.995    0.207    0.443   84.350    5.437
  375.295    0.224    0.446   83.724    5.333
  375.595    0.226    0.460   83.097    5.231
  375.895    0.235    0.460   83.089    5.331
  376.195    0.217    0.452   87.419    5.537
  376.495    0.209    0.468   90.511    5.752
  376.795    0.248    0.477   86.165    6.448
  377.095    0.290    0.471   75.004    7.653
  377.395    0.283    0.451   66.940    8.417
  377.695    0.283    0.409   65.073    8.912
  377.995    0.290    0.402   66.924    8.100
  378.295    0.257    0.394   75.592    8.413
  378.595    0.143    0.424   70.628    9.798
  378.895    0.001    0.421   47.073   11.631
  379.195    0.042    0.194   41.488   12.314
  379.495    0.100    0.220   49.536   12.311
  379.795    0.179    0.351   72.457   11.189
  380.095    0.243    0.410   74.307    8.565
  380.395    0.230    0.435   74.919    7.492
  380.695    0.232    0.429   77.389    7.211
  380.995    0.222    0.391   78.623    7.073
  381.295    0.231    0.401   78.614    7.071
  381.595    0.248    0.437   75.509    7.344
  381.895    0.255    0.441   73.643    7.485
  382.195    0.258    0.442   76.114    8.077
  382.495    0.249    0.421   71.767    8.230
  382.795    0.277    0.416   69.902    7.921
  383.095    0.292    0.430   72.372    7.063
  383.395    0.268    0.429   72.986    6.179
  383.695    0.252    0.443   71.117    5.303
  383.995    0.263    0.451   73.589    4.820
  384.295    0.243    0.445   75.441    4.638
  384.595    0.217    0.446   80.389    4.726
  384.895    0.215    0.451   81.002    5.100
  385.195    0.244    0.461   77.897    5.610
  385.495    0.251    0.446   78.508    6.289
  385.795    0.253    0.429   77.883    7.186
  386.095    0.261    0.441   70.438    9.032
  386.395    0.237    0.453   65.474   10.520
  386.695    0.064    0.393   61.748   11.137
  386.995    0.069    0.304   63.599   10.717
  387.295    0.127    0.358   67.930    9.199
  387.595    0.271    0.414   73.499    7.315
  387.895    0.250    0.417   78.448    6.160
  388.195    0.221    0.428   82.779    5.815
  388.495    0.222    0.447   87.729    5.815
  388.795    0.230    0.467   86.483    5.926
  389.095    0.209    0.454   83.996    6.273
  389.395    0.194    0.438   82.129    6.154
  389.695    0.220    0.448   86.460    5.922
  389.995    0.222    0.442   92.029    5.592
  390.295    0.222    0.428   84.583    5.590
  390.595    0.229    0.467   82.719    6.033
  390.895    0.232    0.464   82.710    7.440
  391.195    0.224    0.412   79.604    9.351
  391.495    0.210    0.381   76.499   10.285
  391.794    0.205    0.384   78.971   11.098
  392.094    0.190    0.381   83.921   11.310
  392.394    0.165    0.367   85.772   10.885
  392.694    0.195    0.362   85.762    8.992
  392.994    0.212    0.368   85.135    7.289
  393.294    0.210    0.417   83.890    6.751
  393.594    0.211    0.439   83.263    6.750
  393.894    0.213    0.431   86.352    7.011
  394.194    0.213    0.426   88.825    7.145
  394.494    0.213    0.421   91.295    7.008
  394.794    0.216    0.423   87.571    7.007
  395.094    0.221    0.477   63.396    7.707
  395.394    0.090    0.486   52.233    9.149
  395.694    0.122    0.275   52.846   10.256
  395.994    0.219    0.317   61.512   10.059
  396.294    0.245    0.431   67.084    9.682
  396.594    0.213    0.447   73.272    8.633
  396.894    0.264    0.443   70.786    7.846
  397.194    0.275    0.446   65.821    7.551
  397.494    0.255    0.423   65.194    7.405
  397.794    0.249    0.415   72.621    7.546
  398.094    0.260    0.412   76.953    7.545
  398.394    0.241    0.405   78.185    7.544
  398.694    0.251    0.401   75.077    7.543
  398.994    0.246    0.427   76.930    7.259
  399.294    0.233    0.423   76.922    7.257
  399.594    0.250    0.450   75.056    7.396
  399.894    0.264    0.455   71.329    7.395
  400.194    0.275    0.458   64.506    7.828
  400.494    0.293    0.442   63.880    8.287
  400.794    0.298    0.430   69.449    8.446
  401.094    0.293    0.427   75.019    8.772
  401.394    0.295    0.440   69.432    8.605
  401.694    0.295    0.456   63.228    8.769
  401.994    0.144    0.449   58.264    9.645
  402.294    0.046    0.234   53.298   10.812
  402.594    0.197    0.304   59.489    8.764
  402.894    0.232    0.399   68.156    7.965
  403.194    0.277    0.439   70.627    8.929
  403.494    0.123    0.459   55.748   10.399
  403.794    0.055    0.273   43.346   11.658
  404.094    0.113    0.207   48.915   12.109
  404.394    0.110    0.272   57.584   11.877
  404.694    0.079    0.290   61.913   10.390
  404.994    0.155    0.274   68.103    9.265
  405.294    0.191    0.342   63.757    8.420
  405.594    0.223    0.413   60.031    8.260
  405.894    0.194    0.405   61.883    9.259
  406.194    0.209    0.399   63.115    8.910
  406.494    0.258    0.406   65.585    8.740
  406.794    0.268    0.408   65.578    8.096
  407.094    0.257    0.404   64.951    7.645
  407.394    0.238    0.397   64.945    7.357
  407.694    0.238    0.404   67.416    7.217
  407.994    0.243    0.434   69.267    7.354
  408.294    0.254    0.444   69.880    7.352
  408.594    0.261    0.417   69.252    7.351
  408.894    0.253    0.395   68.005    7.211
  409.194    0.238    0.403   69.857    6.939
  409.494    0.231    0.403   74.805    6.938
  409.794    0.227    0.388   74.178    6.677
  410.094    0.232    0.377   74.171    6.304
  410.394    0.233    0.390   82.219    5.515
  410.694    0.235    0.403   87.169    5.013
  410.994    0.238    0.412   90.881    4.555
  411.294    0.233    0.465   93.972    4.554
