~VERSION INFORMATION
 VERS.                 2.0:   CWLS LOG ASCII STANDARD -VERSION 2.0
 WRAP.                  NO:   ONE LINE PER DEPTH STEP
~WELL INFORMATION BLOCK
#MNEM.UNIT           DATA                    DESCRIPTION OF MNEMONIC
#---------    -------------------            -------------------------------
# Generated from Intellog Unique Number	CC_80_83/WELL/1050
LOC .         00/04-30-083-06W4/0            : Location     - LOCATION
UWI .         00/04-30-083-06W4/0            : Uwi          - UNIQUE WELL ID
ENTR.         DW                             : Entered      - ENTERED BY
SRVC.         SCHLUMBERGER                   : Scn          - SERVICE COMPANY
STRT.M        110                            : top_depth    - START DEPTH
STOP.M        364.75                         : bot_depth    - STOP DEPTH
STEP.M        0.25                           : increment    - STEP LENGTH
 NULL. -999.2500:NULL Value
~CURVE INFORMATION BLOCK
#MNEM UNIT       ERCB CURVE CODE    CURVE DESCRIPTION
#-----------   ------------------   ----------------------------------
DEPT.M        00 001 00 00         : DEPTH        - DEPTH
GR  .API      00 310 00 00         : GR           - GAMMA RAY
DPHI.V/V      00 890 00 00         : PHID         - DENSITY POROSITY (SANDSTONE)
NPHI.V/V      00 330 00 00         : PHIN         - NEUTRON POROSITY (SANDSTONE)
ILD .OHMM     00 120 00 00         : RESD         - DEEP RESISTIVITY (DIL)
~PARAMETER INFORMATION
#MNEM.UNIT           DATA             DESCRIPTION OF MNEMONIC
#---------         -----------     ------------------------------
GL  .M        561.95               : gl           - GROUND LEVEL ELEVATION
EREF.M        566.5                : kb           - ELEVATION OF DEPTH REFERENCE
DATM.M        566.5                : datum        - DATUM ELEVATION
TDD .M        408                  : tdd          - TOTAL DEPTH DRILLER
RUN .         ONE                  : Run          - RUN NUMBER
ENG .         BILL                 : Engineer     - RECORDING ENGINEER
WIT .         JIM                  : Witness      - WITNESSED BY
MUD .         GEL                  : Mud_type     - MUD TYPE
MATR.         SANDSTONE            : Logunit      - NEUTRON MATRIX
TMAX.C        20                   : BHT          - MAXIMUM RECORDED TEMPERATURE
BHTD.M        407                  : BHTDEP       - MAXIMUM RECORDED TEMPERATURE
MATR.         1                    : LOGUNIT      - NEUTRON MATRIX
RMT .C        25                   : MDTP         - TEMPERATURE OF MUD
NEUT.         1                    : NEUTRON      - NEUTRON TYPE
RESI.         0                    : RESIST       - RESISTIVITY TYPE
RMC .OHMM     0.25                 : RMC          - RESISTIVITY OF MUD CAKE
RMF .OHMM     0.25                 : RMF          - RESISTIVITY OF MUD FILTRATE
SUFT.C        15                   : SUFT         - SURFACE TEMPERATURE
~A  DEPTH       GR     PHID     PHIN     RESD
# ...
  284.000   87.155    0.305    0.490    3.497
  284.250   90.471    0.279    0.510    3.488
  284.500   91.409    0.291    0.536    3.592
  284.750   88.895    0.283    0.526    3.669
  285.000   85.489    0.260    0.505    3.935
  285.250   82.965    0.265    0.503    4.367
  285.500   79.918    0.273    0.497    4.554
  285.750   79.561    0.279    0.491    4.845
  286.000   82.481    0.303    0.496    5.131
  286.250   84.275    0.299    0.496    5.224
  286.500   82.646    0.255    0.475    5.176
  286.750   79.337    0.229    0.469    5.079
  287.000   76.351    0.258    0.500    4.920
  287.250   73.054    0.283    0.474    4.819
  287.500   67.129    0.288    0.435    5.003
  287.750   62.743    0.275    0.414    5.249
  288.000   67.646    0.251    0.407    5.559
  288.250   77.076    0.231    0.407    5.867
  288.500   76.450    0.198    0.398    5.835
  288.750   68.561    0.106    0.364    5.665
  289.000   66.183    0.174    0.349    5.407
  289.250   72.588    0.255    0.359    4.802
  289.500   77.044    0.273    0.413    4.052
  289.750   72.920    0.304    0.484    3.495
  290.000   67.987    0.327    0.482    3.096
  290.250   68.614    0.306    0.429    2.856
  290.500   71.985    0.287    0.395    2.706
  290.750   73.109    0.268    0.433    2.643
  291.000   71.581    0.280    0.491    2.717
  291.250   68.466    0.310    0.508    2.841
  291.500   61.359    0.298    0.484    2.988
  291.750   50.052    0.302    0.400    3.446
  292.000   47.813    0.313    0.396    3.822
  292.250   54.014    0.314    0.420    4.211
  292.500   59.056    0.304    0.415    4.520
  292.750   61.612    0.289    0.405    4.623
  293.000   65.138    0.285    0.402    4.781
  293.250   65.422    0.271    0.402    5.081
  293.500   80.668    0.222    0.405    5.454
  293.750   93.715    0.209    0.424    5.609
  294.000   96.450    0.228    0.446    5.499
  294.250   96.996    0.223    0.456    5.329
  294.500   96.425    0.202    0.466    5.165
  294.750   95.241    0.217    0.475    4.918
  295.000   90.686    0.235    0.484    4.869
  295.250   88.596    0.245    0.507    4.894
  295.500   89.334    0.233    0.500    4.896
  295.750   88.054    0.219    0.453    5.031
  296.000   84.898    0.234    0.436    5.275
  296.250   83.209    0.216    0.423    5.278
  296.500   83.013    0.197    0.412    5.343
  296.750   83.298    0.203    0.401    5.389
  297.000   84.310    0.199    0.391    5.386
  297.250   86.838    0.182    0.386    5.371
  297.500   90.502    0.188    0.387    5.286
  297.750   94.080    0.194    0.390    5.291
  298.000   96.108    0.209    0.397    5.261
  298.250   84.405    0.231    0.414    5.452
  298.500   72.844    0.255    0.447    5.890
  298.750   73.662    0.266    0.441    6.360
  299.000   74.089    0.250    0.376    6.756
  299.250   74.295    0.242    0.403    6.901
  299.500   64.000    0.253    0.374    6.763
  299.750   79.474    0.251    0.402    6.955
  300.000   95.466    0.258    0.431    7.554
  300.250   81.283    0.287    0.371    8.367
  300.500   69.015    0.292    0.357    9.334
  300.750   58.647    0.275    0.368   10.176
  301.000   49.895    0.256    0.371   12.090
  301.250   45.458    0.274    0.377   13.717
  301.500   43.683    0.305    0.380   15.782
  301.750   43.425    0.309    0.371   19.683
  302.000   44.971    0.299    0.374   24.519
  302.250   42.031    0.294    0.390   29.783
  302.500   38.843    0.299    0.381   34.486
  302.750   35.195    0.318    0.363   39.846
  303.000   32.792    0.313    0.359   43.198
  303.250   35.442    0.288    0.359   43.289
  303.500   41.197    0.297    0.358   43.281
  303.750   43.142    0.305    0.390   41.509
  304.000   41.533    0.308    0.393   37.911
  304.250   39.394    0.308    0.387   34.975
  304.500   40.127    0.300    0.384   33.141
  304.750   43.734    0.284    0.384   31.792
  305.000   47.269    0.284    0.400   31.385
  305.250   49.036    0.315    0.395   31.715
  305.500   42.868    0.321    0.386   33.971
  305.750   39.708    0.315    0.379   36.819
  306.000   38.895    0.311    0.367   38.264
  306.250   37.759    0.301    0.360   37.675
  306.500   42.885    0.291    0.368   35.839
  306.750   46.203    0.293    0.362   33.380
  307.000   47.206    0.306    0.356   28.422
  307.250   46.420    0.322    0.367   24.598
  307.500   42.779    0.324    0.374   23.228
  307.750   39.556    0.305    0.365   22.718
  308.000   41.557    0.285    0.364   22.770
  308.250   44.485    0.284    0.374   22.854
  308.500   49.316    0.291    0.385   22.363
  308.750   56.128    0.295    0.406   24.886
  309.000   55.393    0.300    0.413   30.457
  309.250   46.751    0.311    0.397   40.928
  309.500   43.300    0.321    0.388   55.484
  309.750   44.409    0.317    0.378   59.187
  310.000   48.737    0.316    0.388   65.738
  310.250   47.569    0.305    0.385   75.679
  310.500   42.980    0.302    0.389   92.287
  310.750   41.109    0.321    0.402  113.257
  311.000   39.524    0.332    0.378  122.844
  311.250   36.976    0.331    0.369  119.785
  311.500   34.740    0.334    0.371  108.758
  311.750   35.541    0.337    0.378   79.621
  312.000   37.805    0.340    0.396   57.004
  312.250   39.061    0.342    0.411   53.111
  312.500   40.061    0.335    0.397   45.921
  312.750   40.691    0.311    0.385   54.033
  313.000   39.893    0.306    0.373   67.063
  313.250   38.831    0.315    0.377   86.670
  313.500   37.504    0.322    0.392  102.042
  313.750   36.148    0.322    0.403  103.440
  314.000   36.289    0.318    0.408  101.732
  314.250   36.825    0.314    0.399  100.443
  314.500   36.705    0.325    0.385   95.319
  314.750   35.137    0.324    0.380   88.692
  315.000   34.534    0.315    0.380   84.591
  315.250   35.831    0.312    0.378   81.970
  315.500   36.197    0.309    0.373   78.070
  315.750   35.676    0.321    0.373   73.829
  316.000   35.414    0.332    0.390   63.317
  316.250   36.041    0.337    0.394   48.978
  316.500   37.263    0.343    0.388   38.554
  316.750   37.025    0.342    0.389   34.879
  317.000   34.881    0.327    0.390   33.318
  317.250   35.680    0.324    0.391   33.408
  317.500   37.855    0.322    0.392   50.413
  317.750   39.065    0.317    0.393   64.340
  318.000   39.004    0.314    0.393   86.279
  318.250   38.326    0.311    0.393  115.599
  318.500   37.250    0.311    0.393  120.795
  318.750   35.733    0.327    0.390  131.951
  319.000   34.022    0.336    0.377  152.414
  319.250   33.253    0.329    0.394  184.118
  319.500   33.970    0.315    0.410  217.813
  319.750   35.758    0.313    0.395  236.271
  320.000   37.169    0.327    0.390  238.843
  320.250   36.213    0.325    0.388  243.274
  320.500   34.962    0.313    0.390  238.603
  320.750   34.479    0.308    0.402  227.165
  321.000   34.997    0.314    0.416  208.265
  321.250   36.062    0.322    0.413  186.995
  321.500   37.082    0.326    0.394  176.463
  321.750   39.383    0.329    0.399  167.917
  322.000   43.617    0.334    0.407  164.557
  322.250   43.321    0.341    0.407  161.374
  322.500   40.517    0.336    0.402  162.262
  322.750   39.036    0.326    0.394  167.317
  323.000   37.606    0.330    0.391  166.830
  323.250   40.644    0.316    0.401  167.183
  323.500   42.449    0.324    0.409  161.986
  323.750   42.348    0.322    0.405  148.810
  324.000   42.892    0.313    0.394  130.093
  324.250   44.688    0.317    0.384  110.491
  324.500   46.741    0.313    0.380   87.562
  324.750   48.860    0.308    0.383   53.423
  325.000   49.053    0.312    0.395   44.156
  325.250   42.048    0.323    0.407   52.542
  325.500   35.050    0.324    0.406   60.706
  325.750   34.370    0.318    0.395   65.613
  326.000   34.981    0.321    0.387   67.300
  326.250   39.035    0.315    0.391   60.857
  326.500   48.102    0.312    0.407   40.767
  326.750   54.760    0.311    0.415   27.971
  327.000   57.166    0.305    0.422   24.730
  327.250   54.394    0.304    0.427   22.409
