~VERSION INFORMATION
 VERS.                 2.0:   CWLS LOG ASCII STANDARD -VERSION 2.0
 WRAP.                  NO:   ONE LINE PER DEPTH STEP
~WELL INFORMATION BLOCK
#MNEM.UNIT           DATA                    DESCRIPTION OF MNEMONIC
#---------    -------------------            -------------------------------
# Generated from Intellog Unique Number	CW_79_81/WELL/2444
WELL.         04-12-081-23W4                 : Well_name    - WELL
LOC .         00/04-12-081-23W4/0            : Location     - LOCATION
UWI .         00/04-12-081-23W4/0            : Uwi          - UNIQUE WELL ID
ENTR.         MAX                            : Entered      - ENTERED BY
SRVC.         SCHLUMBERGER                   : Scn          - SERVICE COMPANY
STRT.M        240                            : top_depth    - START DEPTH
STOP.M        454.75                         : bot_depth    - STOP DEPTH
STEP.M        0.25                           : increment    - STEP LENGTH
 NULL. -999.2500:NULL Value
~CURVE INFORMATION BLOCK
#MNEM UNIT       ERCB CURVE CODE    CURVE DESCRIPTION
#-----------   ------------------   ----------------------------------
DEPT.M        00 001 00 00         : DEPTH        - DEPTH
ILD .OHMM     00 120 00 00         : RESD         - DEEP RESISTIVITY (DIL)
NPHI.V/V      00 330 00 00         : PHIN         - NEUTRON POROSITY (SANDSTONE)
DPHI.V/V      00 890 00 00         : PHID         - DENSITY POROSITY (SANDSTONE)
GR  .API      00 310 00 00         : GR           - GAMMA RAY
CALI.MM       00 280 01 00         : CAL          - CALIPER
~PARAMETER INFORMATION
#MNEM.UNIT           DATA             DESCRIPTION OF MNEMONIC
#---------         -----------     ------------------------------
GL  .M        601                  : gl           - GROUND LEVEL ELEVATION
EREF.M        604.6                : kb           - ELEVATION OF DEPTH REFERENCE
DATM.M        601                  : datum        - DATUM ELEVATION
TDD .M        459.2                : tdd          - TOTAL DEPTH DRILLER
RUN .         ONE                  : Run          - RUN NUMBER
ENG .         BILL                 : Engineer     - RECORDING ENGINEER
WIT .         JIM                  : Witness      - WITNESSED BY
MUD .         GEL                  : Mud_type     - MUD TYPE
MATR.         SANDSTONE            : Logunit      - NEUTRON MATRIX
TMAX.C        24                   : BHT          - MAXIMUM RECORDED TEMPERATURE
BHTD.M        459.2                : BHTDEP       - MAXIMUM RECORDED TEMPERATURE
MATR.         1                    : LOGUNIT      - NEUTRON MATRIX
RMT .C        21                   : MDTP         - TEMPERATURE OF MUD
NEUT.         1                    : NEUTRON      - NEUTRON TYPE
RESI.         0                    : RESIST       - RESISTIVITY TYPE
RMC .OHMM     5.18                 : RMC          - RESISTIVITY OF MUD CAKE
RMF .OHMM     5.48                 : RMF          - RESISTIVITY OF MUD FILTRATE
SUFT.C        -10                  : SUFT         - SURFACE TEMPERATURE
~A  DEPTH     RESD     PHIN     PHID       GR      CAL
# ...
  422.500   76.628    0.374    0.309   30.097  251.272
  422.750   70.919    0.381    0.309   30.896  251.323
  423.000   64.755    0.385    0.306   32.399  251.362
  423.250   60.127    0.386    0.303   33.606  250.227
  423.500   55.847    0.367    0.305   34.281  248.791
  423.750   51.687    0.346    0.308   34.778  247.057
  424.000   47.010    0.333    0.309   35.155  245.423
  424.250   40.133    0.331    0.306   35.233  244.607
  424.500   35.285    0.332    0.304   35.508  244.232
  424.750   32.272    0.338    0.302   36.712  243.881
  425.000   28.513    0.358    0.302   38.808  243.237
  425.250   25.172    0.371    0.301   41.315  242.885
  425.500   22.669    0.368    0.300   44.054  242.923
  425.750   21.049    0.363    0.303   47.890  242.970
  426.000   20.898    0.372    0.305   51.608  243.014
  426.250   20.909    0.380    0.300   52.815  243.848
  426.500   21.154    0.381    0.289   53.844  244.679
  426.750   21.166    0.386    0.266   55.170  245.509
  427.000   20.586    0.388    0.232   57.088  246.239
  427.250   18.618    0.362    0.181   60.357  247.008
  427.500   15.888    0.350    0.134   63.580  248.693
  427.750   13.466    0.368    0.149   66.913  249.518
  428.000   11.913    0.382    0.165   70.067  249.753
  428.250   10.880    0.387    0.174   72.336  249.596
  428.500   10.052    0.381    0.176   72.892  249.343
  428.750    9.032    0.363    0.181   70.204  249.476
  429.000    8.500    0.356    0.190   67.279  249.931
  429.250    8.255    0.370    0.201   70.612  249.579
  429.500    8.291    0.379    0.203   78.905  249.818
  429.750    8.754    0.386    0.195   80.347  250.057
  430.000    9.911    0.386    0.186   73.225  250.196
  430.250   12.947    0.371    0.198   63.959  250.632
  430.500   16.149    0.368    0.234   54.138  250.676
  430.750   18.152    0.366    0.241   54.163  248.750
  431.000   21.929    0.355    0.233   56.317  248.001
  431.250   24.474    0.340    0.215   60.123  248.831
  431.500   21.832    0.332    0.185   65.580  250.257
  431.750   14.380    0.356    0.136   75.239  250.003
  432.000    9.741    0.401    0.156   85.603  250.448
  432.250    9.675    0.419    0.172   91.539  250.884
  432.500   10.094    0.410    0.187   90.558  250.428
  432.750   11.382    0.405    0.199   83.137  249.089
  433.000   13.838    0.408    0.214   71.820  247.460
  433.250   17.348    0.396    0.246   59.984  246.801
  433.500   20.297    0.398    0.267   53.855  247.250
  433.750   24.155    0.415    0.269   53.407  246.903
  434.000   28.666    0.403    0.272   55.266  246.549
  434.250   33.230    0.385    0.274   58.835  246.194
  434.500   36.296    0.376    0.276   62.698  245.839
  434.750   35.901    0.388    0.274   64.324  245.579
  435.000   36.479    0.397    0.270   62.873  246.038
  435.250   37.589    0.381    0.257   62.192  248.434
  435.500   37.477    0.370    0.231   63.278  249.656
  435.750   36.252    0.355    0.191   66.019  250.094
  436.000   33.031    0.338    0.165   69.057  250.237
  436.250   25.529    0.339    0.204   70.235  250.758
  436.500   19.514    0.369    0.219   72.476  251.208
  436.750   17.984    0.384    0.224   75.103  251.644
  437.000   17.450    0.386    0.233   74.182  251.788
  437.250   17.460    0.388    0.248   72.197  251.631
  437.500   17.600    0.394    0.264   70.744  251.175
  437.750   17.190    0.399    0.269   71.131  250.358
  438.000   16.428    0.390    0.259   74.111  250.001
  438.250   16.194    0.392    0.253   74.134  251.216
  438.500   16.593    0.411    0.247   71.853  251.548
  438.750   17.475    0.425    0.238   66.561  251.590
  439.000   18.852    0.419    0.222   59.793  251.537
  439.250   20.788    0.374    0.165   55.628  251.194
  439.500   20.017    0.283    0.003   57.134  251.233
  439.750   16.705    0.246    0.025   62.354  251.271
  440.000   12.254    0.245    0.122   67.577  251.313
  440.250    9.267    0.292    0.195   74.218  251.355
  440.500    7.422    0.374    0.210   80.860  251.398
  440.750    6.172    0.466    0.195   83.553  251.535
  441.000    6.035    0.495    0.177   85.051  251.984
  441.250    6.218    0.459    0.169   87.200  252.416
  441.500    6.549    0.422    0.179   83.858  252.556
  441.750    7.001    0.412    0.209   79.156  252.795
  442.000    7.507    0.433    0.255   75.872  253.133
  442.250    7.949    0.465    0.313   74.988  252.937
  442.500    8.141    0.491    0.352   72.802  251.751
  442.750    8.146    0.506    0.383   72.586  250.603
  443.000    8.015    0.507    0.416   75.740  250.056
  443.250    7.666    0.530    0.419   78.483  249.901
  443.500    7.192    0.570    0.391   78.863  249.842
  443.750    6.754    0.577    0.355   77.163  249.254
  444.000    6.603    0.557    0.316   79.153  248.072
  444.250    6.558    0.547    0.325   84.139  247.720
  444.500    6.405    0.531    0.332   87.000  247.362
  444.750    6.269    0.527    0.306   87.500  247.203
  445.000    6.260    0.528    0.250   85.990  247.344
  445.250    6.560    0.500    0.196   83.318  247.871
  445.500    6.876    0.469    0.213   82.852  248.325
  445.750    7.138    0.441    0.248   86.185  248.367
  446.000    7.290    0.455    0.250   88.632  248.403
  446.250    7.349    0.464    0.233   89.132  248.642
  446.500    7.352    0.454    0.209   87.740  249.083
  446.750    7.380    0.453    0.190   84.803  249.519
  447.000    7.498    0.474    0.186   80.651  249.563
  447.250    8.190    0.457    0.213   80.438  250.003
  447.500    8.999    0.430    0.255   80.045  250.142
  447.750    9.948    0.414    0.276   78.177  250.184
  448.000   10.720    0.409    0.268   75.131  250.228
  448.250   10.325    0.393    0.252   73.731  250.191
  448.500    9.570    0.383    0.235   78.434  249.816
  448.750    9.022    0.392    0.251   79.404  249.859
  449.000    8.897    0.411    0.260   77.008  249.602
  449.250    9.065    0.430    0.258   74.787  249.647
  449.500    9.512    0.440    0.248   74.634  250.185
  449.750   10.533    0.425    0.243   77.433  251.017
  450.000   11.662    0.411    0.258   80.657  251.070
  450.250   12.017    0.436    0.250   83.517  251.100
  450.500   11.515    0.421    0.226   82.300  251.434
  450.750   10.611    0.391    0.207   78.781  251.677
  451.000    9.629    0.368    0.202   75.382  251.724
  451.250    8.488    0.377    0.209   75.715  251.684
  451.500    7.576    0.410    0.211   78.449  251.313
  451.750    7.249    0.390    0.196   77.054  251.359
  452.000    7.135    0.377    0.184   74.067  251.107
  452.250    7.270    0.368    0.180   71.493  250.557
  452.500    7.605    0.364    0.181   70.454  249.809
  452.750    7.895    0.366    0.187   71.487  248.911
  453.000    7.603    0.364    0.194   72.990  248.126
  453.250    7.007    0.441    0.219   73.957  246.983
  453.500    6.685    0.468    0.276   73.510  245.846
  453.750    6.713    0.467    0.324   72.354  244.709
  454.000    7.071    0.451    0.333   71.020  243.569
  454.250    7.813    0.430    0.283   69.376  242.269
  454.500    8.927    0.441    0.285   66.946  241.488
  454.750    9.964    0.450    0.289   66.024  241.141
