~VERSION INFORMATION
 VERS.                 2.0:   CWLS LOG ASCII STANDARD -VERSION 2.0
 WRAP.                  NO:   ONE LINE PER DEPTH STEP
~WELL INFORMATION BLOCK
#MNEM.UNIT           DATA                    DESCRIPTION OF MNEMONIC
#---------    -------------------            -------------------------------
# Generated from Intellog Unique Number	CX_WELLS/WELL/2759
WELL.         05-20-080-13W4                 : Well_name    - WELL
LOC .         00/05-20-080-13W4/0            : Location     - LOCATION
UWI .         00/05-20-080-13W4/0            : Uwi          - UNIQUE WELL ID
ENTR.         T                              : Entered      - ENTERED BY
SRVC.         SCHLUMBERGER                   : Scn          - SERVICE COMPANY
STRT.M        270                            : top_depth    - START DEPTH
STOP.M        500                            : bot_depth    - STOP DEPTH
STEP.M        0.25                           : increment    - STEP LENGTH
 NULL. -999.2500:NULL Value
~CURVE INFORMATION BLOCK
#MNEM UNIT       ERCB CURVE CODE    CURVE DESCRIPTION
#-----------   ------------------   ----------------------------------
DEPT.M        00 001 00 00         : DEPTH        - DEPTH
GR  .API      00 310 00 00         : GR           - GAMMA RAY
NPHI.V/V      00 330 00 00         : PHIN         - NEUTRON POROSITY (SANDSTONE)
DPHI.V/V      00 890 00 00         : PHID         - DENSITY POROSITY (SANDSTONE)
ILD .OHMM     00 120 00 00         : RESD         - DEEP RESISTIVITY (DLL)
~PARAMETER INFORMATION
#MNEM.UNIT           DATA             DESCRIPTION OF MNEMONIC
#---------         -----------     ------------------------------
GL  .M        689.7                : gl           - GROUND LEVEL ELEVATION
EREF.M        692.9                : kb           - ELEVATION OF DEPTH REFERENCE
DATM.M        692.9                : datum        - DATUM ELEVATION
TDD .M        502                  : tdd          - TOTAL DEPTH DRILLER
RUN .         ONE                  : Run          - RUN NUMBER
ENG .         BILL                 : Engineer     - RECORDING ENGINEER
WIT .         JIM                  : Witness      - WITNESSED BY
MUD .         GEL                  : Mud_type     - MUD TYPE
MATR.         SANDSTONE            : Logunit      - NEUTRON MATRIX
TMAX.C        20                   : BHT          - MAXIMUM RECORDED TEMPERATURE
BHTD.M        504                  : BHTDEP       - MAXIMUM RECORDED TEMPERATURE
MATR.         1                    : LOGUNIT      - NEUTRON MATRIX
RMT .C        19                   : MDTP         - TEMPERATURE OF MUD
NEUT.         1                    : NEUTRON      - NEUTRON TYPE
RESI.         5.36                 : RESIST       - RESISTIVITY TYPE
RMC .OHMM     5.2                  : RMC          - RESISTIVITY OF MUD CAKE
RMF .OHMM     5.5                  : RMF          - RESISTIVITY OF MUD FILTRATE
SUFT.C        4                    : SUFT         - SURFACE TEMPERATURE
~A  DEPTH       GR     PHIN     PHID     RESD
# ...
  313.500   91.683    0.434    0.264   10.935
  313.750   92.311    0.447    0.265   10.942
  314.000   93.541    0.455    0.263   11.163
  314.250   93.577    0.461    0.254   10.966
  314.500   93.022    0.468    0.255   10.767
  314.750   92.457    0.473    0.260   10.775
  315.000   91.329    0.474    0.262   10.586
  315.250   91.347    0.471    0.266   10.395
  315.500   91.975    0.458    0.267   10.406
  315.750   94.379    0.453    0.268   10.411
  316.000   96.783    0.457    0.261   10.622
  316.250  100.963    0.454    0.246   10.631
  316.500  104.550    0.452    0.246   10.638
  316.750  106.363    0.451    0.246   10.450
  317.000  107.583    0.447    0.248   10.457
  317.250  101.701    0.443    0.251   10.270
  317.500   97.002    0.427    0.261    9.716
  317.750   96.456    0.425    0.272    9.363
  318.000   97.685    0.426    0.275    9.550
  318.250   98.296    0.420    0.274   10.311
  318.500   98.350    0.398    0.279   11.130
  318.750   94.835    0.393    0.286   12.718
  319.000   91.913    0.399    0.292   12.976
  319.250   90.747    0.410    0.280   12.741
  319.500   90.793    0.399    0.273   12.050
  319.750   95.564    0.398    0.273   11.613
  320.000  101.520    0.402    0.268   10.372
  320.250  106.300    0.406    0.259    9.444
  320.500  109.287    0.409    0.248    8.439
  320.750  108.732    0.417    0.236    8.131
  321.000   94.572    0.421    0.240    7.546
  321.250   84.538    0.431    0.249    7.697
  321.500   76.279    0.438    0.278    8.964
  321.750   67.438    0.449    0.299   12.382
  322.000   62.147    0.456    0.323   14.419
  322.250   58.041    0.435    0.347   17.114
  322.500   54.544    0.400    0.359   19.186
  322.750   54.562    0.401    0.369   20.330
  323.000   54.016    0.417    0.358   20.736
  323.250   55.828    0.427    0.347   21.152
  323.500   57.650    0.413    0.347   20.384
  323.750   58.260    0.396    0.345   20.028
  324.000   58.305    0.389    0.337   19.661
  324.250   58.342    0.398    0.329   19.687
  324.500   57.204    0.407    0.333   19.700
  324.750   56.056    0.409    0.336   19.713
  325.000   56.084    0.409    0.340   19.735
  325.250   55.529    0.411    0.342   19.748
  325.500   55.574    0.416    0.347   19.765
  325.750   55.019    0.420    0.345   19.416
  326.000   54.463    0.418    0.345   19.446
  326.250   54.509    0.418    0.344   19.459
  326.500   54.527    0.418    0.346   19.467
  326.750   54.564    0.418    0.345   19.493
  327.000   55.201    0.417    0.345   19.502
  327.250   55.821    0.412    0.342   19.519
  327.500   55.866    0.407    0.342   19.541
  327.750   55.894    0.400    0.345   19.932
  328.000   55.939    0.390    0.350   19.949
  328.250   55.384    0.392    0.349   19.963
  328.500   54.819    0.404    0.340   19.980
  328.750   54.264    0.414    0.338   20.002
  329.000   54.310    0.404    0.335   20.015
  329.250   53.745    0.393    0.334   20.038
  329.500   53.199    0.385    0.334   20.443
  329.750   52.644    0.390    0.335   20.461
  330.000   52.088    0.399    0.336   20.484
  330.250   52.717    0.405    0.336   20.113
  330.500   53.336    0.416    0.338   20.131
  330.750   54.574    0.422    0.338   20.144
  331.000   54.611    0.415    0.344   19.793
  331.250   55.239    0.395    0.348   19.434
  331.500   55.267    0.396    0.344   19.451
  331.750   54.730    0.402    0.351   19.103
  332.000   54.156    0.399    0.357   19.120
  332.250   54.193    0.394    0.352   19.876
  332.500   53.637    0.400    0.153   21.459
  332.750   52.490    0.403    0.133   21.888
  333.000   51.361    0.403    0.112   21.907
  333.250   51.379    0.320    0.123   21.516
  333.500   52.008    0.289    0.237   21.131
  333.750   52.053    0.331    0.287   21.154
  334.000   52.081    0.374    0.324   21.173
  334.250   50.351    0.405    0.354   22.435
  334.500   49.804    0.426    0.190   23.316
  334.750   49.823    0.440    0.132   23.783
  335.000   51.052    0.331    0.189   23.804
  335.250   51.680    0.267    0.260   22.945
  335.500   51.125    0.278    0.319   21.295
  335.750   51.162    0.352    0.352   20.517
  336.000   51.189    0.425    0.346   19.767
  336.250   52.418    0.434    0.339   18.696
  336.500   53.038    0.438    0.336   18.358
  336.750   53.684    0.450    0.336   18.033
  337.000   53.120    0.452    0.343   17.378
  337.250   53.757    0.446    0.352   17.068
  337.500   53.785    0.450    0.355   16.448
  337.750   54.422    0.453    0.355   16.157
  338.000   53.876    0.446    0.355   15.861
  338.250   52.720    0.434    0.355   15.875
  338.500   52.164    0.429    0.354   15.893
  338.750   51.618    0.424    0.353   15.605
  339.000   51.645    0.421    0.352   15.622
  339.250   51.090    0.428    0.352   15.636
  339.500   50.535    0.434    0.352   15.653
  339.750   50.571    0.437    0.352   15.664
  340.000   50.599    0.434    0.353   15.684
  340.250   50.635    0.433    0.354   15.691
  340.500   51.273    0.428    0.356   16.009
  340.750   51.892    0.424    0.356   16.019
  341.000   51.928    0.425    0.356   16.037
  341.250   51.965    0.428    0.356   16.048
  341.500   52.593    0.430    0.355   16.073
  341.750   53.240    0.430    0.354   16.076
  342.000   53.850    0.429    0.352   16.090
  342.250   52.703    0.424    0.352   16.420
  342.500   50.372    0.421    0.353   16.430
  342.750   46.274    0.419    0.357   16.456
  343.000   46.912    0.420    0.357   16.467
  343.250   47.531    0.429    0.357   16.478
  343.500   49.352    0.437    0.355   16.489
  343.750   51.756    0.432    0.353   16.511
  344.000   52.968    0.421    0.352   16.518
  344.250   54.188    0.417    0.349   16.540
  344.500   54.242    0.417    0.348   16.551
  344.750   54.261    0.417    0.348   16.562
  345.000   54.297    0.417    0.349   16.273
  345.250   54.334    0.417    0.349   15.981
  345.500   54.380    0.417    0.350   15.992
  345.750   54.999    0.416    0.349   15.706
  346.000   55.044    0.421    0.349   15.727
  346.250   55.072    0.426    0.347   15.734
  346.500   55.108    0.423    0.346   15.755
  346.750   55.145    0.417    0.333   15.765
  347.000   53.998    0.412    0.330   15.775
  347.250   54.034    0.415    0.331   16.095
  347.500   54.071    0.418    0.331   16.109
  347.750   55.300    0.424    0.329   16.123
  348.000   57.121    0.433    0.327   16.137
  348.250   58.942    0.437    0.326   15.852
  348.500   59.553    0.429    0.327   15.859
  348.750   59.589    0.424    0.331   15.877
  349.000   59.644    0.421    0.329   15.887
  349.250   59.662    0.421    0.313   15.908
  349.500   60.892    0.442    0.310   16.230
  349.750   61.520    0.443    0.304   16.241
  350.000   62.731    0.443    0.300   16.570
  350.250   63.951    0.439    0.293   16.894
  350.500   65.171    0.434    0.284   16.913
  350.750   65.809    0.432    0.290   17.247
  351.000   65.254    0.429    0.295   17.270
  351.250   65.281    0.427    0.303   17.286
  351.500   65.318    0.424    0.309   17.293
  351.750   64.771    0.424    0.313   17.309
  352.000   64.808    0.423    0.314   17.328
  352.250   64.853    0.421    0.311   17.347
  352.500   64.899    0.420    0.309   17.358
  352.750   64.917    0.419    0.304   17.374
  353.000   64.963    0.416    0.303   16.743
  353.250   65.591    0.414    0.304   15.244
  353.500   65.628    0.413    0.304   14.144
  353.750   65.664    0.417    0.306   14.157
  354.000   65.701    0.423    0.307   15.001
  354.250   65.146    0.432    0.300   15.892
  354.500   63.998    0.438    0.291   16.516
  354.750   62.259    0.430    0.279   17.169
  355.000   60.529    0.412    0.234   17.184
  355.250   59.956    0.385    0.188   16.880
  355.500   61.176    0.342    0.178   15.959
  355.750   64.172    0.356    0.213   14.536
  356.000   67.177    0.420    0.240   13.485
  356.250   70.163    0.424    0.269   12.047
  356.500   70.792    0.425    0.289   11.394
  356.750   69.062    0.436    0.301   11.842
