~VERSION INFORMATION
 VERS.                 2.0:   CWLS LOG ASCII STANDARD -VERSION 2.0
 WRAP.                  NO:   ONE LINE PER DEPTH STEP
~WELL INFORMATION BLOCK
#MNEM.UNIT           DATA                    DESCRIPTION OF MNEMONIC
#---------    -------------------            -------------------------------
# Generated from Intellog Unique Number	CW_82_90/WELL/528
WELL.         06-19-083-22W4                 : Well_name    - WELL
LOC .         00/06-19-083-22W4/0            : Location     - LOCATION
UWI .         00/06-19-083-22W4/0            : Uwi          - UNIQUE WELL ID
ENTR.         JAYE                           : Entered      - ENTERED BY
SRVC.         SCHLUMBERGER                   : Scn          - SERVICE COMPANY
DATE.         11 FEB 86                      : Date         - LOG DATE
STRT.M        220                            : top_depth    - START DEPTH
STOP.M        435                            : bot_depth    - STOP DEPTH
STEP.M        0.25                           : increment    - STEP LENGTH
 NULL. -999.2500:NULL Value
~CURVE INFORMATION BLOCK
#MNEM UNIT       ERCB CURVE CODE    CURVE DESCRIPTION
#-----------   ------------------   ----------------------------------
DEPT.M        00 001 00 00         : DEPTH        - DEPTH
CALI.MM       00 280 01 00         : CAL          - CALIPER
GR  .API      00 310 00 00         : GR           - GAMMA RAY
NPHI.V/V      00 330 00 00         : PHIN         - NEUTRON POROSITY (SANDSTONE)
DPHI.V/V      00 890 00 00         : PHID         - DENSITY POROSITY (SANDSTONE)
ILD .OHMM     00 120 00 00         : RESD         - DEEP RESISTIVITY (DIL)
~PARAMETER INFORMATION
#MNEM.UNIT           DATA             DESCRIPTION OF MNEMONIC
#---------         -----------     ------------------------------
GL  .M        606.8                : gl           - GROUND LEVEL ELEVATION
EREF.M        610.4                : kb           - ELEVATION OF DEPTH REFERENCE
DATM.M        606.8                : datum        - DATUM ELEVATION
TDD .M        435                  : tdd          - TOTAL DEPTH DRILLER
RUN .         ONE                  : Run          - RUN NUMBER
ENG .         LAROSE               : Engineer     - RECORDING ENGINEER
WIT .         BLOTT                : Witness      - WITNESSED BY
BASE.         EDMONTON             : Branch       - HOME BASE OF LOGGING UNIT
MUD .         GEL CHEM             : Mud_type     - MUD TYPE
MATR.         SANDSTONE            : Logunit      - NEUTRON MATRIX
TMAX.C        46                   : BHT          - MAXIMUM RECORDED TEMPERATURE
BHTD.M        435                  : BHTDEP       - MAXIMUM RECORDED TEMPERATURE
RMT .C        18                   : MDTP         - TEMPERATURE OF MUD
MUDD.KG/M     1100                 : MWT          - MUD DENSITY
NEUT.         1                    : NEUTRON      - NEUTRON TYPE
RESI.         0                    : RESIST       - RESISTIVITY TYPE
RM  .OHMM     6.69                 : RM           - RESISTIVITY OF MUD
RMC .OHMM     0                    : RMC          - RESISTIVITY OF MUD CAKE
RMF .OHMM     8.7                  : RMF          - RESISTIVITY OF MUD FILTRATE
SUFT.C        0                    : SUFT         - SURFACE TEMPERATURE
~A  DEPTH      CAL       GR     PHIN     PHID     RESD
# ...
  293.000  255.394   56.739    0.452    0.309   15.762
  293.250  255.382   59.604    0.456    0.306   14.220
  293.500  254.215   63.407    0.468    0.307   12.520
  293.750  253.368   67.457    0.467    0.323   11.405
  294.000  252.830   70.700    0.458    0.330   10.625
  294.250  251.665   74.314    0.452    0.332    9.552
  294.500  251.236   75.617    0.443    0.327    8.865
  294.750  250.696   78.231    0.426    0.300    8.244
  295.000  251.308   81.408    0.416    0.257    7.710
  295.250  251.912   83.900    0.411    0.252    7.210
  295.500  253.669   83.889    0.415    0.240    6.654
  295.750  255.423   80.130    0.429    0.226    6.891
  296.000  257.905   71.120    0.436    0.215    7.636
  296.250  259.558   56.673    0.456    0.220    8.954
  296.500  258.813   49.975    0.441    0.232   11.215
  296.750  257.231   48.778    0.432    0.230   14.315
  297.000  255.341   49.701    0.439    0.236   17.140
  297.250  253.555   49.943    0.436    0.290   19.101
  297.500  251.662   49.560    0.441    0.316   20.810
  297.750  250.189   48.674    0.445    0.333   21.507
  298.000  248.609   47.916    0.428    0.339   21.525
  298.250  248.278   47.531    0.412    0.338   21.266
  298.500  247.845   47.770    0.465    0.335   21.283
  298.750  246.995   47.261    0.473    0.337   21.421
  299.000  246.357   46.626    0.458    0.340   21.519
  299.250  245.922   44.990    0.431    0.342   21.461
  299.500  245.802   43.232    0.429    0.340   21.478
  299.750  245.888   41.096    0.458    0.341   21.262
  300.000  245.663   42.648    0.451    0.342   21.112
  300.250  245.857   45.950    0.448    0.345   20.161
  300.500  246.050   47.128    0.459    0.346   19.248
  300.750  246.655   45.930    0.486    0.347   17.599
  301.000  247.475   45.671    0.462    0.350   15.119
  301.250  248.291   49.537    0.431    0.353   13.261
  301.500  249.005   52.715    0.432    0.355   10.746
  301.750  250.965   53.268    0.460    0.354    9.550
  302.000  252.199   55.881    0.466    0.353    8.732
  302.250  253.433   58.247    0.476    0.350    8.497
  302.500  254.667   61.737    0.486    0.347    8.520
  302.750  256.006   65.040    0.441    0.345    8.463
  303.000  256.509   68.030    0.425    0.342    8.081
  303.250  256.701   70.957    0.429    0.334    7.416
  303.500  256.262   73.009    0.447    0.301    7.635
  303.750  255.726   74.873    0.427    0.234    7.642
  304.000  255.295   75.804    0.406    0.163    7.592
  304.250  254.757   76.854    0.440    0.190    7.458
  304.500  254.432   77.409    0.481    0.214    7.296
  304.750  253.788   78.837    0.474    0.241    7.085
  305.000  253.353   81.264    0.456    0.257    6.909
  305.250  253.026   82.817    0.451    0.267    6.875
  305.500  252.802   79.807    0.437    0.254    6.866
  305.750  253.203   71.858    0.431    0.238    7.030
  306.000  254.330   73.349    0.452    0.230    7.143
  306.250  254.835   75.028    0.480    0.237    7.150
  306.500  255.235   74.891    0.497    0.248    7.157
  306.750  254.803   74.945    0.500    0.259    7.070
  307.000  254.371   75.185    0.486    0.256    6.983
  307.250  253.833   75.611    0.432    0.251    6.794
  307.500  253.191   76.478    0.418    0.250    6.499
  307.750  252.339   78.468    0.407    0.250    6.347
  308.000  251.805   81.020    0.419    0.244    6.281
  308.250  251.058   83.698    0.431    0.235    6.529
  308.500  250.938   84.438    0.421    0.231    6.759
  308.750  250.921   73.116    0.410    0.234    7.213
  309.000  251.011   66.855    0.428    0.240    8.023
  309.250  251.093   65.909    0.486    0.230    8.857
  309.500  251.185   65.710    0.470    0.213   10.327
  309.750  251.376   66.889    0.442    0.215   11.706
  310.000  251.254   69.253    0.439    0.234   12.635
  310.250  251.239   69.681    0.463    0.289   13.356
  310.500  250.806   70.108    0.466    0.313   13.751
  310.750  250.374   70.662    0.459    0.316   14.134
  311.000  251.606   71.212    0.458    0.311   14.305
  311.250  250.338   71.201    0.449    0.317   14.456
  311.500  250.115   70.630    0.418    0.320   14.466
  311.750  250.829   69.434    0.419    0.320   14.184
  312.000  251.542   67.737    0.442    0.319   13.802
  312.250  250.374   64.040    0.477    0.319   13.501
  312.500  250.775   62.778    0.473    0.322   12.604
  312.750  252.112   63.207    0.453    0.326   11.875
  313.000  252.829   65.323    0.458    0.328   10.778
  313.250  253.436   69.688    0.475    0.327   10.078
  313.500  254.148   77.302    0.469    0.325    8.974
  313.750  255.071   79.917    0.472    0.322    8.236
  314.000  255.472   76.221    0.475    0.319    7.819
  314.250  255.453   72.523    0.464    0.317    7.680
  314.500  255.121   68.888    0.442    0.309    7.557
  314.750  255.003   66.003    0.423    0.283    7.380
  315.000  254.676   63.619    0.449    0.235    7.114
  315.250  254.552   67.296    0.455    0.219    6.805
  315.500  254.540   75.225    0.470    0.198    6.376
  315.750  253.475   82.900    0.479    0.180    5.721
  316.000  253.355   85.892    0.451    0.193    5.250
  316.250  253.235   88.882    0.448    0.216    4.818
  316.500  252.908   91.059    0.471    0.204    4.497
  316.750  252.270   93.550    0.475    0.216    4.246
  317.000  251.525   95.102    0.454    0.238    4.093
  317.250  250.358   82.655    0.457    0.247    3.922
  317.500  249.927   84.269    0.488    0.247    3.911
  317.750  249.702   83.760    0.483    0.247    4.165
  318.000  248.431   79.999    0.475    0.246    4.564
  318.250  248.103   76.740    0.469    0.246    5.096
  318.500  247.989   74.042    0.485    0.227    5.732
  318.750  247.866   72.219    0.491    0.209    6.915
  319.000  248.058   70.646    0.475    0.196    8.827
  319.250  248.058   69.388    0.428    0.216    9.949
  319.500  248.058   68.874    0.408    0.232   10.477
  319.750  249.878   68.744    0.428    0.262   10.429
  320.000  250.387   69.295    0.429    0.275    9.498
  320.250  251.204   71.724    0.430    0.276    8.206
  320.500  251.599   76.214    0.444    0.273    7.266
  320.750  252.004   79.517    0.449    0.275    6.707
  321.000  251.455   80.007    0.440    0.287    6.599
  321.250  251.452   81.558    0.418    0.310    6.668
  321.500  251.019   82.986    0.410    0.295    7.197
  321.750  251.019   77.289    0.410    0.268    7.885
  322.000  250.875   71.342    0.414    0.245    8.772
  322.250  250.762   72.454    0.452    0.245    9.413
  322.500  251.057   73.447    0.466    0.250    9.654
  322.750  251.457   75.812    0.436    0.254    9.413
  323.000  251.651   76.178    0.436    0.254    9.420
  323.250  251.423   73.043    0.424    0.266    9.828
  323.500  251.509   65.219    0.391    0.260   10.291
  323.750  251.284   60.023    0.390    0.249   10.498
  324.000  251.372   55.575    0.433    0.253   10.647
  324.250  251.146   55.065    0.446    0.253   10.781
  324.500  251.236   56.306    0.426    0.254   10.845
  324.750  251.428   60.108    0.402    0.301   10.535
  325.000  253.183   61.910    0.387    0.312   10.000
  325.250  254.103   59.964    0.385    0.321    9.807
  325.500  253.983   58.579    0.414    0.289    9.815
  325.750  253.341   58.444    0.440    0.277    9.839
  326.000  253.327   58.558    0.436    0.281    9.924
  326.250  253.514   59.421    0.431    0.270    9.933
  326.500  253.190   60.352    0.427    0.261    9.942
  326.750  252.648   62.651    0.426    0.274    9.913
  327.000  252.218   63.644    0.426    0.288    9.901
  327.250  251.471   63.009    0.429    0.295    9.782
  327.500  250.416   60.249    0.434    0.279    9.642
  327.750  247.585   59.177    0.423    0.254    9.506
  328.000  244.861   59.353    0.426    0.264    9.356
  328.250  242.137   59.782    0.451    0.269    9.259
  328.500  240.451   59.585    0.449    0.272    9.337
  328.750  240.855   60.074    0.433    0.288    9.650
  329.000  242.189   61.252    0.423    0.282    9.933
  329.250  241.238   62.680    0.409    0.272   10.075
