~VERSION INFORMATION
 VERS.                 2.0:   CWLS LOG ASCII STANDARD -VERSION 2.0
 WRAP.                  NO:   ONE LINE PER DEPTH STEP
~WELL INFORMATION BLOCK
#MNEM.UNIT           DATA                    DESCRIPTION OF MNEMONIC
#---------    -------------------            -------------------------------
# Generated from Intellog Unique Number	CN_94_101/WELL/2626
WELL.         PARAMOUNT RESOURCES LTD.       : Well_name    - WELL
LOC .         00/03-31-094-17W4/0            : Location     - LOCATION
UWI .         00/03-31-094-17W400            : Uwi          - UNIQUE WELL ID
ENTR.         JOETTE                         : Entered      - ENTERED BY
SRVC.         COMPUTALOG                     : Scn          - SERVICE COMPANY
DATE.         06/18/92                       : Date         - LOG DATE
STRT.M        90                             : top_depth    - START DEPTH
STOP.M        280                            : bot_depth    - STOP DEPTH
STEP.M        0.25                           : increment    - STEP LENGTH
 NULL. -999.2500:NULL Value
~CURVE INFORMATION BLOCK
#MNEM UNIT       ERCB CURVE CODE    CURVE DESCRIPTION
#-----------   ------------------   ----------------------------------
DEPT.M        00 001 00 00         : DEPTH        - DEPTH
CALI.MM       00 280 01 00         : CAL          - CALIPER
GR  .API      00 310 00 00         : GR           - GAMMA RAY
NPHI.V/V      00 330 00 00         : PHIN         - NEUTRON POROSITY (SANDSTONE)
DPHI.V/V      00 890 00 00         : PHID         - DENSITY POROSITY (SANDSTONE)
ILD .OHMM     00 120 00 00         : RESD         - DEEP RESISTIVITY (DIL)
~PARAMETER INFORMATION
#MNEM.UNIT           DATA             DESCRIPTION OF MNEMONIC
#---------         -----------     ------------------------------
GL  .M        538.3                : gl           - GROUND LEVEL ELEVATION
EREF.M        542.1                : kb           - ELEVATION OF DEPTH REFERENCE
DATM.M        542.1                : datum        - DATUM ELEVATION
TDD .M        281.4                : tdd          - TOTAL DEPTH DRILLER
RUN .         ONE                  : Run          - RUN NUMBER
ENG .         JO                   : Engineer     - RECORDING ENGINEER
WIT .         TIM                  : Witness      - WITNESSED BY
MUD .         GEL                  : Mud_type     - MUD TYPE
MATR.         SANDSTONE            : Logunit      - NEUTRON MATRIX
TMAX.C        25                   : BHT          - MAXIMUM RECORDED TEMPERATURE
BHTD.M        281.4                : BHTDEP       - MAXIMUM RECORDED TEMPERATURE
RMT .C        16                   : MDTP         - TEMPERATURE OF MUD
MUDD.KG/M     1100                 : MWT          - MUD DENSITY
NEUT.         1                    : NEUTRON      - NEUTRON TYPE
RESI.         0                    : RESIST       - RESISTIVITY TYPE
RM  .OHMM     4.1                  : RM           - RESISTIVITY OF MUD
RMC .OHMM     4.1                  : RMC          - RESISTIVITY OF MUD CAKE
RMF .OHMM     4.1                  : RMF          - RESISTIVITY OF MUD FILTRATE
SUFT.C        4                    : SUFT         - SURFACE TEMPERATURE
~A  DEPTH      CAL       GR     PHIN     PHID     RESD
   90.000  184.093   56.863    0.430    0.378   10.123
   90.250  189.277   60.570    0.441    0.367    9.951
   90.500  180.208   66.138    0.457    0.375    9.801
   90.750  169.127   66.194    0.442    0.383    9.811
   91.000  173.270   63.196    0.435    0.354    9.826
   91.250  174.405   59.587    0.428    0.348   10.043
   91.500  170.403   58.422    0.431    0.324   10.053
   91.750  168.461   60.936    0.438    0.349   10.265
   92.000  176.723   62.796    0.446    0.362   10.291
   92.250  178.853   65.310    0.449    0.371   10.313
   92.500  175.869   64.741    0.444    0.363   10.334
   92.750  172.909   64.201    0.435    0.348   10.163
   93.000  171.984   66.090    0.426    0.337    9.989
   93.250  173.120   69.811    0.427    0.353    9.641
   93.500  175.250   72.310    0.437    0.365    8.967
   93.750  177.379   71.145    0.465    0.364    8.494
   94.000  173.401   65.690    0.482    0.400    7.745
   94.250  175.508   65.746    0.469    0.404    7.066
   94.500  177.684   71.314    0.470    0.403    6.094
   94.750  172.641   76.257    0.485    0.418    5.457
   95.000  161.560   86.086    0.490    0.431    5.078
   95.250  158.576   89.822    0.462    0.373    4.989
   95.500  160.706   92.307    0.478    0.306    4.909
   95.750  163.878   95.446    0.504    0.275    5.109
   96.000  166.007   93.669    0.513    0.276    5.211
   96.250  167.119   90.644    0.475    0.270    6.071
   96.500  167.190   87.035    0.446    0.260    6.682
   96.750  167.283   83.426    0.432    0.256    7.350
   97.000  167.377   82.275    0.418    0.254    8.093
   97.250  166.453   84.760    0.409    0.258    7.524
   97.500  165.552   91.578    0.450    0.258    6.868
   97.750  164.605   91.606    0.493    0.254    6.622
   98.000  162.686   92.287    0.514    0.244    6.156
   98.250  161.785   94.190    0.477    0.240    5.722
   98.500  161.832   96.065    0.477    0.252    5.322
   98.750  161.949   99.786    0.494    0.265    5.039
   99.000  162.043  102.272    0.504    0.276    4.775
   99.250  162.137   99.899    0.510    0.273    4.785
   99.500  162.231   96.290    0.500    0.266    4.793
   99.750  162.325   95.125    0.471    0.261    4.542
  100.000  162.395   97.638    0.470    0.257    4.382
  100.250  164.525   98.277    0.476    0.258    4.150
  100.500  166.655   98.972    0.490    0.261    4.742
  100.750  167.790   97.168    0.473    0.260    7.180
  101.000  167.907   92.338    0.469    0.262    8.853
  101.250  167.954   78.331    0.478    0.257    9.739
  101.500  165.017   71.058    0.441    0.200   11.139
  101.750  162.057   72.336    0.427    0.165   11.368
  102.000  161.133   80.957    0.436    0.210   11.391
  102.250  163.263   76.113    0.450    0.267   11.409
  102.500  164.375   67.618    0.450    0.282   10.812
  102.750  164.492   62.177    0.451    0.300    9.864
  103.000  164.562   65.287    0.434    0.317    8.995
  103.250  164.703   72.673    0.447    0.291    7.617
  103.500  165.791   80.074    0.483    0.283    6.813
  103.750  166.927   85.016    0.508    0.278    5.250
  104.000  168.015   89.973    0.520    0.272    4.790
  104.250  170.168   91.237    0.505    0.271    4.623
  104.500  172.275   76.037    0.472    0.272    6.873
  104.750  173.363   71.804    0.444    0.266    7.565
  105.000  174.522   72.471    0.414    0.262    8.330
  105.250  173.574   74.970    0.420    0.258    7.600
  105.500  169.596   80.524    0.446    0.268    6.678
  105.750  165.618   85.481    0.460    0.268    6.087
  106.000  165.688   88.577    0.461    0.259    5.658
  106.250  165.805   94.145    0.458    0.255    5.777
  106.500  167.959   96.034    0.471    0.257    6.485
  106.750  169.047   98.533    0.479    0.258    6.872
  107.000  169.118   93.703    0.469    0.248    7.149
  107.250  169.258   80.918    0.459    0.243    7.441
  107.500  169.329   77.323    0.430    0.249    7.594
  107.750  165.350   80.420    0.418    0.255    7.468
  108.000  159.336   92.707    0.424    0.250    6.943
  108.250  160.448   95.817    0.451    0.258    6.104
  108.500  165.608   93.444    0.477    0.266    5.566
  108.750  167.738   90.432    0.472    0.261    5.075
  109.000  166.814   88.059    0.445    0.259    4.994
  109.250  164.895   85.672    0.438    0.257    5.096
  109.500  162.930   84.479    0.456    0.270    5.305
  109.750  162.052   82.092    0.483    0.284    5.313
  110.000  162.123   80.316    0.510    0.274    5.225
  110.250  163.211   82.815    0.481    0.262    4.857
  110.500  166.406   92.048    0.466    0.260    4.515
  110.750  167.494   93.326    0.477    0.273    4.358
  111.000  167.565   88.496    0.490    0.291    4.374
  111.250  166.687   87.330    0.520    0.284    4.381
  111.500  165.716   88.011    0.530    0.274    4.385
  111.750  162.779   91.733    0.498    0.265    4.564
  112.000  162.850   94.857    0.489    0.260    4.841
  112.250  163.962   95.496    0.467    0.263    4.940
  112.500  167.156   94.942    0.474    0.268    5.339
  112.750  168.245   88.279    0.487    0.260    5.767
  113.000  171.416   77.951    0.496    0.250    6.229
  113.250  170.515   70.053    0.505    0.238    6.986
  113.500  169.544   65.847    0.508    0.222    7.542
  113.750  162.535   67.736    0.480    0.189    8.781
  114.000  158.534   71.443    0.443    0.186    8.475
  114.250  159.669   77.622    0.441    0.252    7.588
  114.500  162.817   80.746    0.454    0.270    5.528
  114.750  164.947   82.038    0.460    0.268    5.335
  115.000  160.968   84.524    0.474    0.277    4.960
  115.250  156.990   87.620    0.494    0.277    4.610
  115.500  156.113   82.790    0.485    0.278    4.622
  115.750  157.154   61.453    0.469    0.286    5.186
  116.000  159.308   56.623    0.441    0.319    5.390
  116.250  162.455   53.625    0.426    0.331    6.279
  116.500  168.681   60.401    0.452    0.306    6.907
  116.750  170.764   78.796    0.457    0.290    7.750
  117.000  171.876   67.857    0.448    0.276    8.367
  117.250  167.897   61.180    0.420    0.268    9.388
  117.500  163.943   56.350    0.406    0.268   10.332
  117.750  162.995   53.963    0.390    0.272   11.812
  118.000  163.112   52.201    0.394    0.275   12.994
  118.250  164.224   50.411    0.408    0.301   13.027
  118.500  164.318   44.984    0.409    0.337   12.805
  118.750  163.370   42.583    0.398    0.344   12.359
  119.000  161.428   42.653    0.401    0.315   11.712
  119.250  159.509   45.749    0.406    0.297   11.512
  119.500  158.562   49.470    0.407    0.297   11.111
  119.750  158.702   53.816    0.401    0.307   10.724
  120.000  158.773   56.913    0.387    0.330   10.351
  120.250  158.843   55.748    0.386    0.328    9.809
  120.500  158.960   56.415    0.408    0.301    9.292
  120.750  159.031   60.164    0.445    0.300    9.133
  121.000  159.171   64.482    0.467    0.315    8.651
  121.250  159.218   69.425    0.462    0.312    8.042
  121.500  160.354   62.762    0.452    0.317    7.476
  121.750  161.442   62.208    0.447    0.328    6.691
  122.000  164.590   69.594    0.473    0.321    5.558
  122.250  167.761   83.713    0.490    0.293    4.704
  122.500  166.814   90.488    0.496    0.272    4.292
  122.750  165.913   95.445    0.491    0.273    4.065
  123.000  165.983   97.334    0.494    0.274    4.231
  123.250  166.077  100.430    0.520    0.265    4.659
  123.500  167.212   98.682    0.536    0.255    4.842
  123.750  169.366   96.267    0.529    0.249    5.332
  124.000  171.496   92.659    0.522    0.264    5.869
  124.250  173.602   88.453    0.508    0.271    6.218
  124.500  177.815   87.274    0.497    0.264    7.109
  124.750  177.885   84.901    0.481    0.267    7.824
  125.000  175.943   81.889    0.464    0.293    7.989
  125.250  170.947   77.059    0.433    0.292    7.864
  125.500  165.974   79.558    0.424    0.262    7.726
  125.750  165.003   86.348    0.447    0.258    7.318
  126.000  163.107   91.276    0.439    0.260    6.936
  126.250  163.178   93.776    0.444    0.265    6.698
