~VERSION INFORMATION
 VERS.                 2.0:   CWLS LOG ASCII STANDARD -VERSION 2.0
 WRAP.                  NO:   ONE LINE PER DEPTH STEP
~WELL INFORMATION BLOCK
#MNEM.UNIT           DATA                    DESCRIPTION OF MNEMONIC
#---------    -------------------            -------------------------------
# Generated from Intellog Unique Number	CN_91_93/WELL/3015
WELL.         PARAMOUNT RESOURCES LTD.       : Well_name    - WELL
LOC .         00/05-31-093-20W4/0            : Location     - LOCATION
UWI .         00/05-31-093-20W4/0            : Uwi          - UNIQUE WELL ID
ENTR.         JOETTE                         : Entered      - ENTERED BY
SRVC.         COMPUTALOG                     : Scn          - SERVICE COMPANY
DATE.         04/09/92                       : Date         - LOG DATE
STRT.M        150                            : top_depth    - START DEPTH
STOP.M        333                            : bot_depth    - STOP DEPTH
STEP.M        0.25                           : increment    - STEP LENGTH
 NULL. -999.2500:NULL Value
~CURVE INFORMATION BLOCK
#MNEM UNIT       ERCB CURVE CODE    CURVE DESCRIPTION
#-----------   ------------------   ----------------------------------
DEPT.M        00 001 00 00         : DEPTH        - DEPTH
CALI.MM       00 280 01 00         : CAL          - CALIPER
GR  .API      00 310 00 00         : GR           - GAMMA RAY
NPHI.V/V      00 330 00 00         : PHIN         - NEUTRON POROSITY (SANDSTONE)
DPHI.V/V      00 890 00 00         : PHID         - DENSITY POROSITY (SANDSTONE)
ILD .OHMM     00 120 00 00         : RESD         - DEEP RESISTIVITY (DIL)
~PARAMETER INFORMATION
#MNEM.UNIT           DATA             DESCRIPTION OF MNEMONIC
#---------         -----------     ------------------------------
GL  .M        638                  : gl           - GROUND LEVEL ELEVATION
EREF.M        641.4                : kb           - ELEVATION OF DEPTH REFERENCE
DATM.M        641.4                : datum        - DATUM ELEVATION
TDD .M        331.6                : tdd          - TOTAL DEPTH DRILLER
RUN .         ONE                  : Run          - RUN NUMBER
ENG .         BILL                 : Engineer     - RECORDING ENGINEER
WIT .         JIM                  : Witness      - WITNESSED BY
MUD .         GEL                  : Mud_type     - MUD TYPE
MATR.         SANDSTONE            : Logunit      - NEUTRON MATRIX
TMAX.C        29                   : BHT          - MAXIMUM RECORDED TEMPERATURE
BHTD.M        331.6                : BHTDEP       - MAXIMUM RECORDED TEMPERATURE
RMT .C        10                   : MDTP         - TEMPERATURE OF MUD
MUDD.KG/M     1150                 : MWT          - MUD DENSITY
NEUT.         1                    : NEUTRON      - NEUTRON TYPE
RESI.         0                    : RESIST       - RESISTIVITY TYPE
RM  .OHMM     4.7                  : RM           - RESISTIVITY OF MUD
RMC .OHMM     4.7                  : RMC          - RESISTIVITY OF MUD CAKE
RMF .OHMM     4.7                  : RMF          - RESISTIVITY OF MUD FILTRATE
SUFT.C        -20                  : SUFT         - SURFACE TEMPERATURE
~A  DEPTH      CAL       GR     PHIN     PHID     RESD
# ...
  223.000  175.373  106.207    0.452    0.256    4.013
  223.250  175.393  108.670    0.442    0.234    3.865
  223.500  175.405  106.538    0.433    0.237    3.828
  223.750  175.426  105.014    0.426    0.232    3.827
  224.000  174.423  103.493    0.472    0.229    3.899
  224.250  171.888  102.893    0.485    0.233    4.086
  224.500  171.907  101.372    0.473    0.241    4.281
  224.750  173.455   98.932    0.447    0.248    4.486
  225.000  175.007   97.719    0.437    0.252    4.745
  225.250  174.515   98.342    0.443    0.240    4.926
  225.500  175.047  100.499    0.494    0.225    5.113
  225.750  176.597  104.185    0.508    0.206    5.258
  226.000  174.570  110.937    0.474    0.209    5.307
  226.250  180.717  114.931    0.445    0.215    5.306
  226.500  182.269  111.878    0.427    0.194    5.305
  226.750  180.245  107.293    0.425    0.142    5.255
  227.000  174.644  110.981    0.438    0.176    5.108
  227.250  178.237  116.507    0.439    0.197    5.012
  227.500  180.298  115.907    0.446    0.203    4.872
  227.750  181.851  114.386    0.458    0.206    4.692
  228.000  181.359  117.461    0.464    0.209    4.604
  228.250  180.354  121.149    0.462    0.210    4.560
  228.500  178.840  120.853    0.452    0.204    4.602
  228.750  177.327  118.107    0.448    0.196    4.778
  229.000  176.326  117.200    0.449    0.195    4.959
  229.250  181.453  118.437    0.436    0.201    5.100
  229.500  180.959  121.512    0.440    0.202    5.099
  229.750  180.469  125.811    0.455    0.199    4.957
  230.000  181.506  127.048    0.460    0.194    4.773
  230.250  182.551  124.302    0.443    0.197    4.684
  230.500  184.099  121.861    0.438    0.204    4.639
  230.750  184.628  122.793    0.441    0.211    4.683
  231.000  184.649  124.334    0.467    0.215    4.770
  231.250  183.135  122.815    0.475    0.217    4.860
  231.500  177.534  123.134    0.473    0.213    4.905
  231.750  173.976  125.288    0.466    0.210    4.723
  232.000  173.994  121.929    0.446    0.207    4.592
  232.250  168.911  117.650    0.438    0.205    4.505
  232.500  167.903  115.210    0.446    0.205    4.421
  232.750  168.435  113.690    0.456    0.208    4.379
  233.000  169.472  112.476    0.458    0.208    4.378
  233.250  171.538  111.876    0.444    0.208    4.418
  233.500  172.065  111.272    0.444    0.213    4.501
  233.750  172.598  111.589    0.449    0.223    4.543
  234.000  172.102  110.989    0.452    0.247    4.542
  234.250  169.569  105.790    0.451    0.246    4.541
  234.500  166.524   98.141    0.449    0.239    4.541
  234.750  170.625   98.154    0.450    0.239    4.758
  235.000  170.646   94.180    0.440    0.244    5.033
  235.250  170.662   91.435    0.409    0.247    5.224
  235.500  172.215   97.879    0.402    0.247    5.322
  235.750  175.805  101.567    0.414    0.247    5.078
  236.000  175.826  107.399    0.428    0.250    4.665
  236.250  173.802  113.234    0.443    0.252    4.091
  236.500  172.288  112.019    0.455    0.255    3.759
  236.750  172.309  106.821    0.458    0.255    3.620
  237.000  172.836  101.317    0.461    0.253    3.653
  237.250  173.367  103.168    0.464    0.248    3.757
  237.500  173.383  102.260    0.460    0.242    3.937
  237.750  173.917  101.047    0.457    0.235    4.164
  238.000  175.465  100.445    0.437    0.224    4.446
  238.250  175.997   96.777    0.417    0.188    4.702
  238.500  172.436   85.451    0.394    0.115    4.974
  238.750  169.903   77.190    0.398    0.089    5.411
  239.000  171.962   84.861    0.424    0.137    5.777
  239.250  174.023   98.966    0.443    0.186    5.776
  239.500  170.467  105.717    0.439    0.216    5.615
  239.750  171.509  107.262    0.440    0.233    5.407
  240.000  174.083  110.029    0.446    0.240    5.356
  240.250  173.586  111.267    0.445    0.236    5.305
  240.500  172.586  108.522    0.441    0.231    5.304
  240.750  172.604  107.306    0.441    0.227    5.303
  241.000  173.644  108.544    0.446    0.223    5.155
  241.250  175.705  109.474    0.457    0.223    5.058
  241.500  177.768  109.485    0.470    0.223    4.964
  241.750  177.274  107.658    0.462    0.222    4.916
  242.000  173.210  106.444    0.447    0.223    5.103
  242.250  172.715  107.374    0.439    0.222    5.298
  242.500  173.759  106.159    0.429    0.229    5.551
  242.750  172.754  102.186    0.410    0.238    5.603
  243.000  169.706   97.295    0.408    0.243    5.654
  243.250  170.749   98.533    0.413    0.240    5.706
  243.500  172.297  100.382    0.410    0.224    5.759
  243.750  171.804  100.392    0.398    0.208    6.035
  244.000  173.865   97.033    0.398    0.198    6.444
  244.250  166.224   93.673    0.419    0.183    7.076
  244.500  175.434  100.731    0.420    0.213    7.142
  244.750  182.093   98.599    0.403    0.236    7.276
  245.000  178.029   95.546    0.403    0.232    7.482
  245.250  174.473   95.557    0.411    0.230    7.138
  245.500  170.915  101.390    0.417    0.234    6.621
  245.750  165.829  100.788    0.424    0.245    6.257
  246.000  171.973  104.782    0.432    0.246    5.859
  246.250  175.060  109.696    0.442    0.243    5.137
  246.500  175.584  113.996    0.456    0.236    4.546
  246.750  175.603  113.396    0.471    0.215    4.177
  247.000  175.623  112.488    0.481    0.207    4.023
  247.250  178.193  114.948    0.475    0.192    3.838
  247.500  182.299  118.943    0.461    0.191    3.731
  247.750  180.783  123.857    0.472    0.211    3.660
  248.000  182.333  122.030    0.483    0.204    3.626
  248.250  180.820  110.400    0.465    0.155    3.625
  248.500  173.689  104.893    0.450    0.083    3.659
  248.750  171.154   99.389    0.456    0.090    3.870
  249.000  166.577  110.739    0.469    0.164    4.055
  249.250  164.555  115.038    0.442    0.215    4.249
  249.500  164.576  114.132    0.430    0.227    4.248
  249.750  167.658  111.384    0.418    0.238    4.169
  250.000  170.460  110.031    0.437    0.243    3.962
  250.250  172.483  112.776    0.455    0.250    3.777
  250.500  172.972  110.309    0.449    0.246    3.774
  250.750  172.947  106.926    0.439    0.238    3.843
  251.000  172.927  104.767    0.442    0.229    3.986
  251.250  172.902  106.286    0.450    0.224    4.096
  251.500  173.390  110.564    0.459    0.225    4.131
  251.750  174.901  114.841    0.458    0.230    4.131
  252.000  179.475  116.665    0.446    0.225    4.164
  252.250  179.964  116.347    0.455    0.223    4.083
  252.500  178.409  121.237    0.469    0.225    4.005
  252.750  175.836  117.852    0.486    0.226    3.819
  253.000  172.740  112.016    0.469    0.221    3.675
  253.250  171.701  108.937    0.456    0.224    3.638
  253.500  172.695  111.682    0.462    0.235    3.704
  253.750  173.697  110.136    0.476    0.244    3.878
  254.000  173.164  110.121    0.477    0.240    4.100
  254.250  171.612  111.947    0.457    0.227    4.497
  254.500  170.057  112.548    0.433    0.219    4.710
  254.750  169.524  111.002    0.411    0.219    4.886
  255.000  169.499  106.698    0.407    0.222    5.021
  255.250  171.520  103.005    0.417    0.234    5.112
  255.500  173.544  106.365    0.418    0.235    5.204
  255.750  176.075  106.351    0.406    0.238    5.298
  256.000  175.539  101.737    0.397    0.239    5.146
  256.250  178.582  104.176    0.404    0.228    4.954
  256.500  178.051  110.600    0.421    0.222    4.680
  256.750  174.453  119.475    0.427    0.221    4.338
  257.000  173.409  122.834    0.432    0.222    4.098
  257.250  173.381  123.124    0.445    0.220    3.907
  257.500  173.362  120.969    0.444    0.220    3.833
  257.750  172.826  118.502    0.450    0.221    4.013
  258.000  172.298  116.649    0.452    0.219    4.322
  258.250  172.787  109.587    0.436    0.186    4.654
  258.500  174.808   99.766    0.409    0.215    5.059
  258.750  171.720   96.687    0.397    0.243    5.500
  259.000  178.336   96.368    0.414    0.236    5.705
  259.250  174.738   95.739    0.439    0.210    5.646
