~VERSION INFORMATION
 VERS.                 2.0:   CWLS LOG ASCII STANDARD -VERSION 2.0
 WRAP.                  NO:   ONE LINE PER DEPTH STEP
~WELL INFORMATION BLOCK
#MNEM.UNIT           DATA                    DESCRIPTION OF MNEMONIC
#---------    -------------------            -------------------------------
# Generated from Intellog Unique Number	CN_94_101/WELL/3206
WELL.         NORTHSTAR ENERGY CORP.         : Well_name    - WELL
LOC .         00/06-36-095-16W4/0            : Location     - LOCATION
UWI .         00/06-36-095-16W400            : Uwi          - UNIQUE WELL ID
ENTR.         JOETTE                         : Entered      - ENTERED BY
SRVC.         SCHLUMBERGER                   : Scn          - SERVICE COMPANY
DATE.         07/20/92                       : Date         - LOG DATE
STRT.M        200                            : top_depth    - START DEPTH
STOP.M        325                            : bot_depth    - STOP DEPTH
STEP.M        0.25                           : increment    - STEP LENGTH
 NULL. -999.2500:NULL Value
~CURVE INFORMATION BLOCK
#MNEM UNIT       ERCB CURVE CODE    CURVE DESCRIPTION
#-----------   ------------------   ----------------------------------
DEPT.M        00 001 00 00         : DEPTH        - DEPTH
GR  .API      00 310 00 00         : GR           - GAMMA RAY
NPHI.V/V      00 330 00 00         : PHIN         - NEUTRON POROSITY (SANDSTONE)
DPHI.V/V      00 890 00 00         : PHID         - DENSITY POROSITY (SANDSTONE)
ILD .OHMM     00 120 00 00         : RESD         - DEEP RESISTIVITY (DIL)
~PARAMETER INFORMATION
#MNEM.UNIT           DATA             DESCRIPTION OF MNEMONIC
#---------         -----------     ------------------------------
GL  .M        567.8                : gl           - GROUND LEVEL ELEVATION
EREF.M        571.4                : kb           - ELEVATION OF DEPTH REFERENCE
DATM.M        571.4                : datum        - DATUM ELEVATION
TDD .M        341                  : tdd          - TOTAL DEPTH DRILLER
RUN .         0.000000             : Run          - RUN NUMBER
MUD .         GEL                  : Mud_type     - MUD TYPE
MATR.         SANDSTONE            : Logunit      - NEUTRON MATRIX
TMAX.C        35                   : BHT          - MAXIMUM RECORDED TEMPERATURE
BHTD.M        341                  : BHTDEP       - MAXIMUM RECORDED TEMPERATURE
RMT .C        15                   : MDTP         - TEMPERATURE OF MUD
MUDD.KG/M     1088                 : MWT          - MUD DENSITY
NEUT.         1                    : NEUTRON      - NEUTRON TYPE
RESI.         0                    : RESIST       - RESISTIVITY TYPE
RM  .OHMM     0.25                 : RM           - RESISTIVITY OF MUD
RMC .OHMM     0.48                 : RMC          - RESISTIVITY OF MUD CAKE
RMF .OHMM     0.19                 : RMF          - RESISTIVITY OF MUD FILTRATE
SUFT.C        4                    : SUFT         - SURFACE TEMPERATURE
BTZC.MM       0                    : BITZC        - BIT SIZE CONSTANT
MDW .KG/M     0                    : MDW          - MUD WEIGHT
~A  DEPTH       GR     PHIN     PHID     RESD
  200.000  106.448    0.511    0.263    5.276
  200.250  104.027    0.488    0.269    5.675
  200.500  101.607    0.462    0.279    5.993
  200.750   98.581    0.467    0.267    6.102
  201.000   97.363    0.465    0.255    6.209
  201.250   94.942    0.453    0.245    6.318
  201.500   92.514    0.457    0.244    6.427
  201.750   93.091    0.463    0.258    6.418
  202.000   91.866    0.454    0.274    6.414
  202.250   89.431    0.445    0.291    6.404
  202.500   88.221    0.445    0.296    6.639
  202.750   87.594    0.446    0.284    6.755
  203.000   89.352    0.446    0.285    6.381
  203.250   91.117    0.458    0.282    6.258
  203.500   92.882    0.476    0.272    5.911
  203.750   93.458    0.490    0.261    5.584
  204.000   95.223    0.496    0.298    5.577
  204.250   96.989    0.485    0.321    5.890
  204.500   98.156    0.469    0.320    6.454
  204.750   92.745    0.447    0.320    7.343
  205.000   83.746    0.407    0.215    8.048
  205.250   74.748    0.408    0.219    8.500
  205.500   67.536    0.425    0.280    8.652
  205.750   66.909    0.450    0.313    8.326
  206.000   71.073    0.482    0.325    7.865
  206.250   80.612    0.469    0.299    7.158
  206.500   82.975    0.472    0.290    6.395
  206.750   84.741    0.488    0.290    5.713
  207.000   88.293    0.488    0.289    5.297
  207.250   90.663    0.485    0.283    5.002
  207.500   94.820    0.487    0.285    4.904
  207.750   96.578    0.491    0.305    4.899
  208.000   97.147    0.485    0.325    4.894
  208.250   95.324    0.476    0.325    4.979
  208.500   92.305    0.473    0.312    4.974
  208.750   89.294    0.479    0.282    5.155
  209.000   90.454    0.485    0.276    5.342
  209.250   92.817    0.491    0.279    5.439
  209.500   93.393    0.496    0.277    5.535
  209.750   94.561    0.487    0.268    5.737
  210.000   95.130    0.475    0.262    5.836
  210.250   93.300    0.467    0.245    6.048
  210.500   90.886    0.461    0.227    6.158
  210.750   86.066    0.453    0.208    6.264
  211.000   87.233    0.453    0.221    6.376
  211.250   91.398    0.486    0.240    6.134
  211.500  100.929    0.518    0.248    6.016
  211.750  102.702    0.528    0.249    5.681
  212.000  108.055    0.551    0.253    5.469
  212.250  111.614    0.561    0.250    5.164
  212.500  115.764    0.554    0.239    4.877
  212.750  119.928    0.490    0.231    4.696
  213.000  119.899    0.461    0.224    4.689
  213.250  115.086    0.431    0.209    4.862
  213.500  108.480    0.467    0.189    5.135
  213.750   96.491    0.511    0.206    5.128
  214.000  120.980    0.535    0.240    4.934
  214.250  123.343    0.545    0.247    4.747
  214.500  123.912    0.535    0.257    4.571
  214.750  123.883    0.513    0.263    4.480
  215.000  120.865    0.513    0.258    4.475
  215.250  120.821    0.510    0.254    4.552
  215.500  120.807    0.505    0.240    4.635
  215.750  120.778    0.488    0.236    4.893
  216.000  117.752    0.465    0.239    5.076
  216.250  114.733    0.457    0.247    5.461
  216.500  111.722    0.450    0.251    6.096
  216.750  127.839    0.446    0.250    6.810
  217.000  142.759    0.441    0.246    7.887
  217.250  146.318    0.427    0.243    8.181
  217.500  139.712    0.414    0.244    8.638
  217.750  131.311    0.402    0.243    9.119
  218.000  121.117    0.391    0.234    9.285
  218.250  102.543    0.398    0.223    9.268
  218.500   98.329    0.428    0.221    9.089
  218.750  100.692    0.433    0.224    8.584
  219.000   98.869    0.439    0.235    8.263
  219.250   97.046    0.456    0.239    8.103
  219.500   94.625    0.457    0.239    7.794
  219.750   90.403    0.448    0.239    7.787
  220.000   90.980    0.446    0.238    7.780
  220.250   94.539    0.436    0.239    8.062
  220.500   95.699    0.421    0.242    8.206
  220.750   93.278    0.411    0.238    8.507
  221.000   89.669    0.412    0.245    8.819
  221.250   86.052    0.415    0.253    8.973
  221.500   85.418    0.412    0.265    9.302
  221.750   87.183    0.410    0.260    9.643
  222.000   90.742    0.406    0.231    9.993
  222.250   94.899    0.405    0.229    9.987
  222.500   94.863    0.405    0.226    9.975
  222.750   94.251    0.407    0.223    9.964
  223.000   92.421    0.409    0.216   10.132
  223.250   91.794    0.410    0.215   10.316
  223.500   91.765    0.409    0.242   10.111
  223.750   92.932    0.406    0.249    9.913
  224.000   95.893    0.405    0.261    9.537
  224.250   97.068    0.407    0.264    9.181
  224.500   92.248    0.423    0.263    9.003
  224.750   89.827    0.434    0.260    8.662
  225.000   92.795    0.441    0.255    8.649
  225.250   96.945    0.439    0.248    8.641
  225.500   98.120    0.430    0.242    8.633
  225.750   97.493    0.421    0.236    8.459
  226.000   96.268    0.416    0.233    8.296
  226.250   96.239    0.421    0.240    8.136
  226.500   96.210    0.425    0.250    7.976
  226.750   92.586    0.422    0.257    7.818
  227.000   90.173    0.417    0.245    7.957
  227.250   90.144    0.425    0.206    8.249
  227.500   94.301    0.439    0.216    8.087
  227.750   98.458    0.450    0.239    7.640
  228.000  104.409    0.450    0.253    7.216
  228.250  110.958    0.437    0.261    7.621
  228.500  107.341    0.419    0.255    8.354
  228.750   98.343    0.408    0.220    8.988
  229.000   89.330    0.400    0.193    8.490
  229.250   88.098    0.391    0.196    7.171
  229.500   92.867    0.398    0.227    6.409
  229.750   96.434    0.444    0.249    5.513
  230.000  104.171    0.461    0.268    5.211
  230.250  102.947    0.490    0.265    4.655
  230.500   95.144    0.490    0.254    4.317
  230.750   92.125    0.466    0.246    4.311
  231.000   99.279    0.485    0.248    4.227
  231.250  107.017    0.509    0.258    3.916
  231.500  106.390    0.537    0.261    3.700
  231.750  105.764    0.512    0.259    3.562
  232.000  105.137    0.500    0.264    3.492
  232.250  103.314    0.482    0.280    3.828
  232.500   99.690    0.456    0.254    4.119
  232.750   96.679    0.447    0.221    5.048
  233.000   91.866    0.446    0.182    6.421
  233.250   88.840    0.441    0.152    8.166
  233.500   85.821    0.432    0.164    9.645
  233.750   89.986    0.437    0.197    9.814
  234.000  108.501    0.482    0.221    9.100
  234.250  112.651    0.491    0.224    8.130
  234.500  109.625    0.463    0.222    6.998
  234.750  106.614    0.442    0.224    6.728
  235.000  101.801    0.428    0.229    6.722
  235.250   98.768    0.427    0.235    6.842
  235.500  101.138    0.428    0.240    7.093
  235.750  102.903    0.428    0.238    7.355
  236.000  104.071    0.423    0.214    8.211
  236.250  104.042    0.409    0.212    8.514
  236.500  103.422    0.399    0.218    9.158
  236.750  103.386    0.397    0.225    9.496
  237.000  102.759    0.398    0.229    9.841
  237.250  102.140    0.400    0.229   10.202
  237.500  104.496    0.385    0.226   11.182
  237.750  102.680    0.366    0.169   12.257
  238.000   93.681    0.348    0.108   12.944
  238.250   91.859    0.348    0.092   13.167
  238.500   96.614    0.376    0.139   13.159
  238.750  103.163    0.382    0.182   12.902
  239.000  104.928    0.404    0.219   11.959
  239.250  104.294    0.418    0.221   11.509
  239.500  104.863    0.411    0.223   11.287
  239.750  104.834    0.402    0.223   11.066
  240.000  105.403    0.400    0.223   10.849
  240.250  105.382    0.403    0.219   10.836
  240.500  105.346    0.405    0.216   11.026
  240.750  105.324    0.408    0.214   11.216
  241.000  105.295    0.408    0.211   11.416
  241.250  105.857    0.402    0.210   11.617
  241.500  106.427    0.389    0.207   12.495
  241.750  106.996    0.369    0.197   13.204
  242.000  105.166    0.336    0.151   15.303
  242.250  100.958    0.314    0.129   18.401
  242.500   94.957    0.308    0.079   17.714
  242.750   87.752    0.320    0.152   16.425
  243.000   88.314    0.348    0.217   14.949
  243.250   93.076    0.375    0.237   13.606
