~VERSION INFORMATION
 VERS.                 2.0:   CWLS LOG ASCII STANDARD -VERSION 2.0
 WRAP.                  NO:   ONE LINE PER DEPTH STEP
~WELL INFORMATION BLOCK
#MNEM.UNIT           DATA                    DESCRIPTION OF MNEMONIC
#---------    -------------------            -------------------------------
# Generated from Intellog Unique Number	CX_WELLS/WELL/2574
WELL.         CHARD                          : Well_name    - WELL
LOC .         00/06-02-080-07W4/0            : Location     - LOCATION
UWI .         00/06-02-080-07W400            : Uwi          - UNIQUE WELL ID
ENTR.         T                              : Entered      - ENTERED BY
SRVC.         SCHLUMBERGER                   : Scn          - SERVICE COMPANY
STRT.M        140                            : top_depth    - START DEPTH
STOP.M        380                            : bot_depth    - STOP DEPTH
STEP.M        0.25                           : increment    - STEP LENGTH
 NULL. -999.2500:NULL Value
~CURVE INFORMATION BLOCK
#MNEM UNIT       ERCB CURVE CODE    CURVE DESCRIPTION
#-----------   ------------------   ----------------------------------
DEPT.M        00 001 00 00         : DEPTH        - DEPTH
GR  .API      00 310 00 00         : GR           - GAMMA RAY
NPHI.V/V      00 330 00 00         : PHIN         - NEUTRON POROSITY (SANDSTONE)
DPHI.V/V      00 890 00 00         : PHID         - DENSITY POROSITY (SANDSTONE)
ILD .OHMM     00 120 00 00         : RESD         - DEEP RESISTIVITY (DIL)
~PARAMETER INFORMATION
#MNEM.UNIT           DATA             DESCRIPTION OF MNEMONIC
#---------         -----------     ------------------------------
GL  .M        559.1                : gl           - GROUND LEVEL ELEVATION
EREF.M        562.7                : kb           - ELEVATION OF DEPTH REFERENCE
DATM.M        562.7                : datum        - DATUM ELEVATION
TDD .M        393.7                : tdd          - TOTAL DEPTH DRILLER
RUN .         ONE                  : Run          - RUN NUMBER
ENG .         BILL                 : Engineer     - RECORDING ENGINEER
WIT .         JIM                  : Witness      - WITNESSED BY
MUD .         GEL                  : Mud_type     - MUD TYPE
MATR.         SANDSTONE            : Logunit      - NEUTRON MATRIX
TMAX.C        20                   : BHT          - MAXIMUM RECORDED TEMPERATURE
BHTD.M        393                  : BHTDEP       - MAXIMUM RECORDED TEMPERATURE
MATR.         1                    : LOGUNIT      - NEUTRON MATRIX
RMT .C        20                   : MDTP         - TEMPERATURE OF MUD
NEUT.         1                    : NEUTRON      - NEUTRON TYPE
RESI.         5.65                 : RESIST       - RESISTIVITY TYPE
RMC .OHMM     6.4                  : RMC          - RESISTIVITY OF MUD CAKE
RMF .OHMM     5.2                  : RMF          - RESISTIVITY OF MUD FILTRATE
SUFT.C        3                    : SUFT         - SURFACE TEMPERATURE
~A  DEPTH       GR     PHIN     PHID     RESD
# ...
  183.500   93.097    0.471    0.330   17.994
  183.750   90.077    0.460    0.350   19.491
  184.000   88.307    0.445    0.322   21.094
  184.250   90.183    0.434    0.314   21.968
  184.500   92.696    0.436    0.301   21.583
  184.750   94.598    0.442    0.292   20.805
  185.000   94.651    0.444    0.277   19.662
  185.250   94.079    0.451    0.277   18.223
  185.500   92.908    0.466    0.282   17.544
  185.750   91.737    0.476    0.288   16.267
  186.000   89.342    0.447    0.296   15.982
  186.250   72.859    0.431    0.307   16.971
  186.500   57.002    0.430    0.318   20.258
  186.750   50.922    0.433    0.331   21.924
  187.000   43.632    0.433    0.342   25.183
  187.250   37.565    0.421    0.347   26.215
  187.500   41.289    0.375    0.352   27.313
  187.750   47.475    0.350    0.357   27.885
  188.000   51.798    0.344    0.359   27.396
  188.250   56.746    0.346    0.337   27.432
  188.500   64.168    0.352    0.324   26.444
  188.750   68.505    0.362    0.311   25.481
  189.000   72.216    0.389    0.298   23.606
  189.250   75.940    0.406    0.282   21.055
  189.500   80.290    0.401    0.263   19.506
  189.750   80.342    0.391    0.259   19.164
  190.000   74.875    0.371    0.288   20.376
  190.250   67.584    0.378    0.302   20.785
  190.500   60.906    0.390    0.306   22.071
  190.750   59.123    0.403    0.301   23.457
  191.000   59.788    0.407    0.303   23.948
  191.250   61.064    0.408    0.306   23.528
  191.500   64.788    0.405    0.301   21.817
  191.750   74.632    0.400    0.289   21.003
  192.000   79.580    0.406    0.281   19.101
  192.250   77.811    0.414    0.274   17.370
  192.500   88.878    0.425    0.267   16.401
  192.750   91.990    0.428    0.260   14.628
  193.000   95.728    0.435    0.250   13.818
  193.250   99.466    0.446    0.239   12.319
  193.500  100.716    0.457    0.219   11.418
  193.750  106.901    0.475    0.204   10.578
  194.000  110.625    0.489    0.214    9.249
  194.250  114.350    0.484    0.237    8.744
  194.500  110.731    0.480    0.245    8.927
  194.750  104.039    0.474    0.251    9.666
  195.000   96.137    0.469    0.271   11.316
  195.250   91.906    0.463    0.275   13.241
  195.500   90.123    0.455    0.305   14.336
  195.750   89.577    0.447    0.300   15.522
  196.000   91.466    0.441    0.276   15.854
  196.250   93.341    0.436    0.266   15.882
  196.500   97.678    0.436    0.259   15.022
  196.750  100.790    0.442    0.250   14.468
  197.000  105.140    0.453    0.250   13.673
  197.250  108.864    0.459    0.251   12.915
  197.500  111.364    0.459    0.251   11.529
  197.750  110.207    0.461    0.251   11.100
  198.000  106.601    0.471    0.252   10.695
  198.250  104.805    0.481    0.264   10.709
  198.500  102.995    0.490    0.293   10.938
  198.750   98.791    0.479    0.301   11.843
  199.000   96.995    0.464    0.298   13.336
  199.250   93.975    0.451    0.292   14.439
  199.500   91.593    0.439    0.290   15.031
  199.750   91.034    0.428    0.288   15.961
  200.000   92.922    0.427    0.287   16.302
  200.250   94.824    0.422    0.283   16.992
  200.500   96.700    0.419    0.282   17.348
  200.750   98.601    0.415    0.272   17.371
  201.000   99.852    0.414    0.252   17.401
  201.250  101.155    0.421    0.222   17.432
  201.500  101.221    0.458    0.212   16.481
  201.750  100.635    0.473    0.235   16.199
  202.000   98.266    0.456    0.240   15.901
  202.250   97.681    0.449    0.246   15.622
  202.500   96.497    0.443    0.255   15.348
  202.750   95.326    0.433    0.262   15.382
  203.000   91.707    0.433    0.200   15.409
  203.250   89.937    0.435    0.170   15.429
  203.500   91.227    0.425    0.156   14.867
  203.750   91.865    0.424    0.197   12.999
  204.000   92.530    0.449    0.216   11.147
  204.250   87.075    0.458    0.248    9.018
  204.500   82.233    0.480    0.259    8.693
  204.750   69.461    0.467    0.289   10.778
  205.000   67.665    0.428    0.329   13.632
  205.250   65.244    0.421    0.315   17.932
  205.500   62.237    0.417    0.298   21.815
  205.750   58.618    0.413    0.300   25.048
  206.000   57.447    0.412    0.306   26.097
  206.250   56.289    0.415    0.314   26.632
  206.500   56.329    0.421    0.322   27.736
  206.750   55.796    0.423    0.322   27.784
  207.000   55.224    0.416    0.322   28.948
  207.250   54.651    0.404    0.326   30.160
  207.500   53.480    0.404    0.333   30.792
  207.750   51.710    0.402    0.340   30.833
  208.000   51.151    0.401    0.346   30.886
  208.250   50.579    0.401    0.345   30.967
  208.500   50.632    0.401    0.343   30.994
  208.750   52.547    0.401    0.341   31.062
  209.000   53.198    0.400    0.341   31.116
  209.250   55.712    0.400    0.339   31.809
  209.500   56.962    0.401    0.339   31.837
  209.750   58.239    0.400    0.337   32.518
  210.000   58.904    0.404    0.331   32.575
  210.250   58.358    0.405    0.329   32.018
  210.500   58.397    0.392    0.328   30.271
  210.750   59.088    0.395    0.325   29.714
  211.000   59.141    0.401    0.326   28.631
  211.250   59.792    0.407    0.330   28.694
  211.500   59.858    0.412    0.331   29.308
  211.750   59.898    0.417    0.333   30.522
  212.000   60.576    0.414    0.336   32.425
  212.250   60.616    0.420    0.342   33.090
  212.500   60.695    0.426    0.348   33.797
  212.750   60.734    0.430    0.350   33.871
  213.000   60.774    0.439    0.350   33.930
  213.250   60.241    0.447    0.350   33.321
  213.500   60.267    0.433    0.349   33.379
  213.750   60.347    0.413    0.349   33.437
  214.000   60.386    0.411    0.346   33.495
  214.250   58.630    0.411    0.345   33.568
  214.500   58.044    0.411    0.338   33.627
  214.750   56.261    0.406    0.336   33.685
  215.000   55.676    0.392    0.333   33.759
  215.250   53.893    0.372    0.331   33.803
  215.500   52.735    0.379    0.332   33.847
  215.750   54.623    0.385    0.348   33.921
  216.000   57.124    0.401    0.361   33.965
  216.250   59.638    0.417    0.363   34.025
  216.500   60.901    0.417    0.361   33.443
  216.750   62.191    0.428    0.361   32.252
  217.000   62.869    0.437    0.361   32.266
  217.250   62.908    0.439    0.362   31.091
  217.500   61.152    0.438    0.364   30.559
  217.750   59.967    0.437    0.364   30.010
  218.000   58.770    0.434    0.364   30.075
  218.250   57.013    0.428    0.364   30.115
  218.500   56.441    0.425    0.369   30.194
  218.750   55.882    0.422    0.375   30.826
  219.000   55.921    0.427    0.376   31.486
  219.250   55.362    0.435    0.374   31.527
  219.500   54.191    0.441    0.372   31.596
  219.750   53.632    0.437    0.371   31.637
  220.000   53.086    0.429    0.370   31.706
  220.250   52.527    0.426    0.370   31.747
  220.500   51.356    0.424    0.369   31.816
  220.750   51.409    0.425    0.369   31.272
  221.000   52.060    0.428    0.369   30.697
  221.250   52.113    0.434    0.370   30.159
  221.500   52.205    0.440    0.374   29.630
  221.750   52.245    0.444    0.375   29.111
  222.000   52.271    0.444    0.376   29.162
  222.250   51.739    0.443    0.375   29.212
  222.500   51.778    0.443    0.375   29.837
  222.750   51.831    0.445    0.372   30.476
  223.000   51.884    0.447    0.371   30.542
  223.250   51.936    0.448    0.367   30.582
  223.500   51.989    0.448    0.363   30.072
  223.750   52.029    0.447    0.352   30.111
  224.000   52.095    0.448    0.333   29.584
  224.250   52.746    0.451    0.338   29.622
  224.500   52.812    0.455    0.367   29.700
  224.750   53.477    0.464    0.369   29.739
  225.000   53.530    0.470    0.368   29.791
  225.250   53.569    0.467    0.366   29.829
  225.500   54.234    0.451    0.366   29.306
  225.750   54.925    0.449    0.367   29.383
  226.000   55.563    0.448    0.366   29.422
  226.250   56.241    0.448    0.363   29.460
  226.500   56.893    0.445    0.362   28.969
  226.750   56.946    0.445    0.361   29.007
