~VERSION INFORMATION
 VERS.                 2.0:   CWLS LOG ASCII STANDARD -VERSION 2.0
 WRAP.                  NO:   ONE LINE PER DEPTH STEP
~WELL INFORMATION BLOCK
#MNEM.UNIT           DATA                    DESCRIPTION OF MNEMONIC
#---------    -------------------            -------------------------------
# Generated from Intellog Unique Number	CS_67_68/WELL/2171
WELL.         06-17-067-06W4                 : Well_name    - WELL
LOC .         00/06-17-067-06W4/0            : Location     - LOCATION
UWI .         00/06-17-067-06W4/0            : Uwi          - UNIQUE WELL ID
ENTR.         SP                             : Entered      - ENTERED BY
SRVC.         SCHLUMBERGER                   : Scn          - SERVICE COMPANY
STRT.M        330                            : top_depth    - START DEPTH
STOP.M        535                            : bot_depth    - STOP DEPTH
STEP.M        0.25                           : increment    - STEP LENGTH
 NULL. -999.2500:NULL Value
~CURVE INFORMATION BLOCK
#MNEM UNIT       ERCB CURVE CODE    CURVE DESCRIPTION
#-----------   ------------------   ----------------------------------
DEPT.M        00 001 00 00         : DEPTH        - DEPTH
ILD .OHMM     00 120 00 00         : RESD         - DEEP RESISTIVITY (DIL)
DPHI.V/V      00 890 00 00         : PHID         - DENSITY POROSITY (LIMESTONE)
NPHI.V/V      00 330 00 00         : PHIN         - NEUTRON POROSITY (LIMESTONE)
GR  .API      00 310 00 00         : GR           - GAMMA RAY
CALI.MM       00 280 01 00         : CAL          - CALIPER
~PARAMETER INFORMATION
#MNEM.UNIT           DATA             DESCRIPTION OF MNEMONIC
#---------         -----------     ------------------------------
GL  .M        653.87               : gl           - GROUND LEVEL ELEVATION
EREF.M        656.96               : kb           - ELEVATION OF DEPTH REFERENCE
DATM.M        656.96               : datum        - DATUM ELEVATION
TDD .M        545                  : tdd          - TOTAL DEPTH DRILLER
RUN .         ONE                  : Run          - RUN NUMBER
ENG .         BILL                 : Engineer     - RECORDING ENGINEER
WIT .         JIM                  : Witness      - WITNESSED BY
MUD .         GEL                  : Mud_type     - MUD TYPE
MATR.         LIMESTONE            : Logunit      - NEUTRON MATRIX
TMAX.C        21                   : BHT          - MAXIMUM RECORDED TEMPERATURE
BHTD.M        545.5                : BHTDEP       - MAXIMUM RECORDED TEMPERATURE
MATR.         1                    : LOGUNIT      - NEUTRON MATRIX
RMT .C        25                   : MDTP         - TEMPERATURE OF MUD
NEUT.         1                    : NEUTRON      - NEUTRON TYPE
RESI.         0                    : RESIST       - RESISTIVITY TYPE
RMC .OHMM     0.25                 : RMC          - RESISTIVITY OF MUD CAKE
RMF .OHMM     0.25                 : RMF          - RESISTIVITY OF MUD FILTRATE
SUFT.C        15                   : SUFT         - SURFACE TEMPERATURE
~A  DEPTH     RESD     PHID     PHIN       GR      CAL
# ...
  439.500    4.914    0.309    0.409   59.886  157.043
  439.750    4.878    0.314    0.411   59.719  157.480
  440.000    4.832    0.312    0.411   58.395  157.816
  440.250    4.788    0.311    0.419   58.048  157.640
  440.500    4.743    0.313    0.430   59.955  156.555
  440.750    4.691    0.314    0.422   62.167  156.685
  441.000    4.595    0.310    0.416   62.489  157.426
  441.250    4.527    0.308    0.413   62.386  158.470
  441.500    4.418    0.308    0.405   61.427  159.718
  441.750    4.280    0.308    0.417   61.019  160.868
  442.000    4.130    0.308    0.431   64.266  161.202
  442.250    4.023    0.306    0.434   67.333  160.521
  442.500    3.941    0.308    0.418   67.107  159.328
  442.750    3.890    0.311    0.422   68.587  158.243
  443.000    3.876    0.315    0.430   66.166  157.358
  443.250    3.994    0.318    0.424   66.187  156.780
  443.500    4.078    0.321    0.423   69.067  156.400
  443.750    4.071    0.323    0.427   71.219  156.431
  444.000    4.026    0.322    0.431   66.909  157.070
  444.250    3.996    0.324    0.442   65.157  157.300
  444.500    4.027    0.329    0.448   65.237  157.637
  444.750    4.042    0.332    0.436   66.961  158.173
  445.000    4.166    0.333    0.425   66.492  158.512
  445.250    4.509    0.331    0.429   69.009  158.542
  445.500    4.862    0.327    0.437   72.439  158.775
  445.750    5.262    0.296    0.431   68.252  159.104
  446.000    5.475    0.275    0.371   65.160  159.134
  446.250    5.204    0.282    0.318   62.983  159.467
  446.500    4.928    0.316    0.316   61.051  159.807
  446.750    4.546    0.331    0.358   61.435  160.240
  447.000    4.362    0.337    0.394   64.012  160.471
  447.250    4.281    0.327    0.433   67.444  160.501
  447.500    4.250    0.315    0.448   70.996  160.433
  447.750    4.203    0.303    0.443   77.658  160.768
  448.000    4.195    0.293    0.442   83.711  161.203
  448.250    4.283    0.285    0.441   87.081  161.533
  448.500    4.349    0.279    0.459   87.281  162.175
  448.750    4.374    0.273    0.455   86.995  160.579
  449.000    4.317    0.253    0.435   88.963  161.014
  449.250    4.111    0.238    0.455   89.104  164.295
  449.500    3.646    0.233    0.474   88.815  165.948
  449.750    3.281    0.238    0.464   88.224  165.065
  450.000    2.921    0.236    0.450   89.157  163.469
  450.250    2.416    0.234    0.447   90.454  162.380
  450.500    2.845    0.232    0.449   90.837  162.415
  450.750    3.240    0.228    0.446   90.732  162.439
  451.000    3.526    0.223    0.441   92.518  162.368
  451.250    3.703    0.224    0.444   94.609  163.107
  451.500    3.384    0.229    0.452   94.808  165.271
  451.750    2.788    0.246    0.491   94.339  165.604
  452.000    2.468    0.261    0.519   94.844  163.501
  452.250    2.259    0.259    0.533   96.510  166.578
  452.500    2.148    0.259    0.552   98.233  170.875
  452.750    2.132    0.265    0.559   99.834  175.171
  453.000    2.152    0.257    0.563   99.793  178.653
  453.250    2.185    0.250    0.514   98.773  182.137
  453.500    2.214    0.267    0.492   95.623  185.621
  453.750    2.235    0.329    0.517   90.824  181.894
  454.000    2.223    0.352    0.542   87.366  175.119
  454.250    2.211    0.326    0.554   92.505  169.866
  454.500    2.253    0.320    0.562   93.072  167.353
  454.750    2.416    0.338    0.569   90.346  169.108
  455.000    2.659    0.327    0.580   93.838  175.133
  455.250    2.894    0.284    0.574   93.673  178.615
  455.500    3.216    0.318    0.572   89.243  181.388
  455.750    3.621    0.338    0.569   87.307  176.642
  456.000    3.963    0.332    0.526   84.889  169.156
  456.250    4.306    0.300    0.487   83.259  164.005
  456.500    4.660    0.277    0.472   78.279  161.393
  456.750    5.063    0.288    0.472   74.761  159.695
  457.000    5.459    0.299    0.494   72.585  160.129
  457.250    5.787    0.294    0.511   74.189  160.668
  457.500    6.089    0.283    0.447   75.974  160.900
  457.750    6.407    0.272    0.435   77.759  160.623
  458.000    6.604    0.269    0.440   79.179  159.739
  458.250    6.530    0.271    0.452   79.927  159.367
  458.500    6.313    0.269    0.467   78.420  159.191
  458.750    6.255    0.258    0.490   74.415  159.016
  459.000    6.220    0.193    0.455   71.081  158.944
  459.250    6.048    0.207    0.390   71.220  158.871
  459.500    5.600    0.236    0.396   73.190  158.599
  459.750    5.254    0.263    0.433   75.340  158.218
  460.000    4.957    0.279    0.459   77.125  157.641
  460.250    4.846    0.271    0.469   77.813  156.958
  460.500    4.829    0.257    0.459   78.440  156.176
  460.750    4.829    0.247    0.436   79.496  155.900
  461.000    4.785    0.248    0.431   78.415  155.726
  461.250    4.714    0.258    0.444   78.433  155.456
  461.500    4.523    0.265    0.450   81.071  155.480
  461.750    4.398    0.258    0.453   83.223  155.205
  462.000    4.341    0.253    0.452   83.546  155.234
  462.250    4.341    0.251    0.451   83.869  155.060
  462.500    4.374    0.253    0.451   83.276  155.295
  462.750    4.433    0.258    0.450   79.697  155.428
  463.000    4.475    0.262    0.445   79.655  155.661
  463.250    4.492    0.258    0.439   82.111  155.891
  463.500    4.604    0.259    0.435   82.737  156.124
  463.750    4.817    0.259    0.457   72.698  156.253
  464.000    4.937    0.148    0.476   63.145  156.489
  464.250    5.003    0.068    0.258   55.972  156.722
  464.500    4.919    0.079    0.266   60.804  157.260
  464.750    4.747    0.172    0.350   72.770  157.798
  465.000    4.504    0.225    0.408   83.577  158.132
  465.250    4.314    0.246    0.468   91.273  158.768
  465.500    4.155    0.251    0.472   92.510  159.203
  465.750    4.017    0.253    0.460   85.459  159.640
  466.000    3.943    0.241    0.450   83.647  159.877
  466.250    3.906    0.236    0.457   87.138  160.311
  466.500    3.921    0.238    0.462   90.509  160.548
  466.750    3.981    0.244    0.466   90.771  160.877
  467.000    4.050    0.251    0.452   88.045  160.905
  467.250    4.065    0.255    0.439   86.234  161.037
  467.500    4.051    0.257    0.432   84.788  161.378
  467.750    3.983    0.252    0.444   87.732  161.704
  468.000    3.954    0.247    0.465   86.957  162.648
  468.250    3.984    0.249    0.481   85.147  164.001
  468.500    4.014    0.248    0.467   86.996  164.942
  468.750    3.985    0.246    0.475   88.781  166.393
  469.000    3.933    0.246    0.460   89.652  167.134
  469.250    3.882    0.247    0.452   90.094  167.978
  469.500    3.839    0.244    0.448   90.479  168.312
  469.750    3.796    0.239    0.454   88.852  168.341
  470.000    3.733    0.231    0.447   87.100  168.269
  470.250    3.650    0.231    0.462   87.424  168.095
  470.500    3.603    0.238    0.478   89.513  167.414
  470.750    3.549    0.240    0.472   92.094  166.732
  471.000    3.570    0.240    0.460   93.753  165.850
  471.250    3.590    0.239    0.459   93.040  165.171
  471.500    3.591    0.243    0.460   90.924  164.891
  471.750    3.604    0.250    0.456   90.576  164.412
  472.000    3.625    0.251    0.440   90.961  163.730
  472.250    3.626    0.240    0.431   91.161  163.763
  472.500    3.612    0.230    0.432   91.849  163.587
  472.750    3.566    0.222    0.449   93.451  163.821
  473.000    3.493    0.224    0.463   92.677  164.157
  473.250    3.441    0.224    0.459   91.841  164.487
  473.500    3.467    0.226    0.455   90.761  164.620
  473.750    3.494    0.232    0.459   87.122  164.854
  474.000    3.534    0.232    0.466   85.190  165.086
  474.250    3.548    0.242    0.472   82.585  165.115
  474.500    3.502    0.247    0.461   85.836  164.737
  474.750    3.495    0.244    0.456   89.266  164.361
  475.000    3.549    0.247    0.468   91.660  163.881
  475.250    3.610    0.241    0.463   90.885  163.303
  475.500    3.699    0.234    0.474   86.758  162.927
  475.750    3.863    0.256    0.514   85.923  162.346
