~VERSION INFORMATION
 VERS.                 2.0:   CWLS LOG ASCII STANDARD -VERSION 2.0
 WRAP.                  NO:   ONE LINE PER DEPTH STEP
~WELL INFORMATION BLOCK
#MNEM.UNIT           DATA                    DESCRIPTION OF MNEMONIC
#---------    -------------------            -------------------------------
# Generated from Intellog Unique Number	CS_73_76/WELL/641
WELL.         BOW VALLEY INDUSTRIES LTD      : Well_name    - WELL
LOC .         00/06-24-073-17W4/0            : Location     - LOCATION
UWI .         00/06-24-073-17W4/0            : Uwi          - UNIQUE WELL ID
ENTR.         SP                             : Entered      - ENTERED BY
SRVC.         SCHLUMBERGER                   : Scn          - SERVICE COMPANY
STRT.M        237.744                        : top_depth    - START DEPTH
STOP.M        426.494                        : bot_depth    - STOP DEPTH
STEP.M        0.25                           : increment    - STEP LENGTH
 NULL. -999.2500:NULL Value
~CURVE INFORMATION BLOCK
#MNEM UNIT       ERCB CURVE CODE    CURVE DESCRIPTION
#-----------   ------------------   ----------------------------------
DEPT.M        00 001 00 00         : DEPTH        - DEPTH
GR  .API      00 310 00 00         : GR           - GAMMA RAY
DPHI.V/V      00 890 00 00         : PHID         - DENSITY POROSITY (SANDSTONE)
NPHI.V/V      00 330 00 00         : PHIN         - NEUTRON POROSITY (SANDSTONE)
ILD .OHMM     00 120 00 00         : RESD         - DEEP RESISTIVITY (DIL)
~PARAMETER INFORMATION
#MNEM.UNIT           DATA             DESCRIPTION OF MNEMONIC
#---------         -----------     ------------------------------
GL  .M        571.988              : gl           - GROUND LEVEL ELEVATION
EREF.M        574.853              : kb           - ELEVATION OF DEPTH REFERENCE
DATM.M        571.988              : datum        - DATUM ELEVATION
TDD .M        427.939              : tdd          - TOTAL DEPTH DRILLER
RUN .         ONE                  : Run          - RUN NUMBER
ENG .         BILL                 : Engineer     - RECORDING ENGINEER
WIT .         JIM                  : Witness      - WITNESSED BY
MUD .         GEL                  : Mud_type     - MUD TYPE
MATR.         SANDSTONE            : Logunit      - NEUTRON MATRIX
TMAX.C        24.4444              : BHT          - MAXIMUM RECORDED TEMPERATURE
BHTD.M        427.939              : BHTDEP       - MAXIMUM RECORDED TEMPERATURE
MATR.         1                    : LOGUNIT      - NEUTRON MATRIX
RMT .C        25                   : MDTP         - TEMPERATURE OF MUD
NEUT.         1                    : NEUTRON      - NEUTRON TYPE
RESI.         0                    : RESIST       - RESISTIVITY TYPE
RMC .OHMM     0.25                 : RMC          - RESISTIVITY OF MUD CAKE
RMF .OHMM     0.25                 : RMF          - RESISTIVITY OF MUD FILTRATE
SUFT.C        15                   : SUFT         - SURFACE TEMPERATURE
~A  DEPTH       GR     PHID     PHIN     RESD
  237.744  104.588    0.233    0.555    3.085
  237.994  103.325    0.223    0.542    3.085
  238.244  100.533    0.228    0.527    3.085
  238.494   97.561    0.217    0.515    3.081
  238.744   96.449    0.202    0.513    3.140
  238.994   96.948    0.207    0.526    3.204
  239.244   96.939    0.216    0.539    3.198
  239.494   96.088    0.239    0.518    3.213
  239.744   94.475    0.238    0.516    3.470
  239.994   91.559    0.293    0.529    3.766
  240.244   82.471    0.328    0.538    4.519
  240.494   76.469    0.356    0.553    5.287
  240.744   70.355    0.352    0.414    6.666
  240.994   66.754    0.339    0.350    8.516
  241.244   66.539    0.347    0.303    9.846
  241.494   66.565    0.390    0.301    9.276
  241.744   66.665    0.384    0.336    8.223
  241.994   67.723    0.369    0.384    7.516
  242.244   68.977    0.354    0.422    6.908
  242.494   71.014    0.338    0.446    6.664
  242.744   72.096    0.326    0.465    6.465
  242.994   71.460    0.315    0.445    6.322
  243.244   70.146    0.320    0.438    6.199
  243.494   69.595    0.317    0.435    6.205
  243.744   70.485    0.308    0.438    6.203
  243.994   72.085    0.324    0.444    6.201
  244.244   75.707    0.338    0.453    6.187
  244.494   78.677    0.323    0.462    6.320
  244.744   83.303    0.310    0.471    6.425
  244.994   86.886    0.283    0.479    6.419
  245.244   91.914    0.297    0.485    6.583
  245.494   96.299    0.298    0.490    6.667
  245.744   97.979    0.280    0.470    6.872
  245.994   97.171    0.283    0.462    6.928
  246.244   94.117    0.285    0.451    7.163
  246.494   91.443    0.265    0.445    7.216
  246.744   92.598    0.239    0.445    7.449
  246.994   94.391    0.244    0.442    7.543
  247.244   96.711    0.228    0.434    7.567
  247.494   99.151    0.222    0.430    7.724
  247.744   98.524    0.248    0.423    7.567
  247.994   95.475    0.255    0.422    7.579
  248.244   91.613    0.253    0.440    7.580
  248.494   87.093    0.273    0.456    7.574
  248.744   82.598    0.265    0.444    7.557
  248.994   78.636    0.236    0.419    7.441
  249.244   74.316    0.261    0.410    7.234
  249.494   69.809    0.269    0.401    7.020
  249.744   66.943    0.281    0.398    6.896
  249.994   63.101    0.271    0.393    6.858
  250.244   59.218    0.242    0.388    6.777
  250.494   60.880    0.229    0.390    6.775
  250.744   65.825    0.221    0.391    6.773
  250.994   67.178    0.235    0.382    6.776
  251.244   65.704    0.241    0.388    6.504
  251.494   69.667    0.214    0.405    6.265
  251.744   74.654    0.192    0.423    6.084
  251.994   78.063    0.219    0.436    5.790
  252.244   88.526    0.223    0.448    5.370
  252.494   98.431    0.192    0.461    5.067
  252.744  104.342    0.141    0.475    4.714
  252.994  108.555    0.156    0.498    4.497
  253.244  110.370    0.167    0.519    4.376
  253.494  113.943    0.175    0.530    4.149
  253.744  116.819    0.198    0.542    4.034
  253.994  119.760    0.194    0.537    3.789
  254.244  122.568    0.189    0.528    3.656
  254.494  125.163    0.194    0.539    3.607
  254.744  123.935    0.192    0.552    3.609
  254.994  122.613    0.179    0.545    3.619
  255.244  120.983    0.154    0.535    3.621
  255.494  122.915    0.184    0.532    3.486
  255.744  124.890    0.212    0.528    3.277
  255.994  125.576    0.214    0.539    3.227
  256.244  124.488    0.223    0.551    3.260
  256.494  124.169    0.233    0.561    3.544
  256.744  121.634    0.215    0.528    4.136
  256.994  115.386    0.217    0.498    4.885
  257.244  110.630    0.218    0.475    5.806
  257.494  107.268    0.214    0.451    6.363
  257.744  107.225    0.219    0.449    6.774
  257.994  109.872    0.221    0.441    7.111
  258.244  108.735    0.213    0.452    7.265
  258.494  105.827    0.213    0.465    7.413
  258.744   97.236    0.225    0.488    8.022
  258.994   89.915    0.209    0.462    8.460
  259.244   84.793    0.199    0.456    9.081
  259.494   82.756    0.227    0.466    9.476
  259.744   82.323    0.231    0.473    9.854
  259.994   78.973    0.227    0.474   10.495
  260.244   75.751    0.266    0.486   10.831
  260.494   73.265    0.282    0.492   10.884
  260.744   75.918    0.284    0.489   10.886
  260.994   77.284    0.281    0.477   10.868
  261.244   77.045    0.265    0.467   11.130
  261.494   73.377    0.264    0.475   11.472
  261.744   71.037    0.281    0.485   11.927
  261.994   68.679    0.322    0.501   12.425
  262.244   70.466    0.305    0.471   13.034
  262.494   71.913    0.282    0.458   13.365
  262.744   71.312    0.272    0.455   13.070
  262.994   73.699    0.279    0.450   12.541
  263.244   79.262    0.276    0.434   11.853
  263.494   83.891    0.286    0.436   11.289
  263.744   87.227    0.286    0.454   10.686
  263.994   88.314    0.279    0.475   10.429
  264.244   85.303    0.279    0.464    9.744
  264.494   85.920    0.270    0.454    9.594
  264.744   90.321    0.233    0.458    8.822
  264.994   91.882    0.215    0.458    8.454
  265.244   90.804    0.204    0.427    7.937
  265.494   92.657    0.217    0.418    7.624
  265.744   99.050    0.230    0.437    7.361
  265.994  106.077    0.241    0.458    7.179
  266.244  113.383    0.238    0.474    6.966
  266.494  116.076    0.237    0.473    6.883
  266.744  116.523    0.231    0.451    6.850
  266.994  120.357    0.223    0.433    6.712
  267.244  121.653    0.205    0.430    6.848
  267.494  112.885    0.214    0.438    6.829
  267.744  103.643    0.226    0.460    6.946
  267.994   94.966    0.236    0.472    7.004
  268.244   87.930    0.241    0.444    7.222
  268.494   87.202    0.238    0.426    7.324
  268.744   89.801    0.213    0.427    7.335
  268.994   92.721    0.207    0.427    7.491
  269.244   96.077    0.206    0.422    7.585
  269.494   99.281    0.213    0.414    7.630
  269.744  100.993    0.210    0.404    7.489
  269.994  103.617    0.202    0.410    7.184
  270.244  105.455    0.198    0.432    6.688
  270.494  106.335    0.204    0.451    5.922
  270.744  105.614    0.221    0.467    5.313
  270.994   97.095    0.238    0.487    4.933
  271.244   88.164    0.266    0.510    5.532
  271.494   83.960    0.269    0.480    5.991
  271.744   83.158    0.271    0.495    6.347
  271.994   82.132    0.275    0.482    6.544
  272.244   81.855    0.281    0.483    6.562
  272.494   81.469    0.286    0.498    6.565
  272.744   81.054    0.279    0.501    6.436
  272.994   82.048    0.273    0.489    6.436
  273.244   86.683    0.250    0.485    6.558
  273.494   91.289    0.255    0.487    6.563
  273.744   95.130    0.258    0.486    6.584
  273.994   97.487    0.265    0.468    6.684
  274.244   98.458    0.266    0.448    6.620
  274.494   97.091    0.260    0.431    6.551
  274.744   97.548    0.226    0.420    6.344
  274.994   99.749    0.225    0.421    6.139
  275.244  105.115    0.225    0.429    5.538
  275.494  109.245    0.209    0.446    5.386
  275.744  110.883    0.227    0.450    5.232
  275.994  105.692    0.241    0.466    5.443
  276.244   99.866    0.244    0.480    5.911
  276.494   95.260    0.245    0.483    6.507
  276.744   93.153    0.238    0.477    6.771
  276.994   90.520    0.228    0.477    7.279
  277.244   88.490    0.235    0.481    7.475
  277.494   89.019    0.244    0.475    7.127
  277.744   92.699    0.221    0.473    6.740
  277.994   95.612    0.201    0.480    6.406
  278.244   97.388    0.227    0.487    6.307
  278.494   94.715    0.232    0.490    6.343
  278.744   90.152    0.224    0.484    6.546
  278.994   87.135    0.233    0.472    6.969
  279.244   83.131    0.252    0.454    7.213
  279.494   79.068    0.267    0.443    7.430
  279.744   74.817    0.274    0.443    7.829
  279.994   73.252    0.265    0.447    7.861
  280.244   79.114    0.254    0.455    7.871
  280.494   83.695    0.246    0.467    7.657
  280.744   88.202    0.236    0.474    7.271
  280.994   90.255    0.226    0.465    7.076
