~VERSION INFORMATION
 VERS.                 2.0:   CWLS LOG ASCII STANDARD -VERSION 2.0
 WRAP.                  NO:   ONE LINE PER DEPTH STEP
~WELL INFORMATION BLOCK
#MNEM.UNIT           DATA                    DESCRIPTION OF MNEMONIC
#---------    -------------------            -------------------------------
# Generated from Intellog Unique Number	CS_69_70/WELL/855
WELL.         ET AL HEART LAKE               : Well_name    - WELL
LOC .         00/09-09-069-09W4/0            : Location     - LOCATION
UWI .         00/09-09-069-09W4/0            : Uwi          - UNIQUE WELL ID
ENTR.         SP                             : Entered      - ENTERED BY
SRVC.         SCHLUMBERGER                   : Scn          - SERVICE COMPANY
STRT.M        400                            : top_depth    - START DEPTH
STOP.M        635                            : bot_depth    - STOP DEPTH
STEP.M        0.25                           : increment    - STEP LENGTH
 NULL. -999.2500:NULL Value
~CURVE INFORMATION BLOCK
#MNEM UNIT       ERCB CURVE CODE    CURVE DESCRIPTION
#-----------   ------------------   ----------------------------------
DEPT.M        00 001 00 00         : DEPTH        - DEPTH
ILD .OHMM     00 120 00 00         : RESD         - DEEP RESISTIVITY (DIL)
DPHI.V/V      00 890 00 00         : PHID         - DENSITY POROSITY (LIMESTONE)
NPHI.V/V      00 330 00 00         : PHIN         - NEUTRON POROSITY (LIMESTONE)
GR  .API      00 310 00 00         : GR           - GAMMA RAY
~PARAMETER INFORMATION
#MNEM.UNIT           DATA             DESCRIPTION OF MNEMONIC
#---------         -----------     ------------------------------
GL  .M        743.29               : gl           - GROUND LEVEL ELEVATION
EREF.M        746.5                : kb           - ELEVATION OF DEPTH REFERENCE
DATM.M        743.29               : datum        - DATUM ELEVATION
TDD .M        640                  : tdd          - TOTAL DEPTH DRILLER
RUN .         ONE                  : Run          - RUN NUMBER
ENG .         BILL                 : Engineer     - RECORDING ENGINEER
WIT .         JIM                  : Witness      - WITNESSED BY
MUD .         GEL                  : Mud_type     - MUD TYPE
MATR.         LIMESTONE            : Logunit      - NEUTRON MATRIX
TMAX.C        23.3                 : BHT          - MAXIMUM RECORDED TEMPERATURE
BHTD.M        640                  : BHTDEP       - MAXIMUM RECORDED TEMPERATURE
MATR.         1                    : LOGUNIT      - NEUTRON MATRIX
RMT .C        25                   : MDTP         - TEMPERATURE OF MUD
NEUT.         1                    : NEUTRON      - NEUTRON TYPE
RESI.         0                    : RESIST       - RESISTIVITY TYPE
RMC .OHMM     0.25                 : RMC          - RESISTIVITY OF MUD CAKE
RMF .OHMM     0.25                 : RMF          - RESISTIVITY OF MUD FILTRATE
SUFT.C        15                   : SUFT         - SURFACE TEMPERATURE
~A  DEPTH     RESD     PHID     PHIN       GR
# ...
  487.000    5.592    0.313    0.400   59.852
  487.250    5.582    0.308    0.399   65.124
  487.500    5.530    0.315    0.395   75.974
  487.750    5.519    0.291    0.391   89.068
  488.000    5.519    0.253    0.396  101.131
  488.250    5.499    0.212    0.391  108.040
  488.500    5.519    0.214    0.387  102.398
  488.750    5.561    0.247    0.389   94.270
  489.000    5.623    0.264    0.395   91.176
  489.250    5.697    0.281    0.402   87.718
  489.500    5.805    0.274    0.406   89.594
  489.750    5.936    0.262    0.406   92.380
  490.000    6.026    0.246    0.408   91.771
  490.250    6.059    0.228    0.411   79.764
  490.500    6.026    0.273    0.430   71.212
  490.750    5.936    0.297    0.431   65.025
  491.000    5.826    0.313    0.428   68.599
  491.250    5.794    0.322    0.434   73.265
  491.500    5.772    0.306    0.439   77.385
  491.750    5.719    0.288    0.441   78.110
  492.000    5.623    0.300    0.436   86.111
  492.250    4.674    0.284    0.406   94.050
  492.500    3.800    0.259    0.400  101.687
  492.750    3.272    0.232    0.414  107.747
  493.000    2.567    0.209    0.466  114.899
  493.250    2.186    0.234    0.558  120.656
  493.500    1.995    0.246    0.574  114.711
  493.750    2.261    0.246    0.559  109.616
  494.000    2.558    0.259    0.554  103.732
  494.250    2.948    0.270    0.541   99.667
  494.500    3.242    0.267    0.513   95.966
  494.750    3.619    0.267    0.477   96.388
  495.000    4.064    0.259    0.462   93.717
  495.250    4.346    0.259    0.461   90.804
  495.500    4.554    0.279    0.460   84.981
  495.750    4.898    0.300    0.457   78.672
  496.000    5.103    0.313    0.452   73.880
  496.250    5.268    0.325    0.455   70.906
  496.500    5.317    0.331    0.447   69.630
  496.750    5.377    0.334    0.436   72.659
  497.000    5.387    0.335    0.428   73.808
  497.250    5.377    0.336    0.423   71.926
  497.500    5.407    0.325    0.446   69.740
  497.750    5.407    0.327    0.448   72.648
  498.000    5.417    0.333    0.431   78.102
  498.250    5.377    0.317    0.429   83.859
  498.500    5.199    0.301    0.459   86.524
  498.750    4.971    0.292    0.462   87.734
  499.000    4.631    0.281    0.450   90.035
  499.250    4.362    0.266    0.447   93.367
  499.500    4.125    0.262    0.463   96.699
  499.750    3.893    0.284    0.480   98.939
  500.000    3.626    0.299    0.476   96.693
  500.250    3.500    0.262    0.475   93.719
  500.500    3.416    0.239    0.485   91.231
  500.750    3.864    0.255    0.482   88.318
  501.000    4.362    0.289    0.458   85.769
  501.250    4.789    0.303    0.466   83.522
  501.500    5.199    0.305    0.491   81.398
  501.750    5.407    0.306    0.476   82.244
  502.000    5.708    0.314    0.447   79.452
  502.250    5.981    0.318    0.434   75.629
  502.500    6.185    0.321    0.435   73.747
  502.750    6.409    0.315    0.437   71.623
  503.000    6.578    0.309    0.436   69.740
  503.250    6.677    0.306    0.442   74.103
  503.500    6.790    0.307    0.447   77.799
  503.750    7.276    0.124    0.329   79.433
  504.000    9.379    0.097    0.277   74.822
  504.250   11.013    0.084    0.246   72.213
  504.500   13.224    0.073    0.229   72.331
  504.750   15.211    0.062    0.231   70.812
  505.000   16.391    0.048    0.232   68.506
  505.250   16.731    0.028    0.232   66.260
  505.500   15.440    0.048    0.230   65.408
  505.750   13.398    0.254    0.365   72.438
  506.000    9.827    0.314    0.422   75.831
  506.250    7.595    0.330    0.443   77.707
  506.500    6.232    0.339    0.443   79.766
  506.750    5.377    0.340    0.449   81.704
  507.000    5.151    0.327    0.461   83.156
  507.250    5.065    0.324    0.458   84.972
  507.500    5.065    0.327    0.464   84.121
  507.750    5.122    0.340    0.457   82.602
  508.000    5.190    0.354    0.452   82.842
  508.250    5.248    0.358    0.464   84.658
  508.500    5.337    0.344    0.473   85.444
  508.750    5.377    0.327    0.460   84.531
  509.000    5.397    0.308    0.451   87.317
  509.250    5.417    0.298    0.479   93.620
  509.500    5.448    0.289    0.499   98.832
  509.750    5.448    0.279    0.476   99.860
  510.000    5.489    0.282    0.461   93.551
  510.250    5.550    0.275    0.462   90.396
  510.500    5.602    0.260    0.455   92.818
  510.750    5.644    0.251    0.449   94.816
  511.000    5.719    0.256    0.455   97.724
  511.250    5.826    0.262    0.456  100.995
  511.500    5.925    0.260    0.468  101.537
  511.750    5.947    0.251    0.478  100.868
  512.000    5.981    0.242    0.462   99.168
  512.250    6.026    0.233    0.440   97.224
  512.500    6.116    0.225    0.427   97.283
  512.750    6.197    0.222    0.426   98.553
  513.000    6.302    0.236    0.434   98.975
  513.250    6.444    0.247    0.437   94.667
  513.500    6.554    0.256    0.425   90.117
  513.750    6.702    0.244    0.416   87.993
  514.000    6.816    0.231    0.422   92.658
  514.250    6.867    0.216    0.425   96.354
  514.500    6.931    0.207    0.417   96.109
  514.750    6.970    0.214    0.404   89.254
  515.000    6.970    0.228    0.396   86.706
  515.250    6.944    0.235    0.407   91.432
  515.500    6.880    0.231    0.429   97.674
  515.750    6.790    0.224    0.443  103.007
  516.000    6.554    0.232    0.452  105.126
  516.250    6.232    0.238    0.460  104.820
  516.500    5.981    0.236    0.461  100.270
  516.750    5.805    0.231    0.455  102.268
  517.000    5.708    0.226    0.454  103.721
  517.250    5.687    0.227    0.468  101.535
  517.500    5.655    0.238    0.463   99.350
  517.750    5.634    0.245    0.448  100.802
  518.000    5.634    0.237    0.436  103.770
  518.250    5.676    0.232    0.433  105.465
  518.500    5.676    0.231    0.443  104.189
  518.750    5.602    0.228    0.455  105.460
  519.000    5.530    0.214    0.466  105.457
  519.250    5.377    0.217    0.481  101.210
  519.500    5.248    0.222    0.485   95.872
  519.750    5.199    0.224    0.467   97.142
  520.000    5.151    0.219    0.457  102.839
  520.250    5.141    0.214    0.459  101.866
  520.500    5.151    0.215    0.461  100.711
  520.750    5.141    0.214    0.466  101.315
  521.000    5.103    0.206    0.473  103.495
  521.250    5.037    0.201    0.461  105.857
  521.500    4.934    0.200    0.465  107.491
  521.750    4.789    0.197    0.467  107.246
  522.000    4.579    0.205    0.452  103.726
  522.250    4.306    0.234    0.443  101.056
  522.500    3.907    0.236    0.451  104.569
  522.750    3.573    0.206    0.465  107.053
  523.000    3.359    0.202    0.476  108.323
  523.250    3.176    0.211    0.486  110.442
  523.500    3.094    0.219    0.502  112.986
  523.750    3.009    0.223    0.499  113.832
  524.000    2.975    0.226    0.494  113.344
  524.250    2.948    0.228    0.508  112.857
  524.500    2.953    0.231    0.524  109.216
  524.750    3.060    0.245    0.537  106.303
  525.000    3.218    0.254    0.514  104.057
  525.250    3.448    0.260    0.489  103.387
  525.500    3.702    0.247    0.489  104.476
  525.750    3.929    0.227    0.506  101.866
  526.000    4.164    0.215    0.490  101.014
  526.250    4.242    0.220    0.473  102.224
  526.500    4.218    0.241    0.466  100.463
  526.750    4.156    0.243    0.473   98.702
  527.000    4.094    0.237    0.467   97.790
  527.250    4.026    0.232    0.468   96.999
  527.500    3.878    0.252    0.468   95.177
  527.750    3.800    0.273    0.464   89.111
  528.000    3.743    0.289    0.482   83.470
  528.250    3.750    0.306    0.501   80.254
  528.500    3.842    0.323    0.478   78.008
  528.750    4.011    0.324    0.465   78.248
  529.000    4.148    0.317    0.462   85.399
  529.250    4.258    0.308    0.468   91.217
  529.500    4.298    0.300    0.461   87.030
  529.750    4.298    0.300    0.466   81.692
  530.000    4.274    0.306    0.436   77.021
  530.250    4.226    0.322    0.412   72.592
