~VERSION INFORMATION
 VERS.                 2.0:   CWLS LOG ASCII STANDARD -VERSION 2.0
 WRAP.                  NO:   ONE LINE PER DEPTH STEP
~WELL INFORMATION BLOCK
#MNEM.UNIT           DATA                    DESCRIPTION OF MNEMONIC
#---------    -------------------            -------------------------------
# Generated from Intellog Unique Number	CW_76_78/WELL/694
WELL.         NORTHSTAR ET AL MARTEN HILLS 0 : Well_name    - WELL
LOC .         00/08-09-076-03W5/0            : Location     - LOCATION
UWI .         00/08-09-076-03W5/0            : Uwi          - UNIQUE WELL ID
ENTR.         JAYE                           : Entered      - ENTERED BY
SRVC.         COMPUTALOG                     : Scn          - SERVICE COMPANY
DATE.         19 FEB 81                      : Date         - LOG DATE
STRT.M        520                            : top_depth    - START DEPTH
STOP.M        730                            : bot_depth    - STOP DEPTH
STEP.M        0.25                           : increment    - STEP LENGTH
 NULL. -999.2500:NULL Value
~CURVE INFORMATION BLOCK
#MNEM UNIT       ERCB CURVE CODE    CURVE DESCRIPTION
#-----------   ------------------   ----------------------------------
DEPT.M        00 001 00 00         : DEPTH        - DEPTH
ILD .OHMM     00 120 00 00         : RESD         - DEEP RESISTIVITY (DIL)
NPHI.V/V      00 330 00 00         : PHIN         - NEUTRON POROSITY (SANDSTONE)
DPHI.V/V      00 890 00 00         : PHID         - DENSITY POROSITY (SANDSTONE)
GR  .API      00 310 00 00         : GR           - GAMMA RAY
CALI.MM       00 280 01 00         : CAL          - CALIPER
~PARAMETER INFORMATION
#MNEM.UNIT           DATA             DESCRIPTION OF MNEMONIC
#---------         -----------     ------------------------------
GL  .M        793.13               : gl           - GROUND LEVEL ELEVATION
EREF.M        796.43               : kb           - ELEVATION OF DEPTH REFERENCE
DATM.M        793.13               : datum        - DATUM ELEVATION
TDD .M        743                  : tdd          - TOTAL DEPTH DRILLER
RUN .         ONE                  : Run          - RUN NUMBER
ENG .         HUDSON               : Engineer     - RECORDING ENGINEER
WIT .         HOLT/FITZIMMONS      : Witness      - WITNESSED BY
BASE.         EDM                  : Branch       - HOME BASE OF LOGGING UNIT
MUD .         GEL BASE             : Mud_type     - MUD TYPE
MATR.         SANDSTONE            : Logunit      - NEUTRON MATRIX
TMAX.C        32                   : BHT          - MAXIMUM RECORDED TEMPERATURE
BHTD.M        745                  : BHTDEP       - MAXIMUM RECORDED TEMPERATURE
RMT .C        12                   : MDTP         - TEMPERATURE OF MUD
MUDD.KG/M     1120                 : MWT          - MUD DENSITY
NEUT.         1                    : NEUTRON      - NEUTRON TYPE
RESI.         0                    : RESIST       - RESISTIVITY TYPE
RM  .OHMM     5.4                  : RM           - RESISTIVITY OF MUD
RMC .OHMM     10                   : RMC          - RESISTIVITY OF MUD CAKE
RMF .OHMM     9.3                  : RMF          - RESISTIVITY OF MUD FILTRATE
SUFT.C        0                    : SUFT         - SURFACE TEMPERATURE
~A  DEPTH     RESD     PHIN     PHID       GR      CAL
  520.000    2.937    0.320    0.142  106.545  156.742
  520.250    2.608    0.324    0.145  119.754  157.242
  520.500    2.441    0.379    0.160  119.031  157.101
  520.750    2.314    0.375    0.174  114.921  156.852
  521.000    2.309    0.388    0.193  114.069  156.929
  521.250    2.302    0.362    0.209  107.595  156.894
  521.500    2.497    0.358    0.225  101.822  157.183
  521.750    2.531    0.364    0.233  100.013  158.640
  522.000    2.525    0.362    0.246   98.843  161.483
  522.250    2.437    0.341    0.251   95.434  164.113
  522.500    2.391    0.309    0.248   97.971  167.273
  522.750    2.463    0.375    0.261  104.087  169.158
  523.000    2.539    0.398    0.277  109.564  172.000
  523.250    2.734    0.446    0.291  107.945  169.838
  523.500    3.049    0.420    0.284  102.749  166.289
  523.750    3.485    0.355    0.262   98.765  159.862
  524.000    3.963    0.340    0.218  101.302  153.971
  524.250    4.721    0.341    0.232  107.994  150.955
  524.500    5.277    0.353    0.236   92.506  159.336
  524.750    5.875    0.321    0.254   72.673  158.451
  525.000    6.432    0.294    0.241   69.713  145.955
  525.250    6.989    0.298    0.252   68.479  145.170
  525.500    7.949    0.319    0.259   67.820  146.527
  525.750    8.867    0.351    0.271   62.047  147.663
  526.000    8.861    0.388    0.279   58.895  148.375
  526.250    8.734    0.373    0.281   57.405  148.981
  526.500    8.405    0.343    0.280   56.298  150.117
  526.750    8.036    0.315    0.279   60.178  151.367
  527.000    7.870    0.324    0.256   59.390  152.505
  527.250    7.662    0.355    0.233   56.749  152.679
  527.500    7.333    0.338    0.242   57.561  152.439
  527.750    7.126    0.329    0.255   64.059  152.406
  528.000    6.919    0.333    0.268   62.954  152.793
  528.250    6.791    0.345    0.262   60.249  152.975
  528.500    6.705    0.372    0.267   58.630  152.624
  528.750    6.738    0.368    0.268   60.848  152.378
  529.000    6.892    0.364    0.261   62.681  151.811
  529.250    7.128    0.385    0.263   64.002  151.354
  529.500    7.324    0.398    0.271   66.029  150.255
  529.750    6.714    0.396    0.278   65.178  149.473
  530.000    5.500    0.384    0.282   61.324  149.333
  530.250    4.327    0.353    0.284   58.234  149.194
  530.500    3.555    0.322    0.281   60.770  151.613
  530.750    3.429    0.337    0.259   80.501  153.494
  531.000    3.502    0.356    0.213   93.201  154.528
  531.250    3.617    0.385    0.192  105.196  155.557
  531.500    3.772    0.351    0.179  110.224  156.591
  531.750    3.886    0.370    0.178  104.899  157.199
  532.000    4.081    0.338    0.193   93.951  156.949
  532.250    4.315    0.316    0.234   86.261  156.599
  532.500    4.630    0.353    0.269   92.504  156.779
  532.750    4.988    0.403    0.291  104.373  156.740
  533.000    5.666    0.426    0.296  117.901  156.602
  533.250    6.342    0.422    0.252  111.108  156.677
  533.500    6.820    0.368    0.223   78.492  156.539
  533.750    6.975    0.374    0.192   60.447  154.695
  534.000    7.048    0.387    0.178   57.359  153.060
  534.250    7.323    0.401    0.237   55.806  152.283
  534.500    7.598    0.366    0.254   55.658  152.678
  534.750    7.914    0.353    0.253   54.232  153.067
  535.000    8.231    0.338    0.244   58.174  153.992
  535.250    8.706    0.336    0.244   61.925  154.702
  535.500    9.263    0.355    0.248   61.267  155.523
  535.750    9.781    0.378    0.257   59.776  155.916
  536.000   10.217    0.388    0.267   60.204  156.099
  536.250   10.332    0.354    0.277   59.225  156.598
  536.500   10.284    0.335    0.276   58.180  157.522
  536.750   10.117    0.335    0.266   57.585  159.510
  537.000    9.911    0.351    0.268   57.245  162.675
  537.250    9.420    0.360    0.276   57.163  163.495
  537.500    9.173    0.365    0.285   56.887  163.674
  537.750    8.845    0.362    0.284   59.615  163.954
  538.000    8.597    0.351    0.274   62.728  164.033
  538.250    8.429    0.340    0.247   64.431  164.961
  538.500    8.464    0.336    0.231   65.564  165.458
  538.750    8.819    0.327    0.222   67.588  165.106
  539.000    9.295    0.316    0.233   69.551  164.434
  539.250    9.731    0.334    0.239   68.955  163.441
  539.500    9.886    0.341    0.253   61.649  162.235
  539.750    9.800    0.330    0.265   49.102  161.029
  540.000    9.432    0.298    0.274   41.667  159.720
  540.250    9.264    0.286    0.279   42.287  158.834
  540.500    9.298    0.313    0.276   45.590  157.949
  540.750    9.171    0.319    0.278   46.146  157.058
  541.000    8.924    0.319    0.279   45.295  155.963
  541.250    7.589    0.300    0.276   46.488  154.759
  541.500    6.456    0.299    0.269   48.642  153.658
  541.750    4.678    0.304    0.261   52.073  152.454
  542.000    3.787    0.314    0.254   59.020  152.420
  542.250    3.137    0.282    0.243   74.147  154.093
  542.500    2.848    0.295    0.229  100.843  158.320
  542.750    3.205    0.322    0.240  113.351  167.129
  543.000    3.842    0.393    0.256  121.768  177.961
  543.250    4.722    0.409    0.270  124.368  188.259
  543.500    6.003    0.412    0.257  124.987  192.061
  543.750    7.043    0.340    0.241   92.819  184.784
  544.000    7.277    0.311    0.238   71.387  173.566
  544.250    6.950    0.300    0.255   57.817  166.503
  544.500    6.460    0.312    0.255   53.196  160.398
  544.750    5.970    0.323    0.255   57.905  156.208
  545.000    5.642    0.294    0.244   67.984  155.751
  545.250    5.474    0.299    0.213   86.563  156.245
  545.500    5.389    0.308    0.196   94.084  157.600
  545.750    5.381    0.308    0.199   92.594  157.247
  546.000    5.335    0.260    0.196   93.725  156.042
  546.250    5.289    0.268    0.178  107.829  154.943
  546.500    5.080    0.285    0.171  110.942  155.550
  546.750    4.833    0.305    0.177   99.098  159.137
  547.000    4.464    0.306    0.172   93.772  162.402
  547.250    4.176    0.292    0.159  101.934  164.291
  547.500    3.848    0.279    0.148  111.116  164.365
  547.750    3.601    0.289    0.174  116.401  164.542
  548.000    3.675    0.338    0.226  117.979  165.470
  548.250    4.071    0.373    0.290  116.810  166.074
  548.500    4.628    0.513    0.304  110.207  164.445
  548.750    5.266    0.569    0.306   91.460  161.426
  549.000    5.864    0.434    0.295   69.389  157.346
  549.250    6.620    0.358    0.293   60.677  153.796
  549.500    7.058    0.320    0.289   53.498  150.992
  549.750    7.494    0.311    0.281   54.629  149.040
  550.000    7.850    0.290    0.272   57.868  147.731
  550.250    7.962    0.451    0.292   54.013  146.634
  550.500    7.837    0.524    0.450   47.026  145.213
  550.750    7.548    0.446    0.373   51.992  144.011
  551.000    7.181    0.371    0.309   60.664  143.018
  551.250    6.811    0.337    0.256   67.162  142.772
  551.500    6.886    0.324    0.221   70.339  142.842
  551.750    7.363    0.336    0.238   71.661  143.555
  552.000    8.000    0.360    0.259   70.234  144.053
  552.250    8.678    0.379    0.281   68.361  144.128
  552.500    8.913    0.404    0.290   67.319  144.198
  552.750    8.988    0.374    0.298   68.959  144.488
  553.000    8.980    0.347    0.308   70.154  144.880
  553.250    8.935    0.341    0.311   73.138  144.952
  553.500    8.807    0.330    0.310   74.077  145.558
  553.750    8.720    0.340    0.309   72.651  146.060
  554.000    8.633    0.356    0.310   69.116  146.878
  554.250    8.627    0.380    0.310   68.264  147.692
  554.500    8.580    0.368    0.311   67.735  148.196
  554.750    8.653    0.342    0.311   65.733  148.802
  555.000    8.689    0.335    0.317   62.900  149.938
  555.250    8.681    0.355    0.312   64.734  151.077
  555.500    8.513    0.358    0.317   67.271  151.472
  555.750    8.387    0.368    0.311   63.928  151.438
  556.000    8.220    0.357    0.314   63.778  151.720
  556.250    8.012    0.351    0.312   65.996  151.904
