~VERSION INFORMATION
 VERS.                 2.0:   CWLS LOG ASCII STANDARD -VERSION 2.0
 WRAP.                  NO:   ONE LINE PER DEPTH STEP
~WELL INFORMATION BLOCK
#MNEM.UNIT           DATA                    DESCRIPTION OF MNEMONIC
#---------    -------------------            -------------------------------
# Generated from Intellog Unique Number	CW_70_72/WELL/620
NULL.         -999.25                        : NULL_VALUE
WELL.         SUNDANCE ET AL CALLS 06-11     : Well_name    - WELL              
LOC .         06-11-071-22W4                 : Location     - LOCATION          
UWI .         00/06-11-071-22W4/0            : Uwi          - UNIQUE WELL ID    
ENTR.         JAYE                           : Entered      - ENTERED BY        
SRVC.         SCHLUMBERGER                   : Scn          - SERVICE COMPANY   
DATE.         4 FEB 71                       : Date         - LOG DATE          
STRT.M        402.336                        : top_depth    - START DEPTH       
STOP.M        647.336                        : bot_depth    - STOP DEPTH        
STEP.M        0.25                           : increment    - STEP LENGTH       
~CURVE INFORMATION BLOCK
#MNEM UNIT       ERCB CURVE CODE    CURVE DESCRIPTION
#-----------   ------------------   ----------------------------------
DEPT.M        00 001 00 00         : DEPTH        - DEPTH                       
DPHI.V/V      00 890 00 00         : PHID         - DENSITY POROSITY (SANDSTONE)
NPHI.V/V      00 330 00 00         : PHIN         - NEUTRON POROSITY (SANDSTONE)
GR  .API      00 310 00 00         : GR           - GAMMA RAY                   
CALI.IN       00 280 01 00         : CAL          - CALIPER                     
ILD .OHMM     00 120 00 00         : RESD         - DEEP RESISTIVITY (DIL)      
~PARAMETER INFORMATION       
#MNEM.UNIT           DATA             DESCRIPTION OF MNEMONIC
#---------         -----------     ------------------------------
GL  .F        2232.5               : gl           - GROUND LEVEL ELEVATION      
EREF.F        2245                 : kb           - ELEVATION OF DEPTH REFERENCE
DATM.F        2232.5               : datum        - DATUM ELEVATION             
TDD .F        2156                 : tdd          - TOTAL DEPTH DRILLER         
RUN .         ONE                  : Run          - RUN NUMBER                  
ENG .         LANGTON/WILLIAMS     : Engineer     - RECORDING ENGINEER          
WIT .         GREENE               : Witness      - WITNESSED BY                
BASE.         EDM                  : Branch       - HOME BASE OF LOGGING UNIT   
MATR.         SANDSTONE            : Logunit      - NEUTRON MATRIX              
TMAX.C        24.4444              : BHT          - MAXIMUM RECORDED TEMPERATURE
BHTD.M        649.224              : BHTDEP       - MAXIMUM RECORDED TEMPERATURE
RMT .C        -17.7778             : MDTP         - TEMPERATURE OF MUD          
MUDD.KG/M     960                  : MWT          - MUD DENSITY                 
NEUT.         1                    : NEUTRON      - NEUTRON TYPE                
RESI.         0                    : RESIST       - RESISTIVITY TYPE            
RM  .OHMM     0                    : RM           - RESISTIVITY OF MUD          
RMC .OHMM     0                    : RMC          - RESISTIVITY OF MUD CAKE     
RMF .OHMM     0                    : RMF          - RESISTIVITY OF MUD FILTRATE 
SUFT.C        0                    : SUFT         - SURFACE TEMPERATURE         
~A  DEPTH     PHID     PHIN       GR      CAL     RESD
# ...
  475.336    0.236    0.439   65.608    6.739    4.009
  475.586    0.219    0.427   67.612    6.820    3.999
  475.836    0.225    0.410   68.644    6.994    4.131
  476.086    0.238    0.382   69.372    7.104    4.560
  476.336    0.243    0.363   68.459    7.148    5.184
  476.586    0.208    0.346   67.484    7.160    5.904
  476.836    0.145    0.324   66.023    7.099    7.522
  477.086    0.108    0.300   64.258    7.046   10.109
  477.336    0.090    0.262   61.460    6.994   13.240
  477.586    0.093    0.237   59.452    7.006   17.279
  477.836    0.106    0.222   60.423    7.042   16.073
  478.086    0.126    0.242   63.157    7.095   10.998
  478.336    0.154    0.299   67.412    7.159    8.573
  478.586    0.202    0.345   70.572    7.204    6.734
  478.836    0.254    0.386   73.063    7.232    5.517
  479.086    0.294    0.420   75.493    7.248    4.537
  479.336    0.303    0.457   77.194    7.256    4.235
  479.586    0.295    0.454   79.990    7.272    3.948
  479.836    0.285    0.444   83.271    7.260    3.887
  480.086    0.277    0.439   80.959    7.240    3.915
  480.336    0.271    0.437   78.769    7.215    3.934
  480.586    0.272    0.446   79.436    7.187    3.960
  480.836    0.280    0.448   81.441    7.195    4.039
  481.086    0.274    0.445   83.324    7.195    4.134
  481.336    0.263    0.448   84.477    7.203    4.201
  481.586    0.254    0.449   86.178    7.215    4.261
  481.836    0.265    0.443   87.879    7.182    4.265
  482.086    0.277    0.432   85.810    7.170    4.155
  482.336    0.283    0.424   81.856    7.166    3.937
  482.586    0.281    0.417   82.341    7.194    3.703
  482.836    0.274    0.414   87.751    7.226    3.680
  483.086    0.255    0.426   92.674    7.271    3.830
  483.336    0.245    0.444   93.402    7.299    4.045
  483.586    0.237    0.423   92.184    7.299    4.232
  483.836    0.232    0.411   92.000    7.295    4.446
  484.086    0.226    0.411   91.755    7.274    4.594
  484.336    0.216    0.420   91.450    7.258    4.684
  484.586    0.205    0.436   92.178    7.254    4.777
  484.836    0.203    0.445   93.271    7.250    4.836
  485.086    0.200    0.450   94.546    7.254    4.896
  485.336    0.192    0.454   95.821    7.241    4.875
  485.586    0.191    0.457   97.643    7.253    4.828
  485.836    0.201    0.461   99.587    7.241    4.799
  486.086    0.199    0.450  100.072    7.217    4.787
  486.336    0.202    0.450   98.429    7.184    4.810
  486.586    0.209    0.454   95.569    7.168    4.834
  486.836    0.226    0.463   93.683    7.160    4.867
  487.086    0.248    0.469   96.235    7.236    4.910
  487.336    0.263    0.471   95.990    7.463    4.961
  487.586    0.277    0.456   94.347    7.252    4.994
  487.836    0.286    0.450   89.420    7.123    4.983
  488.086    0.261    0.458   83.095    7.090    4.962
  488.336    0.259    0.469   77.135    7.118    4.922
  488.586    0.268    0.482   70.627    7.203    4.865
  488.836    0.306    0.477   64.180    7.386    4.739
  489.086    0.331    0.443   58.889    7.284    4.632
  489.336    0.311    0.400   54.813    6.794    4.430
  489.586    0.303    0.395   50.191    6.688    4.260
  489.836    0.299    0.398   49.034    6.806    4.051
  490.086    0.302    0.389   49.640    6.972    3.810
  490.336    0.297    0.381   50.489    7.016    3.683
  490.586    0.301    0.382   51.157    7.000    3.568
  490.836    0.307    0.382   51.398    6.979    3.495
  491.086    0.305    0.385   51.640    6.963    3.487
  491.336    0.301    0.398   52.064    6.943    3.530
  491.586    0.299    0.409   51.272    6.930    3.534
  491.836    0.307    0.412   49.932    6.934    3.512
  492.086    0.318    0.412   49.688    6.922    3.471
  492.336    0.326    0.413   50.416    6.918    3.413
  492.586    0.329    0.417   52.420    6.926    3.373
  492.836    0.316    0.423   54.547    6.946    3.322
  493.086    0.306    0.430   54.363    6.966    3.302
  493.336    0.314    0.421   51.746    6.990    3.295
  493.586    0.318    0.407   49.008    6.986    3.274
  493.836    0.322    0.396   47.365    6.954    3.260
  494.086    0.325    0.393   46.938    6.921    3.270
  494.336    0.322    0.392   47.848    6.901    3.262
  494.586    0.317    0.392   48.759    6.893    3.267
  494.836    0.319    0.388   49.548    6.897    3.258
  495.086    0.321    0.381   50.154    6.896    3.257
  495.336    0.318    0.386   50.639    6.904    3.255
  495.586    0.315    0.392   50.880    6.908    3.283
  495.836    0.316    0.389   50.818    6.933    3.318
  496.086    0.313    0.386   50.695    6.945    3.346
  496.336    0.308    0.381   50.510    6.961    3.344
  496.586    0.311    0.373   50.326    6.961    3.336
  496.836    0.324    0.370   50.264    6.961    3.310
  497.086    0.335    0.386   50.080    6.969    3.271
  497.336    0.335    0.394   50.139    6.985    3.234
  497.586    0.330    0.392   50.806    7.009    3.213
  497.836    0.325    0.393   51.838    7.029    3.200
  498.086    0.325    0.397   52.627    7.041    3.186
  498.336    0.325    0.401   53.051    7.013    3.163
  498.586    0.328    0.400   53.414    6.814    3.148
  498.836    0.337    0.394   53.838    6.684    3.111
  499.086    0.340    0.396   54.080    6.830    3.075
  499.336    0.329    0.404   54.807    6.964    3.057
  499.586    0.328    0.411   56.752    7.008    3.027
  499.836    0.336    0.417   57.601    7.004    3.003
  500.086    0.338    0.415   56.931    6.992    2.985
  500.336    0.333    0.412   56.443    6.987    2.957
  500.586    0.334    0.409   56.867    6.983    2.943
  500.836    0.335    0.405   57.777    6.955    2.904
  501.086    0.327    0.400   57.897    6.926    2.887
  501.336    0.318    0.412   57.713    6.898    2.874
  501.586    0.314    0.414   57.590    6.845    2.856
  501.836    0.313    0.406   57.953    6.853    2.844
  502.086    0.314    0.407   58.255    7.015    2.853
  502.336    0.310    0.415   57.889    6.942    2.867
  502.586    0.293    0.415   56.914    6.857    2.913
  502.836    0.269    0.374   56.426    6.828    3.037
  503.086    0.254    0.349   56.546    6.848    3.353
  503.336    0.280    0.387   60.132    6.901    3.567
  503.586    0.322    0.416   60.616    6.925    3.733
  503.836    0.333    0.437   59.095    6.966    3.772
  504.086    0.334    0.429   56.114    7.002    3.515
  504.336    0.337    0.420   53.862    7.018    3.205
  504.586    0.334    0.418   52.584    7.050    2.986
  504.836    0.334    0.425   51.609    7.079    2.825
  505.086    0.338    0.428   50.817    7.095    2.756
  505.336    0.339    0.431   50.451    7.103    2.714
  505.586    0.336    0.439   50.692    7.115    2.688
  505.836    0.337    0.445   51.420    7.119    2.686
  506.086    0.341    0.442   52.270    7.135    2.685
  506.336    0.332    0.434   53.362    7.135    2.678
  506.586    0.323    0.429   54.212    7.131    2.672
  506.836    0.327    0.432   54.940    7.114    2.670
  507.086    0.336    0.441   55.060    7.114    2.664
  507.336    0.344    0.453   55.241    7.102    2.658
  507.586    0.349    0.454   56.334    7.102    2.646
  507.836    0.351    0.453   57.244    7.102    2.635
  508.086    0.351    0.453   57.972    7.085    2.605
  508.336    0.354    0.456   58.396    7.069    2.569
  508.586    0.362    0.458   59.185    7.065    2.554
  508.836    0.366    0.470   58.879    7.057    2.557
  509.086    0.361    0.461   58.209    7.056    2.565
  509.336    0.351    0.448   58.207    7.048    2.555
  509.586    0.341    0.444   58.935    7.056    2.562
  509.836    0.331    0.454   60.210    7.060    2.589
  510.086    0.328    0.463   62.093    7.064    2.607
  510.336    0.325    0.471   63.612    7.060    2.654
  510.586    0.324    0.478   64.461    7.056    2.706
  510.836    0.332    0.481   63.913    7.044    2.796
  511.086    0.334    0.465   62.938    7.031    2.872
  511.336    0.332    0.449   61.781    7.027    2.903
  511.586    0.326    0.441   61.232    7.019    2.880
