~VERSION INFORMATION
 VERS.                 2.0:   CWLS LOG ASCII STANDARD -VERSION 2.0
 WRAP.                  NO:   ONE LINE PER DEPTH STEP
~WELL INFORMATION BLOCK
#MNEM.UNIT           DATA                    DESCRIPTION OF MNEMONIC
#---------    -------------------            -------------------------------
# Generated from Intellog Unique Number	CW_73_75/WELL/2736
WELL.         MANNVILLE ALGAS MARTEN S 09-30 : Well_name    - WELL
LOC .         00/09-30-073-24W4/0            : Location     - LOCATION
UWI .         00/09-30-073-24W4/0            : Uwi          - UNIQUE WELL ID
ENTR.         JAYE                           : Entered      - ENTERED BY
SRVC.         WESTERN ATLAS                  : Scn          - SERVICE COMPANY
DATE.         15 MAR 79                      : Date         - LOG DATE
STRT.M        375                            : top_depth    - START DEPTH
STOP.M        595                            : bot_depth    - STOP DEPTH
STEP.M        0.25                           : increment    - STEP LENGTH
 NULL. -999.2500:NULL Value
~CURVE INFORMATION BLOCK
#MNEM UNIT       ERCB CURVE CODE    CURVE DESCRIPTION
#-----------   ------------------   ----------------------------------
DEPT.M        00 001 00 00         : DEPTH        - DEPTH
DPHI.V/V      00 890 00 00         : PHID         - DENSITY POROSITY (SANDSTONE)
NPHI.V/V      00 330 00 00         : PHIN         - NEUTRON POROSITY (SANDSTONE)
GR  .API      00 310 00 00         : GR           - GAMMA RAY
CALI.MM       00 280 01 00         : CAL          - CALIPER
ILD .OHMM     00 120 00 00         : RESD         - DEEP RESISTIVITY (DIL)
~PARAMETER INFORMATION
#MNEM.UNIT           DATA             DESCRIPTION OF MNEMONIC
#---------         -----------     ------------------------------
GL  .M        633.3                : gl           - GROUND LEVEL ELEVATION
EREF.M        636.3                : kb           - ELEVATION OF DEPTH REFERENCE
DATM.M        633.3                : datum        - DATUM ELEVATION
TDD .M        593                  : tdd          - TOTAL DEPTH DRILLER
RUN .         ONE                  : Run          - RUN NUMBER
ENG .         GRIEVE               : Engineer     - RECORDING ENGINEER
WIT .         MURYNKA              : Witness      - WITNESSED BY
BASE.         R.D.                 : Branch       - HOME BASE OF LOGGING UNIT
MUD .         GEL-CHEM             : Mud_type     - MUD TYPE
MATR.         SANDSTONE            : Logunit      - NEUTRON MATRIX
TMAX.C        22                   : BHT          - MAXIMUM RECORDED TEMPERATURE
BHTD.M        594                  : BHTDEP       - MAXIMUM RECORDED TEMPERATURE
RMT .C        11.1                 : MDTP         - TEMPERATURE OF MUD
MUDD.KG/M     1120                 : MWT          - MUD DENSITY
NEUT.         1                    : NEUTRON      - NEUTRON TYPE
RESI.         0                    : RESIST       - RESISTIVITY TYPE
RM  .OHMM     4.4                  : RM           - RESISTIVITY OF MUD
RMC .OHMM     0                    : RMC          - RESISTIVITY OF MUD CAKE
RMF .OHMM     4                    : RMF          - RESISTIVITY OF MUD FILTRATE
SUFT.C        0                    : SUFT         - SURFACE TEMPERATURE
~A  DEPTH     PHID     PHIN       GR      CAL     RESD
# ...
  557.500    0.141    0.196   38.934  173.321    4.247
  557.750    0.237    0.287   38.338  173.780    3.476
  558.000    0.265    0.318   39.549  174.137    2.883
  558.250    0.255    0.337   41.638  174.282    2.564
  558.500    0.245    0.346   43.599  174.849    2.395
  558.750    0.241    0.344   45.184  174.683    2.349
  559.000    0.238    0.331   44.588  173.892    2.429
  559.250    0.239    0.325   43.301  172.066    2.614
  559.500    0.251    0.334   43.891  167.950    2.818
  559.750    0.247    0.328   45.541  163.945    3.136
  560.000    0.246    0.323   45.879  162.214    3.432
  560.250    0.246    0.325   46.341  161.844    4.036
  560.500    0.240    0.322   47.553  160.644    4.578
  560.750    0.242    0.317   48.890  160.476    5.331
  561.000    0.262    0.307   51.227  162.185    5.737
  561.250    0.272    0.304   55.558  164.001    6.114
  561.500    0.275    0.313   65.382  166.025    5.987
  561.750    0.280    0.330   72.147  168.452    5.539
  562.000    0.286    0.342   77.353  170.479    4.982
  562.250    0.288    0.333   65.648  169.476    4.558
  562.500    0.274    0.321   51.886  168.900    4.217
  562.750    0.263    0.334   50.289  169.357    3.793
  563.000    0.253    0.342   50.191  169.617    3.373
  563.250    0.245    0.339   49.906  169.655    3.217
  563.500    0.256    0.330   49.497  169.906    3.144
  563.750    0.257    0.328   49.584  167.975    3.125
  564.000    0.247    0.325   48.923  166.044    3.112
  564.250    0.240    0.321   48.577  164.632    3.146
  564.500    0.232    0.307   50.102  165.302    3.193
  564.750    0.224    0.313   51.127  168.674    3.259
  565.000    0.224    0.324   51.217  170.901    3.358
  565.250    0.224    0.321   51.242  170.736    3.512
  565.500    0.216    0.315   51.955  169.428    3.729
  565.750    0.208    0.312   53.103  166.979    4.043
  566.000    0.210    0.311   54.815  164.632    4.342
  566.250    0.208    0.323   58.024  163.116    4.559
  566.500    0.198    0.330   59.111  164.926    4.750
  566.750    0.192    0.338   58.825  166.844    4.931
  567.000    0.196    0.353   59.539  167.614    5.080
  567.250    0.193    0.349   61.250  167.659    5.050
  567.500    0.186    0.331   65.084  167.184    4.916
  567.750    0.178    0.336   67.981  166.396    4.662
  568.000    0.174    0.352   69.693  163.423    4.488
  568.250    0.178    0.341   71.406  160.036    4.280
  568.500    0.180    0.337   72.305  159.670    4.042
  568.750    0.179    0.336   73.017  161.060    3.936
  569.000    0.178    0.331   73.479  165.164    3.861
  569.250    0.177    0.322   72.507  165.727    3.831
  569.500    0.180    0.315   70.477  163.171    3.786
  569.750    0.195    0.312   70.252  163.214    3.749
  570.000    0.188    0.318   67.173  166.277    3.769
  570.250    0.176    0.319   70.306  167.361    3.811
  570.500    0.172    0.312   70.830  167.094    3.889
  570.750    0.171    0.314   72.231  166.618    3.984
  571.000    0.160    0.310   73.509  166.147    4.029
  571.250    0.146    0.297   73.656  165.040    4.088
  571.500    0.139    0.303   72.623  162.802    4.165
  571.750    0.137    0.306   76.084  162.112    4.243
  572.000    0.143    0.303   75.919  161.434    4.330
  572.250    0.146    0.302   73.645  160.853    4.486
  572.500    0.142    0.298   74.477  160.795    4.622
  572.750    0.140    0.292   77.435  161.044    4.826
  573.000    0.143    0.299   81.145  161.502    5.183
  573.250    0.131    0.307   84.289  162.902    5.451
  573.500    0.118    0.322   89.309  164.713    5.756
  573.750    0.109    0.317   96.199  168.189    6.055
  574.000    0.099    0.337  106.147  170.831    6.514
  574.250    0.109    0.397  116.408  172.956    6.931
  574.500    0.131    0.378  118.805  174.041    7.415
  574.750    0.135    0.378  119.268  174.191    7.888
  575.000    0.123    0.381  122.542  173.712    8.377
  575.250    0.117    0.370  126.685  173.445    9.012
  575.500    0.108    0.357  140.190  172.864    9.444
  575.750    0.099    0.349  157.501  172.495    9.513
  576.000    0.101    0.354  171.194  171.809    9.563
  576.250    0.102    0.359  184.886  171.126    9.578
  576.500    0.085    0.350  192.401  171.899    9.575
  576.750    0.066    0.332  196.796  171.740    9.572
  577.000    0.047    0.317  192.016  171.987    9.550
  577.250    0.030    0.302  170.827  171.620    9.439
  577.500    0.019    0.273  148.639  170.727    9.070
  577.750    0.082    0.263  133.066  170.975    8.584
  578.000    0.112    0.255  118.428  171.126    7.957
  578.250    0.137    0.252  108.097  169.611    7.090
  578.500    0.116    0.258   99.637  166.635    6.511
  578.750    0.094    0.261  107.151  167.413    5.979
  579.000    0.073    0.260  126.959  169.327    5.616
  579.250    0.056    0.278  142.273  170.619    5.226
  579.500    0.041    0.297  161.269  166.608    4.927
  579.750    0.072    0.309  188.877  168.106    4.637
  580.000    0.090    0.317  212.428  171.063    4.498
  580.250    0.082    0.328  229.053  173.710    4.522
  580.500    0.078    0.329  251.731  177.288    4.711
  580.750    0.067    0.326  281.585  176.188    4.863
  581.000    0.073    0.347  307.695  174.258    4.954
  581.250    0.090    0.392  311.529  172.953    4.869
  581.500    0.097    0.389  316.672  171.963    4.608
  581.750    0.086    0.428  318.446  171.378    4.470
  582.000    0.075    0.440  318.473  171.005    4.344
  582.250    0.064    0.412  319.123  170.942    4.197
  582.500    0.074    0.409  319.648  170.988    4.063
  582.750    0.076    0.401  319.488  171.034    3.882
  583.000    0.050    0.368  319.517  171.701    3.765
  583.250    0.049    0.349  319.478  172.267    3.659
  583.500    0.076    0.373  319.256  172.100    3.516
  583.750    0.097    0.392  318.910  170.998    3.372
  584.000    0.125    0.411  318.811  161.786    3.173
  584.250    0.154    0.408  319.023  161.104    3.089
  584.500    0.175    0.390  317.991  166.973    3.250
  584.750    0.190    0.368  316.019  166.392    3.536
  585.000    0.115    0.338  311.365  166.644    3.706
  585.250    0.102    0.319  244.811  170.433    3.935
  585.500    0.107    0.307  259.064  171.932    3.986
  585.750    0.107    0.319  265.207  173.330    3.992
  586.000    0.102    0.318  268.852  170.981    3.931
  586.250    0.096    0.317  176.651  170.196    3.834
  586.500    0.075    0.317  156.273  169.197    3.775
  586.750    0.069    0.319  165.598  172.674    3.732
  587.000    0.065    0.321  172.737  173.447    3.730
  587.250    0.063    0.327  178.442  170.475    3.757
  587.500    0.094    0.340  187.828  166.047    3.842
  587.750    0.112    0.332  161.335  162.868    4.019
  588.000    0.130    0.328  167.103  162.183    4.235
  588.250    0.117    0.335  171.996  165.143    4.396
  588.500    0.132    0.348  176.766  169.553    4.555
  588.750    0.120    0.337  167.869  170.639    4.729
  589.000    0.111    0.314  167.772  169.850    4.727
  589.250    0.105    0.298  170.608  170.517    4.508
  589.500    0.099    0.290  170.757  169.729    4.195
  589.750    0.096    0.285  169.287  166.758    3.859
  590.000    0.091    0.287  166.381  166.492    3.571
  590.250    0.092    0.294  163.599  168.514    3.367
  590.500    0.094    0.299  165.126  170.218    3.144
  590.750    0.082    0.307  167.208  171.614    3.027
  591.000    0.075    0.298  169.482  171.142    2.998
  591.250    0.103    0.284  170.444  169.313    2.997
  591.500    0.109    0.279  168.913  165.614    2.979
  591.750    0.121    0.287  166.631  163.057    2.955
  592.000    0.139    0.278  164.409  163.625    2.954
  592.250    0.166    0.277  161.691  164.184    2.975
  592.500    0.221    0.277  160.093  164.127    2.974
  592.750    0.207    0.270  158.934  163.652    2.985
  593.000    0.201    0.278  161.464  160.679    2.995
  593.250    0.195    0.289  162.544  149.283    2.977
  593.500    0.190    0.283  165.200  138.302    2.965
  593.750    0.179    0.274  166.594  136.579    2.947
