~VERSION INFORMATION
 VERS.                 2.0:   CWLS LOG ASCII STANDARD -VERSION 2.0
 WRAP.                  NO:   ONE LINE PER DEPTH STEP
~WELL INFORMATION BLOCK
#MNEM.UNIT           DATA                    DESCRIPTION OF MNEMONIC
#---------    -------------------            -------------------------------
# Generated from Intellog Unique Number	CN_91_93/WELL/3225
WELL.         AMOCO CANADA PETROLEUM CO.LTD. : Well_name    - WELL
LOC .         00/06-35-092-19W4/0            : Location     - LOCATION
UWI .         00/06-35-092-19W4/0            : Uwi          - UNIQUE WELL ID
ENTR.         JOETTE                         : Entered      - ENTERED BY
SRVC.         SCHLUMBERGER                   : Scn          - SERVICE COMPANY
DATE.         04/14/92                       : Date         - LOG DATE
STRT.F        300                            : top_depth    - START DEPTH
STOP.F        879.888                        : bot_depth    - STOP DEPTH
STEP.F        0.82                           : increment    - STEP LENGTH
 NULL. -999.2500:NULL Value
~CURVE INFORMATION BLOCK
#MNEM UNIT       ERCB CURVE CODE    CURVE DESCRIPTION
#-----------   ------------------   ----------------------------------
DEPT.F        00 001 00 00         : DEPTH        - DEPTH
CALI.IN       00 280 01 00         : CAL          - CALIPER
GR  .API      00 310 00 00         : GR           - GAMMA RAY
NPHI.V/V      00 330 00 00         : PHIN         - NEUTRON POROSITY (SANDSTONE)
DPHI.V/V      00 890 00 00         : PHID         - DENSITY POROSITY (SANDSTONE)
ILD .OHMM     00 120 00 00         : RESD         - DEEP RESISTIVITY (DIL)
~PARAMETER INFORMATION
#MNEM.UNIT           DATA             DESCRIPTION OF MNEMONIC
#---------         -----------     ------------------------------
GL  .F        1707                 : gl           - GROUND LEVEL ELEVATION
EREF.F        1718                 : kb           - ELEVATION OF DEPTH REFERENCE
DATM.F        1718                 : datum        - DATUM ELEVATION
TDD .F        1331                 : tdd          - TOTAL DEPTH DRILLER
RUN .         ONE                  : Run          - RUN NUMBER
ENG .         JO                   : Engineer     - RECORDING ENGINEER
WIT .         TIM                  : Witness      - WITNESSED BY
MUD .         GEL                  : Mud_type     - MUD TYPE
MATR.         SANDSTONE            : Logunit      - NEUTRON MATRIX
TMAX.F        70                   : BHT          - MAXIMUM RECORDED TEMPERATURE
BHTD.F        331                  : BHTDEP       - MAXIMUM RECORDED TEMPERATURE
RMT .F        54                   : MDTP         - TEMPERATURE OF MUD
MUDD.LB/G     9.1                  : MWT          - MUD DENSITY
NEUT.         1                    : NEUTRON      - NEUTRON TYPE
RESI.         0                    : RESIST       - RESISTIVITY TYPE
RM  .OHMM     2.54                 : RM           - RESISTIVITY OF MUD
RMC .OHMM     2.54                 : RMC          - RESISTIVITY OF MUD CAKE
RMF .OHMM     2.54                 : RMF          - RESISTIVITY OF MUD FILTRATE
SUFT.F        39.2                 : SUFT         - SURFACE TEMPERATURE
~A  DEPTH      CAL       GR     PHIN     PHID     RESD
# ...
  779.003    8.980   39.230    0.441    0.249   83.586
  779.823    8.979   39.229    0.458    0.261   66.699
  780.643    8.979   38.607    0.475    0.275   33.900
  781.463    9.021   41.705    0.481    0.262   22.841
  782.283    9.020   46.045    0.484    0.265   15.390
  783.104    9.020   59.684    0.448    0.240   12.514
  783.924    9.020   72.704    0.436    0.207   11.389
  784.744    9.020   77.663    0.470    0.150   11.603
  785.564    9.020   80.762    0.534    0.167   12.047
  786.385    8.978   75.179    0.506    0.189   13.738
  787.205    8.978   70.216    0.500    0.203   15.377
  788.025    8.937   65.874    0.504    0.234   21.564
  788.845    8.854   61.532    0.507    0.255   27.528
  789.665    8.854   57.809    0.505    0.272   41.618
  790.486    8.854   54.087    0.496    0.292   45.714
  791.306    8.854   52.845    0.502    0.297   51.164
  792.126    8.854   52.843    0.493    0.287   49.264
  792.946    8.853   54.081    0.490    0.277   44.842
  793.766    8.895   54.080    0.481    0.277   36.462
  794.587    8.895   54.078    0.464    0.281   29.648
  795.407    8.936   53.456    0.450    0.278   28.017
  796.227    8.936   54.074    0.443    0.281   30.775
  797.047    8.936   54.692    0.446    0.294   39.284
  797.867    8.935   54.690    0.475    0.292   40.784
  798.688    8.935   53.448    0.495    0.279   41.550
  799.508    8.977   55.307    0.472    0.283   41.547
  800.328    8.976   56.545    0.502    0.285   41.539
  801.148    8.976   54.683    0.518    0.286   41.535
  801.969    8.976   52.201    0.510    0.292   41.528
  802.789    8.976   52.819    0.504    0.290   43.930
  803.609    8.976   50.337    0.499    0.294   53.005
  804.429    8.976   45.375    0.491    0.298   60.450
  805.249    8.976   39.792    0.478    0.297   66.399
  806.070    8.976   35.449    0.465    0.291   72.931
  806.890    8.975   32.968    0.446    0.285   77.148
  807.710    8.975   27.384    0.401    0.285   71.551
  808.530    8.975   26.763    0.379    0.271   52.960
  809.350    8.975   26.141    0.367    0.267   31.879
  810.171    8.975   29.240    0.365    0.275   26.913
  810.991    8.975   31.098    0.405    0.287   23.593
  811.811    8.975   32.956    0.435    0.285   18.131
  812.631    9.016   36.055    0.463    0.262   16.502
  813.451    9.016   44.114    0.482    0.244   15.595
  814.272    9.016   50.933    0.491    0.243   16.810
  815.092    9.016   58.993    0.479    0.250   18.120
  815.912    9.057   62.712    0.472    0.267   18.462
  816.732    9.057   61.469    0.473    0.261   19.166
  817.552    9.098   59.607    0.461    0.256   19.163
  818.373    9.098   62.085    0.472    0.257   18.110
  819.193    9.098   67.044    0.487    0.252    4.592
  820.013    9.139   71.383    0.488    0.234    3.596
  820.833    9.139   81.303    0.547    0.219    3.528
  821.654    9.138   94.323    0.581    0.207    3.949
  822.474    9.138  102.382    0.594    0.201    6.437
  823.294    9.180   98.040    0.561    0.202    8.217
  824.114    9.180   87.496    0.522    0.207   11.742
  824.934    9.179   84.394    0.461    0.220   13.645
  825.755    9.179   78.812    0.423    0.225   15.561
  826.575    9.179   71.368    0.435    0.215   17.416
  827.395    9.179   62.685    0.464    0.215   19.130
  828.215    9.179   65.784    0.482    0.221   21.410
  829.035    9.179   69.502    0.519    0.228   23.963
  829.856    9.179   70.120    0.514    0.244   28.375
  830.676    9.179   68.259    0.501    0.266   31.167
  831.496    9.178   60.816    0.476    0.281   34.233
  832.316    9.178   58.954    0.453    0.263   31.748
  833.136    9.178   65.773    0.446    0.257   26.803
  833.957    9.178   70.732    0.436    0.252   22.629
  834.777    9.178   78.171    0.431    0.254   19.105
  835.597    9.178   89.951    0.440    0.250   16.436
  836.417    9.178   94.289    0.495    0.239   13.618
  837.238    9.178   98.008    0.523    0.231   10.270
  838.058    9.177  104.207    0.552    0.214   11.071
  838.878    9.177  112.887    0.559    0.204   13.358
  839.698    9.177  101.103    0.531    0.219   14.950
  840.518    9.177   96.761    0.413    0.205   15.816
  841.339    9.177  104.200    0.389    0.182   16.418
  842.159    9.177  103.578    0.391    0.157   15.810
  842.979    9.177   99.856    0.384    0.147   14.941
  843.799    9.177   95.513    0.420    0.156   13.857
  844.619    9.176   94.891    0.433    0.147   13.344
  845.440    9.176   94.889    0.431    0.136   12.376
  846.260    9.176   94.267    0.439    0.167   11.264
  847.080    9.176   90.545    0.468    0.156    9.874
  847.900    9.176   84.962    0.512    0.151   11.261
  848.720    9.176   80.620    0.528    0.152   14.108
  849.541    9.176   73.798    0.528    0.174   15.790
  850.361    9.176   67.595    0.491    0.185   15.788
  851.181    9.175   70.693    0.278    0.233   14.369
  852.001    9.175   73.172    0.467    0.235   12.836
  852.822    9.175   77.511    0.534    0.231    9.323
  853.642    9.175   81.229    0.547    0.363    8.810
  854.462    9.175   85.568    0.590    0.402    8.485
  855.282    9.175   79.365    0.642    0.426    8.018
  856.102    9.133   72.542    0.665    0.465    8.169
  856.923    9.133   68.820    0.677    0.548   12.350
  857.743    9.133   63.238    0.682    0.467   13.566
  858.563    9.092   60.135    0.606    0.409   15.183
  859.383    9.092   60.754    0.551    0.395   16.993
  860.203    9.050   62.612    0.488    0.391   19.380
  861.024    9.050   10.522    0.489    0.328   23.827
  861.844    9.050   10.521    0.459    0.231   28.751
  862.664    9.050   10.518    0.461    0.267   33.411
  863.484    9.050   10.517    0.476    0.295   38.102
  864.304    9.049   10.516    0.460    0.274   38.820
  865.125    9.049   11.133    0.438    0.261   36.685
  865.945    9.091   11.132    0.409    0.241   33.390
  866.765    9.091   11.130    0.398    0.244   29.271
  867.585    9.049   11.748    0.382    0.211   24.251
  868.406    9.297   11.746    0.373    0.200   22.491
  869.226    9.297   11.745    0.372    0.202   21.254
  870.046    9.297   12.363    0.371    0.215   20.856
  870.866    9.297   12.981    0.369    0.220   20.084
  871.686    9.296   12.979    0.368    0.197   18.627
  872.507    9.296   12.977    0.368    0.191   16.953
  873.327    9.296   12.976    0.368    0.193   15.723
  874.147    9.296   13.594    0.368    0.194   15.141
  874.967    9.296   13.592    0.369    0.159   14.856
  875.787    9.296   14.209    0.372    0.176   14.855
  876.608    9.337   14.209    0.374    0.168   15.715
  877.428    9.420   14.827    0.375    0.151   17.261
  878.248    9.461   14.825    0.377    0.183   17.919
  879.068    9.461   15.443    0.378    0.191   16.618
  879.888    9.337   15.441    0.379    0.183   15.413
