~VERSION INFORMATION
 VERS.                 2.0:   CWLS LOG ASCII STANDARD -VERSION 2.0
 WRAP.                  NO:   ONE LINE PER DEPTH STEP
~WELL INFORMATION BLOCK
#MNEM.UNIT           DATA                    DESCRIPTION OF MNEMONIC
#---------    -------------------            -------------------------------
# Generated from Intellog Unique Number	CN_91_93/WELL/3225
WELL.         AMOCO CANADA PETROLEUM CO.LTD. : Well_name    - WELL
LOC .         00/06-35-092-19W4/0            : Location     - LOCATION
UWI .         00/06-35-092-19W4/0            : Uwi          - UNIQUE WELL ID
ENTR.         JOETTE                         : Entered      - ENTERED BY
SRVC.         SCHLUMBERGER                   : Scn          - SERVICE COMPANY
DATE.         04/14/92                       : Date         - LOG DATE
STRT.F        300                            : top_depth    - START DEPTH
STOP.F        879.888                        : bot_depth    - STOP DEPTH
STEP.F        0.82                           : increment    - STEP LENGTH
 NULL. -999.2500:NULL Value
~CURVE INFORMATION BLOCK
#MNEM UNIT       ERCB CURVE CODE    CURVE DESCRIPTION
#-----------   ------------------   ----------------------------------
DEPT.F        00 001 00 00         : DEPTH        - DEPTH
CALI.IN       00 280 01 00         : CAL          - CALIPER
GR  .API      00 310 00 00         : GR           - GAMMA RAY
NPHI.V/V      00 330 00 00         : PHIN         - NEUTRON POROSITY (SANDSTONE)
DPHI.V/V      00 890 00 00         : PHID         - DENSITY POROSITY (SANDSTONE)
ILD .OHMM     00 120 00 00         : RESD         - DEEP RESISTIVITY (DIL)
~PARAMETER INFORMATION
#MNEM.UNIT           DATA             DESCRIPTION OF MNEMONIC
#---------         -----------     ------------------------------
GL  .F        1707                 : gl           - GROUND LEVEL ELEVATION
EREF.F        1718                 : kb           - ELEVATION OF DEPTH REFERENCE
DATM.F        1718                 : datum        - DATUM ELEVATION
TDD .F        1331                 : tdd          - TOTAL DEPTH DRILLER
RUN .         ONE                  : Run          - RUN NUMBER
ENG .         JO                   : Engineer     - RECORDING ENGINEER
WIT .         TIM                  : Witness      - WITNESSED BY
MUD .         GEL                  : Mud_type     - MUD TYPE
MATR.         SANDSTONE            : Logunit      - NEUTRON MATRIX
TMAX.F        70                   : BHT          - MAXIMUM RECORDED TEMPERATURE
BHTD.F        331                  : BHTDEP       - MAXIMUM RECORDED TEMPERATURE
RMT .F        54                   : MDTP         - TEMPERATURE OF MUD
MUDD.LB/G     9.1                  : MWT          - MUD DENSITY
NEUT.         1                    : NEUTRON      - NEUTRON TYPE
RESI.         0                    : RESIST       - RESISTIVITY TYPE
RM  .OHMM     2.54                 : RM           - RESISTIVITY OF MUD
RMC .OHMM     2.54                 : RMC          - RESISTIVITY OF MUD CAKE
RMF .OHMM     2.54                 : RMF          - RESISTIVITY OF MUD FILTRATE
SUFT.F        39.2                 : SUFT         - SURFACE TEMPERATURE
~A  DEPTH      CAL       GR     PHIN     PHID     RESD
  300.000    8.969   67.589    0.356    0.199   22.646
  300.820    8.968   67.587    0.355    0.194   21.002
  301.640    8.968   67.585    0.351    0.205   20.999
  302.461    8.968   69.443    0.350    0.221   21.395
  303.281    8.968   70.062    0.356    0.229   20.603
  304.101    8.968   70.060    0.379    0.225   19.108
  304.921    8.968   70.679    0.401    0.194   19.105
  305.741    8.968   72.536    0.375    0.175   20.210
  306.562    8.967   72.535    0.354    0.176   20.981
  307.382    8.967   73.153    0.354    0.186   18.740
  308.202    8.967   73.151    0.348    0.199   18.389
  309.022    8.967   72.530    0.339    0.203   17.378
  309.843    8.967   71.908    0.342    0.205   18.384
  310.663    8.967   71.285    0.345    0.217   19.086
  311.483    9.008   70.663    0.363    0.246   19.445
  312.303    9.008   70.662    0.456    0.297   19.810
  313.123    9.008   70.660    0.578    0.324   13.348
  313.944    9.008   70.658    0.535    0.359   13.098
  314.764    9.008   70.036    0.451    0.225   18.368
  315.584    9.008   68.174    0.423    0.141   24.347
  316.404    9.007   66.312    0.500    0.222   23.890
  317.224    9.007   65.690    0.529    0.249   18.360
  318.045    9.048   72.509    0.565    0.256   12.371
  318.865    9.048   78.708    0.622    0.258    9.871
  319.685    9.048   86.148    0.617    0.270    8.179
  320.505    9.048   87.386    0.616    0.262    8.491
  321.325    9.048   86.764    0.601    0.256    9.326
  322.146    9.048   88.002    0.595    0.244    9.682
  322.966    9.048   90.480    0.592    0.235    8.648
  323.786    9.048   91.719    0.578    0.198    9.499
  324.606    9.047   94.197    0.583    0.196    9.861
  325.427    9.047   96.056    0.600    0.216    9.146
  326.247    9.047   98.534    0.599    0.223    9.674
  327.067    9.088   99.153    0.602    0.222    9.673
  327.887    9.088   97.911    0.612    0.222    9.492
  328.707    9.088   96.048    0.591    0.227    9.314
  329.528    9.088   95.426    0.548    0.238   10.039
  330.348    9.088   94.184    0.541    0.258    9.851
  331.168    9.088   93.563    0.579    0.269    9.487
  331.988    9.088   91.081    0.590    0.282    9.308
  332.808    9.088   87.978    0.601    0.276   10.616
  333.629    9.087   83.636    0.585    0.266   15.170
  334.449    9.087   72.472    0.527    0.264   22.508
  335.269    9.087   52.627    0.517    0.299   28.199
  336.089    9.004   55.726    0.525    0.320   17.958
  336.909    8.922   56.344    0.508    0.298   15.161
  337.730    8.756   54.482    0.506    0.267   24.709
  338.550    8.508   51.380    0.536    0.241   26.637
  339.370    8.343   48.898    0.550    0.325   30.376
  340.190    8.260   47.656    0.501    0.344   30.949
  341.010    8.301   47.654    0.497    0.336   29.802
  341.831    8.425   47.652    0.512    0.315   29.245
  342.651    9.004   49.511    0.502    0.266   24.689
  343.471    9.045   51.369    0.485    0.223   21.643
  344.291    9.045   52.607    0.495    0.183   19.699
  345.112    9.003   55.086    0.500    0.235   22.047
  345.932    9.003   58.184    0.483    0.246   22.462
  346.752    8.962   60.663    0.461    0.262   20.064
  347.572    8.961   61.282    0.491    0.275   19.320
  348.392    8.961   60.039    0.500    0.293   19.683
  349.213    8.961   59.417    0.515    0.286   17.255
  350.033    8.961   58.795    0.508    0.282   13.513
  350.853    8.961   58.173    0.470    0.210   16.304
  351.673    8.961   55.691    0.468    0.247   22.439
  352.493    9.002   51.969    0.486    0.280   24.188
  353.314    9.002   52.588    0.508    0.309   21.203
  354.134    9.043   58.786    0.559    0.310   11.402
  354.954    9.084   61.885    0.579    0.287    9.995
  355.774    9.084   70.564    0.601    0.272   13.755
  356.594    9.125   78.004    0.625    0.252   13.497
  357.415    9.291   76.142    0.590    0.211    8.278
  358.235    9.332   73.659    0.571    0.150    6.989
  359.055    9.249   73.657    0.582    0.230    7.533
  359.875    9.125   79.236    0.603    0.258    7.675
  360.696    9.083   81.715    0.588    0.246    7.391
  361.516    9.083   83.573    0.570    0.243    7.118
  362.336    9.083   82.951    0.587    0.247    7.672
  363.156    9.000   82.330    0.588    0.238    8.587
  363.976    8.959   79.227    0.577    0.224   12.503
  364.797    8.917   74.264    0.606    0.182   12.040
  365.617    8.917   71.782    0.601    0.218   10.554
  366.437    8.959   69.920    0.570    0.234   11.593
  367.257    9.000   69.299    0.546    0.205   15.955
  368.077    9.041   68.676    0.576    0.205   10.160
  368.898    9.082   71.155    0.584    0.232    9.602
  369.718    9.082   74.873    0.554    0.265    8.740
  370.538    9.082   77.972    0.574    0.271    8.259
  371.358    9.041   81.691    0.602    0.243    8.574
  372.178    9.082   83.549    0.605    0.224    8.735
  372.999    9.123   86.027    0.581    0.227    8.255
  373.819    9.164   87.886    0.562    0.228    7.656
  374.639    9.164   87.264    0.572    0.236   12.019
  375.459    9.123   84.782    0.568    0.204   13.452
  376.280    9.040   82.300    0.513    0.175   14.500
  377.100    8.998   79.818    0.506    0.174   12.242
  377.920    8.957   87.876    0.555    0.214    8.727
  378.740    8.957   92.216    0.587    0.251    8.247
  379.560    8.957   92.214    0.572    0.253    8.092
  380.381    8.957   92.832    0.572    0.245    7.365
  381.201    8.956   91.590    0.601    0.253    7.227
  382.021    8.956   93.449    0.611    0.241    7.791
  382.841    9.121   92.206    0.617    0.240    7.644
  383.661    8.873   88.484    0.603    0.245    7.361
  384.482    8.832   83.521    0.603    0.250    7.360
  385.302    8.832   83.520    0.600    0.251    7.499
  386.122    8.832   86.619    0.595    0.253    7.497
  386.942    8.831   88.477    0.588    0.246    7.085
  387.762    8.831   90.335    0.584    0.245    6.952
  388.583    8.831   92.813    0.594    0.250    7.218
  389.403    8.872   89.091    0.601    0.246    7.353
  390.223    8.872   85.369    0.594    0.245    7.634
  391.043    8.872   83.507    0.595    0.245    8.076
  391.864    8.913   85.366    0.608    0.250    8.705
  392.684    8.913   87.844    0.613    0.249    8.704
  393.504    8.955   88.462    0.588    0.246    9.036
  394.324    8.954   89.080    0.578    0.251   10.113
  395.144    8.954   88.459    0.577    0.252   10.499
  395.965    8.954   82.876    0.589    0.238    9.378
  396.785    8.954   79.773    0.596    0.215    7.918
  397.605    8.954   82.252    0.601    0.133    6.200
  398.425    8.912   87.211    0.587    0.188    4.765
  399.245    8.830   94.030    0.596    0.227    5.333
  400.066    8.788   99.609    0.597    0.256    5.536
  400.886    8.788  100.227    0.606    0.259    5.433
  401.706    8.871   97.745    0.612    0.262    5.967
  402.526    8.953  100.843    0.608    0.259    5.966
  403.346    8.994  103.942    0.640    0.253    6.311
  404.167    8.994  103.940    0.629    0.241    7.198
  404.987    8.994   98.357    0.625    0.227    8.056
  405.807    8.994   94.015    0.634    0.233    8.522
  406.627    8.994   90.293    0.632    0.241    8.054
  407.448    9.035   87.810    0.638    0.239    6.673
  408.268    9.035   87.188    0.643    0.244    4.668
  409.088    9.035   88.427    0.643    0.244    4.580
  409.908    9.035   90.905    0.620    0.234    4.937
  410.728    9.035   95.245    0.615    0.230    6.668
  411.549    9.034  100.203    0.612    0.271    6.794
  412.369    9.034   99.581    0.624    0.274    7.324
  413.189    9.076   99.579    0.636    0.253    7.747
  414.009    9.075   99.577    0.612    0.251    7.321
  414.829    9.075   97.096    0.583    0.253    6.790
  415.650    9.075   90.893    0.565    0.242    6.417
  416.470    9.075   92.130    0.606    0.215    7.743
  417.290    8.868   93.369    0.621    0.251    8.346
  418.110    8.744   91.507    0.618    0.258    7.741
  418.930    8.744   93.365    0.629    0.251    7.179
