~VERSION INFORMATION
 VERS.                 2.0:   CWLS LOG ASCII STANDARD -VERSION 2.0
 WRAP.                  NO:   ONE LINE PER DEPTH STEP
~WELL INFORMATION BLOCK
#MNEM.UNIT           DATA                    DESCRIPTION OF MNEMONIC
#---------    -------------------            -------------------------------
# Generated from Intellog Unique Number	CS_67_68/WELL/954
WELL.         NOVALTA TWEEDIE                : Well_name    - WELL
LOC .         00/05-04-068-11W4/0            : Location     - LOCATION
UWI .         00/05-04-068-11W4/0            : Uwi          - UNIQUE WELL ID
ENTR.         T                              : Entered      - ENTERED BY
SRVC.         SCHLUMBERGER                   : Scn          - SERVICE COMPANY
STRT.M        300                            : top_depth    - START DEPTH
STOP.M        515                            : bot_depth    - STOP DEPTH
STEP.M        0.25                           : increment    - STEP LENGTH
 NULL. -999.2500:NULL Value
~CURVE INFORMATION BLOCK
#MNEM UNIT       ERCB CURVE CODE    CURVE DESCRIPTION
#-----------   ------------------   ----------------------------------
DEPT.M        00 001 00 00         : DEPTH        - DEPTH
GR  .API      00 310 00 00         : GR           - GAMMA RAY
CALI.MM       00 280 01 00         : CAL          - CALIPER
NPHI.V/V      00 330 00 00         : PHIN         - NEUTRON POROSITY (SANDSTONE)
DPHI.V/V      00 890 00 00         : PHID         - DENSITY POROSITY (SANDSTONE)
ILD .OHMM     00 120 00 00         : RESD         - DEEP RESISTIVITY (DLL)
~PARAMETER INFORMATION
#MNEM.UNIT           DATA             DESCRIPTION OF MNEMONIC
#---------         -----------     ------------------------------
GL  .M        613.7                : gl           - GROUND LEVEL ELEVATION
EREF.M        617                  : kb           - ELEVATION OF DEPTH REFERENCE
DATM.M        617                  : datum        - DATUM ELEVATION
TDD .M        515                  : tdd          - TOTAL DEPTH DRILLER
RUN .         ONE                  : Run          - RUN NUMBER
ENG .         BILL                 : Engineer     - RECORDING ENGINEER
WIT .         JIM                  : Witness      - WITNESSED BY
MUD .         GEL                  : Mud_type     - MUD TYPE
MATR.         SANDSTONE            : Logunit      - NEUTRON MATRIX
TMAX.C        5                    : BHT          - MAXIMUM RECORDED TEMPERATURE
BHTD.M        25                   : BHTDEP       - MAXIMUM RECORDED TEMPERATURE
RMT .C        515                  : MDTP         - TEMPERATURE OF MUD
MUDD.KG/M     17                   : MWT          - MUD DENSITY
NEUT.         1100                 : NEUTRON      - NEUTRON TYPE
RESI.         1                    : RESIST       - RESISTIVITY TYPE
RM  .OHMM     0                    : RM           - RESISTIVITY OF MUD
RMC .OHMM     2.6                  : RMC          - RESISTIVITY OF MUD CAKE
RMF .OHMM     2.6                  : RMF          - RESISTIVITY OF MUD FILTRATE
SUFT.C        2.7                  : SUFT         - SURFACE TEMPERATURE
SUFT.C        15                   : SUFT         - SURFACE TEMPERATURE
~A  DEPTH       GR      CAL     PHIN     PHID     RESD
# ...
  409.500   86.526  162.036    0.424    0.227    4.079
  409.750   90.054  162.040    0.437    0.240    3.936
  410.000   92.993  162.042    0.444    0.246    3.802
  410.250   94.177  162.046    0.439    0.238    3.739
  410.500   94.188  162.051    0.437    0.226    3.743
  410.750   93.613  162.055    0.439    0.212    3.750
  411.000   94.213  163.041    0.432    0.190    3.823
  411.250   95.983  163.045    0.425    0.179    4.199
  411.500   96.578  163.048    0.410    0.166    4.360
  411.750   94.833  163.052    0.416    0.174    4.445
  412.000   93.086  164.040    0.420    0.187    4.535
  412.250   96.617  164.044    0.420    0.204    4.540
  412.500   97.212  164.046    0.420    0.211    4.548
  412.750   96.054  165.034    0.421    0.207    4.474
  413.000   94.893  165.039    0.426    0.201    4.397
  413.250   94.901  165.041    0.432    0.197    4.327
  413.500   95.499  166.028    0.439    0.203    4.253
  413.750   97.271  166.033    0.447    0.208    4.253
  414.000   99.041  166.036    0.446    0.215    4.188
  414.250  101.980  166.039    0.433    0.222    3.828
  414.500  106.096  166.043    0.437    0.229    3.693
  414.750  100.833  166.046    0.441    0.236    3.633
  415.000   96.155  167.033    0.444    0.223    3.639
  415.250   92.653  167.037    0.446    0.216    3.642
  415.500   94.422  167.041    0.445    0.215    3.717
  415.750   94.431  167.045    0.439    0.213    3.721
  416.000   93.856  168.031    0.432    0.212    3.725
  416.250   92.109  168.036    0.438    0.221    3.533
  416.500   92.707  169.024    0.448    0.230    3.472
  416.750   96.237  170.010    0.445    0.246    3.173
  417.000   97.421  170.013    0.459    0.257    2.745
  417.250   96.260  170.017    0.523    0.243    2.603
  417.500   96.271  171.005    0.529    0.234    2.558
  417.750   97.458  171.008    0.491    0.230    2.516
  418.000   98.052  171.011    0.466    0.229    2.565
  418.250   98.652  171.016    0.453    0.230    2.666
  418.500   99.250  170.037    0.463    0.236    2.821
  418.750   99.258  170.040    0.490    0.243    2.986
  419.000   99.270  169.059    0.495    0.252    2.988
  419.250   94.595  168.082    0.486    0.254    3.104
  419.500   92.259  168.084    0.474    0.257    3.167
  419.750   91.101  167.107    0.454    0.260    3.231
  420.000   91.112  167.108    0.438    0.254    3.233
  420.250   90.537  166.130    0.434    0.247    3.298
  420.500   88.204  166.133    0.431    0.242    3.303
  420.750   87.627  165.154    0.429    0.245    3.369
  421.000   85.880  165.158    0.429    0.251    3.375
  421.250   85.897  164.179    0.430    0.262    3.380
  421.500   87.666  164.181    0.432    0.276    3.323
  421.750   89.433  164.185    0.438    0.282    3.268
  422.000   88.272  163.205    0.445    0.286    3.212
  422.250   83.009  163.210    0.451    0.290    3.045
  422.500   76.573  162.230    0.456    0.296    2.886
  422.750   70.723  162.235    0.457    0.299    2.736
  423.000   71.321  162.239    0.456    0.306    2.547
  423.250   73.677  162.242    0.454    0.313    2.458
  423.500   71.343  162.248    0.452    0.316    2.331
  423.750   66.669  162.248    0.446    0.323    2.210
  424.000   66.680  162.252    0.442    0.330    2.172
  424.250   65.519  161.273    0.434    0.335    2.136
  424.500   63.772  161.277    0.430    0.338    2.101
  424.750   62.025  161.281    0.426    0.342    2.065
  425.000   60.281  161.284    0.424    0.343    2.069
  425.250   60.879  161.289    0.424    0.343    2.071
  425.500   63.234  161.293    0.423    0.341    2.075
  425.750   66.173  160.313    0.423    0.336    2.077
  426.000   69.701  160.318    0.423    0.334    2.118
  426.250   73.815  159.337    0.425    0.335    2.326
  426.500   75.585  159.341    0.427    0.332    2.552
  426.750   74.427  159.345    0.429    0.312    2.800
  427.000   70.335  158.364    0.431    0.265    3.306
  427.250   67.413  158.369    0.428    0.169    4.438
  427.500   62.150  158.372    0.312    0.049    7.557
  427.750   58.644  159.358    0.252    0.011   11.962
  428.000   54.553  159.363    0.205   -0.001   16.960
  428.250   52.812  160.351    0.182    0.019   23.620
  428.500   56.337  161.337    0.182    0.065   20.809
  428.750   63.381  161.340    0.191    0.108   16.421
  429.000   73.356  162.328    0.228    0.144   12.963
  429.250   83.331  163.315    0.267    0.194    8.215
  429.500   85.689  163.318    0.382    0.221    5.705
  429.750   85.115  163.321    0.393    0.226    4.420
  430.000   86.298  164.309    0.405    0.234    3.686
  430.250   88.654  165.296    0.417    0.244    3.559
  430.500   85.149  165.300    0.428    0.256    3.501
  430.750   82.818  165.303    0.436    0.261    3.443
  431.000   82.244  165.307    0.440    0.266    3.446
  431.250   82.841  165.311    0.428    0.266    3.454
  431.500   83.436  166.298    0.415    0.255    3.458
  431.750   85.797  166.302    0.406    0.250    3.464
  432.000   87.564  166.305    0.404    0.253    3.467
  432.250   89.333  166.309    0.405    0.259    3.348
  432.500   91.106  166.312    0.408    0.262    3.353
  432.750   91.697  166.317    0.412    0.265    3.483
  433.000   93.467  166.321    0.419    0.267    3.551
  433.250   94.656  166.324    0.424    0.263    3.688
  433.500   94.667  166.329    0.431    0.257    3.903
  433.750   94.676  166.331    0.427    0.248    4.055
  434.000   94.687  166.336    0.424    0.236    4.134
  434.250   94.698  166.340    0.418    0.226    4.219
  434.500   94.713  166.344    0.413    0.218    4.225
  434.750   94.724  166.346    0.412    0.220    4.233
  435.000   95.321  165.368    0.411    0.227    4.236
  435.250   95.333  165.371    0.409    0.232    4.090
  435.500   93.586  165.374    0.409    0.238    3.879
  435.750   93.011  164.396    0.409    0.226    3.813
  436.000   93.022  164.399    0.414    0.222    3.749
  436.250   93.620  164.403    0.425    0.238    3.756
  436.500   94.217  163.422    0.436    0.252    3.760
  436.750   93.642  163.426    0.428    0.247    3.765
  437.000   88.965  162.448    0.421    0.238    3.772
  437.250   86.632  162.451    0.414    0.227    3.706
  437.500   90.160  162.456    0.413    0.221    3.645
  437.750   93.690  162.459    0.409    0.220    3.649
  438.000   96.629  162.462    0.409    0.217    3.723
  438.250   96.641  162.467    0.411    0.216    3.729
  438.500   94.896  162.469    0.416    0.215    3.666
  438.750   93.736  162.474    0.420    0.215    3.606
  439.000   95.508  163.461    0.421    0.215    3.546
  439.250   96.100  163.464    0.423    0.216    3.487
  439.500   97.872  164.451    0.428    0.221    3.365
  439.750  100.228  165.438    0.442    0.226    3.133
  440.000  103.172  165.442    0.483    0.234    2.971
  440.250  106.111  166.429    0.523    0.241    2.920
  440.500  105.536  167.415    0.527    0.248    2.818
  440.750  104.962  167.421    0.533    0.252    2.721
  441.000  105.559  167.424    0.539    0.254    2.532
  441.250  106.157  168.411    0.536    0.242    2.358
  441.500  104.996  168.415    0.518    0.234    2.234
  441.750  102.663  168.418    0.515    0.261    2.079
  442.000  103.260  167.437    0.519    0.274    1.936
  442.250  106.210  166.458    0.526    0.288    1.868
  442.500  107.391  165.479    0.542    0.284    1.804
  442.750  108.574  164.500    0.536    0.270    1.840
  443.000  105.652  163.521    0.521    0.238    1.982
  443.250  102.733  162.542    0.507    0.231    2.136
  443.500  103.920  162.545    0.490    0.224    2.479
  443.750  104.517  162.548    0.478    0.226    2.670
  444.000  103.356  162.552    0.462    0.232    2.877
  444.250  100.437  162.556    0.453    0.241    3.042
  444.500   97.518  162.560    0.443    0.239    3.403
  444.750   94.010  162.564    0.428    0.205    3.532
  445.000   88.160  162.566    0.413    0.139    3.809
  445.250   88.177  162.570    0.407    0.122    4.031
  445.500   89.355  162.575    0.406    0.157    4.035
  445.750   92.885  162.579    0.412    0.189    4.115
