~VERSION INFORMATION
 VERS.                 2.0:   CWLS LOG ASCII STANDARD -VERSION 2.0
 WRAP.                  NO:   ONE LINE PER DEPTH STEP
~WELL INFORMATION BLOCK
#MNEM.UNIT           DATA                    DESCRIPTION OF MNEMONIC
#---------    -------------------            -------------------------------
# Generated from Intellog Unique Number	CS_67_68/WELL/702
WELL.         FISHER CREEK                   : Well_name    - WELL
LOC .         00/06-29-068-04W4/0            : Location     - LOCATION
UWI .         00/06-29-068-04W4/0            : Uwi          - UNIQUE WELL ID
ENTR.         SP                             : Entered      - ENTERED BY
SRVC.         SCHLUMBERGER                   : Scn          - SERVICE COMPANY
STRT.M        350                            : top_depth    - START DEPTH
STOP.M        585                            : bot_depth    - STOP DEPTH
STEP.M        0.25                           : increment    - STEP LENGTH
 NULL. -999.2500:NULL Value
~CURVE INFORMATION BLOCK
#MNEM UNIT       ERCB CURVE CODE    CURVE DESCRIPTION
#-----------   ------------------   ----------------------------------
DEPT.M        00 001 00 00         : DEPTH        - DEPTH
ILD .OHMM     00 120 00 00         : RESD         - DEEP RESISTIVITY (DIL)
DPHI.V/V      00 890 00 00         : PHID         - DENSITY POROSITY (LIMESTONE)
NPHI.V/V      00 330 00 00         : PHIN         - NEUTRON POROSITY (LIMESTONE)
GR  .API      00 310 00 00         : GR           - GAMMA RAY
~PARAMETER INFORMATION
#MNEM.UNIT           DATA             DESCRIPTION OF MNEMONIC
#---------         -----------     ------------------------------
GL  .M        710.98               : gl           - GROUND LEVEL ELEVATION
EREF.M        714.48               : kb           - ELEVATION OF DEPTH REFERENCE
DATM.M        710.98               : datum        - DATUM ELEVATION
TDD .M        589                  : tdd          - TOTAL DEPTH DRILLER
RUN .         ONE                  : Run          - RUN NUMBER
ENG .         BILL                 : Engineer     - RECORDING ENGINEER
WIT .         JIM                  : Witness      - WITNESSED BY
MUD .         GEL                  : Mud_type     - MUD TYPE
MATR.         LIMESTONE            : Logunit      - NEUTRON MATRIX
TMAX.C        29                   : BHT          - MAXIMUM RECORDED TEMPERATURE
BHTD.M        589                  : BHTDEP       - MAXIMUM RECORDED TEMPERATURE
MATR.         1                    : LOGUNIT      - NEUTRON MATRIX
RMT .C        25                   : MDTP         - TEMPERATURE OF MUD
NEUT.         1                    : NEUTRON      - NEUTRON TYPE
RESI.         0                    : RESIST       - RESISTIVITY TYPE
RMC .OHMM     0.25                 : RMC          - RESISTIVITY OF MUD CAKE
RMF .OHMM     0.25                 : RMF          - RESISTIVITY OF MUD FILTRATE
SUFT.C        15                   : SUFT         - SURFACE TEMPERATURE
~A  DEPTH     RESD     PHID     PHIN       GR
# ...
  393.500    6.859    0.276    0.451  104.666
  393.750    7.166    0.272    0.446  107.121
  394.000    7.404    0.273    0.447  109.023
  394.250    7.464    0.285    0.452  111.171
  394.500    7.512    0.285    0.448  111.969
  394.750    7.502    0.281    0.438  111.848
  395.000    7.493    0.278    0.430  110.132
  395.250    7.556    0.276    0.423  107.251
  395.500    7.589    0.274    0.419  103.818
  395.750    7.579    0.273    0.427  101.060
  396.000    7.528    0.279    0.430   99.773
  396.250    7.449    0.284    0.435  101.369
  396.500    7.303    0.287    0.452  101.923
  396.750    7.185    0.285    0.466  101.127
  397.000    7.057    0.280    0.479   98.368
  397.250    6.917    0.275    0.485   95.855
  397.500    6.910    0.280    0.473   92.974
  397.750    7.085    0.291    0.465   90.462
  398.000    7.430    0.293    0.456   89.727
  398.250    7.748    0.289    0.452   90.464
  398.500    7.854    0.282    0.465   91.018
  398.750    7.890    0.272    0.466   90.773
  399.000    7.880    0.267    0.469   89.671
  399.250    7.826    0.262    0.476   88.445
  399.500    7.586    0.275    0.481   85.258
  399.750    7.354    0.293    0.482   82.500
  400.000    7.304    0.310    0.462   77.902
  400.250    7.338    0.321    0.435   75.143
  400.500    7.384    0.323    0.426   74.348
  400.750    7.416    0.322    0.428   74.226
  401.000    7.449    0.321    0.432   73.798
  401.250    7.496    0.319    0.436   73.002
  401.500    7.571    0.321    0.444   71.777
  401.750    7.634    0.332    0.451   71.594
  402.000    7.653    0.332    0.446   73.926
  402.250    7.615    0.327    0.449   77.117
  402.500    7.579    0.330    0.451   78.712
  402.750    7.541    0.336    0.445   80.185
  403.000    7.503    0.337    0.438   81.291
  403.250    7.439    0.334    0.431   79.575
  403.500    7.389    0.335    0.426   75.590
  403.750    7.352    0.339    0.422   74.487
  404.000    7.315    0.337    0.419   78.352
  404.250    7.306    0.330    0.418   81.910
  404.500    7.284    0.323    0.425   85.101
  404.750    7.276    0.321    0.434   87.309
  405.000    7.267    0.320    0.439   89.764
  405.250    7.299    0.317    0.441   91.114
  405.500    7.360    0.314    0.436   93.323
  405.750    7.420    0.313    0.437   95.042
  406.000    7.425    0.314    0.444   95.656
  406.250    7.443    0.314    0.449   95.903
  406.500    7.449    0.317    0.454   95.230
  406.750    7.468    0.320    0.456   95.906
  407.000    7.458    0.312    0.456   95.600
  407.250    7.521    0.303    0.454   90.757
  407.500    7.568    0.296    0.451   85.116
  407.750    7.602    0.291    0.448   79.047
  408.000    7.635    0.292    0.439   76.656
  408.250    7.669    0.311    0.444   76.780
  408.500    7.702    0.321    0.451   76.782
  408.750    7.737    0.327    0.460   76.477
  409.000    7.757    0.331    0.456   76.294
  409.250    7.677    0.329    0.449   76.295
  409.500    7.624    0.328    0.444   75.744
  409.750    7.515    0.330    0.445   75.684
  410.000    7.381    0.326    0.454   77.709
  410.250    7.304    0.313    0.458   81.083
  410.500    7.281    0.286    0.457   84.335
  410.750    7.272    0.267    0.444   85.869
  411.000    7.250    0.254    0.431   81.210
  411.250    7.242    0.261    0.418   72.564
  411.500    7.246    0.271    0.409   63.306
  411.750    7.252    0.282    0.400   52.514
  412.000    7.338    0.291    0.393   53.742
  412.250    7.554    0.308    0.387   55.277
  412.500    7.657    0.322    0.390   55.953
  412.750    7.634    0.316    0.393   56.751
  413.000    7.497    0.316    0.394   57.795
  413.250    7.295    0.326    0.393   58.471
  413.500    7.178    0.333    0.395   59.208
  413.750    7.076    0.334    0.406   60.865
  414.000    6.976    0.328    0.418   61.050
  414.250    6.928    0.325    0.423   60.377
  414.500    6.855    0.322    0.417   58.845
  414.750    6.772    0.319    0.414   57.497
  415.000    6.740    0.317    0.420   56.088
  415.250    6.732    0.325    0.422   55.231
  415.500    6.750    0.328    0.421   55.293
  415.750    6.780    0.328    0.419   56.092
  416.000    6.810    0.327    0.418   56.645
  416.250    6.838    0.327    0.419   57.628
  416.500    6.867    0.336    0.423   58.733
  416.750    6.912    0.348    0.427   59.715
  417.000    6.904    0.348    0.427   60.453
  417.250    6.870    0.338    0.422   61.251
  417.500    6.847    0.329    0.413   62.234
  417.750    6.802    0.325    0.408   64.566
  418.000    6.781    0.323    0.403   66.161
  418.250    6.772    0.327    0.398   67.389
  418.500    6.751    0.330    0.399   67.206
  418.750    6.731    0.330    0.417   65.797
  419.000    6.711    0.330    0.421   64.449
  419.250    6.704    0.334    0.417   63.102
  419.500    6.707    0.340    0.413   64.759
  419.750    6.725    0.345    0.411   65.557
  420.000    6.754    0.353    0.410   65.558
  420.250    6.796    0.347    0.413   64.027
  420.500    6.930    0.344    0.419   60.839
  420.750    7.105    0.352    0.430   57.038
  421.000    7.451    0.282    0.407   51.950
  421.250    8.421    0.021    0.328   46.187
  421.500    9.806   -0.011    0.256   45.943
  421.750   11.680   -0.004    0.304   52.874
  422.000   12.787    0.129    0.359   58.394
  422.250   12.534    0.208    0.405   62.320
  422.500   10.075    0.279    0.425   64.897
  422.750    8.551    0.317    0.441   65.880
  423.000    7.257    0.340    0.452   65.881
  423.250    6.564    0.336    0.459   65.514
  423.500    6.257    0.344    0.454   67.478
  423.750    6.145    0.351    0.442   68.154
  424.000    6.103    0.351    0.455   67.971
  424.250    6.075    0.344    0.459   66.440
  424.500    6.488    0.343    0.460   64.724
  424.750    6.408    0.348    0.459   63.621
  425.000    6.331    0.351    0.459   63.255
  425.250    6.311    0.347    0.459   63.501
  425.500    6.338    0.344    0.469   64.668
  425.750    6.414    0.342    0.475   66.018
  426.000    6.479    0.341    0.470   66.510
  426.250    6.519    0.343    0.466   67.064
  426.500    6.574    0.347    0.467   67.617
  426.750    6.529    0.350    0.470   67.802
  427.000    6.364    0.348    0.455   67.251
  427.250    6.273    0.346    0.447   66.394
  427.500    6.231    0.349    0.439   65.537
  427.750    6.258    0.346    0.434   66.090
  428.000    6.345    0.343    0.443   67.502
  428.250    6.458    0.340    0.453   67.626
  428.500    6.248    0.323    0.439   67.320
  428.750    5.845    0.304    0.430   75.662
  429.000    5.427    0.299    0.458   84.126
  429.250    4.992    0.379    0.482   92.161
  429.500    4.767    0.392    0.497   93.144
  429.750    4.655    0.351    0.513   88.546
  430.000    4.765    0.325    0.480   85.787
  430.250    4.959    0.322    0.467   84.746
  430.500    5.249    0.326    0.476   87.752
  430.750    5.823    0.308    0.484   90.329
  431.000    6.105    0.295    0.497   91.864
  431.250    6.378    0.310    0.501   88.860
  431.500    6.552    0.310    0.482   82.484
  431.750    6.718    0.301    0.467   77.272
  432.000    6.761    0.309    0.448   74.514
  432.250    6.766    0.309    0.433   73.350
  432.500    6.770    0.299    0.430   73.597
  432.750    6.776    0.296    0.428   74.763
  433.000    6.768    0.302    0.427   76.053
  433.250    6.734    0.305    0.427   76.422
  433.500    6.676    0.297    0.430   76.300
  433.750    6.618    0.286    0.433   76.792
  434.000    6.622    0.280    0.437   80.166
  434.250    6.626    0.278    0.437   82.559
  434.500    6.657    0.274    0.439   86.731
  434.750    6.724    0.270    0.449   90.105
  435.000    6.778    0.267    0.459   92.559
  435.250    6.846    0.273    0.454   92.315
  435.500    6.891    0.279    0.447   87.288
  435.750    6.908    0.288    0.444   86.308
  436.000    6.746    0.280    0.446   89.008
  436.250    6.613    0.280    0.454   89.438
  436.500    6.605    0.280    0.462   85.270
  436.750    6.647    0.309    0.468   77.667
