~VERSION INFORMATION
 VERS.                 2.0:   CWLS LOG ASCII STANDARD -VERSION 2.0
 WRAP.                  NO:   ONE LINE PER DEPTH STEP
~WELL INFORMATION BLOCK
#MNEM.UNIT           DATA                    DESCRIPTION OF MNEMONIC
#---------    -------------------            -------------------------------
# Generated from Intellog Unique Number	CW_76_78/WELL/2563
WELL.         SCURRY ET AL DOUCETTE          : Well_name    - WELL
LOC .         00/02-08-078-02W5/0            : Location     - LOCATION
UWI .         00/02-08-078-02W5/0            : Uwi          - UNIQUE WELL ID
ENTR.         MAX                            : Entered      - ENTERED BY
SRVC.         WESTERN ATLAS                  : Scn          - SERVICE COMPANY
STRT.M        355                            : top_depth    - START DEPTH
STOP.M        605                            : bot_depth    - STOP DEPTH
STEP.M        0.25                           : increment    - STEP LENGTH
 NULL. -999.2500:NULL Value
~CURVE INFORMATION BLOCK
#MNEM UNIT       ERCB CURVE CODE    CURVE DESCRIPTION
#-----------   ------------------   ----------------------------------
DEPT.M        00 001 00 00         : DEPTH        - DEPTH
ILD .OHMM     00 120 00 00         : RESD         - DEEP RESISTIVITY (DIL)
NPHI.V/V      00 330 00 00         : PHIN         - NEUTRON POROSITY (SANDSTONE)
DPHI.V/V      00 890 00 00         : PHID         - DENSITY POROSITY (SANDSTONE)
CALI.MM       00 280 01 00         : CAL          - CALIPER
GR  .API      00 310 00 00         : GR           - GAMMA RAY
~PARAMETER INFORMATION
#MNEM.UNIT           DATA             DESCRIPTION OF MNEMONIC
#---------         -----------     ------------------------------
GL  .M        647.79               : gl           - GROUND LEVEL ELEVATION
EREF.M        652.05               : kb           - ELEVATION OF DEPTH REFERENCE
DATM.M        647.79               : datum        - DATUM ELEVATION
TDD .M        628                  : tdd          - TOTAL DEPTH DRILLER
RUN .         ONE                  : Run          - RUN NUMBER
ENG .         BILL                 : Engineer     - RECORDING ENGINEER
WIT .         JIM                  : Witness      - WITNESSED BY
MUD .         GEL                  : Mud_type     - MUD TYPE
MATR.         SANDSTONE            : Logunit      - NEUTRON MATRIX
TMAX.C        30                   : BHT          - MAXIMUM RECORDED TEMPERATURE
BHTD.M        627.3                : BHTDEP       - MAXIMUM RECORDED TEMPERATURE
RMT .C        13                   : MDTP         - TEMPERATURE OF MUD
MUDD.KG/M     1190                 : MWT          - MUD DENSITY
NEUT.         1                    : NEUTRON      - NEUTRON TYPE
RESI.         0                    : RESIST       - RESISTIVITY TYPE
RM  .OHMM     3.5                  : RM           - RESISTIVITY OF MUD
RMC .OHMM     2.2                  : RMC          - RESISTIVITY OF MUD CAKE
RMF .OHMM     3.9                  : RMF          - RESISTIVITY OF MUD FILTRATE
SUFT.C        -10                  : SUFT         - SURFACE TEMPERATURE
~A  DEPTH     RESD     PHIN     PHID      CAL       GR
# ...
  464.500    5.383    0.400    0.268  208.370   83.312
  464.750    5.341    0.384    0.256  208.373   81.851
  465.000    5.172    0.378    0.184  208.376   83.316
  465.250    5.007    0.381    0.180  207.403   86.244
  465.500    4.770    0.384    0.188  204.967   90.928
  465.750    4.506    0.385    0.189  207.897   93.564
  466.000    4.435    0.390    0.194  208.876   94.737
  466.250    4.436    0.393    0.194  209.367   93.861
  466.500    4.623    0.390    0.201  209.857   92.692
  466.750    4.896    0.386    0.201  209.372   90.938
  467.000    5.229    0.380    0.200  207.912   89.183
  467.250    5.675    0.376    0.215  206.940   87.429
  467.500    6.011    0.373    0.218  205.967   85.089
  467.750    6.315    0.370    0.217  205.482   83.921
  468.000    6.634    0.365    0.217  204.997   83.630
  468.250    6.913    0.359    0.211  205.488   82.754
  468.500    7.087    0.356    0.201  205.491   82.463
  468.750    7.147    0.362    0.193  204.518   85.684
  469.000    7.034    0.363    0.196  203.058   91.246
  469.250    7.036    0.359    0.224  201.598   91.833
  469.500    7.273    0.347    0.223  200.137   90.079
  469.750    7.640    0.349    0.207  200.140   85.691
  470.000    7.896    0.354    0.198  200.143   79.839
  470.250    8.228    0.352    0.215  200.148   77.792
  470.500    8.644    0.334    0.201  200.149   74.867
  470.750    8.861    0.332    0.182  200.152   77.503
  471.000    8.510    0.337    0.177  200.155   84.529
  471.250    7.974    0.349    0.201  200.158   87.750
  471.500    6.831    0.358    0.211  200.649   88.630
  471.750    6.196    0.372    0.211  201.628   88.924
  472.000    6.097    0.374    0.204  203.094   89.804
  472.250    6.097    0.373    0.210  205.048   89.221
  472.500    6.003    0.371    0.212  206.026   89.808
  472.750    5.907    0.370    0.212  207.004   89.809
  473.000    5.909    0.370    0.207  207.495   88.348
  473.250    5.911    0.371    0.206  207.986   84.838
  473.500    5.962    0.370    0.206  207.989   83.669
  473.750    6.013    0.369    0.207  207.992   84.256
  474.000    6.114    0.368    0.204  207.509   85.136
  474.250    6.267    0.367    0.193  207.510   83.089
  474.500    6.693    0.366    0.188  207.025   81.335
  474.750    7.265    0.364    0.202  206.053   81.922
  475.000    7.950    0.361    0.236  205.080   83.094
  475.250   10.077    0.357    0.269  204.108   79.584
  475.500   12.669    0.353    0.290  202.648   76.074
  475.750   13.641    0.358    0.293  202.651   66.710
  476.000   13.534    0.360    0.286  203.628   67.297
  476.250   13.538    0.307    0.259  204.120   69.055
  476.500   13.879    0.275    0.224  204.610   67.008
  476.750   14.345    0.258    0.187  205.101   64.376
  477.000   15.319    0.248    0.107  204.616   63.792
  477.250   15.704    0.253    0.075  204.131   65.257
  477.500   15.454    0.291    0.111  202.671   71.698
  477.750   14.963    0.345    0.170  201.699   76.675
  478.000   14.847    0.363    0.204  201.214   76.092
  478.250   14.851    0.366    0.228  200.729   75.216
  478.500   14.735    0.363    0.239  201.708   74.339
  478.750   14.384    0.366    0.241  203.174   73.756
  479.000   13.700    0.371    0.242  205.128   72.880
  479.250   12.631    0.368    0.243  206.107   76.393
  479.500   11.740    0.359    0.241  206.109   77.859
  479.750   11.001    0.348    0.234  206.113   78.738
  480.000   10.226    0.343    0.229  206.115   80.203
  480.250    9.582    0.345    0.218  206.118   79.034
  480.500    8.980    0.348    0.215  205.633   81.670
  480.750    8.553    0.349    0.205  205.149   84.891
  481.000    8.214    0.350    0.203  205.152   86.064
  481.250    7.823    0.348    0.198  205.155   85.188
  481.500    7.699    0.344    0.191  205.158   86.067
  481.750    7.639    0.339    0.185  205.161   86.069
  482.000    7.832    0.338    0.181  205.164   83.144
  482.250    7.963    0.336    0.171  205.166   81.390
  482.500    8.230    0.334    0.172  203.707   83.440
  482.750    8.506    0.336    0.164  203.221   85.783
  483.000    8.579    0.340    0.168  203.712   89.297
  483.250    8.239    0.343    0.177  205.666   90.470
  483.500    8.042    0.344    0.177  208.596   88.423
  483.750    8.045    0.345    0.171  208.599   81.400
  484.000    8.113    0.348    0.168  207.139   77.598
  484.250    8.250    0.352    0.181  206.166   81.404
  484.500    8.457    0.357    0.187  205.193   89.015
  484.750    8.188    0.363    0.184  205.196   92.529
  485.000    7.611    0.368    0.178  205.687   90.775
  485.250    7.017    0.368    0.174  205.690   88.142
  485.500    6.793    0.368    0.168  205.692   84.632
  485.750    6.578    0.368    0.161  206.183   86.390
  486.000    6.526    0.368    0.168  207.162   88.441
  486.250    6.530    0.367    0.177  207.653   90.784
  486.500    6.531    0.365    0.184  207.168   94.005
  486.750    6.640    0.364    0.185  206.196   98.397
  487.000    6.807    0.360    0.188  204.735  101.618
  487.250    7.035    0.360    0.193  203.275   98.693
  487.500    7.391    0.358    0.212  201.814   94.598
  487.750    8.023    0.352    0.220  200.354   91.965
  488.000    9.071    0.321    0.192  199.869   84.357
  488.250   10.340    0.304    0.179  202.311   81.433
  488.500   11.596    0.273    0.145  202.802   79.093
  488.750   13.112    0.237    0.108  202.805   70.900
  489.000   14.585    0.222    0.043  202.807   68.561
  489.250   16.092    0.220    0.016  203.787   67.977
  489.500   16.905    0.247    0.017  203.301   68.564
  489.750   17.330    0.264    0.043  202.329   70.907
  490.000   17.055    0.292    0.082  201.356   73.250
  490.250   16.648    0.309    0.187  201.359   71.204
  490.500   16.519    0.320    0.198  202.337   70.327
  490.750   16.935    0.321    0.203  203.804   77.646
  491.000   17.219    0.317    0.198  205.271   76.770
  491.250   17.508    0.291    0.174  204.785   72.381
  491.500   17.948    0.281    0.142  205.276   66.822
  491.750   18.399    0.273    0.134  205.767   64.775
  492.000   19.017    0.273    0.140  206.258   66.533
  492.250   18.563    0.279    0.140  207.725   73.266
  492.500   17.253    0.291    0.141  208.215   76.195
  492.750   16.037    0.290    0.148  208.218   74.733
  493.000   15.654    0.265    0.158  207.245   70.931
  493.250   16.047    0.244    0.154  206.272   68.298
  493.500   16.585    0.236    0.100  205.787   65.959
  493.750   16.323    0.249    0.077  205.303   66.838
  494.000   15.296    0.286    0.117  205.794   72.401
  494.250   13.760    0.317    0.162  205.796   79.134
  494.500   11.981    0.324    0.181  205.799   82.355
  494.750   10.867    0.328    0.185  205.803   85.284
  495.000   10.100    0.331    0.180  205.805   85.871
  495.250    9.700    0.327    0.182  206.297   86.750
  495.500    9.624    0.324    0.180  206.299   87.923
  495.750    9.706    0.327    0.178  206.302   88.217
  496.000    9.552    0.335    0.172  206.305   87.048
  496.250    9.555    0.344    0.176  204.845   86.757
  496.500    9.795    0.352    0.192  202.409   87.052
  496.750   10.207    0.360    0.220  200.460   87.639
  497.000   10.636    0.361    0.222  199.488   87.934
  497.250   10.815    0.360    0.205  201.443   89.692
  497.500   10.556    0.359    0.204  202.909   91.449
  497.750    9.732    0.359    0.202  202.912   91.743
  498.000    8.973    0.359    0.190  201.939   88.526
  498.250    9.123    0.359    0.189  200.967   82.382
  498.500    9.822    0.357    0.207  199.506   77.408
  498.750   10.926    0.356    0.232  197.558   76.240
  499.000   12.153    0.358    0.244  195.610   78.290
  499.250   13.299    0.364    0.247  194.149   81.511
  499.500   14.794    0.364    0.240  194.152   79.464
  499.750   15.928    0.362    0.231  196.106   80.929
  500.000   21.043    0.361    0.227  204.258   82.843
  500.250   18.540    0.370    0.232  203.265   82.245
  500.500   15.755    0.371    0.236  202.756   78.162
  500.750   14.920    0.364    0.233  202.244   72.623
