~VERSION INFORMATION
 VERS.                 2.0:   CWLS LOG ASCII STANDARD -VERSION 2.0
 WRAP.                  NO:   ONE LINE PER DEPTH STEP
~WELL INFORMATION BLOCK
#MNEM.UNIT           DATA                    DESCRIPTION OF MNEMONIC
#---------    -------------------            -------------------------------
# Generated from Intellog Unique Number	CS_77_79/WELL/914
WELL.         PCI PCEJ CHARD                 : Well_name    - WELL
LOC .         00/07-32-079-06W4/0            : Location     - LOCATION
UWI .         00/07-32-079-06W4/0            : Uwi          - UNIQUE WELL ID
ENTR.         JHS                            : Entered      - ENTERED BY
SRVC.         SCHLUMBERGER                   : Scn          - SERVICE COMPANY
STRT.M        120                            : top_depth    - START DEPTH
STOP.M        360                            : bot_depth    - STOP DEPTH
STEP.M        0.25                           : increment    - STEP LENGTH
 NULL. -999.2500:NULL Value
~CURVE INFORMATION BLOCK
#MNEM UNIT       ERCB CURVE CODE    CURVE DESCRIPTION
#-----------   ------------------   ----------------------------------
DEPT.M        00 001 00 00         : DEPTH        - DEPTH
DPHI.V/V      00 890 00 00         : PHID         - DENSITY POROSITY (LIMESTONE)
NPHI.V/V      00 330 00 00         : PHIN         - NEUTRON POROSITY (LIMESTONE)
GR  .API      00 310 00 00         : GR           - GAMMA RAY
ILD .OHMM     00 120 00 00         : RESD         - DEEP RESISTIVITY (DIL)
RHOB.KG/M3    00 350 00 00         : DENS         - BULK DENSITY
~PARAMETER INFORMATION
#MNEM.UNIT           DATA             DESCRIPTION OF MNEMONIC
#---------         -----------     ------------------------------
GL  .M        547.4                : gl           - GROUND LEVEL ELEVATION
EREF.M        550.5                : kb           - ELEVATION OF DEPTH REFERENCE
DATM.M        550.5                : datum        - DATUM ELEVATION
TDD .M        365                  : tdd          - TOTAL DEPTH DRILLER
RUN .         ONE                  : Run          - RUN NUMBER
ENG .         BILL                 : Engineer     - RECORDING ENGINEER
WIT .         JIM                  : Witness      - WITNESSED BY
MUD .         GEL                  : Mud_type     - MUD TYPE
MATR.         LIMESTONE            : Logunit      - NEUTRON MATRIX
TMAX.C        20                   : BHT          - MAXIMUM RECORDED TEMPERATURE
BHTD.M        365                  : BHTDEP       - MAXIMUM RECORDED TEMPERATURE
MATR.         1                    : LOGUNIT      - NEUTRON MATRIX
RMT .C        25                   : MDTP         - TEMPERATURE OF MUD
NEUT.         1                    : NEUTRON      - NEUTRON TYPE
RESI.         0                    : RESIST       - RESISTIVITY TYPE
RMC .OHMM     0.25                 : RMC          - RESISTIVITY OF MUD CAKE
RMF .OHMM     0.25                 : RMF          - RESISTIVITY OF MUD FILTRATE
SUFT.C        15                   : SUFT         - SURFACE TEMPERATURE
~A  DEPTH     PHID     PHIN       GR     RESD     DENS
# ...
  156.500    0.331    0.436   65.892   14.839    0.000
  156.750    0.321    0.448   71.995   11.855    0.000
  157.000    0.293    0.434   81.134    9.653    0.000
  157.250    0.252    0.434   95.134    8.313    0.000
  157.500    0.220    0.455  104.886    7.296    0.000
  157.750    0.186    0.446  104.308    7.034    0.000
  158.000    0.162    0.436  111.019    7.449    0.000
  158.250    0.175    0.456  128.055    7.885    0.000
  158.500    0.230    0.464  147.521    9.703    0.000
  158.750    0.290    0.472  153.021   11.938    0.000
  159.000    0.352    0.459  130.577   15.834    0.000
  159.250    0.356    0.431   88.096   19.851    0.000
  159.500    0.348    0.423   70.516   21.016    0.000
  159.750    0.329    0.423   64.473   21.035    0.000
  160.000    0.330    0.410   66.327   19.531    0.000
  160.250    0.341    0.413   72.434   18.137    0.000
  160.500    0.347    0.433   77.927   17.155    0.000
  160.750    0.340    0.468   84.642   15.636    0.000
  161.000    0.316    0.457   88.314   14.792    0.000
  161.250    0.294    0.448   90.171   14.530    0.000
  161.500    0.294    0.505   90.201   14.271    0.000
  161.750    0.300    0.497   89.025   14.552    0.000
  162.000    0.305    0.459   86.621   15.408    0.000
  162.250    0.297    0.444   83.615   16.316    0.000
  162.500    0.299    0.445   78.186   16.953    0.000
  162.750    0.309    0.454   75.778   16.340    0.000
  163.000    0.319    0.452   72.772   15.461    0.000
  163.250    0.326    0.427   76.451   14.091    0.000
  163.500    0.293    0.414   80.736   13.582    0.000
  163.750    0.262    0.413   79.549   13.340    0.000
  164.000    0.249    0.423   74.720   13.605    0.000
  164.250    0.255    0.431   71.713   13.874    0.000
  164.500    0.277    0.429   74.784   14.419    0.000
  164.750    0.281    0.415   79.676   14.979    0.000
  165.000    0.278    0.402   70.597   15.565    0.000
  165.250    0.289    0.400   64.554   16.178    0.000
  165.500    0.288    0.427   63.375   16.499    0.000
  165.750    0.356    0.488   61.575   16.205    0.000
  166.000    0.399    0.454   71.933   15.332    0.000
  166.250    0.316    0.430   67.713   14.505    0.000
  166.500    0.288    0.416   65.922   13.981    0.000
  166.750    0.273    0.426   73.847   12.742    0.000
  167.000    0.279    0.450   79.351   12.515    0.000
  167.250    0.289    0.450   83.020   12.065    0.000
  167.500    0.289    0.445   85.492   12.075    0.000
  167.750    0.276    0.436   83.693   11.641    0.000
  168.000    0.274    0.435   81.293   11.220    0.000
  168.250    0.254    0.444   88.005   10.615    0.000
  168.500    0.249    0.461   89.864   10.041    0.000
  168.750    0.268    0.473   92.932    9.322    0.000
  169.000    0.231    0.468   95.993    8.497    0.000
  169.250    0.217    0.458  100.882    8.189    0.000
  169.500    0.226    0.468  105.777    7.751    0.000
  169.750    0.228    0.474  106.411    7.753    0.000
  170.000    0.247    0.460  103.410    8.209    0.000
  170.250    0.268    0.452   88.859    9.198    0.000
  170.500    0.287    0.448   81.603   10.498    0.000
  170.750    0.320    0.437   81.639   11.324    0.000
  171.000    0.298    0.421   85.313   12.218    0.000
  171.250    0.255    0.411   95.063   12.004    0.000
  171.500    0.252    0.410   99.344   11.570    0.000
  171.750    0.262    0.412  100.592   10.745    0.000
  172.000    0.252    0.422  101.225   10.164    0.000
  172.250    0.231    0.446  104.292    9.798    0.000
  172.500    0.221    0.449  107.971    9.444    0.000
  172.750    0.242    0.441  106.785    9.276    0.000
  173.000    0.258    0.446   99.527    9.284    0.000
  173.250    0.254    0.491   95.307    9.292    0.000
  173.500    0.244    0.503  100.201    9.476    0.000
  173.750    0.248    0.502   97.803    9.846    0.000
  174.000    0.281    0.511   91.756   11.032    0.000
  174.250    0.311    0.472   87.541   12.126    0.000
  174.500    0.331    0.446   87.573   13.330    0.000
  174.750    0.305    0.452   89.436   14.118    0.000
  175.000    0.292    0.441   88.854   14.127    0.000
  175.250    0.292    0.439   87.064   14.139    0.000
  175.500    0.289    0.453   86.492   13.887    0.000
  175.750    0.276    0.436   87.725   13.644    0.000
  176.000    0.255    0.414   94.437   13.401    0.000
  176.250    0.238    0.428  101.146   13.411    0.000
  176.500    0.241    0.475   98.143   13.677    0.000
  176.750    0.280    0.488   81.773   14.213    0.000
  177.000    0.350    0.487   58.726   16.224    0.000
  177.250    0.375    0.468   55.117   17.175    0.000
  177.500    0.384    0.454   56.970   19.605    0.000
  177.750    0.383    0.455   57.003   21.552    0.000
  178.000    0.363    0.447   58.851   21.573    0.000
  178.250    0.320    0.408   68.000   19.654    0.000
  178.500    0.268    0.396   75.314   16.005    0.000
  178.750    0.147    0.400   78.993   13.783    0.000
  179.000    0.127    0.418   83.273   11.221    0.000
  179.250    0.144    0.436   91.803    9.308    0.000
  179.500    0.187    0.458   93.662    7.722    0.000
  179.750    0.216    0.475   90.055    7.306    0.000
  180.000    0.240    0.464   86.434    7.042    0.000
  180.250    0.253    0.455   81.606    7.457    0.000
  180.500    0.272    0.444   74.958    8.198    0.000
  180.750    0.289    0.423   73.169    9.901    0.000
  181.000    0.287    0.421   73.810   11.301    0.000
  181.250    0.284    0.438   77.485   12.421    0.000
  181.500    0.289    0.465   80.549   13.917    0.000
  181.750    0.299    0.484   78.148   15.011    0.000
  182.000    0.312    0.461   66.640   17.792    0.000
  182.250    0.302    0.422   54.523   20.307    0.000
  182.500    0.302    0.403   52.137   23.179    0.000
  182.750    0.315    0.395   51.551   25.480    0.000
  183.000    0.329    0.400   51.578   26.978    0.000
  183.250    0.325    0.408   49.787   28.033    0.000
  183.500    0.316    0.401   45.567   29.144    0.000
  183.750    0.313    0.401   48.032   29.710    0.000
  184.000    0.318    0.415   50.493   29.738    0.000
  184.250    0.343    0.426   49.309   29.768    0.000
  184.500    0.353    0.416   46.305   29.794    0.000
  184.750    0.348    0.411   45.728   29.824    0.000
  185.000    0.339    0.427   45.755   30.402    0.000
  185.250    0.329    0.446   46.401   30.431    0.000
  185.500    0.332    0.427   47.645   30.458    0.000
  185.750    0.339    0.420   49.497   30.486    0.000
  186.000    0.349    0.416   51.350   30.509    0.000
  186.250    0.346    0.410   51.991   30.540    0.000
  186.500    0.349    0.415   51.410   30.566    0.000
  186.750    0.356    0.423   49.617   30.587    0.000
  187.000    0.349    0.428   48.438   30.619    0.000
  187.250    0.347    0.421   49.074   30.079    0.000
  187.500    0.348    0.407   50.318   30.103    0.000
  187.750    0.345    0.412   53.999   29.559    0.000
  188.000    0.351    0.417   59.494   29.585    0.000
  188.250    0.370    0.436   59.524   29.061    0.000
  188.500    0.385    0.464   52.267   28.021    0.000
  188.750    0.377    0.450   49.867   27.006    0.000
  189.000    0.362    0.442   55.368   26.034    0.000
  189.250    0.360    0.438   56.002   26.053    0.000
  189.500    0.360    0.420   53.605   25.601    0.000
  189.750    0.353    0.414   54.251   25.624    0.000
  190.000    0.347    0.427   55.497   25.158    0.000
  190.250    0.348    0.439   56.129   23.804    0.000
  190.500    0.354    0.422   53.738   23.382    0.000
  190.750    0.356    0.432   54.976   23.402    0.000
  191.000    0.344    0.439   56.830   23.428    0.000
  191.250    0.341    0.424   56.865   23.883    0.000
  191.500    0.347    0.429   56.895   24.364    0.000
  191.750    0.366    0.430   58.746   24.848    0.000
  192.000    0.378    0.421   61.813   24.860    0.000
  192.250    0.377    0.412   61.842   24.886    0.000
  192.500    0.362    0.411   57.633   24.906    0.000
  192.750    0.361    0.429   58.264   24.467    0.000
