~VERSION INFORMATION
 VERS.                 2.0:   CWLS LOG ASCII STANDARD -VERSION 2.0
 WRAP.                  NO:   ONE LINE PER DEPTH STEP
~WELL INFORMATION BLOCK
#MNEM.UNIT           DATA                    DESCRIPTION OF MNEMONIC
#---------    -------------------            -------------------------------
# Generated from Intellog Unique Number	CW_76_78/WELL/619
WELL.         07-12-077-04W5                 : Well_name    - WELL
LOC .         00/07-12-077-04W5/0            : Location     - LOCATION
UWI .         00/07-12-077-04W5/0            : Uwi          - UNIQUE WELL ID
ENTR.         JAYE                           : Entered      - ENTERED BY
SRVC.         WESTERN ATLAS                  : Scn          - SERVICE COMPANY
STRT.M        435.864                        : top_depth    - START DEPTH
STOP.M        633.864                        : bot_depth    - STOP DEPTH
STEP.M        0.25                           : increment    - STEP LENGTH
 NULL. -999.2500:NULL Value
~CURVE INFORMATION BLOCK
#MNEM UNIT       ERCB CURVE CODE    CURVE DESCRIPTION
#-----------   ------------------   ----------------------------------
DEPT.M        00 001 00 00         : DEPTH        - DEPTH
ILD .OHMM     00 120 00 00         : RESD         - DEEP RESISTIVITY (DIL)
DPHI.V/V      00 890 00 00         : PHID         - DENSITY POROSITY (SANDSTONE)
NPHI.V/V      00 330 00 00         : PHIN         - NEUTRON POROSITY (SANDSTONE)
GR  .API      00 310 00 00         : GR           - GAMMA RAY
CALI.MM       00 280 01 00         : CAL          - CALIPER
~PARAMETER INFORMATION
#MNEM.UNIT           DATA             DESCRIPTION OF MNEMONIC
#---------         -----------     ------------------------------
GL  .M        719.938              : gl           - GROUND LEVEL ELEVATION
EREF.M        723.595              : kb           - ELEVATION OF DEPTH REFERENCE
DATM.M        719.938              : datum        - DATUM ELEVATION
TDD .M        694.944              : tdd          - TOTAL DEPTH DRILLER
RUN .         ONE                  : Run          - RUN NUMBER
ENG .         SKOWOEODKO           : Engineer     - RECORDING ENGINEER
WIT .         MIS/STEIDEL          : Witness      - WITNESSED BY
BASE.         EDM                  : Branch       - HOME BASE OF LOGGING UNIT
MUD .         GEL CHEM             : Mud_type     - MUD TYPE
MATR.         SANDSTONE            : Logunit      - NEUTRON MATRIX
TMAX.C        27.2222              : BHT          - MAXIMUM RECORDED TEMPERATURE
BHTD.M        695.858              : BHTDEP       - MAXIMUM RECORDED TEMPERATURE
RMT .C        15.5556              : MDTP         - TEMPERATURE OF MUD
MUDD.KG/M     0                    : MWT          - MUD DENSITY
NEUT.         1                    : NEUTRON      - NEUTRON TYPE
RESI.         0                    : RESIST       - RESISTIVITY TYPE
RM  .OHMM     3.35                 : RM           - RESISTIVITY OF MUD
RMC .OHMM     0                    : RMC          - RESISTIVITY OF MUD CAKE
RMF .OHMM     4.4                  : RMF          - RESISTIVITY OF MUD FILTRATE
SUFT.C        -17.7778             : SUFT         - SURFACE TEMPERATURE
~A  DEPTH     RESD     PHID     PHIN       GR      CAL
# ...
  508.864    3.939    0.213    0.460  102.563  170.935
  509.114    3.936    0.219    0.471  102.270  171.580
  509.364    3.956    0.225    0.480  101.856  171.499
  509.614    4.004    0.232    0.468  101.319  171.626
  509.864    4.054    0.264    0.457   99.865  171.131
  510.114    4.164    0.256    0.450   97.066  170.121
  510.364    4.301    0.274    0.452   92.555  168.796
  510.614    4.443    0.283    0.456   89.206  168.512
  510.864    4.514    0.277    0.463   87.201  168.741
  511.114    4.528    0.293    0.457   86.176  168.865
  511.364    4.550    0.297    0.449   86.741  168.889
  511.614    4.547    0.289    0.441   87.365  169.223
  511.864    4.561    0.282    0.430   88.235  169.246
  512.114    4.558    0.282    0.436   89.410  169.269
  512.364    4.538    0.264    0.447   90.524  168.980
  512.614    4.535    0.237    0.451   91.210  169.107
  512.864    4.532    0.228    0.438   92.202  169.339
  513.114    4.513    0.188    0.430   94.295  169.569
  513.364    4.493    0.197    0.429   96.083  170.004
  513.614    4.466    0.210    0.431   96.892  171.272
  513.864    4.463    0.177    0.443   96.904  172.950
  514.114    4.527    0.186    0.455   97.409  174.941
  514.364    4.590    0.187    0.441   97.910  176.311
  514.614    4.629    0.160    0.395   97.129  176.644
  514.864    4.610    0.135    0.372   94.574  175.531
  515.114    4.548    0.172    0.407   92.448  173.583
  515.364    4.446    0.189    0.433   93.317  171.746
  515.614    4.322    0.188    0.456   96.449  171.144
  515.864    4.187    0.197    0.465  101.968  170.341
  516.114    4.100    0.213    0.461  104.242  169.327
  516.364    4.046    0.238    0.449   99.242  168.421
  516.614    4.043    0.267    0.451   93.936  167.615
  516.864    4.040    0.250    0.439   94.746  167.433
  517.114    4.090    0.228    0.434   96.225  167.246
  517.364    4.110    0.221    0.452   95.567  167.167
  517.614    4.160    0.222    0.460   95.581  167.188
  517.864    4.195    0.239    0.435   96.266  167.316
  518.114    4.263    0.231    0.437   95.913  167.547
  518.364    4.323    0.215    0.441   92.625  167.362
  518.614    4.352    0.218    0.448   93.006  167.592
  518.864    4.390    0.232    0.455   95.405  167.304
  519.114    4.412    0.260    0.464   94.012  166.603
  519.364    4.401    0.301    0.446   90.784  165.902
  519.614    4.390    0.307    0.436   84.990  164.997
  519.864    4.363    0.290    0.456   76.503  164.398
  520.114    4.360    0.273    0.464   74.807  164.210
  520.364    4.471    0.294    0.454   77.388  164.234
  520.614    4.695    0.290    0.441   79.602  164.156
  520.864    4.895    0.281    0.422   78.576  163.866
  521.114    5.112    0.277    0.426   76.328  163.787
  521.364    5.329    0.289    0.430   73.896  163.295
  521.614    5.465    0.290    0.416   73.604  163.315
  521.864    5.603    0.276    0.419   74.231  163.340
  522.114    5.600    0.275    0.437   74.612  163.368
  522.364    5.586    0.292    0.424   74.806  163.595
  522.614    5.602    0.285    0.421   74.454  163.614
  522.864    5.650    0.275    0.429   74.468  163.536
  523.114    5.679    0.276    0.439   74.727  163.458
  523.364    5.748    0.280    0.448   74.861  163.479
  523.614    5.840    0.282    0.439   74.936  163.500
  523.864    5.880    0.282    0.432   73.482  163.736
  524.114    5.941    0.278    0.426   73.252  163.548
  524.364    5.992    0.258    0.428   73.998  163.468
  524.614    5.988    0.251    0.438   75.787  163.699
  524.864    5.973    0.254    0.453   77.449  163.928
  525.114    5.904    0.267    0.465   79.603  164.259
  525.364    5.667    0.293    0.460   81.391  164.392
  525.614    5.389    0.282    0.447   81.038  164.515
  525.864    5.172    0.256    0.442   81.785  164.640
  526.114    4.946    0.234    0.444   84.978  164.976
  526.364    4.712    0.199    0.456   89.333  165.204
  526.614    4.498    0.203    0.457   86.718  165.541
  526.864    4.317    0.221    0.464   80.250  165.664
  527.114    4.113    0.253    0.456   73.660  165.585
  527.364    3.933    0.282    0.442   69.577  165.505
  527.614    3.754    0.294    0.438   68.184  165.529
  527.864    3.616    0.298    0.436   69.115  165.549
  528.114    3.587    0.315    0.436   71.514  165.366
  528.364    3.578    0.308    0.440   73.789  165.184
  528.614    3.596    0.293    0.440   77.227  165.206
  528.864    3.660    0.276    0.429   80.665  165.235
  529.114    3.705    0.245    0.426   84.286  165.253
  529.364    3.737    0.205    0.449   88.396  165.793
  529.614    3.749    0.187    0.470   93.240  167.264
  529.864    3.699    0.176    0.437  100.469  169.254
  530.114    3.563    0.195    0.419  101.462  170.111
  530.364    3.382    0.205    0.413   99.153  170.648
  530.614    3.252    0.210    0.419   97.820  170.881
  530.864    3.220    0.224    0.429   96.978  171.110
  531.114    3.254    0.212    0.439   94.913  171.651
  531.364    3.379    0.220    0.444   93.520  172.295
  531.614    3.648    0.237    0.434   93.289  173.042
  531.864    3.960    0.239    0.427   93.793  173.790
  532.114    4.205    0.220    0.427   94.968  174.641
  532.364    4.367    0.203    0.433   96.450  175.388
  532.614    4.454    0.181    0.442   97.442  176.033
  532.864    4.500    0.181    0.452   96.659  176.577
  533.114    4.489    0.197    0.462   94.044  176.390
  533.364    4.470    0.220    0.464   92.408  174.657
  533.614    4.409    0.207    0.456   90.832  171.985
  533.864    4.359    0.196    0.448   89.379  168.800
  534.114    4.276    0.226    0.452   88.842  169.237
  534.364    4.188    0.211    0.460   89.709  171.743
  534.614    4.140    0.200    0.467   93.576  174.150
  534.864    4.114    0.193    0.467   97.442  174.998
  535.114    4.104    0.251    0.453  100.512  172.228
  535.364    4.101    0.263    0.441   98.019  168.524
  535.614    4.091    0.268    0.432   93.998  166.372
  535.864    4.112    0.247    0.435   93.155  165.982
  536.114    4.162    0.225    0.445   93.781  166.834
  536.364    4.252    0.225    0.451   95.750  167.684
  536.614    4.360    0.228    0.439   99.004  168.021
  536.864    4.455    0.215    0.427  102.565  167.938
  537.114    4.551    0.223    0.438  103.006  167.549
  537.364    4.598    0.251    0.454  101.064  168.709
  537.614    4.621    0.261    0.471   98.142  172.046
  537.864    4.609    0.270    0.461   94.304  174.139
  538.114    4.597    0.278    0.461   87.225  174.058
  538.364    4.612    0.293    0.460   84.303  171.183
  538.614    4.651    0.275    0.457   82.604  168.098
  538.864    4.708    0.278    0.449   83.230  165.947
  539.114    4.740    0.294    0.444   86.546  164.523
  539.364    4.737    0.283    0.444   83.746  163.719
  539.614    4.743    0.286    0.447   83.025  163.222
  539.864    4.697    0.281    0.447   83.896  162.629
  540.114    4.651    0.266    0.446   83.971  162.337
  540.364    4.597    0.282    0.448   83.190  162.152
  540.614    4.510    0.295    0.452   83.142  162.075
  540.864    4.425    0.285    0.446   83.583  162.517
  541.114    4.358    0.267    0.441   84.454  162.743
  541.364    4.323    0.276    0.435   84.589  163.176
  541.614    4.328    0.279    0.424   84.482  163.514
  541.864    4.349    0.277    0.425   84.066  163.740
  542.114    4.427    0.280    0.431   83.285  163.974
  542.364    4.482    0.292    0.443   82.137  163.998
  542.614    4.503    0.296    0.439   81.050  164.016
  542.864    4.509    0.294    0.434   81.430  164.043
  543.114    4.465    0.287    0.439   82.851  164.167
  543.364    4.413    0.269    0.445   83.048  164.610
  543.614    4.330    0.275    0.432   83.245  164.833
  543.864    4.280    0.285    0.434   85.094  164.961
  544.114    4.238    0.264    0.442   87.002  164.989
  544.364    4.173    0.254    0.437   89.218  165.110
  544.614    4.094    0.227    0.425   91.799  165.141
  544.864    4.003    0.269    0.430   95.053  165.261
  545.114    3.928    0.292    0.432   87.915  165.182
