~VERSION INFORMATION
 VERS.                 2.0:   CWLS LOG ASCII STANDARD -VERSION 2.0
 WRAP.                  NO:   ONE LINE PER DEPTH STEP
~WELL INFORMATION BLOCK
#MNEM.UNIT           DATA                    DESCRIPTION OF MNEMONIC
#---------    -------------------            -------------------------------
# Generated from Intellog Unique Number	CW_79_81/WELL/2448
WELL.         SHELL FINA PASTECHO            : Well_name    - WELL
LOC .         00/05-25-081-03W5/0            : Location     - LOCATION
UWI .         00/05-25-081-03W5/0            : Uwi          - UNIQUE WELL ID
ENTR.         MAX                            : Entered      - ENTERED BY
SRVC.         SCHLUMBERGER                   : Scn          - SERVICE COMPANY
STRT.M        250                            : top_depth    - START DEPTH
STOP.M        479.75                         : bot_depth    - STOP DEPTH
STEP.M        0.25                           : increment    - STEP LENGTH
 NULL. -999.2500:NULL Value
~CURVE INFORMATION BLOCK
#MNEM UNIT       ERCB CURVE CODE    CURVE DESCRIPTION
#-----------   ------------------   ----------------------------------
DEPT.M        00 001 00 00         : DEPTH        - DEPTH
ILD .OHMM     00 120 00 00         : RESD         - DEEP RESISTIVITY (DIL)
NPHI.V/V      00 330 00 00         : PHIN         - NEUTRON POROSITY (SANDSTONE)
DPHI.V/V      00 890 00 00         : PHID         - DENSITY POROSITY (SANDSTONE)
GR  .API      00 310 00 00         : GR           - GAMMA RAY
CALI.MM       00 280 01 00         : CAL          - CALIPER
~PARAMETER INFORMATION
#MNEM.UNIT           DATA             DESCRIPTION OF MNEMONIC
#---------         -----------     ------------------------------
GL  .M        574.37               : gl           - GROUND LEVEL ELEVATION
EREF.M        578.37               : kb           - ELEVATION OF DEPTH REFERENCE
DATM.M        574.37               : datum        - DATUM ELEVATION
TDD .M        455.2                : tdd          - TOTAL DEPTH DRILLER
RUN .         ONE                  : Run          - RUN NUMBER
ENG .         BILL                 : Engineer     - RECORDING ENGINEER
WIT .         JIM                  : Witness      - WITNESSED BY
MUD .         GEL                  : Mud_type     - MUD TYPE
MATR.         SANDSTONE            : Logunit      - NEUTRON MATRIX
TMAX.C        16.7                 : BHT          - MAXIMUM RECORDED TEMPERATURE
BHTD.M        455.2                : BHTDEP       - MAXIMUM RECORDED TEMPERATURE
MATR.         1                    : LOGUNIT      - NEUTRON MATRIX
RMT .C        22.2                 : MDTP         - TEMPERATURE OF MUD
NEUT.         1                    : NEUTRON      - NEUTRON TYPE
RESI.         0                    : RESIST       - RESISTIVITY TYPE
RMC .OHMM     3.58                 : RMC          - RESISTIVITY OF MUD CAKE
RMF .OHMM     2.73                 : RMF          - RESISTIVITY OF MUD FILTRATE
SUFT.C        -20                  : SUFT         - SURFACE TEMPERATURE
~A  DEPTH     RESD     PHIN     PHID       GR      CAL
# ...
  286.500   11.330    0.492    0.363   58.620  214.150
  286.750   11.258    0.503    0.365   60.512  214.357
  287.000   11.186    0.508    0.365   63.407  214.762
  287.250   11.100    0.501    0.351   66.334  215.007
  287.500   11.024    0.490    0.358   65.604  214.197
  287.750   10.875    0.479    0.356   67.969  213.817
  288.000   10.786    0.476    0.353   69.096  214.613
  288.250   10.717    0.473    0.351   68.513  214.623
  288.500   10.667    0.468    0.351   66.634  213.358
  288.750   10.709    0.458    0.353   64.902  212.048
  289.000   10.883    0.462    0.350   65.645  213.287
  289.250   10.892    0.469    0.356   65.416  214.475
  289.500   10.782    0.482    0.371   68.018  214.486
  289.750   10.557    0.485    0.377   69.204  213.712
  290.000   10.067    0.478    0.373   68.208  213.036
  290.250    8.988    0.476    0.373   67.547  213.590
  290.500    8.407    0.492    0.369   66.573  212.375
  290.750    8.537    0.502    0.356   65.400  210.813
  291.000    8.204    0.499    0.354   65.643  210.431
  291.250    7.894    0.500    0.355   65.531  210.637
  291.500    7.884    0.510    0.356   64.417  211.041
  291.750    8.405    0.517    0.371   62.677  211.449
  292.000    8.605    0.512    0.369   62.193  211.461
  292.250    8.681    0.504    0.368   61.963  211.864
  292.500    8.843    0.500    0.364   64.210  212.857
  292.750    9.362    0.501    0.358   64.925  213.851
  293.000   10.200    0.504    0.357   63.340  214.453
  293.250   10.779    0.506    0.371   62.278  214.467
  293.500   10.953    0.500    0.381   64.004  214.477
  293.750   11.203    0.499    0.368   64.482  213.704
  294.000   11.397    0.490    0.367   63.369  212.635
  294.250   11.449    0.487    0.362   62.903  211.466
  294.500   11.376    0.493    0.352   63.440  210.495
  294.750   11.305    0.504    0.358   63.203  210.199
  295.000   11.314    0.506    0.373   61.982  210.620
  295.250   11.242    0.505    0.374   61.047  211.023
  295.500   11.171    0.506    0.377   60.640  211.131
  295.750   11.059    0.505    0.384   60.410  210.553
  296.000   10.929    0.502    0.390   60.300  209.582
  296.250   10.827    0.497    0.383   60.544  209.367
  296.500   10.675    0.500    0.377   60.550  210.195
  296.750   10.605    0.493    0.361   59.614  210.993
  297.000   10.652    0.478    0.363   58.854  211.790
  297.250   10.778    0.472    0.368   58.978  212.195
  297.500   10.905    0.479    0.370   60.046  212.305
  297.750   10.900    0.490    0.373   61.617  212.710
  298.000   10.827    0.498    0.367   62.360  212.725
  298.250   10.760    0.498    0.372   62.131  213.129
  298.500   10.689    0.489    0.377   61.550  213.237
  298.750   10.581    0.485    0.380   61.557  213.248
  299.000   10.457    0.489    0.382   62.270  213.259
  299.250   10.360    0.491    0.380   62.790  213.191
  299.500   10.214    0.486    0.379   61.814  212.794
  299.750   10.000    0.482    0.378   62.529  213.197
  300.000    9.846    0.486    0.381   62.535  213.308
  300.250    9.819    0.499    0.378   61.715  213.123
  300.500    9.936    0.513    0.371   60.543  212.839
  300.750   10.210    0.508    0.369   60.473  212.852
  301.000   10.454    0.492    0.355   62.446  212.862
  301.250   10.694    0.493    0.349   62.452  212.874
  301.500   11.056    0.485    0.352   63.343  212.886
  301.750   11.555    0.478    0.356   63.939  213.290
  302.000   12.253    0.475    0.356   63.474  213.989
  302.250   13.549    0.484    0.347   61.497  214.396
  302.500   14.974    0.495    0.345   61.014  214.406
  302.750   17.893    0.492    0.343   59.134  214.810
  303.000   22.921    0.439    0.271   57.784  215.511
  303.250   29.762    0.355    0.176   56.730  216.111
  303.500   34.380    0.272    0.103   55.971  216.318
  303.750   28.762    0.235    0.088   55.744  215.694
  304.000   23.064    0.251    0.060   55.749  214.479
  304.250   18.600    0.319    0.094   55.991  213.702
  304.500   14.323    0.374    0.174   56.764  213.221
  304.750   11.857    0.414    0.265   58.540  213.036
  305.000   10.633    0.458    0.335   61.435  212.654
  305.250   10.151    0.546    0.360   65.413  210.849
  305.500   10.717    0.532    0.374   66.403  209.634
  305.750   11.773    0.511    0.356   64.994  209.645
  306.000   12.209    0.490    0.339   61.111  209.068
  306.250   11.585    0.469    0.322   59.584  208.098
  306.500   10.288    0.451    0.312   62.243  207.126
  306.750    8.959    0.452    0.324   68.599  206.910
  307.000    8.506    0.491    0.354   72.045  207.740
  307.250    8.268    0.530    0.372   71.108  208.143
  307.500    8.171    0.544    0.375   70.702  206.779
  307.750    8.148    0.546    0.374   70.591  205.218
  308.000    8.155    0.543    0.372   70.539  204.639
  308.250    8.163    0.542    0.365   70.262  205.997
  308.500    8.171    0.535    0.370   70.024  206.825
  308.750    8.001    0.538    0.358   69.794  207.230
  309.000    7.748    0.533    0.346   71.688  208.813
  309.250    7.422    0.525    0.337   75.586  210.986
  309.500    7.048    0.515    0.322   81.251  212.963
  309.750    6.587    0.502    0.286   88.629  213.846
  310.000    6.254    0.500    0.275   90.109  214.265
  310.250    6.079    0.499    0.257   89.409  215.456
  310.500    5.878    0.497    0.253   88.531  216.352
  310.750    5.736    0.494    0.254   89.953  217.346
  311.000    5.668    0.493    0.256   94.086  218.536
  311.250    5.642    0.499    0.258   99.331  219.566
  311.500    5.689    0.512    0.262   99.583  218.758
  311.750    5.777    0.525    0.265   95.346  216.804
  312.000    5.898    0.527    0.259   92.169  215.439
  312.250    5.990    0.521    0.248   90.289  215.253
  312.500    5.938    0.512    0.241   89.765  215.953
  312.750    5.449    0.504    0.256   90.973  216.441
  313.000    4.769    0.493    0.259   93.436  216.862
  313.250    4.210    0.497    0.274  101.932  217.658
  313.500    3.593    0.514    0.275  106.891  219.340
  313.750    3.154    0.535    0.275  108.076  220.531
  314.000    2.930    0.555    0.278  105.961  220.347
  314.250    2.951    0.572    0.282  100.939  218.395
  314.500    3.044    0.578    0.280   97.014  218.405
  314.750    3.298    0.565    0.272   93.249  218.419
  315.000    3.630    0.544    0.268   91.782  218.723
  315.250    3.913    0.528    0.264   90.728  219.519
  315.500    4.063    0.521    0.263   89.438  220.612
  315.750    4.163    0.520    0.275   88.355  221.412
  316.000    4.361    0.530    0.281   87.625  221.424
  316.250    4.757    0.553    0.290   86.453  219.471
  316.500    5.192    0.554    0.311   82.804  216.928
  316.750    5.897    0.551    0.327   79.038  215.563
  317.000    7.019    0.552    0.333   76.629  215.572
  317.250    8.391    0.553    0.338   76.066  215.423
  317.500    9.063    0.551    0.336   75.581  214.616
  317.750    9.817    0.546    0.339   75.588  214.626
  318.000   10.033    0.535    0.337   74.888  214.344
  318.250    9.969    0.518    0.338   73.834  213.964
  318.500    9.887    0.501    0.342   72.485  213.581
  318.750   10.057    0.507    0.347   69.918  213.117
  319.000   10.535    0.517    0.356   66.486  212.720
  319.250   11.331    0.520    0.355   66.257  212.731
  319.500   12.383    0.539    0.358   66.912  212.447
  319.750   13.204    0.553    0.361   68.098  212.065
  320.000   13.484    0.550    0.364   69.166  211.782
  320.250   13.276    0.515    0.373   69.026  211.714
  320.500   12.701    0.503    0.371   68.297  211.317
  320.750   12.165    0.499    0.362   68.067  211.327
  321.000   11.851    0.493    0.352   67.662  211.339
  321.250   11.776    0.487    0.346   67.551  211.351
  321.500   11.871    0.487    0.346   67.970  211.361
  321.750   11.969    0.510    0.351   68.873  211.293
  322.000   11.982    0.534    0.362   68.633  210.896
  322.250   11.903    0.515    0.357   66.753  211.301
  322.500   11.892    0.506    0.350   64.698  211.409
  322.750   11.858    0.503    0.346   63.879  211.420
