~VERSION INFORMATION
 VERS.                 2.0:   CWLS LOG ASCII STANDARD -VERSION 2.0
 WRAP.                  NO:   ONE LINE PER DEPTH STEP
~WELL INFORMATION BLOCK
#MNEM.UNIT           DATA                    DESCRIPTION OF MNEMONIC
#---------    -------------------            -------------------------------
# Generated from Intellog Unique Number	CS_73_76/WELL/618
WELL.         AMOCO AEC IPIATIK              : Well_name    - WELL
LOC .         00/06-07-073-06W4/0            : Location     - LOCATION
UWI .         00/06-07-073-06W4/0            : Uwi          - UNIQUE WELL ID
ENTR.         SP                             : Entered      - ENTERED BY
SRVC.         SCHLUMBERGER                   : Scn          - SERVICE COMPANY
STRT.M        330                            : top_depth    - START DEPTH
STOP.M        550                            : bot_depth    - STOP DEPTH
STEP.M        0.25                           : increment    - STEP LENGTH
 NULL. -999.2500:NULL Value
~CURVE INFORMATION BLOCK
#MNEM UNIT       ERCB CURVE CODE    CURVE DESCRIPTION
#-----------   ------------------   ----------------------------------
DEPT.M        00 001 00 00         : DEPTH        - DEPTH
ILD .OHMM     00 120 00 00         : RESD         - DEEP RESISTIVITY (DIL)
DPHI.V/V      00 890 00 00         : PHID         - DENSITY POROSITY (LIMESTONE)
NPHI.V/V      00 330 00 00         : PHIN         - NEUTRON POROSITY (LIMESTONE)
GR  .API      00 310 00 00         : GR           - GAMMA RAY
~PARAMETER INFORMATION
#MNEM.UNIT           DATA             DESCRIPTION OF MNEMONIC
#---------         -----------     ------------------------------
GL  .M        711.41               : gl           - GROUND LEVEL ELEVATION
EREF.M        716.11               : kb           - ELEVATION OF DEPTH REFERENCE
DATM.M        711.41               : datum        - DATUM ELEVATION
TDD .M        576                  : tdd          - TOTAL DEPTH DRILLER
RUN .         ONE                  : Run          - RUN NUMBER
ENG .         BILL                 : Engineer     - RECORDING ENGINEER
WIT .         JIM                  : Witness      - WITNESSED BY
MUD .         GEL                  : Mud_type     - MUD TYPE
MATR.         LIMESTONE            : Logunit      - NEUTRON MATRIX
TMAX.C        12                   : BHT          - MAXIMUM RECORDED TEMPERATURE
BHTD.M        576                  : BHTDEP       - MAXIMUM RECORDED TEMPERATURE
MATR.         1                    : LOGUNIT      - NEUTRON MATRIX
RMT .C        25                   : MDTP         - TEMPERATURE OF MUD
NEUT.         1                    : NEUTRON      - NEUTRON TYPE
RESI.         0                    : RESIST       - RESISTIVITY TYPE
RMC .OHMM     0.25                 : RMC          - RESISTIVITY OF MUD CAKE
RMF .OHMM     0.25                 : RMF          - RESISTIVITY OF MUD FILTRATE
SUFT.C        15                   : SUFT         - SURFACE TEMPERATURE
~A  DEPTH     RESD     PHID     PHIN       GR
# ...
  373.500   10.726    0.240    0.407   98.974
  373.750   10.338    0.232    0.398  101.376
  374.000   10.343    0.222    0.403  101.974
  374.250   10.348    0.221    0.418  101.961
  374.500   10.749    0.238    0.427   98.322
  374.750   11.375    0.263    0.427   91.053
  375.000   11.595    0.284    0.405   86.806
  375.250   11.820    0.291    0.393   94.658
  375.500   11.607    0.280    0.405  104.321
  375.750   10.775    0.269    0.417  111.569
  376.000    9.637    0.230    0.426  120.025
  376.250    9.113    0.205    0.417  125.458
  376.500    8.151    0.199    0.403  126.051
  376.750    7.567    0.207    0.437  122.405
  377.000    7.292    0.215    0.451  122.399
  377.250    6.897    0.221    0.467  121.783
  377.500    6.773    0.225    0.483  116.327
  377.750    6.777    0.224    0.485  109.661
  378.000    6.779    0.230    0.466  104.206
  378.250    7.044    0.222    0.453  106.008
  378.500    7.316    0.226    0.447  109.018
  378.750    7.456    0.229    0.448  109.617
  379.000    7.892    0.236    0.444  108.999
  379.250    8.197    0.249    0.452  107.172
  379.500    8.675    0.260    0.459  103.532
  379.750    9.182    0.261    0.463   98.680
  380.000    9.358    0.269    0.461   96.251
  380.250    9.720    0.271    0.458  102.284
  380.500    9.908    0.266    0.423  105.902
  380.750   10.291    0.263    0.431  108.314
  381.000   11.098    0.268    0.454  108.907
  381.250   11.967    0.274    0.466   99.821
  381.500   13.911    0.280    0.426   93.157
  381.750   14.720    0.268    0.396   90.122
  382.000   15.870    0.242    0.409   82.849
  382.250   17.438    0.218    0.426   78.608
  382.500   18.452    0.201    0.440   68.917
  382.750   16.815    0.195    0.394   61.041
  383.000   15.034    0.225    0.391   56.191
  383.250   13.194    0.246    0.413   64.649
  383.500   11.579    0.285    0.419   80.359
  383.750    9.975    0.298    0.410   88.214
  384.000    9.259    0.251    0.410   96.065
  384.250    8.280    0.239    0.423  100.889
  384.500    7.544    0.238    0.445  102.087
  384.750    6.873    0.235    0.464  103.287
  385.000    6.262    0.233    0.488  108.717
  385.250    5.706    0.228    0.469  112.939
  385.500    5.296    0.219    0.474  114.139
  385.750    5.712    0.210    0.491  108.682
  386.000    6.639    0.236    0.497  101.415
  386.250    7.431    0.273    0.495   94.146
  386.500    8.163    0.296    0.483   82.038
  386.750    9.488    0.321    0.473   72.954
  387.000   10.424    0.334    0.461   69.314
  387.250   11.031    0.342    0.440   75.347
  387.500   11.459    0.295    0.423   81.382
  387.750   11.463    0.256    0.404   85.002
  388.000   11.691    0.275    0.423   80.757
  388.250   11.917    0.314    0.437   75.302
  388.500   11.923    0.326    0.443   69.848
  388.750   11.488    0.331    0.432   64.392
  389.000   11.494    0.337    0.433   60.752
  389.250   11.499    0.345    0.429   62.551
  389.500   11.504    0.352    0.416   64.958
  389.750   11.510    0.352    0.422   66.161
  390.000   11.304    0.352    0.430   67.359
  390.250   11.312    0.351    0.443   67.950
  390.500   11.317    0.341    0.457   67.335
  390.750   11.110    0.337    0.456   68.532
  391.000   10.707    0.334    0.444   68.520
  391.250   10.129    0.334    0.459   68.509
  391.500    9.760    0.329    0.460   70.917
  391.750    8.893    0.316    0.447   75.137
  392.000    8.732    0.299    0.439   78.147
  392.250    9.070    0.290    0.448   79.351
  392.500    9.246    0.286    0.459   81.757
  392.750    9.251    0.294    0.462   79.928
  393.000    9.255    0.300    0.464   76.288
  393.250    9.440    0.305    0.458   76.276
  393.500    9.444    0.289    0.453   76.268
  393.750    9.448    0.281    0.459   77.465
  394.000    9.630    0.300    0.436   78.663
  394.250    9.635    0.314    0.424   78.047
  394.500    9.639    0.284    0.425   76.219
  394.750    9.644    0.291    0.420   78.624
  395.000    9.648    0.300    0.418   79.826
  395.250    9.653    0.310    0.424   80.419
  395.500    9.478    0.317    0.413   83.430
  395.750    9.137    0.289    0.402   90.070
  396.000    8.972    0.275    0.405   95.504
  396.250    8.975    0.237    0.413  102.751
  396.500    9.150    0.212    0.426  103.343
  396.750    9.503    0.234    0.446   97.284
  397.000    9.871    0.252    0.457   84.572
  397.250   10.252    0.276    0.437   71.857
  397.500   10.852    0.304    0.418   68.822
  397.750   11.062    0.321    0.425   68.204
  398.000   11.277    0.331    0.436   68.193
  398.250   11.495    0.324    0.462   68.183
  398.500   11.722    0.326    0.462   68.170
  398.750   11.726    0.325    0.445   70.573
  399.000   11.513    0.322    0.432   71.173
  399.250   11.520    0.324    0.450   69.346
  399.500   11.313    0.320    0.444   66.306
  399.750   11.317    0.318    0.428   65.694
  400.000   11.112    0.315    0.432   67.497
  400.250   10.709    0.323    0.445   69.298
  400.500   10.321    0.326    0.440   68.682
  400.750   10.521    0.321    0.433   67.461
  401.000   10.928    0.312    0.440   68.051
  401.250   11.566    0.303    0.454   66.833
  401.500   12.474    0.301    0.449   63.798
  401.750   12.954    0.250    0.422   58.341
  402.000   13.709    0.098    0.288   55.307
  402.250   13.976    0.134    0.231   49.852
  402.500   13.981    0.200    0.277   46.816
  402.750   13.729    0.284    0.307   48.618
  403.000   12.988    0.318    0.365   48.003
  403.250   12.753    0.323    0.379   50.408
  403.500   12.293    0.325    0.392   53.421
  403.750   12.297    0.323    0.400   57.645
  404.000   12.073    0.328    0.408   63.678
  404.250   11.857    0.390    0.425   67.297
  404.500   11.216    0.426    0.473   70.916
  404.750   10.807    0.371    0.531   73.928
  405.000   10.222    0.345    0.450   72.706
  405.250    9.492    0.325    0.453   73.901
  405.500    8.978    0.321    0.471   75.704
  405.750    8.816    0.322    0.476   77.507
  406.000    8.496    0.312    0.465   78.706
  406.250    8.343    0.306    0.453   79.906
  406.500    8.192    0.306    0.478   81.103
  406.750    8.044    0.317    0.496   80.488
  407.000    7.753    0.306    0.475   85.312
  407.250    7.612    0.284    0.438   88.328
  407.500    7.338    0.282    0.443   88.920
  407.750    7.341    0.284    0.450   88.305
  408.000    7.344    0.277    0.451   87.686
  408.250    7.348    0.264    0.446   87.069
  408.500    7.351    0.257    0.429   87.056
  408.750    7.220    0.289    0.420   89.466
  409.000    7.223    0.280    0.470   93.688
  409.250    7.227    0.264    0.454   97.306
  409.500    7.230    0.252    0.420   96.690
  409.750    7.233    0.259    0.414   93.653
  410.000    7.102    0.271    0.435   97.269
  410.250    6.593    0.264    0.462  100.887
  410.500    5.574    0.240    0.465  100.876
  410.750    5.078    0.236    0.451  103.282
  411.000    4.894    0.246    0.452  104.482
  411.250    4.807    0.245    0.464  103.262
  411.500    4.720    0.240    0.474  106.878
  411.750    4.722    0.248    0.480  109.284
  412.000    4.724    0.252    0.474  109.274
  412.250    4.727    0.252    0.485  105.633
  412.500    4.729    0.251    0.491  105.014
  412.750    4.733    0.245    0.487  106.216
  413.000    4.735    0.238    0.478  105.598
  413.250    4.737    0.242    0.476  107.400
  413.500    4.740    0.246    0.493  105.575
  413.750    4.742    0.246    0.503  101.327
  414.000    4.833    0.239    0.490  100.714
  414.250    4.927    0.228    0.479  102.517
  414.500    5.215    0.232    0.490   95.849
  414.750    5.519    0.243    0.484   91.001
  415.000    6.064    0.263    0.479   83.126
  415.250    6.416    0.285    0.491   77.065
  415.500    7.050    0.313    0.492   72.821
  415.750    7.462    0.303    0.485   69.182
  416.000    7.605    0.288    0.466   69.167
  416.250    7.753    0.261    0.452   70.365
  416.500    7.614    0.238    0.445   69.751
  416.750    7.477    0.280    0.439   67.921
