~VERSION INFORMATION
 VERS.                 2.0:   CWLS LOG ASCII STANDARD -VERSION 2.0
 WRAP.                  NO:   ONE LINE PER DEPTH STEP
~WELL INFORMATION BLOCK
#MNEM.UNIT           DATA                    DESCRIPTION OF MNEMONIC
#---------    -------------------            -------------------------------
# Generated from Intellog Unique Number	CS_67_68/WELL/2160
WELL.         02-29-067-06W4                 : Well_name    - WELL
LOC .         00/02-29-067-06W4/0            : Location     - LOCATION
UWI .         00/02-29-067-06W4/0            : Uwi          - UNIQUE WELL ID
ENTR.         SP                             : Entered      - ENTERED BY
SRVC.         SCHLUMBERGER                   : Scn          - SERVICE COMPANY
STRT.M        335                            : top_depth    - START DEPTH
STOP.M        545                            : bot_depth    - STOP DEPTH
STEP.M        0.25                           : increment    - STEP LENGTH
 NULL. -999.2500:NULL Value
~CURVE INFORMATION BLOCK
#MNEM UNIT       ERCB CURVE CODE    CURVE DESCRIPTION
#-----------   ------------------   ----------------------------------
DEPT.M        00 001 00 00         : DEPTH        - DEPTH
ILD .OHMM     00 120 00 00         : RESD         - DEEP RESISTIVITY (DIL)
DPHI.V/V      00 890 00 00         : PHID         - DENSITY POROSITY (LIMESTONE)
NPHI.V/V      00 330 00 00         : PHIN         - NEUTRON POROSITY (LIMESTONE)
GR  .API      00 310 00 00         : GR           - GAMMA RAY
CALI.MM       00 280 01 00         : CAL          - CALIPER
~PARAMETER INFORMATION
#MNEM.UNIT           DATA             DESCRIPTION OF MNEMONIC
#---------         -----------     ------------------------------
GL  .M        659.3                : gl           - GROUND LEVEL ELEVATION
EREF.M        662.17               : kb           - ELEVATION OF DEPTH REFERENCE
DATM.M        662.17               : datum        - DATUM ELEVATION
TDD .M        558                  : tdd          - TOTAL DEPTH DRILLER
RUN .         ONE                  : Run          - RUN NUMBER
ENG .         BILL                 : Engineer     - RECORDING ENGINEER
WIT .         JIM                  : Witness      - WITNESSED BY
MUD .         GEL                  : Mud_type     - MUD TYPE
MATR.         LIMESTONE            : Logunit      - NEUTRON MATRIX
TMAX.C        23                   : BHT          - MAXIMUM RECORDED TEMPERATURE
BHTD.M        558.7                : BHTDEP       - MAXIMUM RECORDED TEMPERATURE
MATR.         1                    : LOGUNIT      - NEUTRON MATRIX
RMT .C        25                   : MDTP         - TEMPERATURE OF MUD
NEUT.         1                    : NEUTRON      - NEUTRON TYPE
RESI.         0                    : RESIST       - RESISTIVITY TYPE
RMC .OHMM     0.25                 : RMC          - RESISTIVITY OF MUD CAKE
RMF .OHMM     0.25                 : RMF          - RESISTIVITY OF MUD FILTRATE
SUFT.C        15                   : SUFT         - SURFACE TEMPERATURE
~A  DEPTH     RESD     PHID     PHIN       GR      CAL
  335.000    2.712    0.289    0.539   97.866  183.740
  335.250    2.828    0.292    0.539   95.670  186.178
  335.500    2.981    0.280    0.533   93.719  186.991
  335.750    3.027    0.264    0.522   93.170  187.600
  336.000    2.999    0.255    0.524   95.547  186.482
  336.250    2.904    0.255    0.528   98.535  183.737
  336.500    2.899    0.251    0.507   96.340  180.891
  336.750    3.039    0.216    0.497   94.327  179.265
  337.000    3.271    0.191    0.510   93.778  178.146
  337.250    3.404    0.212    0.521   95.485  179.467
  337.500    3.423    0.225    0.503   96.765  181.906
  337.750    3.417    0.234    0.493   97.619  185.056
  338.000    3.386    0.215    0.493   97.679  183.632
  338.250    3.230    0.213    0.511   97.374  176.315
  338.500    3.082    0.238    0.523   97.435  172.961
  338.750    2.941    0.247    0.534   97.983  173.468
  339.000    2.897    0.258    0.525   98.471  174.078
  339.250    2.920    0.264    0.532   98.349  173.569
  339.500    3.061    0.266    0.515   94.995  170.520
  339.750    3.149    0.263    0.497   91.763  167.877
  340.000    3.161    0.255    0.486   89.811  166.962
  340.250    3.132    0.270    0.490   98.652  161.270
  340.500    3.022    0.283    0.497  105.237  157.510
  340.750    2.889    0.291    0.498  103.774  154.562
  341.000    2.788    0.253    0.500   98.651  156.594
  341.250    2.721    0.230    0.513   97.553  166.756
  341.500    2.721    0.261    0.523   97.004  173.463
  341.750    2.789    0.284    0.528   95.907  176.003
  342.000    2.962    0.232    0.539   93.345  176.917
  342.250    3.273    0.197    0.493   89.565  170.311
  342.500    3.631    0.193    0.453   84.138  162.181
  342.750    4.104    0.248    0.413   79.625  154.863
  343.000    4.745    0.292    0.408   83.466  152.322
  343.250    5.283    0.290    0.406   87.124  151.407
  343.500    5.487    0.272    0.399   89.563  151.610
  343.750    5.395    0.262    0.393   90.965  153.133
  344.000    5.245    0.285    0.419   88.526  155.267
  344.250    5.090    0.299    0.443   84.562  154.657
  344.500    5.081    0.303    0.427   80.903  153.538
  344.750    5.149    0.279    0.414   75.293  153.538
  345.000    4.960    0.266    0.382   68.464  154.249
  345.250    4.723    0.287    0.399   60.354  155.976
  345.500    4.498    0.310    0.412   56.146  152.723
  345.750    4.349    0.324    0.411   51.451  150.995
  346.000    4.236    0.325    0.383   45.109  150.487
  346.250    4.049    0.326    0.369   42.670  150.486
  346.500    3.967    0.329    0.352   52.182  150.892
  346.750    3.923    0.330    0.381   58.462  151.298
  347.000    3.968    0.325    0.397   62.791  151.704
  347.250    4.121    0.316    0.400   66.205  151.704
  347.500    4.328    0.298    0.395   65.717  151.602
  347.750    4.571    0.289    0.392   65.290  151.601
  348.000    4.765    0.299    0.383   67.790  153.125
  348.250    5.014    0.306    0.377   74.497  155.970
  348.500    5.316    0.245    0.390   89.801  157.697
  348.750    5.605    0.232    0.396   97.423  157.189
  349.000    5.766    0.237    0.399   92.788  155.664
  349.250    5.810    0.236    0.409   88.032  154.139
  349.500    5.410    0.243    0.413   84.617  153.427
  349.750    5.250    0.281    0.416   81.202  152.715
  350.000    5.240    0.304    0.428   78.946  152.715
  350.250    5.163    0.304    0.436   83.275  152.918
  350.500    5.096    0.302    0.420   85.714  153.425
  350.750    4.908    0.311    0.431   87.238  154.238
  351.000    4.763    0.314    0.441   85.530  154.949
  351.250    4.965    0.310    0.435   86.566  155.456
  351.500    4.800    0.301    0.437   90.103  155.151
  351.750    4.649    0.297    0.446   84.432  154.744
  352.000    4.487    0.299    0.455   73.517  153.930
  352.250    4.225    0.312    0.447   66.077  152.711
  352.500    4.170    0.322    0.431   58.211  152.100
  352.750    4.250    0.333    0.421   54.796  151.896
  353.000    4.635    0.328    0.411   61.260  152.099
  353.250    4.804    0.309    0.407   67.479  152.505
  353.500    5.055    0.290    0.410   72.600  153.928
  353.750    5.270    0.278    0.413   69.429  155.452
  354.000    5.391    0.253    0.404   71.685  157.077
  354.250    5.662    0.237    0.399   85.160  158.499
  354.500    5.880    0.226    0.422   93.087  159.921
  354.750    5.454    0.219    0.440   97.721  160.937
  355.000    5.040    0.244    0.453   94.794  161.445
  355.250    4.477    0.272    0.453   93.452  159.818
  355.500    3.984    0.287    0.426  100.342  159.208
  355.750    3.620    0.265    0.420  107.232  160.021
  356.000    3.345    0.237    0.423  111.927  161.646
  356.250    3.150    0.218    0.459  116.560  164.491
  356.500    2.994    0.223    0.504  119.182  166.828
  356.750    3.216    0.245    0.514  119.609  167.844
  357.000    3.508    0.265    0.525  107.596  166.218
  357.250    3.913    0.282    0.493   99.974  163.575
  357.500    4.324    0.298    0.456   93.084  161.237
  357.750    4.878    0.306    0.434   88.876  158.289
  358.000    5.360    0.315    0.416   88.327  155.647
  358.250    5.619    0.465    0.406   85.217  155.036
  358.500    5.515    0.598    0.450   76.375  155.442
  358.750    4.789    0.525    0.614   62.106  155.543
  359.000    4.183    0.415    0.583   49.667  155.238
  359.250    3.954    0.386    0.463   59.911  154.526
  359.500    3.779    0.365    0.438   65.947  152.493
  359.750    3.668    0.348    0.421   64.422  150.664
  360.000    3.634    0.345    0.429   67.166  149.850
  360.250    3.662    0.344    0.419   71.190  149.850
  360.500    3.732    0.344    0.409   73.812  149.747
  360.750    3.839    0.341    0.416   76.068  150.458
  361.000    3.964    0.339    0.434   71.921  152.186
  361.250    4.071    0.337    0.441   68.262  152.795
  361.500    4.125    0.343    0.427   66.372  152.286
  361.750    4.188    0.347    0.429   65.640  151.269
  362.000    4.309    0.338    0.437   69.847  150.659
  362.250    4.603    0.321    0.428   79.297  150.252
  362.500    5.058    0.305    0.412   86.919  150.150
  362.750    5.352    0.291    0.402   93.016  150.150
  363.000    5.632    0.281    0.396   92.833  150.556
  363.250    5.069    0.267    0.420   78.016  151.063
  363.500    4.545    0.271    0.446   60.150  151.469
  363.750    4.304    0.304    0.438   50.393  152.180
  364.000    4.185    0.321    0.393   43.686  152.993
  364.250    4.138    0.336    0.380   50.393  153.500
  364.500    4.123    0.343    0.401   56.917  153.703
  364.750    4.124    0.344    0.426   61.856  153.703
  365.000    4.140    0.343    0.448   64.965  153.397
  365.250    4.172    0.343    0.457   66.489  152.889
  365.500    4.220    0.345    0.452   69.294  152.278
  365.750    4.284    0.346    0.437   69.903  151.871
  366.000    4.424    0.342    0.422   71.001  151.973
  366.250    4.744    0.330    0.413   73.134  152.582
  366.500    5.029    0.317    0.405   77.158  153.496
  366.750    5.332    0.300    0.402   80.390  154.715
  367.000    5.475    0.291    0.401   82.402  155.528
  367.250    5.665    0.288    0.398   83.865  155.832
  367.500    5.828    0.269    0.393   85.328  156.238
  367.750    5.917    0.243    0.388   87.157  157.660
  368.000    5.962    0.224    0.449   89.108  158.676
  368.250    5.918    0.243    0.483   88.437  159.184
  368.500    5.875    0.261    0.492   83.315  158.777
  368.750    5.777    0.271    0.479   79.412  157.760
  369.000    5.712    0.282    0.469   80.204  156.540
  369.250    5.649    0.280    0.462   83.009  155.218
  369.500    5.575    0.273    0.456   85.326  154.405
  369.750    5.503    0.270    0.461   87.033  152.982
  370.000    5.401    0.273    0.468   86.666  151.965
  370.250    5.381    0.276    0.473   84.593  150.847
  370.500    5.413    0.282    0.487   83.678  150.338
  370.750    5.739    0.285    0.491   83.739  151.354
  371.000    6.165    0.273    0.503   83.617  152.674
  371.250    6.378    0.255    0.522   77.336  153.284
