~VERSION INFORMATION
 VERS.                 2.0:   CWLS LOG ASCII STANDARD -VERSION 2.0
 WRAP.                  NO:   ONE LINE PER DEPTH STEP
~WELL INFORMATION BLOCK
#MNEM.UNIT           DATA                    DESCRIPTION OF MNEMONIC
#---------    -------------------            -------------------------------
# Generated from Intellog Unique Number	CC_80_83/WELL/1174
NULL.         -999.25                        : NULL_VALUE
WELL.         GULF RESDLEN                   : Well_name    - WELL
LOC .         07-07-081-06W4                 : Location     - LOCATION          
UWI .         00/07-07-081-06W4/0            : Uwi          - UNIQUE WELL ID    
ENTR.         DW                             : Entered      - ENTERED BY        
SRVC.         SCHLUMBERGER                   : Scn          - SERVICE COMPANY   
DATE.         10 JAN 86                      : Date         - LOG DATE
STRT.M        130                            : top_depth    - START DEPTH       
STOP.M        309.999                        : bot_depth    - STOP DEPTH        
STEP.M        0.3                            : increment    - STEP LENGTH       
~CURVE INFORMATION BLOCK
#MNEM UNIT       ERCB CURVE CODE    CURVE DESCRIPTION
#-----------   ------------------   ----------------------------------
DEPT.M        00 001 00 00         : DEPTH        - DEPTH                       
DPHI.V/V      00 890 00 00         : PHID         - DENSITY POROSITY (LIMESTONE)
NPHI.V/V      00 330 00 00         : PHIN         - NEUTRON POROSITY (LIMESTONE)
GR  .API      00 310 00 00         : GR           - GAMMA RAY                   
ILD .OHMM     00 120 00 00         : RESD         - DEEP RESISTIVITY (DIL)      
~PARAMETER INFORMATION       
#MNEM.UNIT           DATA             DESCRIPTION OF MNEMONIC
#---------         -----------     ------------------------------
GL  .M        512.58               : gl           - GROUND LEVEL ELEVATION      
EREF.M        516.08               : kb           - ELEVATION OF DEPTH REFERENCE
DATM.M        516.08               : datum        - DATUM ELEVATION             
TDD .M        327                  : tdd          - TOTAL DEPTH DRILLER         
RUN .         ONE                  : Run          - RUN NUMBER                  
ENG .         BILL                 : Engineer     - RECORDING ENGINEER          
WIT .         JIM                  : Witness      - WITNESSED BY                
MUD .         GEL                  : Mud_type     - MUD TYPE                    
MATR.         LIMESTONE            : Logunit      - NEUTRON MATRIX              
TMAX.C        24                   : BHT          - MAXIMUM RECORDED TEMPERATURE
BHTD.M        327                  : BHTDEP       - MAXIMUM RECORDED TEMPERATURE
MATR.         1                    : LOGUNIT      - NEUTRON MATRIX              
RMT .C        25                   : MDTP         - TEMPERATURE OF MUD          
NEUT.         1                    : NEUTRON      - NEUTRON TYPE                
RESI.         0                    : RESIST       - RESISTIVITY TYPE            
RMC .OHMM     0.25                 : RMC          - RESISTIVITY OF MUD CAKE     
RMF .OHMM     0.25                 : RMF          - RESISTIVITY OF MUD FILTRATE 
SUFT.C        15                   : SUFT         - SURFACE TEMPERATURE         
~A  DEPTH     PHID     PHIN       GR     RESD
# ...
  234.401    0.283    0.448   89.174    5.930
  234.701    0.277    0.463   95.851    5.397
  235.001    0.259    0.491   99.492    4.387
  235.301    0.292    0.526  100.098    3.634
  235.601    0.275    0.555   89.773    3.245
  235.901    0.253    0.534   91.594    3.010
  236.201    0.257    0.542   95.842    2.898
  236.501    0.246    0.522   92.804    2.843
  236.801    0.235    0.500   90.980    2.738
  237.101    0.224    0.489   90.978    2.737
  237.401    0.246    0.497   92.191    2.842
  237.701    0.246    0.529   97.653    2.950
  238.001    0.249    0.512   97.044    3.121
  238.301    0.248    0.509   95.828    3.180
  238.601    0.258    0.516   97.647    3.179
  238.901    0.258    0.526   98.252    3.179
  239.201    0.247    0.529   93.393    3.300
  239.501    0.272    0.525   91.570    3.426
  239.801    0.256    0.520   90.353    3.624
  240.101    0.268    0.508   87.923    3.907
  240.401    0.294    0.483   86.706    4.541
  240.701    0.272    0.464   87.918    5.479
  241.001    0.291    0.482   88.524    5.178
  241.301    0.246    0.502   87.915    5.080
  241.601    0.276    0.508   86.091    5.580
  241.901    0.234    0.494   81.839    6.365
  242.201    0.231    0.378   78.195    6.991
  242.501    0.275    0.385   71.514    6.990
  242.801    0.303    0.409   71.512    6.859
  243.101    0.276    0.415   74.546    6.857
  243.401    0.266    0.414   69.079    7.821
  243.701    0.246    0.402   68.470    8.119
  244.001    0.213    0.396   71.504    7.530
  244.301    0.204    0.393   71.502    6.007
  244.601    0.262    0.421   72.714    4.615
  244.901    0.285    0.464   77.569    4.121
  245.201    0.277    0.490   81.211    3.479
  245.501    0.283    0.510   83.637    2.673
  245.801    0.283    0.527   80.599    2.478
  246.101    0.262    0.518   79.990    2.432
  246.401    0.281    0.508   84.846    2.478
  246.701    0.254    0.524   83.022    2.621
  247.001    0.283    0.537   70.270    3.410
  247.301    0.302    0.545   53.875    5.457
  247.601    0.321    0.458   48.408    8.733
  247.901    0.329    0.403   58.121   12.721
  248.201    0.323    0.418   64.798   15.065
  248.501    0.312    0.386   69.653   14.506
  248.801    0.291    0.396   72.687   12.476
  249.101    0.270    0.398   77.542   10.531
  249.401    0.245    0.369   83.004    9.766
  249.701    0.225    0.351   84.217    8.887
  250.001    0.219    0.351   84.822    9.227
  250.301    0.233    0.371   89.677    9.579
  250.601    0.228    0.383   93.318    9.577
  250.901    0.207    0.404   95.745    8.881
  251.201    0.208    0.430   97.565    8.083
  251.501    0.222    0.423   99.991    6.570
  251.801    0.221    0.447  102.418    6.093
  252.101    0.235    0.469  107.273    5.441
  252.401    0.227    0.490  106.057    5.046
  252.701    0.224    0.507  104.841    4.951
  253.001    0.207    0.511  113.339    4.858
  253.301    0.210    0.499  113.944    4.857
  253.601    0.200    0.483  113.335    4.948
  253.901    0.207    0.473  112.119    5.137
  254.201    0.216    0.493  107.867    5.234
  254.501    0.222    0.492  104.222    5.642
  254.801    0.223    0.470  104.827    5.968
  255.101    0.222    0.464  103.004    6.081
  255.401    0.228    0.479   93.894    6.432
  255.701    0.244    0.504   87.820    7.065
  256.001    0.290    0.511   90.247    7.616
  256.301    0.299    0.496   89.031    7.473
  256.601    0.268    0.448   87.207    7.332
  256.901    0.239    0.455   82.955    7.470
  257.201    0.228    0.477   76.882    7.902
  257.501    0.234    0.488   68.380    8.846
  257.801    0.269    0.473   53.199   11.727
  258.101    0.286    0.472   39.839   13.889
  258.401    0.337    0.414   36.801   16.761
  258.701    0.334    0.395   37.406   21.808
  259.001    0.316    0.379   39.226   30.022
  259.301    0.302    0.394   39.224   37.620
  259.601    0.294    0.400   34.365   50.824
  259.901    0.310    0.379   31.934   75.434
  260.201    0.327    0.380   31.325   86.040
  260.501    0.305    0.373   32.537  103.829
  260.801    0.321    0.368   32.535  114.051
  261.101    0.326    0.378   32.534  116.197
  261.401    0.328    0.401   32.531  120.627
  261.701    0.310    0.405   33.137  127.608
  262.001    0.307    0.395   33.741  137.550
  262.301    0.310    0.391   33.740  140.147
  262.601    0.331    0.414   34.952  142.781
  262.901    0.342    0.459   34.343  140.092
  263.201    0.350    0.463   31.913  137.458
  263.501    0.343    0.440   28.267  132.357
  263.801    0.337    0.442   28.265  132.329
  264.101    0.336    0.453   31.299  137.371
  264.401    0.334    0.435   32.512  142.617
  264.701    0.332    0.432   31.295  148.069
  265.001    0.347    0.445   30.079  153.710
  265.301    0.345    0.453   28.863  153.685
  265.601    0.353    0.451   27.646  147.981
  265.901    0.347    0.443   27.645  153.626
  266.201    0.338    0.449   31.893  156.522
  266.501    0.327    0.435   33.105  159.464
  266.801    0.331    0.425   31.282  168.690
  267.101    0.337    0.429   33.708  178.459
  267.401    0.342    0.431   33.706  203.542
  267.701    0.336    0.430   31.883  219.402
  268.001    0.332    0.419   32.488  227.783
  268.301    0.328    0.407   34.915  195.921
  268.601    0.324    0.411   42.199   92.292
  268.901    0.315    0.420   47.054   45.142
  269.201    0.310    0.405   52.516   30.979
  269.501    0.318    0.401   54.943   32.771
  269.801    0.307    0.423   53.727   39.548
  270.101    0.298    0.447   47.046   48.635
  270.401    0.310    0.463   37.330   68.225
  270.701    0.368    0.480   30.649   97.522
  271.001    0.371    0.488   31.861  126.891
  271.301    0.364    0.497   33.681  156.035
  271.601    0.379    0.498   33.072  161.987
  271.901    0.371    0.465   33.070  158.944
  272.201    0.360    0.453   35.496  150.195
  272.501    0.356    0.457   36.102  136.683
  272.801    0.359    0.459   34.885  119.787
  273.101    0.349    0.468   34.276  113.201
  273.401    0.347    0.477   34.882  104.974
  273.701    0.332    0.462   37.915  106.942
  274.001    0.330    0.434   38.521  111.029
  274.301    0.347    0.412   38.518  115.265
  274.601    0.356    0.402   37.910  106.887
  274.901    0.356    0.405   39.729   99.123
  275.201    0.353    0.412   41.549   74.735
  275.500    0.350    0.424   42.761   71.963
  275.800    0.347    0.452   40.330   74.708
  276.100    0.342    0.491   36.685   76.109
  276.400    0.361    0.459   37.290   71.920
  276.700    0.356    0.460   40.324   58.465
  277.000    0.352    0.436   41.537   45.773
  277.300    0.350    0.423   42.749   37.208
  277.600    0.324    0.445   43.961   38.629
  277.900    0.307    0.447   40.923   47.501
  278.200    0.335    0.447   40.315   54.178
  278.500    0.347    0.439   44.562   57.315
  278.800    0.356    0.429   49.418   46.589
  279.100    0.360    0.463   53.666   33.199
  279.400    0.346    0.481   58.521   25.991
  279.700    0.323    0.450   62.162   20.735
  280.000    0.287    0.440   63.982   18.174
  280.300    0.269    0.464   60.944   17.498
  280.600    0.289    0.465   56.085   15.627
  280.900    0.317    0.453   53.654   14.223
  281.200    0.326    0.382   57.903   12.943
  281.500    0.278    0.396   68.222   12.698
  281.800    0.252    0.415   63.970   13.183
  282.100    0.271    0.393   59.110   13.947
  282.400    0.266    0.413   56.072   16.517
  282.700    0.279    0.406   53.642   19.561
  283.000    0.297    0.404   53.640   17.470
  283.300    0.290    0.425   59.103   13.936
  283.600    0.284    0.404   67.601   13.674
  283.900    0.271    0.404   71.242   15.305
  284.200    0.259    0.429   66.383   18.470
  284.500    0.294    0.447   55.452   22.290
  284.800    0.329    0.433   46.950   27.410
  285.100    0.318    0.421   45.126   29.548
  285.400    0.301    0.423   43.910   35.657
  285.700    0.306    0.442   39.051   45.530
  286.000    0.326    0.448   37.227   71.503
  286.300    0.332    0.461   36.011   72.845
