~VERSION INFORMATION
 VERS.                 2.0:   CWLS LOG ASCII STANDARD -VERSION 2.0
 WRAP.                  NO:   ONE LINE PER DEPTH STEP
~WELL INFORMATION BLOCK
#MNEM.UNIT           DATA                    DESCRIPTION OF MNEMONIC
#---------    -------------------            -------------------------------
# Generated from Intellog Unique Number	CW_76_78/WELL/2566
WELL.         NOVALTA PORTAGE                : Well_name    - WELL
LOC .         00/05-29-078-19W4/0            : Location     - LOCATION
UWI .         00/05-29-078-19W4/0            : Uwi          - UNIQUE WELL ID
ENTR.         MAX                            : Entered      - ENTERED BY
SRVC.         WESTERN ATLAS                  : Scn          - SERVICE COMPANY
STRT.M        190                            : top_depth    - START DEPTH
STOP.M        400                            : bot_depth    - STOP DEPTH
STEP.M        0.25                           : increment    - STEP LENGTH
 NULL. -999.2500:NULL Value
~CURVE INFORMATION BLOCK
#MNEM UNIT       ERCB CURVE CODE    CURVE DESCRIPTION
#-----------   ------------------   ----------------------------------
DEPT.M        00 001 00 00         : DEPTH        - DEPTH
ILD .OHMM     00 120 00 00         : RESD         - DEEP RESISTIVITY (DIL)
NPHI.V/V      00 330 00 00         : PHIN         - NEUTRON POROSITY (SANDSTONE)
DPHI.V/V      00 890 00 00         : PHID         - DENSITY POROSITY (SANDSTONE)
CALI.MM       00 280 01 00         : CAL          - CALIPER
GR  .API      00 310 00 00         : GR           - GAMMA RAY
~PARAMETER INFORMATION
#MNEM.UNIT           DATA             DESCRIPTION OF MNEMONIC
#---------         -----------     ------------------------------
GL  .M        559.38               : gl           - GROUND LEVEL ELEVATION
EREF.M        563.38               : kb           - ELEVATION OF DEPTH REFERENCE
DATM.M        559.38               : datum        - DATUM ELEVATION
TDD .M        433.8                : tdd          - TOTAL DEPTH DRILLER
RUN .         ONE                  : Run          - RUN NUMBER
ENG .         BILL                 : Engineer     - RECORDING ENGINEER
WIT .         JIM                  : Witness      - WITNESSED BY
MUD .         GEL                  : Mud_type     - MUD TYPE
MATR.         SANDSTONE            : Logunit      - NEUTRON MATRIX
TMAX.C        24                   : BHT          - MAXIMUM RECORDED TEMPERATURE
BHTD.M        433.8                : BHTDEP       - MAXIMUM RECORDED TEMPERATURE
RMT .C        17                   : MDTP         - TEMPERATURE OF MUD
MUDD.KG/M     1160                 : MWT          - MUD DENSITY
NEUT.         1                    : NEUTRON      - NEUTRON TYPE
RESI.         0                    : RESIST       - RESISTIVITY TYPE
RM  .OHMM     5                    : RM           - RESISTIVITY OF MUD
RMC .OHMM     0.25                 : RMC          - RESISTIVITY OF MUD CAKE
RMF .OHMM     0.25                 : RMF          - RESISTIVITY OF MUD FILTRATE
SUFT.C        -20                  : SUFT         - SURFACE TEMPERATURE
~A  DEPTH     RESD     PHIN     PHID      CAL       GR
# ...
  299.500   11.434    0.420    0.341  168.817   81.393
  299.750   10.427    0.424    0.341  168.817   82.585
  300.000    9.957    0.430    0.361  169.298   87.971
  300.250    9.507    0.437    0.361  172.784   88.864
  300.500    9.332    0.448    0.359  174.770   87.061
  300.750    9.331    0.452    0.364  175.760   88.552
  301.000    9.244    0.449    0.373  176.749   90.044
  301.250    9.244    0.447    0.373  176.749   88.839
  301.500    9.156    0.449    0.370  177.724   89.135
  301.750    9.071    0.456    0.366  178.219   88.830
  302.000    9.071    0.458    0.356  178.708   88.226
  302.250    9.068    0.455    0.353  178.708   87.022
  302.500    8.901    0.453    0.365  179.187   88.214
  302.750    8.818    0.452    0.392  179.678   89.706
  303.000    8.656    0.458    0.395  180.167   92.396
  303.250    8.342    0.469    0.391  180.167   96.283
  303.500    7.893    0.472    0.378  180.647   96.876
  303.750    7.536    0.472    0.364  181.136   94.775
  304.000    7.263    0.470    0.355  181.625   91.773
  304.250    7.195    0.465    0.341  181.625   91.768
  304.500    7.395    0.457    0.343  181.606   91.463
  304.750    7.742    0.442    0.383  181.599   90.260
  305.000    8.255    0.437    0.384  181.590   88.158
  305.250    8.563    0.437    0.365  181.080   86.057
  305.500    8.801    0.439    0.359  181.071   87.547
  305.750    8.800    0.443    0.370  180.562   90.538
  306.000    8.718    0.446    0.365  180.555   90.831
  306.250    8.402    0.443    0.358  180.046   87.231
  306.500    7.876    0.443    0.360  180.036   85.729
  306.750    7.249    0.451    0.386  179.527   87.819
  307.000    6.672    0.454    0.431  179.520   89.910
  307.250    6.085    0.451    0.431  178.510   93.198
  307.500    5.810    0.453    0.412  177.501   94.691
  307.750    5.756    0.471    0.400  176.495   96.481
  308.000    5.809    0.496    0.373  174.989   98.272
  308.250    6.025    0.507    0.357  173.982  100.064
  308.500    6.250    0.482    0.362  171.475  101.256
  308.750    6.788    0.439    0.360  170.969   97.657
  309.000    8.386    0.406    0.353  169.460   91.662
  309.250    9.108    0.386    0.345  168.952   88.662
  309.500   11.782    0.352    0.317  168.944   86.260
  309.750   16.253    0.173    0.236  168.934   78.169
  310.000   18.483    0.024    0.202  169.417   67.682
  310.250   18.824    0.148    0.178  169.914   52.104
  310.500   17.974    0.220    0.188  170.403   51.798
  310.750   15.946    0.281    0.231  171.391   59.879
  311.000   12.903    0.354    0.288  171.882   79.039
  311.250   10.733    0.395    0.319  173.369   88.019
  311.500   10.155    0.416    0.342  174.357   93.403
  311.750    9.968    0.425    0.341  174.847   94.296
  312.000    9.875    0.430    0.333  175.337   91.595
  312.250    9.874    0.433    0.344  175.329   87.696
  312.500    9.963    0.432    0.354  175.820   86.493
  312.750   10.054    0.431    0.346  175.809   87.984
  313.000   10.052    0.425    0.346  176.299   90.374
  313.250   10.049    0.421    0.359  177.287   92.764
  313.500   10.049    0.419    0.391  177.280   93.358
  313.750   10.140    0.423    0.401  177.268   91.255
  314.000   10.045    0.428    0.389  176.760   90.651
  314.250    9.951    0.433    0.360  176.753   90.347
  314.500    9.859    0.435    0.332  176.241   90.940
  314.750    9.767    0.432    0.335  176.234   93.330
  315.000    9.676    0.427    0.341  176.724   95.421
  315.250    9.584    0.424    0.334  177.214   94.815
  315.500    9.496    0.424    0.330  179.200   91.815
  315.750    9.322    0.434    0.335  180.690   93.007
  316.000    9.320    0.443    0.360  181.178   95.398
  316.250    9.404    0.446    0.373  181.168   95.692
  316.500    9.490    0.443    0.377  180.661   93.591
  316.750    9.664    0.435    0.382  180.153   92.986
  317.000    9.752    0.432    0.390  180.136   93.280
  317.250    9.752    0.426    0.402  180.134   95.071
  317.500    9.839    0.431    0.397  179.625   95.364
  317.750   10.206    0.432    0.374  179.616   93.261
  318.000   10.298    0.429    0.369  179.604   90.862
  318.250   10.392    0.424    0.363  179.097   89.357
  318.500   10.486    0.424    0.365  179.087   89.353
  318.750   10.581    0.424    0.375  179.080   89.646
  319.000   10.677    0.422    0.364  179.069   90.240
  319.250   10.873    0.417    0.359  179.053   90.533
  319.500   10.972    0.413    0.372  179.050   89.330
  319.750   10.970    0.412    0.376  179.042   85.731
  320.000   10.868    0.412    0.358  179.026   85.726
  320.250   10.668    0.414    0.348  179.521   88.115
  320.500   10.471    0.417    0.347  179.513   90.505
  320.750   10.374    0.423    0.347  179.504   94.992
  321.000   10.371    0.426    0.352  178.996   97.382
  321.250   10.275    0.426    0.377  178.984   95.580
  321.500   10.180    0.427    0.372  178.977   94.975
  321.750   10.085    0.430    0.355  179.465   95.867
  322.000   10.083    0.428    0.347  180.455   94.664
  322.250   10.082    0.428    0.343  180.945   92.562
  322.500   10.080    0.431    0.331  181.934   92.557
  322.750   10.171    0.433    0.334  181.425   93.749
  323.000   10.169    0.432    0.345  180.416   93.144
  323.250   10.168    0.428    0.357  180.409   92.840
  323.500   10.072    0.421    0.356  179.894   94.032
  323.750    9.979    0.411    0.347  179.888   94.326
  324.000    9.977    0.403    0.339  179.881   94.320
  324.250    9.884    0.406    0.338  181.368   96.412
  324.500    9.703    0.424    0.339  181.358  102.992
  324.750    9.096    0.440    0.338  180.852  103.288
  325.000    9.054    0.419    0.352  174.589   96.788
  325.250    9.477    0.392    0.336  174.070   91.964
  325.500    9.560    0.364    0.324  174.546   86.537
  325.750    9.643    0.386    0.327  174.522   87.126
  326.000    9.636    0.410    0.341  173.993   91.018
  326.250    9.454    0.421    0.342  172.967   96.112
  326.500    9.361    0.420    0.343  171.439   96.396
  326.750    9.799    0.423    0.347  169.411   96.683
  327.000   10.354    0.423    0.346  168.378   96.366
  327.250   11.458    0.400    0.323  164.352   89.740
  327.500   12.446    0.360    0.305  160.313   78.304
  327.750   13.395    0.263    0.272  162.293   68.067
  328.000   13.637    0.233    0.286  164.272   67.149
  328.250   13.256    0.232    0.301  164.751   70.142
  328.500   12.189    0.338    0.313  164.724   72.829
  328.750   10.701    0.376    0.327  163.196   72.513
  329.000    9.750    0.404    0.335  161.666   71.296
  329.250    9.653    0.431    0.353  161.143   69.478
  329.500    9.739    0.439    0.361  161.619   67.662
  329.750   10.100    0.426    0.362  164.598   64.641
  330.000   10.971    0.414    0.363  167.579   63.723
  330.250   12.140    0.385    0.357  172.063   62.508
  330.500   13.309    0.347    0.322  174.042   59.186
  330.750   13.932    0.304    0.301  174.014   56.463
  331.000   14.053    0.299    0.302  173.495   55.849
  331.250   13.787    0.306    0.312  171.968   56.736
  331.500   13.402    0.345    0.316  170.938   57.623
  331.750   13.027    0.374    0.314  170.409   58.808
  332.000   12.779    0.376    0.300  170.388   59.393
  332.250   12.892    0.353    0.286  170.363   59.079
  332.500   13.620    0.318    0.274  170.339   57.862
  332.750   15.213    0.252    0.263  170.311   56.044
  333.000   19.341    0.234    0.246  169.785   54.825
  333.250   21.008    0.184    0.211  169.764   53.610
  333.500   22.822    0.123    0.175  170.234   49.387
  333.750   24.110    0.082    0.166  170.213   44.864
  334.000   23.654    0.063    0.168  169.681   42.442
  334.250   22.158    0.080    0.177  169.653   44.231
  334.500   17.248    0.141    0.193  171.141   50.829
  334.750   13.549    0.198    0.249  172.619   54.421
  335.000   12.231    0.349    0.296  172.093   55.909
  335.250   10.938    0.365    0.307  170.557   57.093
  335.500   10.152    0.373    0.316  170.037   58.283
  335.750    9.598    0.382    0.323  168.504   59.771
