~VERSION INFORMATION
 VERS.                 2.0:   CWLS LOG ASCII STANDARD -VERSION 2.0
 WRAP.                  NO:   ONE LINE PER DEPTH STEP
~WELL INFORMATION BLOCK
#MNEM.UNIT           DATA                    DESCRIPTION OF MNEMONIC
#---------    -------------------            -------------------------------
# Generated from Intellog Unique Number	CS_73_76/WELL/3217
WELL.         07-36-076-11W4                 : Well_name    - WELL
LOC .         00/07-36-076-11W4/0            : Location     - LOCATION
UWI .         00/07-36-076-11W4/0            : Uwi          - UNIQUE WELL ID
ENTR.         SP                             : Entered      - ENTERED BY
SRVC.         SCHLUMBERGER                   : Scn          - SERVICE COMPANY
STRT.M        256.032                        : top_depth    - START DEPTH
STOP.M        502.782                        : bot_depth    - STOP DEPTH
STEP.M        0.25                           : increment    - STEP LENGTH
 NULL. -999.2500:NULL Value
~CURVE INFORMATION BLOCK
#MNEM UNIT       ERCB CURVE CODE    CURVE DESCRIPTION
#-----------   ------------------   ----------------------------------
DEPT.M        00 001 00 00         : DEPTH        - DEPTH
GR  .API      00 310 00 00         : GR           - GAMMA RAY
DPHI.V/V      00 890 00 00         : PHID         - DENSITY POROSITY (SANDSTONE)
NPHI.V/V      00 330 00 00         : PHIN         - NEUTRON POROSITY (SANDSTONE)
ILD .OHMM     00 120 00 00         : RESD         - DEEP RESISTIVITY (DIL)
~PARAMETER INFORMATION
#MNEM.UNIT           DATA             DESCRIPTION OF MNEMONIC
#---------         -----------     ------------------------------
GL  .M        673.303              : gl           - GROUND LEVEL ELEVATION
EREF.M        677.509              : kb           - ELEVATION OF DEPTH REFERENCE
DATM.M        673.303              : datum        - DATUM ELEVATION
TDD .M        505.968              : tdd          - TOTAL DEPTH DRILLER
RUN .         ONE                  : Run          - RUN NUMBER
ENG .         BILL                 : Engineer     - RECORDING ENGINEER
WIT .         JIM                  : Witness      - WITNESSED BY
MUD .         GEL                  : Mud_type     - MUD TYPE
MATR.         SANDSTONE            : Logunit      - NEUTRON MATRIX
TMAX.C        27.7778              : BHT          - MAXIMUM RECORDED TEMPERATURE
BHTD.M        505.968              : BHTDEP       - MAXIMUM RECORDED TEMPERATURE
MATR.         1                    : LOGUNIT      - NEUTRON MATRIX
RMT .C        25                   : MDTP         - TEMPERATURE OF MUD
NEUT.         1                    : NEUTRON      - NEUTRON TYPE
RESI.         0                    : RESIST       - RESISTIVITY TYPE
RMC .OHMM     0.25                 : RMC          - RESISTIVITY OF MUD CAKE
RMF .OHMM     0.25                 : RMF          - RESISTIVITY OF MUD FILTRATE
SUFT.C        15                   : SUFT         - SURFACE TEMPERATURE
~A  DEPTH       GR     PHID     PHIN     RESD
# ...
  430.032   96.419    0.218    0.484    4.451
  430.282   96.996    0.226    0.498    4.343
  430.532   93.750    0.229    0.508    3.969
  430.782   94.576    0.245    0.518    3.493
  431.032   97.218    0.251    0.509    3.181
  431.282  100.227    0.248    0.519    2.812
  431.532   99.752    0.263    0.550    2.469
  431.782   96.921    0.298    0.582    2.228
  432.032   94.924    0.305    0.631    2.130
  432.282   95.168    0.296    0.625    2.065
  432.532   95.516    0.284    0.608    2.048
  432.782   95.333    0.272    0.622    2.047
  433.032   92.668    0.276    0.663    2.048
  433.282   93.079    0.274    0.659    2.048
  433.532   98.356    0.272    0.668    2.138
  433.782  102.032    0.267    0.675    2.210
  434.032  103.240    0.263    0.667    2.365
  434.282  106.134    0.244    0.619    2.540
  434.532  109.236    0.236    0.588    2.719
  434.782  105.369    0.239    0.571    3.097
  435.032  101.555    0.239    0.566    3.419
  435.282  100.978    0.234    0.466    3.843
  435.532  104.307    0.225    0.482    4.126
  435.782  107.761    0.212    0.501    4.758
  436.032  104.834    0.195    0.494    5.246
  436.282   98.612    0.190    0.474    5.584
  436.532   92.513    0.181    0.456    6.039
  436.782   95.926    0.168    0.433    6.278
  437.032  103.543    0.171    0.454    6.103
  437.282  108.693    0.216    0.461    5.277
  437.532  111.546    0.215    0.464    4.701
  437.782  111.988    0.218    0.497    4.325
  438.032  110.682    0.215    0.518    4.163
  438.282  109.671    0.211    0.502    4.039
  438.532  111.610    0.220    0.503    3.925
  438.782  112.057    0.224    0.508    3.897
  439.032  110.479    0.235    0.511    3.838
  439.282  108.138    0.238    0.510    3.824
  439.532  107.411    0.235    0.542    3.822
  439.782  109.465    0.238    0.575    3.740
  440.032  112.864    0.277    0.553    3.244
  440.282  114.503    0.290    0.553    3.243
  440.532  114.494    0.216    0.562    3.177
  440.782  114.278    0.203    0.566    3.182
  441.032  116.338    0.217    0.562    3.179
  441.282  115.373    0.210    0.549    3.291
  441.532  114.328    0.213    0.522    3.671
  441.782  111.101    0.205    0.522    4.434
  442.032  103.717    0.220    0.497    5.196
  442.282   93.295    0.208    0.455    5.989
  442.532   86.769    0.190    0.435    7.311
  442.782   85.212    0.157    0.406    7.804
  443.032   94.675    0.094    0.425    7.972
  443.282   98.730    0.151    0.458    8.213
  443.532   94.243    0.180    0.444    8.720
  443.782   90.146    0.206    0.421    9.223
  444.032   83.330    0.230    0.433    9.981
  444.282   81.337    0.249    0.453   11.040
  444.532   79.150    0.259    0.485   12.452
  444.782   78.414    0.288    0.468   14.358
  445.032   79.201    0.315    0.443   16.183
  445.282   79.711    0.272    0.439   17.546
  445.532   78.853    0.265    0.448   17.487
  445.782   80.912    0.241    0.451   16.601
  446.032   82.862    0.236    0.439   15.439
  446.282   85.030    0.227    0.430   14.539
  446.532   86.815    0.224    0.427   13.847
  446.782   85.438    0.216    0.441   13.853
  447.032   82.951    0.205    0.455   13.892
  447.282   81.456    0.191    0.442   14.080
  447.532   81.675    0.179    0.420   14.361
  447.782   83.570    0.185    0.432   14.684
  448.032   86.636    0.221    0.435   15.882
  448.282   87.147    0.232    0.435   17.222
  448.532   82.923    0.248    0.456   18.311
  448.782   78.442    0.278    0.440   21.312
  449.032   76.074    0.314    0.422   25.161
  449.282   80.209    0.301    0.425   28.864
  449.532   84.753    0.288    0.447   30.270
  449.782   88.596    0.281    0.454   28.433
  450.032   89.893    0.275    0.457   25.947
  450.282   87.564    0.266    0.452   22.768
  450.532   91.933    0.274    0.432   19.979
  450.782   94.212    0.268    0.430   17.731
  451.032   95.966    0.254    0.444   15.422
  451.282   99.161    0.262    0.441   13.723
  451.532  104.913    0.261    0.434   12.569
  451.782  111.556    0.245    0.439   11.201
  452.032  115.038    0.239    0.433   10.682
  452.282  118.636    0.236    0.440   10.292
  452.532  120.285    0.226    0.445   10.372
  452.782  118.595    0.218    0.450   11.491
  453.032  113.382    0.238    0.455   12.326
  453.282  104.405    0.247    0.439   13.475
  453.532   92.451    0.246    0.426   14.290
  453.782   92.282    0.227    0.408   15.087
  454.032   91.257    0.195    0.400   15.200
  454.282   89.681    0.191    0.388   15.458
  454.532   91.365    0.156    0.371   15.449
  454.782   90.875    0.095    0.387   15.448
  455.032   87.993    0.046    0.404   15.407
  455.282   84.791    0.158    0.403   15.632
  455.532   86.134    0.205    0.387   15.733
  455.782   91.070    0.238    0.387   15.610
  456.032   93.968    0.233    0.394   15.706
  456.282   94.413    0.227    0.385   16.006
  456.532   96.711    0.219    0.383   16.698
  456.782   93.069    0.210    0.391   17.455
  457.032   86.309    0.216    0.416   19.733
  457.282   78.060    0.236    0.418   22.416
  457.532   73.839    0.261    0.413   23.739
  457.782   74.955    0.280    0.404   25.676
  458.032   76.748    0.267    0.400   26.463
  458.282   77.684    0.260    0.403   27.849
  458.532   75.576    0.253    0.419   29.034
  458.782   72.145    0.256    0.429   30.998
  459.032   71.592    0.265    0.427   34.004
  459.282   73.893    0.274    0.427   36.124
  459.532   74.909    0.263    0.438   37.124
  459.782   76.394    0.277    0.425   34.238
  460.032   76.668    0.278    0.423   31.907
  460.282   77.654    0.285    0.439   29.654
  460.532   77.156    0.288    0.432   28.355
  460.782   75.224    0.289    0.426   27.923
  461.032   74.048    0.277    0.419   26.156
  461.282   81.450    0.268    0.401   23.394
  461.532   93.290    0.259    0.393   21.857
  461.782   99.256    0.225    0.415   20.328
  462.032   94.376    0.220    0.431   19.354
  462.282   89.337    0.233    0.439   18.809
  462.532   89.502    0.247    0.428   18.223
  462.782   90.759    0.249    0.435   18.586
  463.032   92.317    0.240    0.443   19.109
  463.282   93.092    0.225    0.451   20.910
  463.532   85.288    0.241    0.454   23.043
  463.782   75.947    0.249    0.441   26.629
  464.032   72.301    0.277    0.424   31.644
  464.282   71.115    0.287    0.411   39.533
  464.532   77.141    0.295    0.409   47.734
  464.782   84.606    0.289    0.410   54.292
  465.032   95.465    0.273    0.418   54.623
  465.282   97.362    0.282    0.447   51.951
  465.532   91.248    0.269    0.451   50.325
  465.782   89.897    0.256    0.446   48.116
  466.032   92.415    0.248    0.447   42.765
  466.282   94.423    0.274    0.458   34.458
  466.532   95.632    0.283    0.446   31.227
  466.782   98.732    0.281    0.422   27.644
  467.032  100.851    0.262    0.416   24.582
  467.282  106.709    0.246    0.418   20.365
  467.532  111.155    0.233    0.416   15.632
  467.782  114.419    0.206    0.422   13.114
  468.032  117.754    0.202    0.443   10.875
  468.282  120.219    0.184    0.428   10.391
  468.532  120.087    0.194    0.419    9.902
  468.782  120.057    0.188    0.428    9.941
  469.032  119.488    0.179    0.434   10.057
  469.282  115.570    0.203    0.444   10.151
  469.532  109.829    0.219    0.454   10.467
  469.782  114.209    0.226    0.435   11.014
  470.032  122.681    0.230    0.414   11.321
  470.282  125.972    0.223    0.430   11.146
  470.532  126.634    0.207    0.438   10.865
  470.782  125.734    0.203    0.446   11.114
  471.032  109.128    0.206    0.425   11.463
  471.282   96.797    0.220    0.409   11.936
  471.532   85.218    0.226    0.384   12.854
  471.782   86.629    0.225    0.389   13.674
  472.032   96.875    0.213    0.385   14.145
  472.282  101.334    0.200    0.385   14.189
  472.532   96.053    0.208    0.414   18.401
  472.782   84.013    0.248    0.420   18.267
  473.032   84.693    0.257    0.406   18.821
  473.282   87.341    0.262    0.409   19.217
