~VERSION INFORMATION
 VERS.                 2.0:   CWLS LOG ASCII STANDARD -VERSION 2.0
 WRAP.                  NO:   ONE LINE PER DEPTH STEP
~WELL INFORMATION BLOCK
#MNEM.UNIT           DATA                    DESCRIPTION OF MNEMONIC
#---------    -------------------            -------------------------------
# Generated from Intellog Unique Number	CC_84_87/WELL/2551
WELL.         GULF AOSTRA RESDELN            : Well_name    - WELL
LOC .         00/06-05-084-06W4/0            : Location     - LOCATION
UWI .         00/06-05-084-06W400            : Uwi          - UNIQUE WELL ID
ENTR.         JHS                            : Entered      - ENTERED BY
SRVC.         SCHLUMBERGER                   : Scn          - SERVICE COMPANY
STRT.M        150                            : top_depth    - START DEPTH
STOP.M        409.75                         : bot_depth    - STOP DEPTH
STEP.M        0.25                           : increment    - STEP LENGTH
 NULL. -999.2500:NULL Value
~CURVE INFORMATION BLOCK
#MNEM UNIT       ERCB CURVE CODE    CURVE DESCRIPTION
#-----------   ------------------   ----------------------------------
DEPT.M        00 001 00 00         : DEPTH        - DEPTH
GR  .API      00 310 00 00         : GR           - GAMMA RAY
DPHI.V/V      00 890 00 00         : PHID         - DENSITY POROSITY (SANDSTONE)
NPHI.V/V      00 330 00 00         : PHIN         - NEUTRON POROSITY (SANDSTONE)
ILD .OHMM     00 120 00 00         : RESD         - DEEP RESISTIVITY (DIL)
~PARAMETER INFORMATION
#MNEM.UNIT           DATA             DESCRIPTION OF MNEMONIC
#---------         -----------     ------------------------------
GL  .M        571                  : gl           - GROUND LEVEL ELEVATION
EREF.M        574.68               : kb           - ELEVATION OF DEPTH REFERENCE
DATM.M        574.68               : datum        - DATUM ELEVATION
TDD .M        420                  : tdd          - TOTAL DEPTH DRILLER
RUN .         ONE                  : Run          - RUN NUMBER
ENG .         BILL                 : Engineer     - RECORDING ENGINEER
WIT .         JIM                  : Witness      - WITNESSED BY
MUD .         GEL                  : Mud_type     - MUD TYPE
MATR.         SANDSTONE            : Logunit      - NEUTRON MATRIX
TMAX.C        21                   : BHT          - MAXIMUM RECORDED TEMPERATURE
BHTD.M        420                  : BHTDEP       - MAXIMUM RECORDED TEMPERATURE
MATR.         1                    : LOGUNIT      - NEUTRON MATRIX
RMT .C        25                   : MDTP         - TEMPERATURE OF MUD
NEUT.         1                    : NEUTRON      - NEUTRON TYPE
RESI.         0                    : RESIST       - RESISTIVITY TYPE
RMC .OHMM     0.25                 : RMC          - RESISTIVITY OF MUD CAKE
RMF .OHMM     0.25                 : RMF          - RESISTIVITY OF MUD FILTRATE
SUFT.C        15                   : SUFT         - SURFACE TEMPERATURE
~A  DEPTH       GR     PHID     PHIN     RESD
# ...
  280.500   64.861    0.289    0.486    7.899
  280.750   64.803    0.292    0.483    8.174
  281.000   65.678    0.307    0.491    8.199
  281.250   66.440    0.299    0.501    8.261
  281.500   65.518    0.273    0.496    8.405
  281.750   64.232    0.268    0.473    8.806
  282.000   64.946    0.243    0.430    9.697
  282.250   66.714    0.149    0.375   10.231
  282.500   71.619    0.199    0.411   10.072
  282.750   77.720    0.264    0.466    9.522
  283.000   82.569    0.250    0.490    8.513
  283.250   84.619    0.233    0.512    7.241
  283.500   83.330    0.243    0.525    6.429
  283.750   81.296    0.243    0.522    5.934
  284.000   79.731    0.241    0.520    5.602
  284.250   80.571    0.244    0.512    5.541
  284.500   81.707    0.243    0.495    5.743
  284.750   80.643    0.238    0.481    6.196
  285.000   78.534    0.245    0.472    6.797
  285.250   75.921    0.249    0.479    6.952
  285.500   74.523    0.252    0.485    6.731
  285.750   74.062    0.254    0.487    6.715
  286.000   73.317    0.253    0.486    6.782
  286.250   72.379    0.252    0.484    6.051
  286.500   71.915    0.252    0.484    4.341
  286.750   70.566    0.255    0.484    3.008
  287.000   67.873    0.259    0.486    2.359
  287.250   66.817    0.267    0.486    2.225
  287.500   67.157    0.275    0.485    2.281
  287.750   66.112    0.279    0.485    2.370
  288.000   64.074    0.277    0.483    2.622
  288.250   64.010    0.270    0.479    3.107
  288.500   64.162    0.259    0.475    3.649
  288.750   64.056    0.248    0.472    3.939
  289.000   64.286    0.238    0.470    4.113
  289.250   64.873    0.226    0.469    4.400
  289.500   65.381    0.215    0.467    4.763
  289.750   65.856    0.207    0.463    5.310
  290.000   67.018    0.199    0.458    5.840
  290.250   69.713    0.190    0.455    5.962
  290.500   75.553    0.206    0.457    5.471
  290.750   81.405    0.241    0.475    4.574
  291.000   81.933    0.250    0.517    3.806
  291.250   81.378    0.244    0.539    3.557
  291.500   81.432    0.235    0.543    3.404
  291.750   80.825    0.232    0.533    3.266
  292.000   79.851    0.237    0.516    3.192
  292.250   79.538    0.248    0.504    3.151
  292.500   80.797    0.260    0.504    3.157
  292.750   84.770    0.266    0.514    3.254
  293.000   83.393    0.272    0.524    3.360
  293.250   81.117    0.275    0.521    3.470
  293.500   82.224    0.267    0.502    3.558
  293.750   84.175    0.258    0.491    3.608
  294.000   83.934    0.256    0.507    3.665
  294.250   81.865    0.248    0.523    3.674
  294.500   80.905    0.248    0.529    3.584
  294.750   81.041    0.240    0.516    3.452
  295.000   80.597    0.238    0.499    3.390
  295.250   79.585    0.249    0.500    3.404
  295.500   79.141    0.246    0.515    3.465
  295.750   78.934    0.244    0.519    3.680
  296.000   81.013    0.250    0.504    3.961
  296.250   81.157    0.246    0.488    4.346
  296.500   78.867    0.229    0.483    4.709
  296.750   76.088    0.223    0.479    5.008
  297.000   71.893    0.235    0.467    5.423
  297.250   66.537    0.237    0.462    5.931
  297.500   59.563    0.244    0.443    6.722
  297.750   58.253    0.266    0.417    7.420
  298.000   61.820    0.275    0.404    7.932
  298.250   64.489    0.256    0.411    8.420
  298.500   65.286    0.238    0.419    8.642
  298.750   64.091    0.221    0.413    8.177
  299.000   65.801    0.195    0.397    7.276
  299.250   69.207    0.182    0.385    6.422
  299.500   73.173    0.220    0.433    5.886
  299.750   75.897    0.276    0.507    5.557
  300.000   73.281    0.286    0.491    5.317
  300.250   66.652    0.295    0.451    5.398
  300.500   61.460    0.308    0.447    5.451
  300.750   57.508    0.299    0.486    5.782
  301.000   51.775    0.291    0.508    6.484
  301.250   45.537    0.295    0.476    7.808
  301.500   42.895    0.290    0.434   10.229
  301.750   42.726    0.304    0.417   13.308
  302.000   44.350    0.308    0.409   17.366
  302.250   47.206    0.292    0.397   20.720
  302.500   50.226    0.283    0.412   21.500
  302.750   54.506    0.293    0.439   19.994
  303.000   61.310    0.291    0.427   17.876
  303.250   67.278    0.263    0.417   15.257
  303.500   75.003    0.224    0.411   11.220
  303.750   80.417    0.215    0.391    8.719
  304.000   81.573    0.234    0.399    8.130
  304.250   80.544    0.255    0.440    7.835
  304.500   78.432    0.266    0.454    7.864
  304.750   75.164    0.260    0.465    8.064
  305.000   69.341    0.276    0.458    8.903
  305.250   66.724    0.272    0.436   10.540
  305.500   70.089    0.248    0.408   11.712
  305.750   79.021    0.231    0.414   11.520
  306.000   88.912    0.212    0.459   10.593
  306.250   88.076    0.209    0.457    9.361
  306.500   87.993    0.202    0.453    8.312
  306.750   84.883    0.215    0.469    7.693
  307.000   77.246    0.221    0.477    7.607
  307.250   69.839    0.209    0.464    8.191
  307.500   65.194    0.224    0.450    9.479
  307.750   68.046    0.253    0.442   10.856
  308.000   77.230    0.251    0.432   10.961
  308.250   85.644    0.223    0.434   10.588
  308.500   89.367    0.218    0.455    9.707
  308.750   88.524    0.230    0.470    8.174
  309.000   84.787    0.214    0.460    7.154
  309.250   82.811    0.210    0.447    6.797
  309.500   85.472    0.203    0.450    6.668
  309.750   87.160    0.202    0.463    6.632
  310.000   86.263    0.200    0.478    6.643
  310.250   85.289    0.198    0.486    6.640
  310.500   84.273    0.221    0.483    6.640
  310.750   82.815    0.237    0.470    6.640
  311.000   81.228    0.242    0.458    6.639
  311.250   82.592    0.258    0.448    6.640
  311.500   85.072    0.239    0.461    6.637
  311.750   84.556    0.192    0.486    6.642
  312.000   80.684    0.199    0.484    6.638
  312.250   74.680    0.214    0.480    6.539
  312.500   68.330    0.203    0.474    6.465
  312.750   63.214    0.198    0.454    6.728
  313.000   58.903    0.193    0.431    7.217
  313.250   57.128    0.194    0.422    7.877
  313.500   60.073    0.236    0.422    8.951
  313.750   63.341    0.260    0.419   10.041
  314.000   69.395    0.259    0.415   10.527
  314.250   68.252    0.239    0.411   10.642
  314.500   62.570    0.231    0.418   10.958
  314.750   61.408    0.250    0.433   11.157
  315.000   64.438    0.262    0.444   10.578
  315.250   72.119    0.240    0.456    9.942
  315.500   77.824    0.220    0.449    9.263
  315.750   80.303    0.203    0.426    8.391
  316.000   81.193    0.198    0.413    7.522
  316.250   82.663    0.207    0.429    6.913
  316.500   85.240    0.216    0.463    6.508
  316.750   85.310    0.227    0.471    6.189
  317.000   85.188    0.232    0.460    6.139
  317.250   82.647    0.224    0.451    6.149
  317.500   79.458    0.208    0.443    6.190
  317.750   79.442    0.199    0.440    6.276
  318.000   80.441    0.207    0.448    6.270
  318.250   78.083    0.225    0.447    6.364
  318.500   75.382    0.231    0.433    6.467
  318.750   78.061    0.223    0.426    6.578
  319.000   82.385    0.213    0.434    6.640
  319.250   82.796    0.209    0.445    6.627
  319.500   81.748    0.206    0.445    6.629
  319.750   82.544    0.192    0.433    6.628
  320.000   85.490    0.186    0.425    6.629
  320.250   87.810    0.196    0.438    6.624
  320.500   87.317    0.207    0.454    6.639
  320.750   85.015    0.213    0.455    6.606
  321.000   83.039    0.226    0.462    6.504
  321.250   80.989    0.236    0.470    6.609
  321.500   79.567    0.229    0.458    6.628
  321.750   79.901    0.215    0.440    6.672
  322.000   82.741    0.219    0.438    6.805
  322.250   86.040    0.234    0.449    6.885
  322.500   86.800    0.229    0.461    6.877
  322.750   86.384    0.211    0.476    6.876
  323.000   84.921    0.196    0.484    6.877
  323.250   81.211    0.208    0.485    6.875
  323.500   76.437    0.232    0.469    6.878
  323.750   72.853    0.240    0.450    6.872
