~VERSION INFORMATION
 VERS.                 2.0:   CWLS LOG ASCII STANDARD -VERSION 2.0
 WRAP.                  NO:   ONE LINE PER DEPTH STEP
~WELL INFORMATION BLOCK
#MNEM.UNIT           DATA                    DESCRIPTION OF MNEMONIC
#---------    -------------------            -------------------------------
# Generated from Intellog Unique Number	CW_79_81/WELL/549
WELL.         07-16-079-24W4                 : Well_name    - WELL
LOC .         00/07-16-079-24W4/0            : Location     - LOCATION
UWI .         00/07-16-079-24W4/0            : Uwi          - UNIQUE WELL ID
ENTR.         MAX                            : Entered      - ENTERED BY
SRVC.         SCHLUMBERGER                   : Scn          - SERVICE COMPANY
STRT.M        198.12                         : top_depth    - START DEPTH
STOP.M        457.12                         : bot_depth    - STOP DEPTH
STEP.M        0.25                           : increment    - STEP LENGTH
 NULL. -999.2500:NULL Value
~CURVE INFORMATION BLOCK
#MNEM UNIT       ERCB CURVE CODE    CURVE DESCRIPTION
#-----------   ------------------   ----------------------------------
DEPT.M        00 001 00 00         : DEPTH        - DEPTH
ILD .OHMM     00 120 00 00         : RESD         - DEEP RESISTIVITY (DIL)
NPHI.V/V      00 330 00 00         : PHIN         - NEUTRON POROSITY (SANDSTONE)
DPHI.V/V      00 890 00 00         : PHID         - DENSITY POROSITY (SANDSTONE)
CALI.MM       00 280 01 00         : CAL          - CALIPER
GR  .API      00 310 00 00         : GR           - GAMMA RAY
~PARAMETER INFORMATION
#MNEM.UNIT           DATA             DESCRIPTION OF MNEMONIC
#---------         -----------     ------------------------------
GL  .M        557.479              : gl           - GROUND LEVEL ELEVATION
EREF.M        561.137              : kb           - ELEVATION OF DEPTH REFERENCE
DATM.M        557.479              : datum        - DATUM ELEVATION
TDD .M        353.568              : tdd          - TOTAL DEPTH DRILLER
RUN .         ONE                  : Run          - RUN NUMBER
ENG .         BILL                 : Engineer     - RECORDING ENGINEER
WIT .         JIM                  : Witness      - WITNESSED BY
MUD .         GEL                  : Mud_type     - MUD TYPE
MATR.         SANDSTONE            : Logunit      - NEUTRON MATRIX
TMAX.C        20                   : BHT          - MAXIMUM RECORDED TEMPERATURE
BHTD.M        445.008              : BHTDEP       - MAXIMUM RECORDED TEMPERATURE
RMT .C        17.7778              : MDTP         - TEMPERATURE OF MUD
MUDD.KG/M     10400                : MWT          - MUD DENSITY
NEUT.         1                    : NEUTRON      - NEUTRON TYPE
RESI.         0                    : RESIST       - RESISTIVITY TYPE
RM  .OHMM     10.7                 : RM           - RESISTIVITY OF MUD
RMC .OHMM     0.25                 : RMC          - RESISTIVITY OF MUD CAKE
RMF .OHMM     0.25                 : RMF          - RESISTIVITY OF MUD FILTRATE
SUFT.C        -23.3333             : SUFT         - SURFACE TEMPERATURE
~A  DEPTH     RESD     PHIN     PHID      CAL       GR
# ...
  344.120    9.943    0.473    0.176  240.344   86.320
  344.370   10.696    0.455    0.180  239.949   84.929
  344.620   11.823    0.443    0.177  238.575   82.373
  344.870   12.723    0.449    0.163  235.723   80.662
  345.120   12.980    0.434    0.153  234.860   78.382
  345.370   13.014    0.410    0.145  234.992   76.404
  345.620   12.481    0.395    0.131  235.577   71.765
  345.870   12.070    0.371    0.099  237.230   68.906
  346.120   11.477    0.356    0.080  237.816   68.984
  346.370   11.195    0.355    0.120  239.454   72.275
  346.620   11.141    0.391    0.125  240.552   79.402
  346.870   10.955    0.424    0.122  241.181   84.482
  347.120   10.600    0.430    0.144  240.816   83.082
  347.370   10.530    0.435    0.153  240.421   82.271
  347.620   10.558    0.440    0.151  241.548   83.515
  347.870   10.492    0.447    0.154  242.177   84.180
  348.120   10.510    0.452    0.162  243.289   83.679
  348.370   10.355    0.458    0.177  243.903   83.749
  348.620   10.287    0.465    0.182  243.523   86.763
  348.870   10.216    0.466    0.175  243.523   89.182
  349.120   10.060    0.447    0.169  243.305   88.388
  349.370    9.997    0.462    0.176  242.413   85.796
  349.620   10.037    0.473    0.160  242.545   84.993
  349.870   10.049    0.477    0.143  242.647   85.356
  350.120   10.162    0.475    0.154  242.794   85.123
  350.370   10.457    0.475    0.181  241.902   84.907
  350.620   11.057    0.471    0.169  241.039   86.454
  350.870   11.793    0.472    0.176  239.664   84.165
  351.120   13.999    0.466    0.176  238.290   81.599
  351.370   16.761    0.454    0.180  236.432   81.669
  351.620   20.794    0.452    0.184  234.575   82.628
  351.870   25.803    0.464    0.189  233.200   82.999
  352.120   32.020    0.479    0.199  231.811   82.481
  352.370   35.052    0.480    0.226  226.472   79.017
  352.620   41.230    0.477    0.238  223.620   71.450
  352.870   45.576    0.460    0.257  221.748   65.646
  353.120   47.753    0.444    0.232  220.885   61.318
  353.370   49.607    0.448    0.226  221.003   60.800
  353.620   51.078    0.458    0.234  221.120   60.869
  353.870   50.772    0.455    0.258  221.222   60.653
  354.120   49.129    0.444    0.272  220.857   60.420
  354.370   47.064    0.432    0.273  220.989   60.205
  354.620   43.939    0.429    0.265  221.604   60.274
  354.870   40.660    0.424    0.269  222.716   60.645
  355.120   37.303    0.429    0.265  223.330   61.293
  355.370   35.767    0.436    0.269  223.448   61.665
  355.620   34.907    0.437    0.273  223.594   61.734
  355.870   34.907    0.438    0.267  223.711   60.344
  356.120   34.798    0.447    0.242  224.341   59.834
  356.370   34.848    0.453    0.234  225.453   61.657
  356.620   35.881    0.450    0.239  227.589   64.085
  356.870   38.280    0.452    0.227  228.686   63.566
  357.120   40.455    0.463    0.222  228.789   63.057
  357.370   45.520    0.472    0.265  228.921   64.016
  357.620   53.084    0.477    0.267  229.038   65.269
  357.870   58.663    0.476    0.263  228.687   66.522
  358.120   61.466    0.465    0.241  228.322   66.297
  358.370   61.063    0.453    0.191  228.410   65.477
  358.620   55.543    0.420    0.137  228.556   64.077
  358.870   44.187    0.393    0.096  228.659   61.210
  359.120   40.158    0.382    0.088  229.303   61.884
  359.370   34.923    0.390    0.126  229.903   63.715
  359.620   29.836    0.388    0.138  229.552   64.372
  359.870   26.876    0.378    0.142  229.684   63.283
  360.120   24.216    0.378    0.148  230.269   63.042
  360.370   21.443    0.392    0.165  231.893   65.487
  360.620   20.565    0.416    0.202  233.517   68.484
  360.870   20.619    0.439    0.213  234.629   73.261
  361.120   21.030    0.453    0.206  236.253   75.689
  361.370   21.840    0.483    0.212  237.877   78.695
  361.620   22.890    0.473    0.199  239.501   78.782
  361.870   23.360    0.458    0.187  240.584   79.136
  362.120   23.201    0.444    0.212  241.710   79.793
  362.370   22.450    0.439    0.208  242.837   81.331
  362.620   21.519    0.443    0.203  243.964   82.583
  362.870   20.096    0.445    0.212  244.578   82.065
  363.120   18.767    0.452    0.220  245.705   81.564
  363.370   17.994    0.451    0.219  245.808   82.506
  363.620   17.401    0.461    0.217  246.437   83.474
  363.870   17.135    0.462    0.215  246.583   83.552
  364.120   16.728    0.456    0.204  246.701   83.906
  364.370   16.771    0.440    0.208  246.306   86.040
  364.620   16.810    0.445    0.220  245.458   89.642
  364.870   16.552    0.453    0.214  245.049   90.290
  365.120   16.154    0.459    0.214  244.186   87.129
  365.370   15.627    0.468    0.203  243.821   82.214
  365.620   15.117    0.467    0.196  242.943   81.704
  365.870   14.494    0.441    0.176  242.066   83.536
  366.120   13.905    0.432    0.165  240.691   85.073
  366.370   13.451    0.432    0.161  239.828   86.611
  366.620   13.244    0.427    0.165  238.936   87.864
  366.870   13.154    0.419    0.190  238.586   87.346
  367.120   13.188    0.421    0.182  238.206   87.415
  367.370   13.708    0.427    0.185  237.343   89.264
  367.620   14.102    0.438    0.182  236.977   90.508
  367.870   14.392    0.438    0.166  236.100   90.284
  368.120   13.681    0.413    0.151  235.208   86.828
  368.370   13.226    0.397    0.131  234.843   84.263
  368.620   12.355    0.384    0.133  234.463   87.269
  368.870   12.355    0.401    0.173  234.083   89.109
  369.120   11.993    0.428    0.158  234.712   88.876
  369.370   11.796    0.438    0.156  235.312   89.844
  369.620   11.742    0.437    0.150  236.453   91.079
  369.870   11.645    0.437    0.151  237.580   91.460
  370.120   11.773    0.433    0.160  238.194   90.354
  370.370   12.233    0.424    0.146  238.312   88.955
  370.620   12.701    0.426    0.142  238.414   90.787
  370.870   13.312    0.436    0.142  238.546   91.737
  371.120   13.948    0.437    0.131  238.196   89.483
  371.370   14.234    0.433    0.129  237.786   88.956
  371.620   14.398    0.413    0.104  238.445   84.922
  371.870   14.052    0.396    0.081  239.542   85.570
  372.120   13.589    0.374    0.092  240.654   87.989
  372.370   12.695    0.398    0.124  240.771   92.472
  372.620   11.848    0.420    0.134  241.430   94.606
  372.870   10.774    0.419    0.115  242.513   93.509
  373.120   10.515    0.422    0.117  243.127   93.276
  373.370   10.728    0.437    0.140  243.771   93.345
  373.620   11.241    0.440    0.144  244.400   92.844
  373.870   11.883    0.435    0.148  245.512   92.033
  374.120   12.454    0.427    0.148  245.630   90.642
  374.370   12.820    0.432    0.139  245.732   90.409
  374.620   12.747    0.433    0.147  245.382   90.193
  374.870   12.331    0.425    0.133  245.484   89.969
  375.120   11.715    0.410    0.121  245.631   92.103
  375.370   10.934    0.404    0.128  245.266   94.513
  375.620   10.208    0.400    0.125  244.885   98.418
  375.870   10.057    0.404    0.116  243.511  102.607
  376.120   10.264    0.412    0.102  242.619  104.732
  376.370   10.656    0.422    0.119  241.756  104.223
  376.620   11.776    0.425    0.136  240.411  103.109
  376.870   13.492    0.432    0.143  239.533   98.772
  377.120   17.047    0.435    0.141  238.641   94.747
  377.370   17.851    0.425    0.135  237.266   92.450
  377.620   22.158    0.414    0.145  234.400   89.003
  377.870   24.911    0.426    0.168  231.548   85.246
  378.120   32.315    0.431    0.183  229.661   78.568
  378.370   34.783    0.430    0.192  228.784   75.986
  378.620   35.184    0.425    0.202  228.433   74.586
  378.870   34.329    0.406    0.215  228.550   72.617
  379.120   32.623    0.393    0.228  230.160   71.209
  379.370   29.922    0.387    0.199  231.783   70.708
  379.620   24.245    0.384    0.163  233.407   71.054
  379.870   22.843    0.400    0.158  233.525   72.903
  380.120   21.703    0.420    0.197  231.667   74.743
  380.370   20.814    0.450    0.225  230.278   74.804
