~VERSION INFORMATION
 VERS.                 2.0:   CWLS LOG ASCII STANDARD -VERSION 2.0
 WRAP.                  NO:   ONE LINE PER DEPTH STEP
~WELL INFORMATION BLOCK
#MNEM.UNIT           DATA                    DESCRIPTION OF MNEMONIC
#---------    -------------------            -------------------------------
# Generated from Intellog Unique Number	CX_WELLS/WELL/4044
WELL.         AMOCO KERBRY                   : Well_name    - WELL
LOC .         00/07-19-074-05W4/0            : Location     - LOCATION
UWI .         00/07-19-074-05W4/0            : Uwi          - UNIQUE WELL ID
ENTR.         T                              : Entered      - ENTERED BY
SRVC.         SCHLUMBERGER                   : Scn          - SERVICE COMPANY
STRT.F        850                            : top_depth    - START DEPTH
STOP.F        1630.02                        : bot_depth    - STOP DEPTH
STEP.F        0.82                           : increment    - STEP LENGTH
 NULL. -999.2500:NULL Value
~CURVE INFORMATION BLOCK
#MNEM UNIT       ERCB CURVE CODE    CURVE DESCRIPTION
#-----------   ------------------   ----------------------------------
DEPT.F        00 001 00 00         : DEPTH        - DEPTH
GR  .API      00 310 00 00         : GR           - GAMMA RAY
NPHI.V/V      00 330 00 00         : PHIN         - NEUTRON POROSITY (SANDSTONE)
DPHI.V/V      00 890 00 00         : PHID         - DENSITY POROSITY (SANDSTONE)
ILD .OHMM     00 120 00 00         : RESD         - DEEP RESISTIVITY (DIL)
~PARAMETER INFORMATION
#MNEM.UNIT           DATA             DESCRIPTION OF MNEMONIC
#---------         -----------     ------------------------------
GL  .F        2144                 : gl           - GROUND LEVEL ELEVATION
EREF.F        2156                 : kb           - ELEVATION OF DEPTH REFERENCE
DATM.F        2156                 : datum        - DATUM ELEVATION
TDD .F        1677                 : tdd          - TOTAL DEPTH DRILLER
RUN .         ONE                  : Run          - RUN NUMBER
ENG .         BILL                 : Engineer     - RECORDING ENGINEER
WIT .         JIM                  : Witness      - WITNESSED BY
MUD .         GEL                  : Mud_type     - MUD TYPE
MATR.         SANDSTONE            : Logunit      - NEUTRON MATRIX
TMAX.F        62.6                 : BHT          - MAXIMUM RECORDED TEMPERATURE
BHTD.F        1677                 : BHTDEP       - MAXIMUM RECORDED TEMPERATURE
MATR.         1                    : LOGUNIT      - NEUTRON MATRIX
RMT .F        77                   : MDTP         - TEMPERATURE OF MUD
NEUT.         1                    : NEUTRON      - NEUTRON TYPE
RESI.         5.6                  : RESIST       - RESISTIVITY TYPE
RMC .OHMM     5.2                  : RMC          - RESISTIVITY OF MUD CAKE
RMF .OHMM     4.2                  : RMF          - RESISTIVITY OF MUD FILTRATE
SUFT.F        59                   : SUFT         - SURFACE TEMPERATURE
~A  DEPTH       GR     PHIN     PHID     RESD
# ...
 1278.150   99.113    0.361    0.217    4.432
 1278.970  102.303    0.361    0.218    4.516
 1279.790  104.851    0.361    0.221    4.517
 1280.610  111.848    0.361    0.229    4.519
 1281.430  108.686    0.364    0.236    4.439
 1282.250   99.181    0.373    0.241    4.360
 1283.070   92.856    0.383    0.245    4.053
 1283.890   92.863    0.375    0.252    3.980
 1284.710   93.518    0.370    0.253    3.633
 1285.530   93.524    0.367    0.252    3.439
 1286.350   92.269    0.367    0.247    3.082
 1287.170   91.651    0.373    0.245    2.918
 1287.990   91.661    0.381    0.243    2.814
 1288.810   91.682    0.387    0.243    2.568
 1289.630   90.426    0.388    0.245    2.522
 1290.450   89.164    0.387    0.246    2.432
 1291.270   89.815    0.385    0.247    2.345
 1292.090   90.460    0.380    0.248    2.346
 1292.910   91.743    0.374    0.249    2.347
 1293.730   93.663    0.371    0.252    2.348
 1294.550   92.408    0.371    0.261    2.436
 1295.370   91.784    0.368    0.274    2.721
 1296.190   89.266    0.363    0.294    2.984
 1297.010   88.638    0.346    0.327    3.096
 1297.830   86.113    0.310    0.354    3.458
 1298.650   80.419    0.284    0.384    3.861
 1299.480   81.071    0.262    0.399    5.474
 1300.300   81.712    0.231    0.406    7.619
 1301.120   81.091    0.211    0.399   10.036
 1301.940   79.201    0.206    0.394   20.161
 1302.760   76.045    0.211    0.391   27.054
 1303.580   75.424    0.222    0.392   30.773
 1304.400   74.800    0.231    0.399   29.135
 1305.220   74.813    0.237    0.406   26.590
 1306.040   75.468    0.243    0.411   24.718
 1306.860   76.748    0.228    0.420   22.559
 1307.680   77.396    0.214    0.417   20.970
 1308.500   77.409    0.207    0.410   20.594
 1309.320   77.423    0.198    0.405   20.983
 1310.140   75.536    0.201    0.400   22.178
 1310.960   74.908    0.207    0.391   23.878
 1311.780   72.384    0.209    0.392   25.236
 1312.600   68.593    0.201    0.398   28.188
 1313.420   69.879    0.192    0.407   29.246
 1314.240   71.159    0.193    0.413   31.485
 1315.060   71.803    0.198    0.423   33.281
 1315.880   73.086    0.207    0.396   31.513
 1316.700   73.103    0.214    0.391   31.518
 1317.520   73.120    0.223    0.390   33.316
 1318.340   73.130    0.226    0.392   34.571
 1319.160   73.144    0.229    0.388   37.220
 1319.980   73.161    0.235    0.388   38.622
 1320.800   73.168    0.245    0.396   43.132
 1321.620   73.819    0.249    0.401   37.260
 1322.440   74.464    0.247    0.408   32.182
 1323.260   76.385    0.245    0.409   37.283
 1324.080   76.398    0.247    0.398   44.807
 1324.900   75.774    0.250    0.395   51.910
 1325.720   73.884    0.252    0.395   59.050
 1326.540   72.628    0.259    0.395   49.165
 1327.360   72.642    0.269    0.395   38.041
 1328.180   73.293    0.285    0.394   23.617
 1329.000   74.576    0.305    0.393   20.778
 1329.820   75.224    0.320    0.385   16.076
 1330.640   75.869    0.331    0.368   13.386
 1331.460   76.524    0.337    0.346   10.944
 1332.280   76.530    0.342    0.341    9.112
 1333.100   77.182    0.352    0.335    7.182
 1333.920   77.192    0.359    0.330    5.259
 1334.740   79.116    0.362    0.330    4.542
 1335.560   79.126    0.363    0.330    3.388
 1336.380   78.505    0.367    0.330    2.873
 1337.200   74.074    0.363    0.328    2.482
 1338.020   70.918    0.353    0.325    2.224
 1338.850   73.470    0.351    0.320    2.030
 1339.670   75.387    0.351    0.317    1.994
 1340.490   76.032    0.348    0.317    1.958
 1341.310   74.145    0.347    0.316    1.959
 1342.130   73.520    0.347    0.312    1.996
 1342.950   72.265    0.350    0.311    2.034
 1343.770   73.551    0.354    0.313    2.110
 1344.590   76.106    0.354    0.315    2.190
 1345.410   77.382    0.352    0.316    2.272
 1346.230   76.133    0.348    0.313    2.402
 1347.050   74.871    0.335    0.306    2.493
 1347.870   74.885    0.329    0.291    2.733
 1348.690   74.898    0.323    0.280    3.052
 1349.510   74.915    0.319    0.269    3.472
 1350.330   73.656    0.314    0.248    4.096
 1351.150   69.866    0.307    0.225    4.834
 1351.970   67.341    0.314    0.189    5.704
 1352.790   66.720    0.325    0.152    6.488
 1353.610   66.730    0.334    0.133    7.380
 1354.430   68.648    0.335    0.137    8.091
 1355.250   71.206    0.335    0.189    9.725
 1356.070   71.848    0.333    0.245   14.041
 1356.890   69.961    0.330    0.318   13.791
 1357.710   68.705    0.333    0.329   13.545
 1358.530   69.353    0.338    0.330   17.200
 1359.350   69.998    0.340    0.325   16.586
 1360.170   72.550    0.345    0.320   15.418
 1360.990   73.840    0.341    0.316   14.597
 1361.810   74.491    0.337    0.319   13.570
 1362.630   74.498    0.336    0.319   13.086
 1363.450   73.877    0.341    0.315   12.851
 1364.270   71.352    0.344    0.310   12.857
 1365.090   70.100    0.344    0.305   13.101
 1365.910   72.655    0.342    0.301   13.105
 1366.730   73.931    0.335    0.298   12.637
 1367.550   76.483    0.331    0.294   11.747
 1368.370   77.769    0.331    0.293   10.721
 1369.190   77.783    0.331    0.293    9.965
 1370.010   76.530    0.331    0.293    9.264
 1370.830   75.906    0.326    0.293    8.933
 1371.650   75.920    0.324    0.291    8.459
 1372.470   76.568    0.325    0.290    8.156
 1373.290   77.216    0.323    0.274    7.864
 1374.110   77.864    0.318    0.274    7.312
 1374.930   78.512    0.316    0.286    7.180
 1375.750   78.522    0.312    0.301    6.798
 1376.570   78.536    0.311    0.307    6.436
 1377.400   76.011    0.313    0.311    6.206
 1378.220   69.048    0.316    0.312    6.209
 1379.040   63.347    0.321    0.312    6.684
 1379.860   55.746    0.326    0.312    8.033
 1380.680   51.318    0.333    0.312   10.389
 1381.500   48.790    0.339    0.312   18.021
 1382.320   48.803    0.340    0.312   26.020
 1383.140   48.820    0.340    0.312   35.560
 1383.960   50.106    0.340    0.312   41.963
 1384.780   50.751    0.340    0.312   38.298
 1385.600   53.937    0.342    0.312   35.601
 1386.420   55.855    0.343    0.312   33.706
 1387.240   57.137    0.343    0.308   31.912
 1388.060   56.516    0.339    0.307   31.343
 1388.880   53.357    0.339    0.309   30.784
 1389.700   46.394    0.340    0.316   30.232
 1390.520   45.139    0.341    0.318   30.809
 1391.340   44.514    0.341    0.318   31.385
 1392.160   43.893    0.340    0.317   33.790
 1392.980   43.907    0.339    0.317   36.373
 1393.800   44.562    0.339    0.315   40.620
 1394.620   44.568    0.336    0.314   46.203
 1395.440   45.855    0.336    0.313   51.598
 1396.260   46.499    0.339    0.310   56.576
 1397.080   47.147    0.342    0.309   56.601
 1397.900   48.433    0.342    0.309   62.061
 1398.720   49.081    0.344    0.310   69.308
 1399.540   48.461    0.341    0.314   74.613
 1400.360   47.840    0.337    0.318   66.865
 1401.180   48.484    0.335    0.318   62.150
 1402.000   49.770    0.339    0.316   56.722
 1402.820   51.053    0.341    0.310   53.698
 1403.640   51.067    0.345    0.310   47.247
 1404.460   49.811    0.347    0.311   44.728
 1405.280   48.556    0.351    0.314   40.829
 1406.100   47.935    0.351    0.316   39.365
 1406.920   47.948    0.350    0.320   37.960
 1407.740   47.962    0.350    0.321   37.283
 1408.560   47.975    0.351    0.322   40.880
 1409.380   47.354    0.353    0.322   45.654
 1410.200   46.733    0.359    0.321   52.890
 1411.020   45.478    0.370    0.321   64.742
 1411.840   45.488    0.382    0.319   64.765
 1412.660   45.502    0.382    0.316   59.119
 1413.480   45.515    0.365    0.307   58.054
 1414.300   43.632    0.347    0.306   54.965
 1415.120   42.370    0.336    0.310   52.039
 1415.940   41.748    0.332    0.311   47.503
 1416.770   43.666    0.329    0.313   45.800
 1417.590   47.490    0.329    0.315   40.297
 1418.410   50.042    0.332    0.313   37.456
 1419.230   51.962    0.333    0.313   34.187
 1420.050   52.604    0.333    0.315   32.368
