~VERSION INFORMATION
 VERS.                 2.0:   CWLS LOG ASCII STANDARD -VERSION 2.0
 WRAP.                  NO:   ONE LINE PER DEPTH STEP
~WELL INFORMATION BLOCK
#MNEM.UNIT           DATA                    DESCRIPTION OF MNEMONIC
#---------    -------------------            -------------------------------
# Generated from Intellog Unique Number	CS_67_68/WELL/772
WELL.         BURNT LAKE                     : Well_name    - WELL
LOC .         00/07-16-068-03W4/0            : Location     - LOCATION
UWI .         00/07-16-068-03W4/0            : Uwi          - UNIQUE WELL ID
ENTR.         SP                             : Entered      - ENTERED BY
SRVC.         SCHLUMBERGER                   : Scn          - SERVICE COMPANY
STRT.M        370                            : top_depth    - START DEPTH
STOP.M        605                            : bot_depth    - STOP DEPTH
STEP.M        0.25                           : increment    - STEP LENGTH
 NULL. -999.2500:NULL Value
~CURVE INFORMATION BLOCK
#MNEM UNIT       ERCB CURVE CODE    CURVE DESCRIPTION
#-----------   ------------------   ----------------------------------
DEPT.M        00 001 00 00         : DEPTH        - DEPTH
ILD .OHMM     00 120 00 00         : RESD         - DEEP RESISTIVITY (DIL)
DPHI.V/V      00 890 00 00         : PHID         - DENSITY POROSITY (LIMESTONE)
NPHI.V/V      00 330 00 00         : PHIN         - NEUTRON POROSITY (LIMESTONE)
GR  .API      00 310 00 00         : GR           - GAMMA RAY
~PARAMETER INFORMATION
#MNEM.UNIT           DATA             DESCRIPTION OF MNEMONIC
#---------         -----------     ------------------------------
GL  .M        736.44               : gl           - GROUND LEVEL ELEVATION
EREF.M        740.9                : kb           - ELEVATION OF DEPTH REFERENCE
DATM.M        736.44               : datum        - DATUM ELEVATION
TDD .M        608                  : tdd          - TOTAL DEPTH DRILLER
RUN .         ONE                  : Run          - RUN NUMBER
ENG .         BILL                 : Engineer     - RECORDING ENGINEER
WIT .         JIM                  : Witness      - WITNESSED BY
MUD .         GEL                  : Mud_type     - MUD TYPE
MATR.         LIMESTONE            : Logunit      - NEUTRON MATRIX
TMAX.C        25.5                 : BHT          - MAXIMUM RECORDED TEMPERATURE
BHTD.M        608                  : BHTDEP       - MAXIMUM RECORDED TEMPERATURE
MATR.         1                    : LOGUNIT      - NEUTRON MATRIX
RMT .C        25                   : MDTP         - TEMPERATURE OF MUD
NEUT.         1                    : NEUTRON      - NEUTRON TYPE
RESI.         0                    : RESIST       - RESISTIVITY TYPE
RMC .OHMM     0.25                 : RMC          - RESISTIVITY OF MUD CAKE
RMF .OHMM     0.25                 : RMF          - RESISTIVITY OF MUD FILTRATE
SUFT.C        15                   : SUFT         - SURFACE TEMPERATURE
~A  DEPTH     RESD     PHID     PHIN       GR
  370.000    2.573    0.246    0.470   88.508
  370.250    2.787    0.229    0.468   85.980
  370.500    2.863    0.256    0.481   88.304
  370.750    2.964    0.271    0.494   92.102
  371.000    3.005    0.285    0.505   93.442
  371.250    3.036    0.289    0.512   93.861
  371.500    3.044    0.280    0.520   96.861
  371.750    3.086    0.275    0.525   97.955
  372.000    3.165    0.267    0.508   92.661
  372.250    3.251    0.260    0.492   88.721
  372.500    3.398    0.255    0.479   88.525
  372.750    3.532    0.247    0.501   90.910
  373.000    3.546    0.240    0.504   93.295
  373.250    3.576    0.238    0.496   95.127
  373.500    3.633    0.246    0.479   94.810
  373.750    3.676    0.251    0.472   90.559
  374.000    3.692    0.254    0.488   86.557
  374.250    3.591    0.244    0.490   83.783
  374.500    3.383    0.239    0.483   84.018
  374.750    3.134    0.246    0.508   89.289
  375.000    2.991    0.259    0.518   93.025
  375.250    2.954    0.260    0.508   96.516
  375.500    2.961    0.253    0.499   99.082
  375.750    3.003    0.261    0.496  100.056
  376.000    3.045    0.264    0.495   99.616
  376.250    3.069    0.264    0.494   94.446
  376.500    3.078    0.261    0.512   97.936
  376.750    3.091    0.258    0.522   98.048
  377.000    3.164    0.259    0.514   96.011
  377.250    3.214    0.267    0.505   95.570
  377.500    3.271    0.279    0.495   98.323
  377.750    3.342    0.286    0.471   96.347
  378.000    3.363    0.282    0.478   91.545
  378.250    3.360    0.261    0.499   88.955
  378.500    3.305    0.239    0.492   95.884
  378.750    3.202    0.244    0.479  104.349
  379.000    3.180    0.268    0.485  109.500
  379.250    3.471    0.269    0.514  101.810
  379.500    3.942    0.262    0.530   93.935
  379.750    4.261    0.269    0.513   89.196
  380.000    4.545    0.321    0.512   83.904
  380.250    4.933    0.361    0.527   77.321
  380.500    5.155    0.327    0.488   75.836
  380.750    5.287    0.287    0.436   79.573
  381.000    5.513    0.261    0.405   81.956
  381.250    5.860    0.246    0.420   82.315
  381.500    6.229    0.235    0.454   76.037
  381.750    6.659    0.221    0.481   72.097
  382.000    7.011    0.209    0.467   67.416
  382.250    7.340    0.219    0.439   65.934
  382.500    7.513    0.263    0.417   71.819
  382.750    7.448    0.286    0.406   74.326
  383.000    7.637    0.292    0.418   76.343
  383.250    7.981    0.297    0.438   77.745
  383.500    8.123    0.305    0.434   78.409
  383.750    7.932    0.311    0.412   78.830
  384.000    7.773    0.316    0.418   78.081
  384.250    7.435    0.317    0.406   76.659
  384.500    7.177    0.314    0.393   76.955
  384.750    7.061    0.296    0.413   79.462
  385.000    7.173    0.271    0.432   79.451
  385.250    7.902    0.270    0.446   82.511
  385.500    9.621    0.279    0.440   86.062
  385.750   11.915    0.279    0.439   88.080
  386.000   14.103    0.221    0.255   84.261
  386.250   16.041    0.218    0.216   65.332
  386.500   19.058    0.230    0.190   50.150
  386.750   22.260    0.374    0.164   47.927
  387.000   22.527    0.390    0.175   56.392
  387.250   19.023    0.372    0.225   64.551
  387.500   15.942    0.354    0.260   71.296
  387.750   13.286    0.340    0.287   75.402
  388.000   11.939    0.328    0.309   79.506
  388.250   10.749    0.317    0.335   82.382
  388.500    9.661    0.305    0.359   85.258
  388.750    9.186    0.291    0.382   85.064
  389.000    8.719    0.284    0.405   84.255
  389.250    8.371    0.279    0.414   89.093
  389.500    8.173    0.289    0.400   91.665
  389.750    7.627    0.307    0.410   94.111
  390.000    6.713    0.320    0.423   96.066
  390.250    6.033    0.311    0.406   98.513
  390.500    5.310    0.286    0.408  101.942
  390.750    4.808    0.251    0.436  104.755
  391.000    4.353    0.225    0.461  106.219
  391.250    4.017    0.212    0.488  107.683
  391.500    3.820    0.224    0.498  108.349
  391.750    4.169    0.229    0.486  105.204
  392.000    5.557    0.233    0.479  106.912
  392.250    7.281    0.234    0.489  108.624
  392.500    9.017    0.238    0.516  104.129
  392.750   10.613    0.268    0.506   74.205
  393.000   11.516    0.381    0.342   58.962
  393.250   12.286    0.433    0.266   63.741
  393.500   12.719    0.421    0.261   67.662
  393.750   12.632    0.400    0.300   71.395
  394.000   12.713    0.370    0.331   72.739
  394.250   12.963    0.346    0.353   68.793
  394.500   13.418    0.317    0.366   66.882
  394.750   14.155    0.313    0.375   65.336
  395.000   14.598    0.322    0.379   68.457
  395.250   12.947    0.323    0.358   66.543
  395.500   11.592    0.305    0.347   69.663
  395.750   10.735    0.292    0.366   73.338
  396.000   10.036    0.303    0.392   75.908
  396.250    9.105    0.303    0.420   74.239
  396.500    8.481    0.275    0.423   71.892
  396.750    8.050    0.215    0.416   72.496
  397.000    7.698    0.187    0.445   76.294
  397.250    7.281    0.250    0.458   79.108
  397.500    7.081    0.283    0.448   80.204
  397.750    6.927    0.294    0.465   77.368
  398.000    6.879    0.301    0.479   73.857
  398.250    6.884    0.323    0.485   67.458
  398.500    6.954    0.367    0.417   58.664
  398.750    6.971    0.380    0.387   54.108
  399.000    6.976    0.390    0.377   54.404
  399.250    6.980    0.382    0.399   54.697
  399.500    6.985    0.372    0.415   54.874
  399.750    7.029    0.363    0.425   57.319
  400.000    7.075    0.350    0.404   62.714
  400.250    7.118    0.334    0.390   68.045
  400.500    7.190    0.329    0.405   70.739
  400.750    7.277    0.336    0.411   65.322
  401.000    7.392    0.327    0.386   59.415
  401.250    7.552    0.315    0.373   56.271
  401.500    7.818    0.306    0.367   55.709
  401.750    7.987    0.305    0.362   56.128
  402.000    8.145    0.310    0.354   55.441
  402.250    8.243    0.317    0.349   52.360
  402.500    8.295    0.333    0.359   47.927
  402.750    8.285    0.336    0.352   44.046
  403.000    8.290    0.331    0.345   43.852
  403.250    8.295    0.333    0.357   45.315
  403.500    8.301    0.339    0.363   45.488
  403.750    8.244    0.339    0.344   44.556
  404.000    8.171    0.333    0.335   41.536
  404.250    8.040    0.334    0.339   38.885
  404.500    7.983    0.336    0.350   35.249
  404.750    7.900    0.328    0.347   39.968
  405.000    7.889    0.312    0.333   49.478
  405.250    7.851    0.302    0.355   54.873
  405.500    7.811    0.298    0.354   56.643
  405.750    7.727    0.312    0.357   53.377
  406.000    7.617    0.327    0.359   49.681
  406.250    7.550    0.341    0.356   47.336
  406.500    7.443    0.333    0.355   46.282
  406.750    7.377    0.323    0.362   44.612
  407.000    7.367    0.324    0.363   40.239
  407.250    7.318    0.335    0.357   36.237
  407.500    7.308    0.345    0.348   33.278
  407.750    7.327    0.329    0.338   43.096
  408.000    7.374    0.307    0.331   51.684
  408.250    7.406    0.297    0.345   51.488
  408.500    7.412    0.331    0.354   40.052
  408.750    7.430    0.348    0.344   34.513
  409.000    7.449    0.346    0.345   31.002
  409.250    7.482    0.344    0.350   31.176
  409.500    7.486    0.338    0.354   32.824
  409.750    7.491    0.330    0.360   36.190
  410.000    7.510    0.322    0.364   39.067
  410.250    7.529    0.318    0.361   40.408
  410.500    7.505    0.318    0.363   40.274
  410.750    7.453    0.323    0.367   38.421
  411.000    7.388    0.338    0.366   34.111
  411.250    7.269    0.348    0.356   30.230
  411.500    7.098    0.356    0.349   25.857
  411.750    7.009    0.370    0.355   24.251
  412.000    6.882    0.357    0.366   28.168
  412.250    6.758    0.350    0.379   29.021
  412.500    6.661    0.349    0.396   29.010
  412.750    6.530    0.358    0.412   28.629
  413.000    6.484    0.367    0.418   27.759
  413.250    6.415    0.370    0.413   26.088
