~VERSION INFORMATION
 VERS.                 2.0:   CWLS LOG ASCII STANDARD -VERSION 2.0
 WRAP.                  NO:   ONE LINE PER DEPTH STEP
~WELL INFORMATION BLOCK
#MNEM.UNIT           DATA                    DESCRIPTION OF MNEMONIC
#---------    -------------------            -------------------------------
# Generated from Intellog Unique Number	CW_79_81/WELL/2460
WELL.         GULF PELICAN                   : Well_name    - WELL
LOC .         00/07-21-081-21W4/0            : Location     - LOCATION
UWI .         00/07-21-081-21W4/0            : Uwi          - UNIQUE WELL ID
ENTR.         MAX                            : Entered      - ENTERED BY
SRVC.         SCHLUMBERGER                   : Scn          - SERVICE COMPANY
STRT.M        185                            : top_depth    - START DEPTH
STOP.M        429.75                         : bot_depth    - STOP DEPTH
STEP.M        0.25                           : increment    - STEP LENGTH
 NULL. -999.2500:NULL Value
~CURVE INFORMATION BLOCK
#MNEM UNIT       ERCB CURVE CODE    CURVE DESCRIPTION
#-----------   ------------------   ----------------------------------
DEPT.M        00 001 00 00         : DEPTH        - DEPTH
ILD .OHMM     00 120 00 00         : RESD         - DEEP RESISTIVITY (DIL)
NPHI.V/V      00 330 00 00         : PHIN         - NEUTRON POROSITY (SANDSTONE)
DPHI.V/V      00 890 00 00         : PHID         - DENSITY POROSITY (SANDSTONE)
GR  .API      00 310 00 00         : GR           - GAMMA RAY
CALI.MM       00 280 01 00         : CAL          - CALIPER
~PARAMETER INFORMATION
#MNEM.UNIT           DATA             DESCRIPTION OF MNEMONIC
#---------         -----------     ------------------------------
GL  .M        613.45               : gl           - GROUND LEVEL ELEVATION
EREF.M        616.75               : kb           - ELEVATION OF DEPTH REFERENCE
DATM.M        613.45               : datum        - DATUM ELEVATION
TDD .M        432                  : tdd          - TOTAL DEPTH DRILLER
RUN .         ONE                  : Run          - RUN NUMBER
ENG .         BILL                 : Engineer     - RECORDING ENGINEER
WIT .         JIM                  : Witness      - WITNESSED BY
MUD .         GEL                  : Mud_type     - MUD TYPE
MATR.         SANDSTONE            : Logunit      - NEUTRON MATRIX
TMAX.C        19.4                 : BHT          - MAXIMUM RECORDED TEMPERATURE
BHTD.M        432                  : BHTDEP       - MAXIMUM RECORDED TEMPERATURE
MATR.         1                    : LOGUNIT      - NEUTRON MATRIX
RMT .C        17.8                 : MDTP         - TEMPERATURE OF MUD
NEUT.         1                    : NEUTRON      - NEUTRON TYPE
RESI.         0                    : RESIST       - RESISTIVITY TYPE
RMC .OHMM     2.81                 : RMC          - RESISTIVITY OF MUD CAKE
RMF .OHMM     2.05                 : RMF          - RESISTIVITY OF MUD FILTRATE
SUFT.C        -20                  : SUFT         - SURFACE TEMPERATURE
~A  DEPTH     RESD     PHIN     PHID       GR      CAL
# ...
  258.000    6.838    0.444    0.278   88.838  227.691
  258.250    7.232    0.429    0.259   85.034  234.173
  258.500    7.398    0.432    0.269   85.278  234.579
  258.750    7.840    0.457    0.262   81.667  233.367
  259.000    9.476    0.463    0.289   73.549  229.752
  259.250   12.511    0.448    0.326   65.369  226.536
  259.500   17.013    0.425    0.355   59.834  225.022
  259.750   21.480    0.419    0.361   57.904  225.095
  260.000   23.369    0.441    0.362   57.898  225.503
  260.250   24.586    0.447    0.361   58.612  225.891
  260.500   25.732    0.454    0.361   58.605  225.981
  260.750   27.544    0.468    0.360   58.839  225.570
  261.000   30.453    0.480    0.359   59.735  224.959
  261.250   34.983    0.466    0.358   61.372  224.699
  261.500   38.956    0.451    0.364   62.367  223.436
  261.750   41.280    0.444    0.369   63.562  222.623
  262.000   42.825    0.447    0.366   63.316  221.811
  262.250   43.618    0.459    0.359   61.868  220.999
  262.500   43.776    0.473    0.353   60.480  220.189
  262.750   43.254    0.478    0.360   61.583  219.457
  263.000   42.278    0.481    0.366   62.329  219.865
  263.250   40.753    0.468    0.370   62.322  220.257
  263.500   39.505    0.458    0.368   62.497  220.346
  263.750   38.222    0.454    0.369   62.851  220.536
  264.000   36.852    0.454    0.373   63.084  220.928
  264.250   35.147    0.457    0.368   62.547  221.316
  264.500   33.332    0.465    0.369   62.290  221.304
  264.750   30.278    0.475    0.362   61.804  220.494
  265.000   27.360    0.480    0.348   62.398  220.284
  265.250   24.308    0.479    0.340   63.473  220.675
  265.500   21.245    0.477    0.340   64.849  221.265
  265.750   18.236    0.480    0.338   66.816  221.169
  266.000   17.424    0.477    0.344   67.061  220.741
  266.250   17.938    0.478    0.359   66.573  219.929
  266.500   18.668    0.480    0.362   67.168  219.117
  266.750   19.087    0.477    0.360   67.282  218.307
  267.000   18.945    0.467    0.360   66.435  217.596
  267.250   18.344    0.447    0.363   65.226  217.184
  267.500   18.067    0.452    0.363   65.218  217.172
  267.750   18.066    0.454    0.360   65.454  217.563
  268.000   18.762    0.470    0.352   64.967  217.953
  268.250   19.536    0.477    0.343   63.519  218.745
  268.500   19.971    0.472    0.337   61.770  219.837
  268.750   19.847    0.467    0.341   61.432  220.708
  269.000   19.253    0.456    0.350   62.177  221.115
  269.250   18.695    0.446    0.357   63.613  221.104
  269.500   18.256    0.448    0.355   63.607  220.795
  269.750   17.793    0.453    0.353   63.240  220.384
  270.000   17.313    0.456    0.355   62.873  219.871
  270.250   16.860    0.458    0.363   61.945  219.058
  270.500   16.479    0.463    0.361   60.937  219.048
  270.750   16.002    0.469    0.355   60.450  218.638
  271.000   15.539    0.477    0.356   60.324  218.528
  271.250   15.091    0.483    0.359   60.438  218.317
  271.500   14.684    0.487    0.361   60.912  218.007
  271.750   14.299    0.492    0.361   62.357  217.995
  272.000   13.977    0.492    0.355   63.604  217.985
  272.250   13.373    0.493    0.342   64.559  217.975
  272.500   12.941    0.492    0.351   64.793  217.964
  272.750   12.615    0.489    0.356   64.667  217.954
  273.000   12.341    0.485    0.351   64.601  218.044
  273.250   12.018    0.477    0.347   65.323  218.517
  273.500   11.747    0.471    0.346   66.570  218.923
  273.750   11.575    0.466    0.345   68.486  219.714
  274.000   11.596    0.466    0.342   69.683  221.105
  274.250   11.765    0.465    0.338   71.720  222.497
  274.500   12.025    0.461    0.334   73.817  223.489
  274.750   12.329    0.458    0.336   72.297  223.878
  275.000   12.518    0.470    0.349   69.536  223.866
  275.250   12.887    0.474    0.348   67.608  223.458
  275.500   13.267    0.476    0.347   66.580  222.744
  275.750   13.562    0.480    0.348   66.454  222.132
  276.000   13.761    0.486    0.348   67.047  221.723
  276.250   13.899    0.492    0.344   68.153  221.227
  276.500   13.585    0.479    0.337   68.898  220.801
  276.750   12.248    0.465    0.348   69.132  219.989
  277.000   11.498    0.457    0.351   68.105  219.177
  277.250   11.131    0.465    0.346   65.575  218.765
  277.500   11.128    0.483    0.339   62.143  218.755
  277.750   11.767    0.487    0.341   59.051  218.911
  278.000   12.509    0.484    0.342   58.042  219.734
  278.250   12.878    0.469    0.341   58.998  220.927
  278.500   12.831    0.459    0.342   61.215  221.516
  278.750   12.644    0.452    0.346   63.372  221.706
  279.000   12.529    0.447    0.351   64.268  221.798
  279.250   12.770    0.448    0.356   62.168  222.353
  279.500   13.576    0.459    0.355   58.907  223.174
  279.750   13.476    0.466    0.357   59.141  222.363
  280.000   13.377    0.470    0.366   60.817  221.253
  280.250   13.328    0.466    0.369   62.975  220.042
  280.500   13.303    0.461    0.363   64.171  219.031
  280.750   13.165    0.462    0.356   62.179  218.533
  281.000   12.966    0.461    0.351   60.671  218.106
  281.250   12.965    0.453    0.344   60.906  218.096
  281.500   13.321    0.452    0.338   60.599  218.387
  281.750   14.205    0.444    0.333   59.871  218.978
  282.000   15.602    0.423    0.296   58.663  218.967
  282.250   17.322    0.373    0.146   56.182  216.217
  282.500   18.847    0.274    0.078   53.422  214.537
  282.750   19.262    0.258    0.090   53.174  215.729
  283.000   17.903    0.309    0.153   54.731  217.521
  283.250   15.070    0.376    0.237   56.528  218.913
  283.500   12.649    0.429    0.309   57.424  219.504
  283.750   11.954    0.455    0.334   56.544  219.241
  284.000   12.044    0.459    0.349   55.787  217.978
  284.250   13.322    0.437    0.338   54.099  215.965
  284.500   14.594    0.400    0.319   52.770  215.755
  284.750   14.876    0.370    0.297   52.524  216.547
  285.000   13.999    0.357    0.277   53.299  217.639
  285.250   12.675    0.366    0.269   54.654  218.512
  285.500   11.931    0.397    0.313   56.651  218.918
  285.750   11.757    0.425    0.334   57.606  218.908
  286.000   11.778    0.439    0.341   58.382  219.199
  286.250   11.820    0.445    0.344   59.458  219.188
  286.500   11.754    0.450    0.347   60.833  218.576
  286.750   11.393    0.456    0.342   62.078  217.278
  287.000   10.886    0.455    0.334   62.322  216.849
  287.250   10.727    0.453    0.326   62.556  216.840
  287.500   10.688    0.449    0.322   62.791  216.831
  287.750   10.687    0.444    0.324   63.026  217.423
  288.000   10.706    0.441    0.331   63.259  218.313
  288.250   10.784    0.445    0.339   63.491  218.382
  288.500   10.783    0.444    0.340   63.486  218.791
  288.750   10.862    0.437    0.339   63.720  219.180
  289.000   10.881    0.438    0.335   63.955  218.970
  289.250   10.959    0.451    0.330   64.310  218.359
  289.500   11.100    0.469    0.325   64.604  217.748
  289.750   11.198    0.468    0.318   64.006  217.654
  290.000   11.283    0.464    0.309   62.246  217.224
  290.250   11.282    0.450    0.322   62.961  217.616
  290.500   11.406    0.461    0.328   63.135  217.706
  290.750   11.531    0.474    0.334   63.129  216.894
  291.000   11.573    0.478    0.342   63.364  215.583
  291.250   11.453    0.473    0.347   64.468  215.254
  291.500   11.279    0.464    0.334   65.213  215.659
  291.750   11.197    0.460    0.319   65.448  216.851
  292.000   11.175    0.457    0.320   64.961  218.344
  292.250   11.216    0.455    0.318   63.752  219.736
  292.500   11.358    0.448    0.307   61.943  220.828
  292.750   11.868    0.426    0.302   59.472  221.115
  293.000   12.813    0.407    0.310   57.964  218.602
  293.250   14.173    0.395    0.279   57.718  219.793
  293.500   15.282    0.362    0.243   58.192  221.586
  293.750   15.398    0.346    0.218   59.748  222.978
  294.000   14.519    0.364    0.218   61.785  223.367
  294.250   13.110    0.419    0.263   63.041  222.138
