~VERSION INFORMATION
 VERS.                 2.0:   CWLS LOG ASCII STANDARD -VERSION 2.0
 WRAP.                  NO:   ONE LINE PER DEPTH STEP
~WELL INFORMATION BLOCK
#MNEM.UNIT           DATA                    DESCRIPTION OF MNEMONIC
#---------    -------------------            -------------------------------
# Generated from Intellog Unique Number	CW_70_72/WELL/992
NULL.         -999.25                        : NULL_VALUE
WELL.         CNW FRANCIS SOUTH 07-34        : Well_name    - WELL              
LOC .         07-34-072-21W4                 : Location     - LOCATION          
UWI .         00/07-34-072-21W4/0            : Uwi          - UNIQUE WELL ID    
ENTR.         JAYE                           : Entered      - ENTERED BY        
SRVC.         COMPUTALOG                     : Scn          - SERVICE COMPANY   
DATE.         26 JULY 88                     : Date         - LOG DATE          
STRT.M        355                            : top_depth    - START DEPTH       
STOP.M        555                            : bot_depth    - STOP DEPTH        
STEP.M        0.25                           : increment    - STEP LENGTH       
~CURVE INFORMATION BLOCK
#MNEM UNIT       ERCB CURVE CODE    CURVE DESCRIPTION
#-----------   ------------------   ----------------------------------
DEPT.M        00 001 00 00         : DEPTH        - DEPTH                       
DPHI.V/V      00 890 00 00         : PHID         - DENSITY POROSITY (SANDSTONE)
NPHI.V/V      00 330 00 00         : PHIN         - NEUTRON POROSITY (SANDSTONE)
GR  .API      00 310 00 00         : GR           - GAMMA RAY                   
CALI.MM       00 280 01 00         : CAL          - CALIPER                     
ILD .OHMM     00 120 00 00         : RESD         - DEEP RESISTIVITY (DIL)      
~PARAMETER INFORMATION       
#MNEM.UNIT           DATA             DESCRIPTION OF MNEMONIC
#---------         -----------     ------------------------------
GL  .M        642                  : gl           - GROUND LEVEL ELEVATION      
EREF.M        645.4                : kb           - ELEVATION OF DEPTH REFERENCE
DATM.M        642                  : datum        - DATUM ELEVATION             
TDD .M        561                  : tdd          - TOTAL DEPTH DRILLER         
RUN .         ONE                  : Run          - RUN NUMBER                  
ENG .         GAIR/OSYPCHUK        : Engineer     - RECORDING ENGINEER          
WIT .         TOPIC                : Witness      - WITNESSED BY                
BASE.         R.D.                 : Branch       - HOME BASE OF LOGGING UNIT   
MUD .         GEL CHEM             : Mud_type     - MUD TYPE                    
MATR.         SANDSTONE            : Logunit      - NEUTRON MATRIX              
TMAX.C        25                   : BHT          - MAXIMUM RECORDED TEMPERATURE
BHTD.M        560.1                : BHTDEP       - MAXIMUM RECORDED TEMPERATURE
RMT .C        25                   : MDTP         - TEMPERATURE OF MUD          
MUDD.KG/M     1110                 : MWT          - MUD DENSITY                 
NEUT.         1                    : NEUTRON      - NEUTRON TYPE                
RESI.         0                    : RESIST       - RESISTIVITY TYPE            
RM  .OHMM     3.3                  : RM           - RESISTIVITY OF MUD          
RMC .OHMM     4                    : RMC          - RESISTIVITY OF MUD CAKE     
RMF .OHMM     3                    : RMF          - RESISTIVITY OF MUD FILTRATE 
SUFT.C        0                    : SUFT         - SURFACE TEMPERATURE         
~A  DEPTH     PHID     PHIN       GR      CAL     RESD
# ...
  391.500    0.240    0.416   86.589  199.280    7.418
  391.750    0.252    0.438   79.513  197.258    7.789
  392.000    0.287    0.456   66.939  194.014    8.015
  392.250    0.300    0.452   65.665  189.652    8.126
  392.500    0.298    0.446   70.437  187.527    8.015
  392.750    0.300    0.443   72.889  185.504    8.008
  393.000    0.308    0.445   68.865  183.889    8.149
  393.250    0.311    0.434   64.782  185.431    8.588
  393.500    0.299    0.420   63.385  188.702    9.548
  393.750    0.288    0.427   65.531  193.298   10.771
  394.000    0.275    0.413   68.166  196.567   12.631
  394.250    0.257    0.383   67.258  198.923   13.862
  394.500    0.220    0.289   64.517  199.445   13.522
  394.750    0.184    0.251   61.777  197.219   12.073
  395.000    0.176    0.238   60.319  192.245   10.449
  395.250    0.231    0.292   60.267  188.594    9.126
  395.500    0.305    0.327   63.023  187.590    8.163
  395.750    0.307    0.379   69.506  188.723    7.411
  396.000    0.289    0.440   74.889  188.737    6.581
  396.250    0.279    0.451   80.150  186.512    6.503
  396.500    0.283    0.441   84.739  184.796    6.485
  396.750    0.282    0.434   86.457  183.995    6.480
  397.000    0.278    0.443   84.694  183.804    6.486
  397.250    0.283    0.447   81.954  185.040    6.445
  397.500    0.279    0.441   80.679  186.885    6.367
  397.750    0.260    0.419   84.231  189.139    6.256
  398.000    0.257    0.419   84.605  191.494    6.081
  398.250    0.267    0.423   83.698  193.138    5.844
  398.500    0.266    0.410   83.950  194.778    5.525
  398.750    0.260    0.389   83.957  196.218    4.988
  399.000    0.260    0.404   82.256  196.028    4.768
  399.250    0.264    0.426   81.103  194.921    4.817
  399.500    0.260    0.455   82.944  193.714    5.375
  399.750    0.246    0.465   94.007  193.422    5.833
  400.000    0.232    0.453   90.352  193.742    6.297
  400.250    0.211    0.450   85.168  193.757    6.784
  400.500    0.189    0.458   78.763  193.771    6.854
  400.750    0.177    0.465   82.803  193.782    6.697
  401.000    0.181    0.463   85.864  194.103    6.462
  401.250    0.186    0.455   88.621  194.726    6.350
  401.500    0.193    0.447   88.935  193.520    6.402
  401.750    0.183    0.443   87.967  192.516    6.443
  402.000    0.170    0.457   88.157  189.780    6.462
  402.250    0.176    0.471   89.998  187.145    6.480
  402.500    0.201    0.473   95.197  186.957    6.509
  402.750    0.226    0.453   86.472  187.479    6.551
  403.000    0.249    0.433   76.463  188.510    6.728
  403.250    0.260    0.428   74.029  189.851    7.078
  403.500    0.259    0.442   81.977  190.677    7.473
  403.750    0.287    0.463   83.939  191.096    7.832
  404.000    0.326    0.486   60.310  191.621    7.941
  404.250    0.315    0.449   50.607  191.125    7.733
  404.500    0.292    0.416   44.752  189.512    7.529
  404.750    0.279    0.400   42.928  187.998    7.452
  405.000    0.269    0.384   44.280  186.688    7.405
  405.250    0.254    0.377   46.426  185.887    7.250
  405.500    0.259    0.381   48.206  184.986    7.020
  405.750    0.264    0.393   49.862  184.793    6.784
  406.000    0.266    0.398   52.131  184.806    6.533
  406.250    0.270    0.392   52.506  187.162    6.384
  406.500    0.275    0.382   49.765  189.721    6.286
  406.750    0.279    0.367   46.903  190.448    6.166
  407.000    0.283    0.376   46.484  190.461    6.126
  407.250    0.291    0.389   47.164  189.355    6.087
  407.500    0.301    0.397   49.798  187.231    6.058
  407.750    0.308    0.402   50.723  185.820    6.031
  408.000    0.313    0.407   51.647  185.122    6.014
  408.250    0.318    0.414   50.923  185.339    6.020
  408.500    0.324    0.411   48.915  186.372    6.003
  408.750    0.329    0.400   49.474  187.606    5.975
  409.000    0.326    0.385   50.275  190.369    5.959
  409.250    0.323    0.388   50.284  192.416    5.909
  409.500    0.331    0.397   49.681  195.588    5.850
  409.750    0.337    0.404   49.017  197.330    5.802
  410.000    0.330    0.410   45.605  198.872    5.690
  410.250    0.322    0.414   46.102  199.393    5.633
  410.500    0.317    0.402   47.148  199.509    5.617
  410.750    0.324    0.388   47.646  198.913    5.633
  411.000    0.329    0.375   48.143  198.112    5.733
  411.250    0.332    0.375   49.006  197.311    5.877
  411.500    0.329    0.390   49.075  196.411    6.171
  411.750    0.311    0.393   46.945  195.712    6.551
  412.000    0.287    0.387   43.839  195.114    6.716
  412.250    0.271    0.379   42.136  194.111    6.420
  412.500    0.258    0.362   40.985  193.207    6.080
  412.750    0.272    0.348   41.176  192.303    5.791
  413.000    0.277    0.360   42.528  191.197    5.576
  413.250    0.298    0.379   45.407  189.787    5.469
  413.500    0.314    0.399   48.164  188.377    5.474
  413.750    0.324    0.384   51.348  187.778    5.633
  414.000    0.333    0.386   52.333  187.485    5.851
  414.250    0.338    0.393   49.471  188.010    5.899
  414.500    0.338    0.387   47.343  188.734    5.828
  414.750    0.333    0.386   45.885  189.767    5.727
  415.000    0.329    0.390   45.954  191.206    5.649
  415.250    0.343    0.396   47.183  192.747    5.645
  415.500    0.351    0.405   51.345  194.592    5.669
  415.750    0.350    0.412   54.895  194.809    5.706
  416.000    0.346    0.404   57.713  193.909    5.723
  416.250    0.338    0.391   57.294  193.209    5.748
  416.500    0.331    0.377   52.294  192.305    5.829
  416.750    0.329    0.392   47.476  191.404    5.877
  417.000    0.331    0.406   44.492  191.315    5.882
  417.250    0.327    0.408   44.744  191.838    5.823
  417.500    0.328    0.401   46.158  192.972    5.743
  417.750    0.331    0.395   45.494  193.901    5.644
  418.000    0.327    0.396   44.586  193.305    5.577
  418.250    0.325    0.406   46.793  191.997    5.480
  418.500    0.326    0.418   51.932  191.399    5.395
  418.750    0.335    0.432   51.696  191.211    5.331
  419.000    0.344    0.430   49.811  191.121    5.306
  419.250    0.353    0.418   47.803  190.523    5.282
  419.500    0.359    0.411   48.240  190.434    5.277
  419.750    0.352    0.420   48.614  190.552    5.282
  420.000    0.348    0.409   48.011  191.177    5.287
  420.250    0.348    0.403   46.798  191.493    5.292
  420.500    0.344    0.418   46.685  191.406    5.297
  420.750    0.341    0.409   47.547  191.216    5.311
  421.000    0.348    0.397   48.166  191.128    5.306
  421.250    0.349    0.390   47.869  191.041    5.282
  421.500    0.347    0.411   47.023  190.647    5.277
  421.750    0.343    0.413   46.970  190.559    5.281
  422.000    0.340    0.407   47.894  190.574    5.307
  422.250    0.342    0.403   46.803  190.589    5.311
  422.500    0.348    0.413   45.285  190.398    5.326
  422.750    0.345    0.435   44.376  190.105    5.330
  423.000    0.345    0.422   43.346  189.814    5.287
  423.250    0.350    0.422   42.621  189.523    5.273
  423.500    0.348    0.426   42.690  188.925    5.267
  423.750    0.345    0.416   42.517  188.331    5.253
  424.000    0.340    0.414   41.669  188.037    5.257
  424.250    0.342    0.425   39.845  187.745    5.234
  424.500    0.346    0.427   39.303  187.453    5.228
  424.750    0.351    0.418   38.518  187.363    5.244
  425.000    0.352    0.404   37.915  187.479    5.258
  425.250    0.347    0.393   37.741  187.595    5.263
  425.500    0.342    0.400   37.505  187.711    5.238
  425.750    0.340    0.412   36.840  187.622    5.224
  426.000    0.336    0.424   34.894  187.535    5.191
  426.250    0.330    0.429   34.658  187.649    5.176
  426.500    0.332    0.425   35.338  187.868    5.143
  426.750    0.339    0.417   36.446  187.576    5.129
  427.000    0.338    0.410   37.248  187.080    5.143
  427.250    0.334    0.408   37.561  184.141    5.147
  427.500    0.336    0.412   37.936  180.696    5.162
  427.750    0.347    0.420   38.312  180.404    5.148
