~VERSION INFORMATION
 VERS.                 2.0:   CWLS LOG ASCII STANDARD -VERSION 2.0
 WRAP.                  NO:   ONE LINE PER DEPTH STEP
~WELL INFORMATION BLOCK
#MNEM.UNIT           DATA                    DESCRIPTION OF MNEMONIC
#---------    -------------------            -------------------------------
# Generated from Intellog Unique Number	CS_73_76/WELL/2160
WELL.         GULF NISBET                    : Well_name    - WELL
LOC .         00/06-08-074-01W4/0            : Location     - LOCATION
UWI .         00/06-08-074-01W4/0            : Uwi          - UNIQUE WELL ID
ENTR.         SP                             : Entered      - ENTERED BY
SRVC.         SCHLUMBERGER                   : Scn          - SERVICE COMPANY
STRT.M        350                            : top_depth    - START DEPTH
STOP.M        630                            : bot_depth    - STOP DEPTH
STEP.M        0.25                           : increment    - STEP LENGTH
 NULL. -999.2500:NULL Value
~CURVE INFORMATION BLOCK
#MNEM UNIT       ERCB CURVE CODE    CURVE DESCRIPTION
#-----------   ------------------   ----------------------------------
DEPT.M        00 001 00 00         : DEPTH        - DEPTH
ILD .OHMM     00 120 00 00         : RESD         - DEEP RESISTIVITY (DIL)
NPHI.V/V      00 330 00 00         : PHIN         - NEUTRON POROSITY (LIMESTONE)
DPHI.V/V      00 890 00 00         : PHID         - DENSITY POROSITY (LIMESTONE)
GR  .API      00 310 00 00         : GR           - GAMMA RAY
~PARAMETER INFORMATION
#MNEM.UNIT           DATA             DESCRIPTION OF MNEMONIC
#---------         -----------     ------------------------------
GL  .M        705.5                : gl           - GROUND LEVEL ELEVATION
EREF.M        709.2                : kb           - ELEVATION OF DEPTH REFERENCE
DATM.M        705.5                : datum        - DATUM ELEVATION
TDD .M        640                  : tdd          - TOTAL DEPTH DRILLER
RUN .         ONE                  : Run          - RUN NUMBER
ENG .         BILL                 : Engineer     - RECORDING ENGINEER
WIT .         JIM                  : Witness      - WITNESSED BY
MUD .         GEL                  : Mud_type     - MUD TYPE
MATR.         LIMESTONE            : Logunit      - NEUTRON MATRIX
TMAX.C        19.5                 : BHT          - MAXIMUM RECORDED TEMPERATURE
BHTD.M        640                  : BHTDEP       - MAXIMUM RECORDED TEMPERATURE
MATR.         1                    : LOGUNIT      - NEUTRON MATRIX
RMT .C        25                   : MDTP         - TEMPERATURE OF MUD
NEUT.         1                    : NEUTRON      - NEUTRON TYPE
RESI.         0                    : RESIST       - RESISTIVITY TYPE
RMC .OHMM     0.25                 : RMC          - RESISTIVITY OF MUD CAKE
RMF .OHMM     0.25                 : RMF          - RESISTIVITY OF MUD FILTRATE
SUFT.C        15                   : SUFT         - SURFACE TEMPERATURE
~A  DEPTH     RESD     PHIN     PHID       GR
# ...
  567.500    6.859    0.440    0.174  112.954
  567.750    6.859    0.449    0.185  110.530
  568.000    6.987    0.454    0.191  107.498
  568.250    6.986    0.453    0.186  106.903
  568.500    6.986    0.443    0.184  108.747
  568.750    7.117    0.429    0.190  109.978
  569.000    7.116    0.424    0.186  110.604
  569.250    6.984    0.429    0.180  109.404
  569.500    6.984    0.433    0.175  108.805
  569.750    6.983    0.441    0.178  106.379
  570.000    6.853    0.419    0.179  107.004
  570.250    6.726    0.422    0.192  110.680
  570.500    6.725    0.418    0.198  113.135
  570.750    6.601    0.422    0.191  112.537
  571.000    6.478    0.421    0.196  108.893
  571.250    6.478    0.413    0.197  104.640
  571.500    6.357    0.405    0.198  101.608
  571.750    6.357    0.402    0.203  102.841
  572.000    6.356    0.405    0.193  102.251
  572.250    6.356    0.391    0.185  101.041
  572.500    6.355    0.379    0.179   98.616
  572.750    6.354    0.366    0.181   96.802
  573.000    6.354    0.362    0.192   99.257
  573.250    6.354    0.359    0.195  103.542
  573.500    6.353    0.360    0.194  107.826
  573.750    6.353    0.371    0.187  107.232
  574.000    6.352    0.386    0.189  106.634
  574.250    6.351    0.400    0.177  108.476
  574.500    6.351    0.411    0.186  107.884
  574.750    6.350    0.404    0.181  109.728
  575.000    6.935    0.394    0.163  115.250
  575.250    7.202    0.404    0.166  117.092
  575.500    7.073    0.396    0.169  116.492
  575.750    7.211    0.397    0.163  112.845
  576.000    7.214    0.402    0.155  111.026
  576.250    7.084    0.396    0.167  111.648
  576.500    6.457    0.410    0.176  110.438
  576.750    5.671    0.420    0.184   98.254
  577.000    5.074    0.404    0.214   87.900
  577.250    4.293    0.395    0.227   78.763
  577.500    3.372    0.385    0.255   73.285
  577.750    2.961    0.403    0.263   67.198
  578.000    2.601    0.381    0.288   64.160
  578.250    2.602    0.377    0.308   67.831
  578.500    2.858    0.381    0.277   76.990
  578.750    2.967    0.375    0.257   81.271
  579.000    3.199    0.365    0.235   83.109
  579.250    3.261    0.374    0.230   83.730
  579.500    3.323    0.381    0.249   86.790
  579.750    3.325    0.388    0.253   89.241
  580.000    3.326    0.395    0.252   88.641
  580.250    3.207    0.399    0.256   88.042
  580.500    3.091    0.411    0.265   85.614
  580.750    2.818    0.420    0.272   76.478
  581.000    2.666    0.406    0.281   71.612
  581.250    2.523    0.391    0.287   68.572
  581.500    2.387    0.371    0.302   72.245
  581.750    2.301    0.376    0.316   69.815
  582.000    2.301    0.369    0.309   64.946
  582.250    2.435    0.375    0.302   64.349
  582.500    2.577    0.378    0.296   60.091
  582.750    2.626    0.354    0.290   53.393
  583.000    2.628    0.339    0.298   44.260
  583.250    2.629    0.313    0.304   41.219
  583.500    2.630    0.333    0.307   37.571
  583.750    2.582    0.348    0.311   35.755
  584.000    2.443    0.355    0.314   35.155
  584.250    2.355    0.357    0.314   33.339
  584.500    2.270    0.370    0.321   32.128
  584.750    2.230    0.384    0.326   30.919
  585.000    2.190    0.397    0.326   29.103
  585.250    2.151    0.385    0.331   28.503
  585.500    2.151    0.377    0.331   28.515
  585.750    2.113    0.352    0.332   29.745
  586.000    2.154    0.345    0.325   30.977
  586.250    2.155    0.345    0.311   31.597
  586.500    2.156    0.360    0.307   32.219
  586.750    2.198    0.374    0.321   32.226
  587.000    2.198    0.384    0.324   31.018
  587.250    2.241    0.391    0.321   31.029
  587.500    2.242    0.368    0.326   35.312
  587.750    2.243    0.378    0.330   40.202
  588.000    2.286    0.383    0.328   43.260
  588.250    2.331    0.375    0.322   45.708
  588.500    2.332    0.369    0.312   44.501
  588.750    2.377    0.361    0.306   42.681
  589.000    2.422    0.367    0.308   44.521
  589.250    2.424    0.370    0.300   50.026
  589.500    2.425    0.375    0.297   51.251
  589.750    2.472    0.375    0.297   50.044
  590.000    2.473    0.369    0.304   50.053
  590.250    2.521    0.372    0.296   50.676
  590.500    2.570    0.367    0.291   52.515
  590.750    2.619    0.365    0.283   53.137
  591.000    2.670    0.351    0.276   55.586
  591.250    2.721    0.336    0.285   60.476
  591.500    2.774    0.353    0.296   58.658
  591.750    2.724    0.362    0.302   53.790
  592.000    2.676    0.376    0.297   51.361
  592.250    2.627    0.387    0.311   51.984
  592.500    2.440    0.392    0.324   51.992
  592.750    2.396    0.369    0.331   52.617
  593.000    2.353    0.392    0.340   52.627
  593.250    2.444    0.408    0.337   52.027
  593.500    2.491    0.399    0.331   50.817
  593.750    2.539    0.372    0.330   48.391
  594.000    2.588    0.354    0.302   47.792
  594.250    2.638    0.344    0.297   51.461
  594.500    2.639    0.342    0.309   58.794
  594.750    2.591    0.343    0.313   61.238
  595.000    2.498    0.359    0.318   65.518
  595.250    2.408    0.370    0.323   63.701
  595.500    2.321    0.384    0.319   59.442
  595.750    2.279    0.398    0.310   55.795
  596.000    2.239    0.407    0.303   55.196
  596.250    2.199    0.421    0.310   61.307
  596.500    2.241    0.426    0.320   64.975
  596.750    2.371    0.432    0.325   67.425
  597.000    2.462    0.432    0.296   66.828
  597.250    2.557    0.438    0.280   65.617
  597.500    2.606    0.429    0.276   58.313
  597.750    2.607    0.412    0.293   52.224
  598.000    2.514    0.398    0.306   44.918
  598.250    2.468    0.399    0.316   40.050
  598.500    2.424    0.415    0.305   46.161
  598.750    2.425    0.421    0.312   48.001
  599.000    2.473    0.429    0.293   49.840
  599.250    2.520    0.401    0.288   50.461
  599.500    2.569    0.380    0.293   46.812
  599.750    2.618    0.383    0.295   45.604
  600.000    2.719    0.391    0.272   56.591
  600.250    2.771    0.389    0.270   56.602
  600.500    2.825    0.396    0.271   51.737
  600.750    2.879    0.408    0.273   50.526
  601.000    2.990    0.395    0.273   55.415
  601.250    2.829    0.374    0.250   62.135
  601.500    2.727    0.388    0.266   63.365
  601.750    2.629    0.405    0.294   43.862
  602.000    2.534    0.403    0.310   31.678
  602.250    2.443    0.384    0.306   24.982
  602.500    2.354    0.384    0.301   23.773
  602.750    2.312    0.362    0.312   23.789
  603.000    2.313    0.353    0.307   23.796
  603.250    2.358    0.370    0.311   25.641
  603.500    2.404    0.393    0.317   26.257
  603.750    2.450    0.412    0.319   28.710
  604.000    2.497    0.389    0.295   31.159
  604.250    2.593    0.367    0.280   34.827
  604.500    2.795    0.329    0.252   40.937
  604.750    3.186    0.299    0.192   48.873
  605.000    3.840    0.306    0.142   61.081
  605.250    4.628    0.328    0.137   70.238
  605.500    5.177    0.350    0.154   78.176
  605.750    5.793    0.360    0.169   83.675
  606.000    6.015    0.365    0.165   81.247
  606.250    6.366    0.376    0.176   85.528
  606.500    6.488    0.387    0.164   84.928
  606.750    6.490    0.375    0.155   81.891
  607.000    6.374    0.380    0.162   79.462
  607.250    6.259    0.385    0.172   79.474
  607.500    6.147    0.379    0.170   78.875
  607.750    6.036    0.374    0.176   81.329
  608.000    5.928    0.365    0.179   81.944
  608.250    5.821    0.358    0.172   84.395
  608.500    5.824    0.358    0.174   87.457
  608.750    5.720    0.364    0.180   92.955
  609.000    5.413    0.392    0.193   96.625
  609.250    5.121    0.414    0.212   96.636
  609.500    4.755    0.448    0.229   96.035
  609.750    4.255    0.474    0.245  100.317
  610.000    4.026    0.553    0.254  103.985
  610.250    3.809    0.587    0.251  106.436
  610.500    3.811    0.598    0.252  108.276
  610.750    3.813    0.574    0.253  107.067
