~VERSION INFORMATION
 VERS.                 2.0:   CWLS LOG ASCII STANDARD -VERSION 2.0
 WRAP.                  NO:   ONE LINE PER DEPTH STEP
~WELL INFORMATION BLOCK
#MNEM.UNIT           DATA                    DESCRIPTION OF MNEMONIC
#---------    -------------------            -------------------------------
# Generated from Intellog Unique Number	CS_77_79/WELL/858
WELL.         DOME COWPAR                    : Well_name    - WELL
LOC .         00/05-19-079-02W4/0            : Location     - LOCATION
UWI .         00/05-19-079-02W4/0            : Uwi          - UNIQUE WELL ID
ENTR.         JHS                            : Entered      - ENTERED BY
SRVC.         SCHLUMBERGER                   : Scn          - SERVICE COMPANY
STRT.M        105                            : top_depth    - START DEPTH
STOP.M        335                            : bot_depth    - STOP DEPTH
STEP.M        0.25                           : increment    - STEP LENGTH
 NULL. -999.2500:NULL Value
~CURVE INFORMATION BLOCK
#MNEM UNIT       ERCB CURVE CODE    CURVE DESCRIPTION
#-----------   ------------------   ----------------------------------
DEPT.M        00 001 00 00         : DEPTH        - DEPTH
DPHI.V/V      00 890 00 00         : PHID         - DENSITY POROSITY (LIMESTONE)
NPHI.V/V      00 330 00 00         : PHIN         - NEUTRON POROSITY (LIMESTONE)
GR  .API      00 310 00 00         : GR           - GAMMA RAY
ILD .OHMM     00 120 00 00         : RESD         - DEEP RESISTIVITY (DIL)
RHOB.KG/M3    00 350 00 00         : DENS         - BULK DENSITY
~PARAMETER INFORMATION
#MNEM.UNIT           DATA             DESCRIPTION OF MNEMONIC
#---------         -----------     ------------------------------
GL  .M        522.7                : gl           - GROUND LEVEL ELEVATION
EREF.M        526.2                : kb           - ELEVATION OF DEPTH REFERENCE
DATM.M        526.2                : datum        - DATUM ELEVATION
TDD .M        338.8                : tdd          - TOTAL DEPTH DRILLER
RUN .         ONE                  : Run          - RUN NUMBER
ENG .         BILL                 : Engineer     - RECORDING ENGINEER
WIT .         JIM                  : Witness      - WITNESSED BY
MUD .         GEL                  : Mud_type     - MUD TYPE
MATR.         LIMESTONE            : Logunit      - NEUTRON MATRIX
TMAX.C        22                   : BHT          - MAXIMUM RECORDED TEMPERATURE
BHTD.M        338.8                : BHTDEP       - MAXIMUM RECORDED TEMPERATURE
MATR.         1                    : LOGUNIT      - NEUTRON MATRIX
RMT .C        25                   : MDTP         - TEMPERATURE OF MUD
NEUT.         1                    : NEUTRON      - NEUTRON TYPE
RESI.         0                    : RESIST       - RESISTIVITY TYPE
RMC .OHMM     0.25                 : RMC          - RESISTIVITY OF MUD CAKE
RMF .OHMM     0.25                 : RMF          - RESISTIVITY OF MUD FILTRATE
SUFT.C        15                   : SUFT         - SURFACE TEMPERATURE
~A  DEPTH     PHID     PHIN       GR     RESD     DENS
  105.000    0.230    0.519   92.919    2.830    0.000
  105.250    0.215    0.514   95.353    2.941    0.000
  105.500    0.249    0.519  102.645    3.002    0.000
  105.750    0.276    0.539  106.903    3.008    0.000
  106.000    0.244    0.529  108.122    3.013    0.000
  106.250    0.262    0.529  107.520    2.962    0.000
  106.500    0.271    0.552  107.525    2.912    0.000
  106.750    0.290    0.575  109.959    2.862    0.000
  107.000    0.266    0.555  111.788    2.814    0.000
  107.250    0.268    0.539  111.791    2.768    0.000
  107.500    0.249    0.530  110.583    2.878    0.000
  107.750    0.243    0.508  109.373    3.047    0.000
  108.000    0.241    0.503  109.986    3.227    0.000
  108.250    0.230    0.520  113.635    3.291    0.000
  108.500    0.265    0.527  113.641    3.359    0.000
  108.750    0.276    0.539  111.217    3.429    0.000
  109.000    0.254    0.536  108.792    3.500    0.000
  109.250    0.268    0.507  105.760    3.503    0.000
  109.500    0.271    0.502  106.980    3.509    0.000
  109.750    0.261    0.515  106.378    3.517    0.000
  110.000    0.272    0.522  103.955    3.460    0.000
  110.250    0.273    0.545  100.923    3.465    0.000
  110.500    0.265    0.551   97.892    3.533    0.000
  110.750    0.263    0.538   94.860    3.675    0.000
  111.000    0.253    0.505   84.541    3.818    0.000
  111.250    0.265    0.473   76.044    4.438    0.000
  111.500    0.282    0.425   77.872    4.877    0.000
  111.750    0.223    0.394   90.630    5.361    0.000
  112.000    0.231    0.412   97.923    5.274    0.000
  112.250    0.250    0.459   96.106    5.089    0.000
  112.500    0.265    0.493   92.469    4.820    0.000
  112.750    0.239    0.488   88.830    4.400    0.000
  113.000    0.219    0.463   83.976    4.246    0.000
  113.250    0.189    0.422   76.086    4.842    0.000
  113.500    0.171    0.419   67.588    7.861    0.000
  113.750    0.323    0.462   61.521   11.629    0.000
  114.000    0.338    0.453   62.134   14.557    0.000
  114.250    0.333    0.414   67.604   14.857    0.000
  114.500    0.306    0.402   79.148   14.071    0.000
  114.750    0.279    0.410   93.122   11.705    0.000
  115.000    0.243    0.427   98.593    9.210    0.000
  115.250    0.229    0.480   98.599    6.730    0.000
  115.500    0.232    0.491   96.174    5.918    0.000
  115.750    0.241    0.472   94.359    5.507    0.000
  116.000    0.258    0.475   93.148    5.411    0.000
  116.250    0.270    0.465   90.724    5.733    0.000
  116.500    0.278    0.443   82.834    9.305    0.000
  116.750    0.303    0.387   77.373   11.432    0.000
  117.000    0.311    0.395   81.631   12.336    0.000
  117.250    0.290    0.417   80.421   12.588    0.000
  117.500    0.305    0.431   82.855   12.612    0.000
  117.750    0.303    0.418   84.075   12.400    0.000
  118.000    0.276    0.422   79.829   12.647    0.000
  118.250    0.275    0.414   68.902   14.432    0.000
  118.500    0.294    0.388   52.511   16.151    0.000
  118.750    0.297    0.367   40.977   20.222    0.000
  119.000    0.319    0.356   32.480   23.061    0.000
  119.250    0.319    0.351   28.234   26.309    0.000
  119.500    0.327    0.354   33.098   28.912    0.000
  119.750    0.333    0.362   36.140   30.060    0.000
  120.000    0.302    0.367   40.396   30.670    0.000
  120.250    0.299    0.360   39.793   31.301    0.000
  120.500    0.315    0.352   36.762   30.804    0.000
  120.750    0.313    0.354   31.909   30.835    0.000
  121.000    0.306    0.365   27.056   30.327    0.000
  121.250    0.328    0.378   25.847   29.824    0.000
  121.500    0.362    0.398   27.067   29.310    0.000
  121.750    0.378    0.403   29.500   28.818    0.000
  122.000    0.356    0.402   29.507   27.827    0.000
  122.250    0.334    0.378   31.334   27.342    0.000
  122.500    0.369    0.383   36.196   27.393    0.000
  122.750    0.402    0.386   43.489   27.431    0.000
  123.000    0.306    0.378   50.783   27.994    0.000
  123.250    0.297    0.375   52.609   28.047    0.000
  123.500    0.287    0.396   53.831   27.575    0.000
  123.750    0.300    0.387   49.585   27.125    0.000
  124.000    0.305    0.369   44.731   26.650    0.000
  124.250    0.317    0.361   45.950   27.196    0.000
  124.500    0.329    0.363   47.777   28.271    0.000
  124.750    0.310    0.381   45.961   29.399    0.000
  125.000    0.334    0.401   41.108   28.905    0.000
  125.250    0.357    0.422   37.469   27.392    0.000
  125.500    0.381    0.419   40.511   26.929    0.000
  125.750    0.317    0.414   47.196   26.968    0.000
  126.000    0.318    0.413   48.416   28.032    0.000
  126.250    0.332    0.398   42.956   29.146    0.000
  126.500    0.317    0.385   36.281   30.308    0.000
  126.750    0.301    0.374   32.034   30.928    0.000
  127.000    0.299    0.365   25.967   30.979    0.000
  127.250    0.316    0.356   27.187   30.464    0.000
  127.500    0.323    0.351   32.052   29.948    0.000
  127.750    0.312    0.354   32.056   29.451    0.000
  128.000    0.307    0.351   33.275   29.485    0.000
  128.250    0.330    0.347   37.533   30.093    0.000
  128.500    0.327    0.354   41.789   29.043    0.000
  128.750    0.335    0.364   51.510   25.077    0.000
  129.000    0.316    0.351   69.127   20.861    0.000
  129.250    0.307    0.347   84.922   16.412    0.000
  129.500    0.287    0.381  100.718   11.552    0.000
  129.750    0.252    0.469  106.796    8.600    0.000
  130.000    0.241    0.473  107.409    7.849    0.000
  130.250    0.242    0.473  109.844    7.721    0.000
  130.500    0.266    0.463  110.455    7.729    0.000
  130.750    0.259    0.460  107.425    7.891    0.000
  131.000    0.256    0.460  104.393    8.513    0.000
  131.250    0.290    0.456  100.147    9.528    0.000
  131.500    0.325    0.444   91.043   12.150    0.000
  131.750    0.343    0.429   85.582   15.207    0.000
  132.000    0.320    0.429   88.624   17.353    0.000
  132.250    0.335    0.450   97.738   17.699    0.000
  132.500    0.336    0.444  108.675   15.866    0.000
  132.750    0.274    0.455  117.183   14.213    0.000
  133.000    0.277    0.449  118.403   12.272    0.000
  133.250    0.291    0.435  117.193   10.403    0.000
  133.500    0.251    0.430  112.340    9.318    0.000
  133.750    0.225    0.440  106.879    8.047    0.000
  134.000    0.192    0.467  100.204    7.911    0.000
  134.250    0.153    0.501   96.565    7.225    0.000
  134.500    0.163    0.510   93.534    6.472    0.000
  134.750    0.256    0.494   93.540    6.484    0.000
  135.000    0.292    0.467   95.367    6.868    0.000
  135.250    0.268    0.451   98.408    6.751    0.000
  135.500    0.260    0.478  100.236    6.398    0.000
  135.750    0.275    0.482   96.597    7.032    0.000
  136.000    0.266    0.461   89.921    8.326    0.000
  136.250    0.269    0.446   82.032    9.317    0.000
  136.500    0.291    0.434   85.075   11.036    0.000
  136.750    0.302    0.417   85.687   11.682    0.000
  137.000    0.315    0.411   84.477   12.609    0.000
  137.250    0.289    0.446   78.409   12.624    0.000
  137.500    0.332    0.477   62.017   12.884    0.000
  137.750    0.448    0.489   46.839   13.899    0.000
  138.000    0.489    0.498   45.631   15.562    0.000
  138.250    0.508    0.515   47.458   17.101    0.000
  138.500    0.360    0.529   42.604   17.462    0.000
  138.750    0.336    0.494   34.715   17.807    0.000
  139.000    0.347    0.395   31.076   18.521    0.000
  139.250    0.356    0.394   32.296   18.549    0.000
  139.500    0.350    0.401   34.731   18.583    0.000
  139.750    0.355    0.416   38.986   18.268    0.000
  140.000    0.359    0.428   44.457   18.643    0.000
  140.250    0.349    0.423   52.965   18.687    0.000
  140.500    0.353    0.407   57.829   18.712    0.000
  140.750    0.355    0.400   53.585   18.393    0.000
  141.000    0.353    0.391   49.337   18.100    0.000
  141.250    0.348    0.391   47.519   17.790    0.000
