~VERSION INFORMATION
 VERS.                 2.0:   CWLS LOG ASCII STANDARD -VERSION 2.0
 WRAP.                  NO:   ONE LINE PER DEPTH STEP
~WELL INFORMATION BLOCK
#MNEM.UNIT           DATA                    DESCRIPTION OF MNEMONIC
#---------    -------------------            -------------------------------
# Generated from Intellog Unique Number	CW_82_90/WELL/3414
WELL.         CDN SUP LIEGE                  : Well_name    - WELL
LOC .         00/03-18-089-19W4/0            : Location     - LOCATION
UWI .         00/03-18-089-19W400            : Uwi          - UNIQUE WELL ID
ENTR.         MAX                            : Entered      - ENTERED BY
SRVC.         SCHLUMBERGER                   : Scn          - SERVICE COMPANY
STRT.M        110                            : top_depth    - START DEPTH
STOP.M        262                            : bot_depth    - STOP DEPTH
STEP.M        0.25                           : increment    - STEP LENGTH
 NULL. -999.2500:NULL Value
~CURVE INFORMATION BLOCK
#MNEM UNIT       ERCB CURVE CODE    CURVE DESCRIPTION
#-----------   ------------------   ----------------------------------
DEPT.M        00 001 00 00         : DEPTH        - DEPTH
CALI.MM       00 280 01 00         : CAL          - CALIPER
DPHI.V/V      00 890 00 00         : PHID         - DENSITY POROSITY (SANDSTONE)
NPHI.V/V      00 330 00 00         : PHIN         - NEUTRON POROSITY (SANDSTONE)
ILD .OHMM     00 120 00 00         : RESD         - DEEP RESISTIVITY (DIL)
GR  .API      00 310 00 00         : GR           - GAMMA RAY
~PARAMETER INFORMATION
#MNEM.UNIT           DATA             DESCRIPTION OF MNEMONIC
#---------         -----------     ------------------------------
GL  .M        504.11               : gl           - GROUND LEVEL ELEVATION
EREF.M        507.31               : kb           - ELEVATION OF DEPTH REFERENCE
DATM.M        504.11               : datum        - DATUM ELEVATION
TDD .M        262                  : tdd          - TOTAL DEPTH DRILLER
RUN .         ONE                  : Run          - RUN NUMBER
ENG .         BILL                 : Engineer     - RECORDING ENGINEER
WIT .         JIM                  : Witness      - WITNESSED BY
MUD .         GEL                  : Mud_type     - MUD TYPE
MATR.         SANDSTONE            : Logunit      - NEUTRON MATRIX
TMAX.C        17                   : BHT          - MAXIMUM RECORDED TEMPERATURE
BHTD.M        262                  : BHTDEP       - MAXIMUM RECORDED TEMPERATURE
MATR.         1                    : LOGUNIT      - NEUTRON MATRIX
RMT .C        17                   : MDTP         - TEMPERATURE OF MUD
NEUT.         1                    : NEUTRON      - NEUTRON TYPE
RESI.         0                    : RESIST       - RESISTIVITY TYPE
RMC .OHMM     4.17                 : RMC          - RESISTIVITY OF MUD CAKE
RMF .OHMM     4.17                 : RMF          - RESISTIVITY OF MUD FILTRATE
SUFT.C        -10                  : SUFT         - SURFACE TEMPERATURE
~A  DEPTH      CAL     PHID     PHIN     RESD       GR
  110.000  176.589    0.268    0.520    4.729   97.871
  110.250  183.976    0.256    0.531    5.046   97.882
  110.500  191.363    0.249    0.532    5.238   96.715
  110.750  205.628    0.252    0.515    5.488   95.250
  111.000  218.422    0.250    0.488    5.592   94.376
  111.250  224.828    0.243    0.492    5.699   91.732
  111.500  224.845    0.245    0.531    5.700   92.332
  111.750  222.406    0.247    0.551    5.650   93.818
  112.000  222.422    0.253    0.536    5.548   91.763
  112.250  222.441    0.248    0.523    5.448   90.891
  112.500  220.002    0.242    0.528    5.350   92.965
  112.750  216.580    0.242    0.553    5.303   95.040
  113.000  216.106    0.226    0.553    5.256   96.228
  113.250  216.135    0.209    0.551    5.209   93.585
  113.500  216.633    0.203    0.558    5.115   95.365
  113.750  218.122    0.214    0.532    5.070   97.144
  114.000  221.087    0.250    0.535    5.025   95.682
  114.250  223.567    0.258    0.559    4.980   93.038
  114.500  223.578    0.260    0.565    4.982   91.576
  114.750  221.630    0.255    0.583    4.983   92.764
  115.000  220.665    0.257    0.566    4.939   95.427
  115.250  220.687    0.257    0.548    4.895   96.030
  115.500  220.215    0.259    0.524    4.897   94.564
  115.750  219.246    0.260    0.533    4.944   90.743
  116.000  218.772    0.265    0.540    4.992   88.101
  116.250  219.283    0.267    0.538    4.902   88.994
  116.500  220.772    0.263    0.555    4.903   89.005
  116.750  221.281    0.255    0.558    4.951   87.836
  117.000  218.841    0.260    0.542    4.907   85.195
  117.250  214.931    0.272    0.542    4.908   83.142
  117.500  211.018    0.276    0.542    5.048   84.625
  117.750  210.057    0.269    0.522    5.289   84.931
  118.000  211.050    0.269    0.502    5.541   84.647
  118.250  215.983    0.260    0.481    5.805   82.597
  118.500  219.437    0.227    0.489    5.971   80.247
  118.750  218.968    0.196    0.489    6.491   75.245
  119.000  216.035    0.218    0.481    6.800   71.718
  119.250  208.681    0.283    0.497    6.994   74.383
  119.500  202.311    0.269    0.526    7.193   74.687
  119.750  201.348    0.256    0.536    7.129   70.867
  120.000  207.750    0.224    0.496    7.132   69.991
  120.250  218.089    0.270    0.477    7.200   70.886
  120.500  222.529    0.291    0.491    7.544   69.424
  120.750  222.548    0.289    0.496    7.616   67.959
  121.000  222.561    0.284    0.478    7.619   70.623
  121.250  221.598    0.267    0.483    7.551   75.939
  121.500  221.122    0.223    0.502    7.484   81.256
  121.750  221.144    0.183    0.526    7.215   86.574
  122.000  221.157    0.211    0.525    6.827   90.415
  122.250  221.174    0.229    0.525    6.402   96.028
  122.500  221.192    0.253    0.541    5.892   98.691
  122.750  221.700    0.261    0.562    5.324   96.639
  123.000  221.227    0.262    0.581    5.085   93.995
  123.250  220.757    0.255    0.594    4.902   91.648
  123.500  220.772    0.264    0.598    4.639   91.659
  123.750  218.331    0.276    0.569    4.390   94.322
  124.000  212.946    0.266    0.566    4.078   96.395
  124.250  210.996    0.260    0.579    3.895   92.575
  124.500  211.014    0.273    0.572    3.755   89.048
  124.750  214.966    0.286    0.559    3.620   86.703
  125.000  217.931    0.283    0.530    3.394   85.826
  125.250  221.877    0.286    0.555    3.212   85.247
  125.500  221.403    0.292    0.567    3.039   85.847
  125.750  221.422    0.300    0.573    2.930   85.564
  126.000  221.933    0.299    0.579    2.851   85.277
  126.250  221.457    0.310    0.590    2.799   85.584
  126.500  217.542    0.325    0.594    2.800   85.889
  126.750  211.664    0.342    0.574    2.880   86.488
  127.000  199.401    0.325    0.560    3.018   90.037
  127.250  201.383    0.275    0.556    3.132   88.868
  127.500  208.277    0.266    0.558    3.405   85.931
  127.750  209.768    0.272    0.529    3.668   83.288
  128.000  199.468    0.337    0.508    4.138   78.877
  128.250  184.255    0.386    0.495    4.889   77.415
  128.500  167.077    0.411    0.497    5.618   78.603
  128.750  157.760    0.395    0.479    6.338   80.385
  129.000  169.571    0.358    0.453    7.351   80.393
  129.250  182.360    0.320    0.432    8.217   77.160
  129.500  192.694    0.279    0.433    8.451   72.454
  129.750  203.523    0.261    0.456    8.691   74.528
  130.000  209.929    0.236    0.491    9.022   78.960
  130.250  214.860    0.165    0.483    9.025   71.012
  130.500  218.807    0.183    0.454    8.621   66.012
  130.750  220.788    0.238    0.436    7.861   72.803
  131.000  219.825    0.269    0.452    7.103   78.413
  131.250  217.877    0.262    0.454    6.538   80.193
  131.500  218.875    0.270    0.455    6.540   78.730
  131.750  221.840    0.275    0.487    6.665   75.792
  132.000  223.336    0.281    0.495    6.855   72.559
  132.250  224.336    0.285    0.504    7.181   68.737
  132.500  224.349    0.289    0.498    8.485   65.213
  132.750  224.366    0.288    0.483    8.410   64.041
  133.000  225.366    0.286    0.482    8.335   64.644
  133.250  225.879    0.288    0.495    8.110   67.308
  133.500  225.403    0.290    0.480    7.963   70.264
  133.750  225.914    0.284    0.471    7.893   73.517
  134.000  225.929    0.272    0.474    8.118   78.246
  134.250  224.964    0.253    0.467    8.504   87.983
  134.500  224.490    0.234    0.488    9.246   85.930
  134.750  224.999    0.259    0.499   10.239   75.918
  135.000  224.525    0.263    0.470   11.132   66.790
  135.250  224.542    0.242    0.462   10.731   61.199
  135.500  224.560    0.229    0.450    9.088   63.275
  135.750  223.595    0.237    0.481    7.282   68.590
  136.000  221.649    0.246    0.519    6.340   80.686
  136.250  216.751    0.238    0.475    6.705   79.812
  136.500  208.416    0.262    0.474    7.289   75.106
  136.750  188.782    0.300    0.479    7.924   74.527
  137.000  174.551    0.319    0.469    8.225   78.079
  137.250  159.834    0.288    0.489    8.003   79.856
  137.500  164.760    0.238    0.519    6.654   83.993
  137.750  182.956    0.236    0.538    5.794   88.425
  138.000  201.151    0.253    0.557    4.232   93.742
  138.250  219.843    0.255    0.567    3.754   90.216
  138.500  223.297    0.260    0.563    3.897   88.163
  138.750  222.332    0.265    0.553    3.488   89.941
  139.000  220.875    0.260    0.553    3.241   92.606
  139.250  224.334    0.253    0.554    3.759   91.141
  139.500  222.877    0.237    0.528    4.694   84.961
  139.750  218.967    0.185    0.498    5.863   75.245
  140.000  217.508    0.187    0.472    6.614   71.422
  140.250  217.036    0.232    0.471    7.743   65.537
  140.500  216.071    0.253    0.447    8.418   60.537
  140.750  214.612    0.258    0.441    8.191   60.841
  141.000  216.104    0.270    0.458    7.539   63.799
  141.250  219.560    0.276    0.500    7.003   67.053
  141.500  220.562    0.270    0.509    7.337   64.411
  141.750  220.578    0.259    0.513    8.749   62.063
  142.000  220.102    0.250    0.506   10.827   60.601
  142.250  218.647    0.246    0.490   12.793   60.019
  142.500  217.189    0.234    0.478   13.527   59.148
  142.750  214.265    0.215    0.459   14.570   57.979
  143.000  211.826    0.199    0.416   15.694   57.399
  143.250  209.873    0.240    0.403   15.992   57.704
  143.500  210.873    0.265    0.436   14.995   58.894
  143.750  214.823    0.277    0.454   12.936   62.441
  144.000  216.315    0.275    0.462   10.175   67.758
  144.250  216.330    0.281    0.476    7.432   77.791
  144.500  217.332    0.291    0.487    4.858   87.236
  144.750  217.347    0.298    0.498    5.331   72.212
  145.000  216.382    0.290    0.508    6.973   62.494
  145.250  213.456    0.290    0.511    9.378   58.377
  145.500  212.489    0.310    0.486   11.080   56.619
  145.750  211.521    0.289    0.464   12.046   55.450
  146.000  210.558    0.251    0.470   11.505   58.408
  146.250  207.628    0.225    0.493    9.566   66.968
