~VERSION INFORMATION
 VERS.                 2.0:   CWLS LOG ASCII STANDARD -VERSION 2.0
 WRAP.                  NO:   ONE LINE PER DEPTH STEP
~WELL INFORMATION BLOCK
#MNEM.UNIT           DATA                    DESCRIPTION OF MNEMONIC
#---------    -------------------            -------------------------------
# Generated from Intellog Unique Number	CS_67_68/WELL/2160
WELL.         02-29-067-06W4                 : Well_name    - WELL
LOC .         00/02-29-067-06W4/0            : Location     - LOCATION
UWI .         00/02-29-067-06W4/0            : Uwi          - UNIQUE WELL ID
ENTR.         SP                             : Entered      - ENTERED BY
SRVC.         SCHLUMBERGER                   : Scn          - SERVICE COMPANY
STRT.M        335                            : top_depth    - START DEPTH
STOP.M        545                            : bot_depth    - STOP DEPTH
STEP.M        0.25                           : increment    - STEP LENGTH
 NULL. -999.2500:NULL Value
~CURVE INFORMATION BLOCK
#MNEM UNIT       ERCB CURVE CODE    CURVE DESCRIPTION
#-----------   ------------------   ----------------------------------
DEPT.M        00 001 00 00         : DEPTH        - DEPTH
ILD .OHMM     00 120 00 00         : RESD         - DEEP RESISTIVITY (DIL)
DPHI.V/V      00 890 00 00         : PHID         - DENSITY POROSITY (LIMESTONE)
NPHI.V/V      00 330 00 00         : PHIN         - NEUTRON POROSITY (LIMESTONE)
GR  .API      00 310 00 00         : GR           - GAMMA RAY
CALI.MM       00 280 01 00         : CAL          - CALIPER
~PARAMETER INFORMATION
#MNEM.UNIT           DATA             DESCRIPTION OF MNEMONIC
#---------         -----------     ------------------------------
GL  .M        659.3                : gl           - GROUND LEVEL ELEVATION
EREF.M        662.17               : kb           - ELEVATION OF DEPTH REFERENCE
DATM.M        662.17               : datum        - DATUM ELEVATION
TDD .M        558                  : tdd          - TOTAL DEPTH DRILLER
RUN .         ONE                  : Run          - RUN NUMBER
ENG .         BILL                 : Engineer     - RECORDING ENGINEER
WIT .         JIM                  : Witness      - WITNESSED BY
MUD .         GEL                  : Mud_type     - MUD TYPE
MATR.         LIMESTONE            : Logunit      - NEUTRON MATRIX
TMAX.C        23                   : BHT          - MAXIMUM RECORDED TEMPERATURE
BHTD.M        558.7                : BHTDEP       - MAXIMUM RECORDED TEMPERATURE
MATR.         1                    : LOGUNIT      - NEUTRON MATRIX
RMT .C        25                   : MDTP         - TEMPERATURE OF MUD
NEUT.         1                    : NEUTRON      - NEUTRON TYPE
RESI.         0                    : RESIST       - RESISTIVITY TYPE
RMC .OHMM     0.25                 : RMC          - RESISTIVITY OF MUD CAKE
RMF .OHMM     0.25                 : RMF          - RESISTIVITY OF MUD FILTRATE
SUFT.C        15                   : SUFT         - SURFACE TEMPERATURE
~A  DEPTH     RESD     PHID     PHIN       GR      CAL
# ...
  444.500    5.074    0.344    0.444   59.385  145.317
  444.750    5.008    0.344    0.441   58.348  145.113
  445.000    4.869    0.345    0.436   58.287  144.808
  445.250    4.707    0.348    0.432   59.750  144.502
  445.500    4.508    0.352    0.433   61.213  144.502
  445.750    4.237    0.356    0.449   62.920  144.501
  446.000    4.043    0.360    0.457   63.896  144.501
  446.250    3.879    0.366    0.456   64.566  144.297
  446.500    3.800    0.374    0.461   64.749  144.195
  446.750    3.822    0.385    0.468   64.870  144.296
  447.000    3.881    0.387    0.473   65.236  144.499
  447.250    3.955    0.384    0.481   66.089  144.702
  447.500    3.970    0.381    0.493   64.992  144.701
  447.750    3.948    0.384    0.499   63.833  145.209
  448.000    3.919    0.389    0.480   65.784  145.209
  448.250    3.883    0.392    0.468   67.369  145.615
  448.500    3.883    0.394    0.469   68.893  145.817
  448.750    3.891    0.393    0.477   69.502  145.817
  449.000    3.914    0.392    0.480   67.917  146.020
  449.250    3.951    0.389    0.476   67.063  146.019
  449.500    4.012    0.386    0.473   67.733  146.019
  449.750    4.166    0.383    0.468   68.221  146.018
  450.000    4.359    0.378    0.463   67.733  146.018
  450.250    4.518    0.374    0.476   66.574  146.017
  450.500    4.648    0.371    0.489   66.207  146.118
  450.750    4.702    0.368    0.498   67.061  146.219
  451.000    4.711    0.359    0.504   69.378  146.321
  451.250    4.641    0.348    0.488   70.719  146.320
  451.500    4.572    0.340    0.481   71.633  146.320
  451.750    4.462    0.334    0.472   73.401  146.319
  452.000    4.404    0.328    0.470   74.864  146.522
  452.250    4.388    0.322    0.475   76.205  146.521
  452.500    4.372    0.314    0.478   78.034  146.623
  452.750    4.332    0.309    0.492   80.046  146.724
  453.000    4.292    0.301    0.478   82.485  147.231
  453.250    4.212    0.292    0.456   85.290  147.739
  453.500    3.900    0.278    0.460   86.509  148.247
  453.750    3.638    0.265    0.463   87.484  148.653
  454.000    3.517    0.256    0.478   88.155  149.262
  454.250    3.491    0.255    0.473   88.337  150.074
  454.500    3.598    0.258    0.468   88.764  150.684
  454.750    3.737    0.259    0.483   89.556  151.700
  455.000    3.787    0.259    0.481   89.861  152.817
  455.250    3.738    0.270    0.471   88.824  153.833
  455.500    3.339    0.291    0.471   88.519  155.255
  455.750    2.960    0.296    0.502   90.957  157.694
  456.000    2.629    0.293    0.544   92.908  162.266
  456.250    2.389    0.290    0.564   93.945  166.432
  456.500    2.267    0.290    0.569   93.822  167.042
  456.750    2.195    0.301    0.566   93.395  162.062
  457.000    2.163    0.315    0.569   95.590  157.996
  457.250    2.200    0.324    0.572   96.870  159.926
  457.500    2.238    0.311    0.551   93.638  162.975
  457.750    2.281    0.304    0.527   91.321  166.226
  458.000    2.307    0.308    0.547   92.479  167.039
  458.250    2.307    0.328    0.573   93.394  159.721
  458.500    2.347    0.342    0.586   90.954  156.469
  458.750    2.460    0.337    0.585   89.917  161.346
  459.000    2.739    0.327    0.582   89.673  167.240
  459.250    3.357    0.327    0.569   89.246  170.288
  459.500    4.338    0.330    0.566   87.843  168.459
  459.750    5.489    0.330    0.549   84.246  165.409
  460.000    6.895    0.326    0.532   80.526  162.868
  460.250    8.031    0.321    0.530   78.879  158.193
  460.500    8.809    0.319    0.519   77.049  151.790
  460.750    9.252    0.321    0.499   73.574  149.046
  461.000    9.235    0.318    0.477   70.159  147.927
  461.250    8.127    0.319    0.463   69.488  147.419
  461.500    6.939    0.325    0.456   71.073  146.707
  461.750    6.210    0.324    0.449   72.475  146.300
  462.000    6.176    0.327    0.442   73.572  151.584
  462.250    6.486    0.334    0.464   71.377  156.766
  462.500    6.812    0.320    0.487   66.803  161.136
  462.750    7.277    0.284    0.428   58.510  157.375
  463.000    7.658    0.214    0.349   55.705  150.159
  463.250    7.502    0.268    0.378   60.644  146.805
  463.500    7.091    0.278    0.408   65.095  146.093
  463.750    6.627    0.287    0.426   67.656  146.601
  464.000    6.323    0.286    0.433   70.094  147.921
  464.250    5.954    0.278    0.444   70.704  149.750
  464.500    5.543    0.287    0.451   68.752  152.290
  464.750    5.269    0.291    0.442   68.325  155.339
  465.000    5.250    0.304    0.435   69.422  156.558
  465.250    5.310    0.304    0.430   71.190  157.167
  465.500    5.381    0.296    0.425   72.471  156.862
  465.750    5.453    0.291    0.427   73.995  158.487
  466.000    5.516    0.287    0.441   75.702  160.926
  466.250    5.579    0.291    0.449   76.494  162.145
  466.500    5.643    0.298    0.455   74.969  153.405
  466.750    5.676    0.298    0.459   73.567  149.034
  467.000    5.709    0.295    0.464   76.188  148.932
  467.250    5.731    0.294    0.470   78.139  148.932
  467.500    5.743    0.295    0.477   79.054  148.829
  467.750    5.743    0.297    0.479   79.236  148.931
  468.000    5.722    0.299    0.476   79.785  148.828
  468.250    5.659    0.305    0.473   80.699  149.133
  468.500    5.543    0.313    0.471   81.492  149.132
  468.750    5.441    0.307    0.468   82.040  149.030
  469.000    5.320    0.298    0.468   82.284  149.030
  469.250    5.211    0.293    0.473   80.759  148.826
  469.500    5.163    0.301    0.476   81.002  149.029
  469.750    5.154    0.294    0.467   82.770  149.435
  470.000    5.475    0.288    0.467   83.563  149.638
  470.250    6.084    0.281    0.473   82.953  149.942
  470.500    6.736    0.281    0.473   80.087  150.246
  470.750    7.600    0.291    0.481   77.587  149.433
  471.000    8.414    0.303    0.501   73.440  149.229
  471.250    9.073    0.317    0.509   69.598  149.229
  471.500   10.027    0.329    0.485   67.037  148.923
  471.750   10.935    0.334    0.463   65.695  148.821
  472.000   11.903    0.325    0.483   64.170  148.821
  472.250   12.860    0.320    0.497   61.731  148.719
  472.500   13.946    0.218    0.421   58.865  148.515
  472.750   14.620    0.189    0.347   57.767  148.210
  473.000   15.182    0.284    0.332   62.340  147.599
  473.250   15.415    0.307    0.366   64.535  147.192
  473.500   15.215    0.319    0.417   65.937  146.684
  473.750   14.627    0.320    0.457   65.632  146.378
  474.000   13.903    0.314    0.457   64.839  145.971
  474.250   13.241    0.308    0.459   64.900  145.768
  474.500   12.236    0.298    0.451   66.241  145.259
  474.750   10.807    0.274    0.434   68.070  145.055
  475.000    9.314    0.263    0.411   70.569  144.750
  475.250    7.983    0.277    0.436   72.459  144.241
  475.500    6.111    0.304    0.455   73.740  144.444
  475.750    5.025    0.319    0.465   74.898  144.850
  476.000    3.732    0.332    0.469   76.178  146.272
  476.250    2.685    0.334    0.455   76.909  147.898
  476.500    2.162    0.329    0.453   77.336  149.828
  476.750    1.805    0.337    0.500   77.641  152.267
  477.000    1.709    0.349    0.546   77.518  154.096
  477.250    1.653    0.343    0.542   76.664  155.721
  477.500    1.625    0.337    0.551   74.408  156.940
  477.750    1.604    0.334    0.564   71.420  157.753
  478.000    1.580    0.334    0.560   72.029  158.260
  478.250    1.563    0.334    0.551   73.309  157.955
  478.500    1.560    0.335    0.545   74.712  157.650
  478.750    1.551    0.337    0.565   76.480  157.344
  479.000    1.587    0.340    0.576   77.638  156.836
  479.250    1.683    0.338    0.573   78.552  156.429
  479.500    1.780    0.333    0.575   78.796  154.599
  479.750    1.916    0.330    0.577   77.942  151.855
  480.000    2.102    0.326    0.580   77.698  151.041
  480.250    2.284    0.321    0.568   76.722  151.854
  480.500    2.444    0.328    0.543   74.404  152.768
  480.750    2.586    0.326    0.521   76.111  153.479
