~VERSION INFORMATION
 VERS.                 2.0:   CWLS LOG ASCII STANDARD -VERSION 2.0
 WRAP.                  NO:   ONE LINE PER DEPTH STEP
~WELL INFORMATION BLOCK
#MNEM.UNIT           DATA                    DESCRIPTION OF MNEMONIC
#---------    -------------------            -------------------------------
# Generated from Intellog Unique Number	CS_73_76/WELL/2807
WELL.         EAGLE RESOURCES LTD.           : Well_name    - WELL
LOC .         00/02-15-076-18W4/0            : Location     - LOCATION
UWI .         00/02-15-076-18W4/0            : Uwi          - UNIQUE WELL ID
ENTR.         JO                             : Entered      - ENTERED BY
SRVC.         COMPUTALOG                     : Scn          - SERVICE COMPANY
DATE.         05/22/92                       : Date         - LOG DATE
STRT.M        210                            : top_depth    - START DEPTH
STOP.M        440                            : bot_depth    - STOP DEPTH
STEP.M        0.25                           : increment    - STEP LENGTH
 NULL. -999.2500:NULL Value
~CURVE INFORMATION BLOCK
#MNEM UNIT       ERCB CURVE CODE    CURVE DESCRIPTION
#-----------   ------------------   ----------------------------------
DEPT.M        00 001 00 00         : DEPTH        - DEPTH
ILD .OHMM     00 120 00 00         : RESD         - DEEP RESISTIVITY (DIL)
DPHI.V/V      00 890 00 00         : PHID         - DENSITY POROSITY (SANDSTONE)
NPHI.V/V      00 330 00 00         : PHIN         - NEUTRON POROSITY (SANDSTONE)
GR  .API      00 310 00 00         : GR           - GAMMA RAY
~PARAMETER INFORMATION
#MNEM.UNIT           DATA             DESCRIPTION OF MNEMONIC
#---------         -----------     ------------------------------
GL  .M        610.59               : gl           - GROUND LEVEL ELEVATION
EREF.M        614.26               : kb           - ELEVATION OF DEPTH REFERENCE
DATM.M        614.26               : datum        - DATUM ELEVATION
TDD .M        446.6                : tdd          - TOTAL DEPTH DRILLER
RUN .         ONE                  : Run          - RUN NUMBER
ENG .         BILL                 : Engineer     - RECORDING ENGINEER
WIT .         JIM                  : Witness      - WITNESSED BY
MUD .         GEL                  : Mud_type     - MUD TYPE
MATR.         SANDSTONE            : Logunit      - NEUTRON MATRIX
TMAX.C        28                   : BHT          - MAXIMUM RECORDED TEMPERATURE
BHTD.M        446.6                : BHTDEP       - MAXIMUM RECORDED TEMPERATURE
RMT .C        16.7                 : MDTP         - TEMPERATURE OF MUD
MUDD.KG/M     1140                 : MWT          - MUD DENSITY
NEUT.         1                    : NEUTRON      - NEUTRON TYPE
RESI.         0                    : RESIST       - RESISTIVITY TYPE
RM  .OHMM     3.4                  : RM           - RESISTIVITY OF MUD
RMC .OHMM     3.4                  : RMC          - RESISTIVITY OF MUD CAKE
RMF .OHMM     3.4                  : RMF          - RESISTIVITY OF MUD FILTRATE
SUFT.C        4                    : SUFT         - SURFACE TEMPERATURE
~A  DEPTH     RESD     PHID     PHIN       GR
  210.000    3.885    0.214    0.478  123.386
  210.250    3.967    0.204    0.492  121.101
  210.500    3.971    0.201    0.496  118.815
  210.750    3.978    0.203    0.495  117.699
  211.000    3.983    0.208    0.488  120.102
  211.250    3.989    0.211    0.480  119.570
  211.500    3.994    0.214    0.467  119.052
  211.750    4.077    0.214    0.455  120.857
  212.000    4.241    0.214    0.471  123.248
  212.250    4.412    0.214    0.479  125.067
  212.500    5.048    0.211    0.480  124.508
  212.750    5.775    0.212    0.475  121.639
  213.000    8.786    0.217    0.473  113.509
  213.250   12.873    0.221    0.446  101.872
  213.500   17.145    0.223    0.416   87.884
  213.750   15.613    0.229    0.375   64.545
  214.000    9.183    0.174    0.345   32.440
  214.250    6.290    0.146    0.267   32.492
  214.500    5.836    0.197    0.341   44.247
  214.750    5.416    0.162    0.372   61.846
  215.000    5.634    0.185    0.406   88.212
  215.250    8.097    0.217    0.417   98.201
  215.500   12.323    0.228    0.422   96.499
  215.750   13.571    0.236    0.409   73.745
  216.000   15.530    0.276    0.358   44.562
  216.250   17.097    0.301    0.350   26.522
  216.500   21.126    0.295    0.334   29.497
  216.750   22.382    0.270    0.338   29.523
  217.000   24.185    0.266    0.327   27.238
  217.250   25.167    0.262    0.312   21.445
  217.500   26.189    0.262    0.292   16.835
  217.750   26.218    0.267    0.288   14.563
  218.000   26.246    0.269    0.287   14.589
  218.250   26.293    0.272    0.285   14.642
  218.500   25.845    0.272    0.280   14.694
  218.750   25.386    0.274    0.279   15.344
  219.000   24.492    0.279    0.286   18.345
  219.250   24.056    0.286    0.294   19.541
  219.500   24.100    0.290    0.304   21.346
  219.750   24.126    0.287    0.306   22.568
  220.000   24.633    0.283    0.303   20.880
  220.250   25.124    0.276    0.299   19.166
  220.500   26.637    0.266    0.288   13.971
  220.750   27.719    0.253    0.285   14.024
  221.000   27.769    0.243    0.285   15.830
  221.250   27.809    0.247    0.282   17.636
  221.500   27.324    0.255    0.273   17.688
  221.750   26.353    0.262    0.273   15.987
  222.000   25.875    0.265    0.276   14.299
  222.250   25.424    0.269    0.276   13.170
  222.500   24.511    0.270    0.283   12.638
  222.750   24.093    0.271    0.293   12.703
  223.000   23.665    0.271    0.286   12.171
  223.250   23.262    0.272    0.292   12.808
  223.500   22.848    0.272    0.295   12.848
  223.750   21.206    0.274    0.297   14.666
  224.000   18.948    0.275    0.296   19.381
  224.250   17.267    0.274    0.297   34.643
  224.500   17.611    0.273    0.305   37.631
  224.750   19.050    0.270    0.323   37.112
  225.000   18.705    0.275    0.337   35.398
  225.250   17.034    0.281    0.335   33.697
  225.500   15.220    0.290    0.327   31.996
  225.750   12.603    0.292    0.322   30.880
  226.000    9.133    0.292    0.325   33.270
  226.250    8.160    0.282    0.334   39.752
  226.500    7.154    0.273    0.362   49.168
  226.750    6.392    0.266    0.384   59.741
  227.000    5.825    0.264    0.381   65.638
  227.250    5.720    0.264    0.380   73.302
  227.500    5.728    0.262    0.386   73.354
  227.750    5.736    0.254    0.389   73.420
  228.000    5.747    0.243    0.390   76.394
  228.250    5.544    0.243    0.402   79.356
  228.500    5.343    0.252    0.422   78.824
  228.750    5.052    0.252    0.412   75.981
  229.000    4.431    0.247    0.400   75.435
  229.250    4.190    0.237    0.404   76.657
  229.500    3.889    0.224    0.414   93.074
  229.750    3.749    0.222    0.442  104.829
  230.000    3.827    0.227    0.451  103.712
  230.250    4.298    0.229    0.462   93.829
  230.500    4.469    0.205    0.459   88.621
  230.750    4.651    0.191    0.435   76.972
  231.000    4.744    0.201    0.422   77.024
  231.250    4.578    0.214    0.415   85.856
  231.500    4.412    0.230    0.423   91.169
  231.750    4.252    0.240    0.423   91.222
  232.000    3.802    0.240    0.418   89.534
  232.250    3.597    0.230    0.424   87.820
  232.500    3.465    0.225    0.442   86.716
  232.750    3.278    0.225    0.458   89.678
  233.000    3.160    0.227    0.473  105.524
  233.250    3.046    0.228    0.491  113.187
  233.500    2.994    0.226    0.506  119.669
  233.750    3.000    0.222    0.490  119.721
  234.000    3.002    0.214    0.482  114.514
  234.250    3.007    0.214    0.489  110.475
  234.500    3.128    0.217    0.504  111.710
  234.750    3.318    0.221    0.536  109.995
  235.000    3.517    0.221    0.536  104.801
  235.250    3.728    0.217    0.468  102.502
  235.500    4.109    0.217    0.453  101.970
  235.750    4.273    0.218    0.441   97.347
  236.000    4.445    0.223    0.431   85.126
  236.250    4.535    0.226    0.403   78.152
  236.500    4.375    0.232    0.395   78.204
  236.750    4.137    0.234    0.392   92.310
  237.000    3.629    0.233    0.397   95.856
  237.250    3.497    0.229    0.407  102.351
  237.500    3.310    0.221    0.429  108.261
  237.750    3.252    0.215    0.448  112.405
  238.000    3.195    0.210    0.445  112.444
  238.250    3.198    0.214    0.436  108.405
  238.500    3.205    0.211    0.446  103.782
  238.750    3.207    0.213    0.479   99.743
  239.000    3.213    0.212    0.502   99.796
  239.250    3.216    0.197    0.493  101.043
  239.500    3.221    0.198    0.485  101.654
  239.750    3.226    0.211    0.493  102.889
  240.000    3.233    0.213    0.494  103.539
  240.250    3.236    0.210    0.494  103.007
  240.500    3.181    0.213    0.504  101.890
  240.750    3.186    0.225    0.504  103.112
  241.000    3.129    0.231    0.498  106.086
  241.250    3.137    0.225    0.496  105.541
  241.500    3.139    0.215    0.501  105.009
  241.750    3.143    0.212    0.497  105.672
  242.000    3.149    0.221    0.485  103.945
  242.250    3.153    0.227    0.488  104.595
  242.500    3.041    0.229    0.496  106.414
  242.750    2.930    0.229    0.488  106.454
  243.000    2.721    0.229    0.462  105.350
  243.250    2.623    0.231    0.463  104.818
  243.500    2.529    0.235    0.493  107.209
  243.750    2.438    0.237    0.521  108.430
  244.000    2.442    0.236    0.556  106.729
  244.250    2.399    0.220    0.557  104.444
  244.500    2.402    0.227    0.520  108.587
  244.750    2.406    0.244    0.513  112.160
  245.000    2.409    0.248    0.521  108.705
  245.250    2.412    0.245    0.514  105.836
  245.500    2.416    0.238    0.513  104.719
  245.750    2.419    0.238    0.525  104.772
  246.000    2.470    0.239    0.552  103.057
  246.250    2.473    0.239    0.568  105.448
  246.500    2.478    0.238    0.538  106.682
  246.750    2.481    0.238    0.516  104.397
  247.000    2.484    0.239    0.512  106.774
  247.250    2.489    0.243    0.515  108.593
  247.500    2.492    0.245    0.522  103.970
  247.750    2.496    0.247    0.524   98.165
  248.000    2.499    0.238    0.516   92.386
  248.250    2.503    0.227    0.522   92.438
  248.500    2.555    0.219    0.534   95.439
  248.750    2.607    0.212    0.529   96.050
  249.000    2.661    0.219    0.515   97.297
  249.250    2.716    0.224    0.506   97.324
  249.500    2.773    0.226    0.509   97.376
  249.750    2.831    0.226    0.512   98.611
  250.000    2.890    0.220    0.502  101.572
  250.250    2.948    0.213    0.487  102.820
  250.500    3.012    0.211    0.481  100.534
  250.750    3.073    0.211    0.471  101.756
  251.000    3.078    0.209    0.459  106.471
  251.250    3.081    0.204    0.457  108.277
  251.500    3.085    0.120    0.463  106.576
  251.750    3.091    0.104    0.474  100.784
  252.000    3.095    0.181    0.500   93.823
  252.250    3.099    0.200    0.508  105.564
  252.500    3.164    0.199    0.475  106.227
  252.750    3.291    0.193    0.475  110.956
  253.000    3.489    0.170    0.483  106.904
  253.250    3.630    0.184    0.484   99.358
