~VERSION INFORMATION
 VERS.                 2.0:   CWLS LOG ASCII STANDARD -VERSION 2.0
 WRAP.                  NO:   ONE LINE PER DEPTH STEP
~WELL INFORMATION BLOCK
#MNEM.UNIT           DATA                    DESCRIPTION OF MNEMONIC
#---------    -------------------            -------------------------------
# Generated from Intellog Unique Number	CS_77_79/WELL/911
WELL.         HOME LEISMER                   : Well_name    - WELL
LOC .         00/07-29-078-07W4/0            : Location     - LOCATION
UWI .         00/07-29-078-07W4/0            : Uwi          - UNIQUE WELL ID
ENTR.         JHS                            : Entered      - ENTERED BY
SRVC.         SCHLUMBERGER                   : Scn          - SERVICE COMPANY
STRT.M        129.845                        : top_depth    - START DEPTH
STOP.M        344.095                        : bot_depth    - STOP DEPTH
STEP.M        0.25                           : increment    - STEP LENGTH
 NULL. -999.2500:NULL Value
~CURVE INFORMATION BLOCK
#MNEM UNIT       ERCB CURVE CODE    CURVE DESCRIPTION
#-----------   ------------------   ----------------------------------
DEPT.M        00 001 00 00         : DEPTH        - DEPTH
RHOB.KG/M3    00 350 00 00         : DENS         - BULK DENSITY
GR  .API      00 310 00 00         : GR           - GAMMA RAY
DPHI.V/V      00 890 00 00         : PHID         - DENSITY POROSITY (SANDSTONE)
NPHI.V/V      00 330 00 00         : PHIN         - NEUTRON POROSITY (SANDSTONE)
ILD .OHMM     00 120 00 00         : RESD         - DEEP RESISTIVITY (DIL)
~PARAMETER INFORMATION
#MNEM.UNIT           DATA             DESCRIPTION OF MNEMONIC
#---------         -----------     ------------------------------
GL  .M        545.592              : gl           - GROUND LEVEL ELEVATION
EREF.M        549.432              : kb           - ELEVATION OF DEPTH REFERENCE
DATM.M        549.432              : datum        - DATUM ELEVATION
TDD .M        446.227              : tdd          - TOTAL DEPTH DRILLER
RUN .         ONE                  : Run          - RUN NUMBER
ENG .         BILL                 : Engineer     - RECORDING ENGINEER
WIT .         JIM                  : Witness      - WITNESSED BY
MUD .         GEL                  : Mud_type     - MUD TYPE
MATR.         SANDSTONE            : Logunit      - NEUTRON MATRIX
TMAX.C        21.6667              : BHT          - MAXIMUM RECORDED TEMPERATURE
BHTD.M        446.227              : BHTDEP       - MAXIMUM RECORDED TEMPERATURE
MATR.         1                    : LOGUNIT      - NEUTRON MATRIX
RMT .C        25                   : MDTP         - TEMPERATURE OF MUD
NEUT.         1                    : NEUTRON      - NEUTRON TYPE
RESI.         0                    : RESIST       - RESISTIVITY TYPE
RMC .OHMM     0.25                 : RMC          - RESISTIVITY OF MUD CAKE
RMF .OHMM     0.25                 : RMF          - RESISTIVITY OF MUD FILTRATE
SUFT.C        15                   : SUFT         - SURFACE TEMPERATURE
~A  DEPTH     DENS       GR     PHID     PHIN     RESD
# ...
  202.845    0.000   61.861    0.348    0.504   21.100
  203.095    0.000   63.486    0.348    0.541   20.488
  203.345    0.000   68.460    0.336    0.541   19.255
  203.595   -0.000   75.543    0.349    0.534   15.633
  203.845   -0.000   84.334    0.322    0.547   12.223
  204.095   -0.000   90.405    0.286    0.547    8.266
  204.345    0.000   92.296    0.265    0.526    6.634
  204.595    0.000   95.352    0.257    0.523    5.899
  204.845    0.000  100.085    0.249    0.526    5.640
  205.095   -0.000  101.674    0.262    0.526    5.547
  205.345   -0.000  101.433    0.255    0.513    5.558
  205.595   -0.000  101.057    0.241    0.504    5.565
  205.845    0.000  102.128    0.234    0.496    5.581
  206.095    0.000  103.501    0.226    0.524    5.467
  206.345   -0.000  104.715    0.233    0.524    5.385
  206.595   -0.000  105.367    0.226    0.530    5.133
  206.845   -0.000  103.795    0.239    0.532    4.890
  207.095    0.000  102.210    0.255    0.545    4.516
  207.345    0.000  105.110    0.257    0.568    4.231
  207.595    0.000  107.928    0.265    0.580    4.064
  207.845   -0.000  106.268    0.270    0.592    3.932
  208.095   -0.000  103.901    0.262    0.592    3.921
  208.345   -0.000  104.446    0.252    0.564    3.805
  208.595    0.000  106.901    0.254    0.558    3.885
  208.845    0.000  104.871    0.265    0.581    3.888
  209.095    0.000  101.843    0.267    0.595    3.816
  209.345   -0.000  101.033    0.260    0.606    3.706
  209.595   -0.000  101.696    0.259    0.600    3.609
  209.845    0.000  102.625    0.285    0.596    3.621
  210.095    0.000   99.944    0.282    0.606    3.730
  210.345    0.000   98.006    0.287    0.609    4.008
  210.595   -0.000   96.029    0.269    0.579    4.637
  210.845   -0.000   94.302    0.279    0.536    5.227
  211.095   -0.000   94.268    0.261    0.566    4.967
  211.345    0.000   98.266    0.268    0.595    4.616
  211.595    0.000   97.606    0.259    0.618    4.308
  211.845    0.000   99.054    0.259    0.602    3.928
  212.095   -0.000  104.039    0.268    0.577    3.765
  212.345   -0.000  104.638    0.259    0.558    3.618
  212.595    0.000  102.065    0.255    0.569    3.463
  212.845    0.000  101.463    0.257    0.610    3.356
  213.095    0.000  100.767    0.257    0.623    3.342
  213.345   -0.000  100.898    0.260    0.611    3.347
  213.595   -0.000  100.309    0.264    0.605    3.221
  213.845   -0.000   98.896    0.275    0.607    3.103
  214.095    0.000   97.943    0.275    0.603    3.230
  214.345    0.000   96.359    0.281    0.618    3.066
  214.595    0.000   91.530    0.271    0.607    3.602
  214.845   -0.000   85.403    0.308    0.605    4.769
  215.095   -0.000   77.294    0.309    0.580    6.145
  215.345   -0.000   76.570    0.304    0.522    7.254
  215.595    0.000   79.638    0.305    0.505    7.643
  215.845    0.000   84.415    0.278    0.526    7.665
  216.095   -0.000   82.818    0.248    0.538    7.285
  216.345   -0.000   83.739    0.266    0.508    7.144
  216.595   -0.000   85.052    0.282    0.510    6.870
  216.845    0.000   82.341    0.241    0.508    6.664
  217.095    0.000   80.992    0.254    0.512    6.462
  217.345    0.000   79.739    0.257    0.515    6.415
  217.595   -0.000   78.444    0.255    0.517    6.516
  217.845   -0.000   76.055    0.253    0.526    6.807
  218.095   -0.000   78.635    0.257    0.507    7.493
  218.345    0.000   79.773    0.264    0.495    8.368
  218.595    0.000   73.767    0.269    0.478    8.779
  218.845   -0.000   72.450    0.275    0.468    9.370
  219.095   -0.000   74.555    0.270    0.462    9.883
  219.345   -0.000   78.485    0.273    0.462    9.917
  219.595    0.000   78.003    0.273    0.466    9.438
  219.845    0.000   79.835    0.255    0.479    9.019
  220.095    0.000   83.354    0.244    0.491    8.034
  220.345   -0.000   84.861    0.257    0.512    7.241
  220.595   -0.000   84.128    0.271    0.528    6.461
  220.845   -0.000   84.208    0.260    0.534    5.781
  221.095    0.000   85.633    0.259    0.558    5.364
  221.345    0.000   88.515    0.250    0.569    4.918
  221.595    0.000   92.193    0.267    0.550    4.493
  221.845   -0.000   94.835    0.282    0.546    4.194
  222.095   -0.000   95.707    0.276    0.560    3.758
  222.345    0.000   95.248    0.279    0.556    3.486
  222.595    0.000   94.308    0.290    0.572    3.336
  222.845    0.000   92.438    0.279    0.612    3.427
  223.095   -0.000   87.166    0.272    0.622    3.641
  223.345   -0.000   85.231    0.310    0.613    4.390
  223.595   -0.000   84.213    0.313    0.556    5.198
  223.845    0.000   78.796    0.319    0.524    6.995
  224.095    0.000   70.270    0.339    0.498    8.997
  224.345    0.000   61.596    0.343    0.481    9.997
  224.595   -0.000   58.849    0.351    0.480   10.703
  224.845   -0.000   58.904    0.356    0.485   10.981
  225.095    0.000   60.609    0.349    0.483   10.972
  225.345    0.000   61.393    0.339    0.480   11.006
  225.595    0.000   59.794    0.352    0.494   10.773
  225.845   -0.000   59.425    0.347    0.497   10.803
  226.095   -0.000   60.861    0.349    0.495   10.704
  226.345   -0.000   65.437    0.351    0.484   10.627
  226.595    0.000   67.328    0.336    0.489   10.665
  226.845    0.000   68.236    0.324    0.513   10.176
  227.095    0.000   71.521    0.299    0.510    9.485
  227.345   -0.000   79.824    0.249    0.504    8.696
  227.595   -0.000   83.957    0.227    0.514    7.877
  227.845   -0.000   83.918    0.246    0.535    7.643
  228.095    0.000   81.924    0.286    0.529    7.632
  228.345    0.000   82.522    0.287    0.550    7.824
  228.595   -0.000   85.856    0.281    0.563    8.400
  228.845   -0.000   83.410    0.265    0.560    8.964
  229.095   -0.000   78.048    0.217    0.519    9.742
  229.345    0.000   82.305    0.200    0.465   10.010
  229.595    0.000   85.324    0.252    0.436    9.736
  229.845    0.000   85.768    0.292    0.457    9.245
  230.095   -0.000   83.229    0.290    0.495    8.827
  230.345   -0.000   81.542    0.283    0.515    8.395
  230.595   -0.000   82.367    0.285    0.527    8.166
  230.845    0.000   85.126    0.273    0.526    8.185
  231.095    0.000   85.372    0.274    0.530    8.190
  231.345   -0.000   84.749    0.267    0.547    8.201
  231.595   -0.000   86.180    0.259    0.520    8.223
  231.845   -0.000   87.356    0.264    0.545    8.047
  232.095    0.000   88.419    0.270    0.559    8.079
  232.345    0.000   88.513    0.269    0.555    7.919
  232.595    0.000   87.810    0.275    0.544    7.944
  232.845   -0.000   87.901    0.261    0.526    7.820
  233.095   -0.000   88.213    0.268    0.519    7.813
  233.345   -0.000   88.610    0.276    0.512    7.820
  233.595    0.000   89.742    0.280    0.501    7.739
  233.845    0.000   91.816    0.284    0.509    7.412
  234.095    0.000   96.563    0.266    0.524    7.002
  234.345   -0.000   99.290    0.257    0.536    6.826
  234.595   -0.000   98.446    0.249    0.529    6.269
  234.845    0.000   95.366    0.251    0.515    5.854
  235.095    0.000   95.025    0.265    0.511    5.041
  235.345    0.000   96.205    0.253    0.552    4.282
  235.595   -0.000   97.714    0.287    0.575    3.462
  235.845   -0.000   98.367    0.306    0.593    2.807
  236.095   -0.000   95.085    0.303    0.619    2.511
  236.345    0.000   93.194    0.318    0.626    2.317
  236.595    0.000   90.962    0.302    0.630    2.289
  236.845    0.000   88.651    0.313    0.630    2.314
  237.095   -0.000   86.920    0.280    0.630    2.416
  237.345   -0.000   83.196    0.290    0.619    2.568
  237.595    0.000   83.254    0.287    0.619    2.958
  237.845    0.000   85.834    0.265    0.591    3.376
  238.095    0.000   85.499    0.268    0.572    4.028
  238.345   -0.000   84.560    0.278    0.547    4.779
  238.595   -0.000   83.207    0.291    0.529    5.480
  238.845   -0.000   81.865    0.304    0.506    6.007
  239.095    0.000   77.773    0.301    0.485    6.476
