~VERSION INFORMATION
 VERS.                 2.0:   CWLS LOG ASCII STANDARD -VERSION 2.0
 WRAP.                  NO:   ONE LINE PER DEPTH STEP
~WELL INFORMATION BLOCK
#MNEM.UNIT           DATA                    DESCRIPTION OF MNEMONIC
#---------    -------------------            -------------------------------
# Generated from Intellog Unique Number	CS_69_70/WELL/854
WELL.         HUSKY OIL OPERATIONS           : Well_name    - WELL
LOC .         00/08-32-069-06W4/0            : Location     - LOCATION
UWI .         00/08-32-069-06W4/0            : Uwi          - UNIQUE WELL ID
ENTR.         SP                             : Entered      - ENTERED BY
SRVC.         SCHLUMBERGER                   : Scn          - SERVICE COMPANY
STRT.M        330                            : top_depth    - START DEPTH
STOP.M        570                            : bot_depth    - STOP DEPTH
STEP.M        0.25                           : increment    - STEP LENGTH
 NULL. -999.2500:NULL Value
~CURVE INFORMATION BLOCK
#MNEM UNIT       ERCB CURVE CODE    CURVE DESCRIPTION
#-----------   ------------------   ----------------------------------
DEPT.M        00 001 00 00         : DEPTH        - DEPTH
ILD .OHMM     00 120 00 00         : RESD         - DEEP RESISTIVITY (DIL)
DPHI.V/V      00 890 00 00         : PHID         - DENSITY POROSITY (LIMESTONE)
NPHI.V/V      00 330 00 00         : PHIN         - NEUTRON POROSITY (LIMESTONE)
GR  .API      00 310 00 00         : GR           - GAMMA RAY
~PARAMETER INFORMATION
#MNEM.UNIT           DATA             DESCRIPTION OF MNEMONIC
#---------         -----------     ------------------------------
GL  .M        685.1                : gl           - GROUND LEVEL ELEVATION
EREF.M        688.8                : kb           - ELEVATION OF DEPTH REFERENCE
DATM.M        685.1                : datum        - DATUM ELEVATION
TDD .M        575                  : tdd          - TOTAL DEPTH DRILLER
RUN .         ONE                  : Run          - RUN NUMBER
ENG .         BILL                 : Engineer     - RECORDING ENGINEER
WIT .         JIM                  : Witness      - WITNESSED BY
MUD .         GEL                  : Mud_type     - MUD TYPE
MATR.         LIMESTONE            : Logunit      - NEUTRON MATRIX
TMAX.C        25                   : BHT          - MAXIMUM RECORDED TEMPERATURE
BHTD.M        575                  : BHTDEP       - MAXIMUM RECORDED TEMPERATURE
MATR.         1                    : LOGUNIT      - NEUTRON MATRIX
RMT .C        25                   : MDTP         - TEMPERATURE OF MUD
NEUT.         1                    : NEUTRON      - NEUTRON TYPE
RESI.         0                    : RESIST       - RESISTIVITY TYPE
RMC .OHMM     0.25                 : RMC          - RESISTIVITY OF MUD CAKE
RMF .OHMM     0.25                 : RMF          - RESISTIVITY OF MUD FILTRATE
SUFT.C        15                   : SUFT         - SURFACE TEMPERATURE
~A  DEPTH     RESD     PHID     PHIN       GR
# ...
  504.000   27.846    0.259    0.340   47.615
  504.250   35.479    0.268    0.349   35.818
  504.500   44.198    0.278    0.360   27.061
  504.750   49.564    0.293    0.328   26.386
  505.000   45.894    0.294    0.303   34.281
  505.250   36.844    0.282    0.306   39.746
  505.500   31.117    0.280    0.321   46.729
  505.750   28.013    0.269    0.313   50.796
  506.000   26.480    0.257    0.308   44.104
  506.250   25.698    0.271    0.341   37.110
  506.500   25.174    0.287    0.337   37.104
  506.750   23.398    0.280    0.332   51.867
  507.000   22.621    0.266    0.329   59.094
  507.250   23.400    0.257    0.326   50.761
  507.500   29.096    0.251    0.325   42.733
  507.750   32.384    0.266    0.327   37.379
  508.000   38.349    0.280    0.328   33.301
  508.250   42.924    0.291    0.331   29.466
  508.500   47.063    0.302    0.338   27.637
  508.750   50.927    0.313    0.330   27.936
  509.000   51.895    0.319    0.323   30.422
  509.250   47.248    0.312    0.343   29.140
  509.500   41.353    0.304    0.342   38.859
  509.750   29.717    0.296    0.320   49.367
  510.000   23.108    0.263    0.309   55.197
  510.250   20.803    0.250    0.347   61.329
  510.500   19.517    0.251    0.339   65.821
  510.750   18.588    0.251    0.340   63.080
  511.000   17.737    0.266    0.360   53.532
  511.250   16.988    0.272    0.325   53.709
  511.500   21.687    0.243    0.315   60.085
  511.750   24.047    0.227    0.343   62.024
  512.000   31.219    0.247    0.353   55.211
  512.250   39.927    0.271    0.360   38.188
  512.500   49.739    0.297    0.378   26.998
  512.750   64.697    0.323    0.357   24.319
  513.000   78.800    0.318    0.333   27.656
  513.250   93.137    0.310    0.321   33.971
  513.500  111.122    0.303    0.331   33.843
  513.750  128.172    0.308    0.348   27.030
  514.000  144.274    0.319    0.347   23.196
  514.250  159.678    0.323    0.351   21.549
  514.500  166.421    0.327    0.357   20.509
  514.750  143.218    0.329    0.359   20.140
  515.000  100.439    0.336    0.344   21.289
  515.250   75.222    0.342    0.354   23.654
  515.500   58.713    0.338    0.355   24.316
  515.750   40.791    0.334    0.343   29.538
  516.000   29.534    0.326    0.333   37.129
  516.250   37.139    0.304    0.344   42.776
  516.500   54.069    0.294    0.342   45.566
  516.750   54.890    0.299    0.334   47.870
  517.000   45.496    0.284    0.343   48.776
  517.250   37.709    0.272    0.353   46.157
  517.500   39.598    0.283    0.369   37.338
  517.750   40.049    0.308    0.349   29.431
  518.000   35.583    0.328    0.331   42.128
  518.250   30.279    0.319    0.357   46.559
  518.500   25.286    0.306    0.396   46.189
  518.750   21.883    0.302    0.399   38.768
  519.000   19.626    0.324    0.387   44.293
  519.250   17.669    0.343    0.395   52.492
  519.500   16.577    0.354    0.407   54.127
  519.750   15.788    0.327    0.393   51.813
  520.000   16.088    0.314    0.361   54.177
  520.250   17.246    0.278    0.347   57.332
  520.500   18.663    0.259    0.344   57.448
  520.750   19.017    0.253    0.340   55.011
  521.000   19.709    0.265    0.359   40.905
  521.250   18.215    0.305    0.376   27.042
  521.500   13.616    0.325    0.347   23.997
  521.750   11.223    0.334    0.323   35.964
  522.000   10.046    0.314    0.349   55.468
  522.250    9.250    0.291    0.379   71.508
  522.500    9.787    0.264    0.402   84.266
  522.750   10.771    0.237    0.416   76.724
  523.000   11.876    0.238    0.429   68.391
  523.250   13.318    0.270    0.417   66.198
  523.500   14.412    0.267    0.378   68.866
  523.750   15.624    0.238    0.382   66.308
  524.000   16.780    0.215    0.386   62.108
  524.250   18.925    0.195    0.403   60.340
  524.500   20.325    0.227    0.445   59.240
  524.750   21.064    0.263    0.410   57.837
  525.000   20.137    0.293    0.391   52.969
  525.250   16.473    0.295    0.402   48.040
  525.500   14.017    0.296    0.361   47.183
  525.750   12.477    0.288    0.344   50.398
  526.000   13.502    0.259    0.344   51.852
  526.250   16.170    0.247    0.343   47.713
  526.500   20.219    0.271    0.352   36.099
  526.750   24.214    0.296    0.371   26.429
  527.000   29.217    0.322    0.387   22.473
  527.250   33.260    0.342    0.386   20.036
  527.500   35.856    0.351    0.379   19.483
  527.750   36.744    0.354    0.368   19.295
  528.000   32.463    0.347    0.362   18.985
  528.250   27.937    0.340    0.359   19.101
  528.500   23.728    0.332    0.363   19.278
  528.750   20.768    0.329    0.365   19.819
  529.000   18.522    0.342    0.365   20.116
  529.250   17.541    0.331    0.364   20.233
  529.500   15.910    0.323    0.358   20.349
  529.750   14.512    0.326    0.353   20.282
  530.000   13.188    0.331    0.355   20.338
  530.250   11.586    0.336    0.348   20.453
  530.500   10.371    0.341    0.338   20.509
  530.750    9.043    0.334    0.331   20.685
  531.000    7.710    0.329    0.327   20.983
  531.250    6.647    0.326    0.323   21.585
  531.500    5.807    0.326    0.322   21.883
  531.750    5.218    0.332    0.329   22.120
  532.000    4.914    0.337    0.339   22.176
  532.250    4.698    0.341    0.348   21.623
  532.500    4.602    0.338    0.357   21.557
  532.750    4.542    0.330    0.359   25.441
  533.000    4.602    0.320    0.346   31.755
  533.250    4.725    0.307    0.339   36.734
  533.500    4.851    0.293    0.343   42.806
  533.750    5.066    0.285    0.344   50.337
  534.000    5.380    0.276    0.343   56.287
  534.250    5.575    0.272    0.345   61.327
  534.500    5.811    0.263    0.354   67.642
  534.750    5.977    0.243    0.361   75.415
  535.000    6.079    0.091    0.370   86.593
  535.250    6.183    0.070    0.384  100.749
  535.500    6.137    0.115    0.406  112.655
  535.750    5.967    0.156    0.419  121.584
  536.000    5.990    0.197    0.429  127.474
  536.250    6.266    0.201    0.467  124.247
  536.500    6.458    0.203    0.441  117.859
  536.750    6.705    0.202    0.415  107.703
  537.000    6.756    0.200    0.398   96.575
  537.250    6.631    0.213    0.395   82.165
  537.500    6.351    0.249    0.396   58.942
  537.750    5.925    0.282    0.390   47.997
  538.000    5.622    0.306    0.367   40.150
  538.250    5.476    0.307    0.331   57.467
  538.500    5.466    0.225    0.316   72.959
  538.750    5.405    0.204    0.344   67.969
  539.000    5.295    0.241    0.353   46.388
  539.250    5.062    0.289    0.342   32.160
  539.500    4.848    0.311    0.341   24.861
  539.750    4.523    0.326    0.349   22.485
  540.000    4.332    0.332    0.341   22.114
  540.250    4.134    0.331    0.331   23.324
  540.500    3.997    0.337    0.337   23.440
  540.750    3.937    0.342    0.349   21.125
  541.000    3.908    0.340    0.352   20.876
  541.250    3.894    0.338    0.335   24.030
  541.500    3.894    0.337    0.327   27.428
  541.750    3.880    0.335    0.332   26.754
  542.000    3.858    0.321    0.329   20.671
  542.250    3.822    0.321    0.325   19.206
  542.500    3.794    0.335    0.325   20.234
  542.750    3.744    0.339    0.328   25.516
  543.000    3.675    0.329    0.336   29.765
  543.250    3.620    0.318    0.372   30.184
  543.500    3.573    0.336    0.375   30.300
  543.750    3.540    0.349    0.362   41.356
  544.000    3.553    0.357    0.355   55.998
  544.250    3.601    0.336    0.354   66.628
  544.500    3.676    0.307    0.362   60.544
  544.750    3.732    0.288    0.390   52.152
  545.000    3.789    0.330    0.379   46.189
  545.250    3.803    0.340    0.371   48.068
  545.500    3.803    0.345    0.371   50.372
  545.750    3.775    0.347    0.384   49.880
  546.000    3.768    0.346    0.392   52.184
  546.250    3.761    0.335    0.397   43.183
  546.500    3.761    0.336    0.382   32.541
  546.750    3.726    0.355    0.370   34.480
  547.000    3.664    0.361    0.365   38.911
  547.250    3.637    0.356    0.365   43.585
