~VERSION INFORMATION
 VERS.                 2.0:   CWLS LOG ASCII STANDARD -VERSION 2.0
 WRAP.                  NO:   ONE LINE PER DEPTH STEP
~WELL INFORMATION BLOCK
#MNEM.UNIT           DATA                    DESCRIPTION OF MNEMONIC
#---------    -------------------            -------------------------------
# Generated from Intellog Unique Number	CS_73_76/WELL/1085
WELL.         BOW VALLEY EXPLORATION         : Well_name    - WELL
LOC .         00/06-30-075-14W4/0            : Location     - LOCATION
UWI .         00/06-30-075-14W4/0            : Uwi          - UNIQUE WELL ID
ENTR.         SP                             : Entered      - ENTERED BY
SRVC.         SCHLUMBERGER                   : Scn          - SERVICE COMPANY
STRT.M        377.952                        : top_depth    - START DEPTH
STOP.M        584.952                        : bot_depth    - STOP DEPTH
STEP.M        0.25                           : increment    - STEP LENGTH
 NULL. -999.2500:NULL Value
~CURVE INFORMATION BLOCK
#MNEM UNIT       ERCB CURVE CODE    CURVE DESCRIPTION
#-----------   ------------------   ----------------------------------
DEPT.M        00 001 00 00         : DEPTH        - DEPTH
GR  .API      00 310 00 00         : GR           - GAMMA RAY
DPHI.V/V      00 890 00 00         : PHID         - DENSITY POROSITY (SANDSTONE)
NPHI.V/V      00 330 00 00         : PHIN         - NEUTRON POROSITY (SANDSTONE)
ILD .OHMM     00 120 00 00         : RESD         - DEEP RESISTIVITY (DIL)
~PARAMETER INFORMATION
#MNEM.UNIT           DATA             DESCRIPTION OF MNEMONIC
#---------         -----------     ------------------------------
GL  .M        751.759              : gl           - GROUND LEVEL ELEVATION
EREF.M        754.38               : kb           - ELEVATION OF DEPTH REFERENCE
DATM.M        751.759              : datum        - DATUM ELEVATION
TDD .M        584.606              : tdd          - TOTAL DEPTH DRILLER
RUN .         ONE                  : Run          - RUN NUMBER
ENG .         BILL                 : Engineer     - RECORDING ENGINEER
WIT .         JIM                  : Witness      - WITNESSED BY
MUD .         GEL                  : Mud_type     - MUD TYPE
MATR.         SANDSTONE            : Logunit      - NEUTRON MATRIX
TMAX.C        22.2222              : BHT          - MAXIMUM RECORDED TEMPERATURE
BHTD.M        584.606              : BHTDEP       - MAXIMUM RECORDED TEMPERATURE
MATR.         1                    : LOGUNIT      - NEUTRON MATRIX
RMT .C        25                   : MDTP         - TEMPERATURE OF MUD
NEUT.         1                    : NEUTRON      - NEUTRON TYPE
RESI.         0                    : RESIST       - RESISTIVITY TYPE
RMC .OHMM     0.25                 : RMC          - RESISTIVITY OF MUD CAKE
RMF .OHMM     0.25                 : RMF          - RESISTIVITY OF MUD FILTRATE
SUFT.C        15                   : SUFT         - SURFACE TEMPERATURE
~A  DEPTH       GR     PHID     PHIN     RESD
# ...
  508.452   69.484    0.346    0.443    5.040
  508.702   69.880    0.345    0.435    4.959
  508.952   69.207    0.350    0.429    4.908
  509.202   68.685    0.349    0.435    4.873
  509.452   69.545    0.349    0.443    4.792
  509.702   72.707    0.343    0.449    4.786
  509.952   73.498    0.345    0.440    4.790
  510.202   73.584    0.346    0.435    4.879
  510.452   72.239    0.345    0.434    4.901
  510.702   71.040    0.330    0.432    5.058
  510.952   70.971    0.320    0.449    5.278
  511.202   72.517    0.314    0.463    5.633
  511.452   73.439    0.328    0.455    6.169
  511.702   73.451    0.332    0.442    6.954
  511.952   73.524    0.327    0.434    7.813
  512.202   75.077    0.321    0.420    8.680
  512.452   76.629    0.322    0.392    9.817
  512.702   75.033    0.269    0.368   10.546
  512.952   73.121    0.222    0.338   10.369
  513.202   70.188    0.163    0.306    9.874
  513.452   67.952    0.137    0.279    8.716
  513.702   70.518    0.164    0.288    7.581
  513.952   75.834    0.224    0.343    6.641
  514.202   81.823    0.283    0.403    5.982
  514.452   85.006    0.319    0.432    5.256
  514.702   86.615    0.327    0.433    4.853
  514.952   84.938    0.324    0.439    4.728
  515.202   82.365    0.324    0.452    4.580
  515.452   79.821    0.325    0.459    4.541
  515.702   78.333    0.330    0.463    4.470
  515.952   77.899    0.334    0.455    4.473
  516.202   78.294    0.322    0.453    4.476
  516.452   79.250    0.316    0.456    4.468
  516.702   80.225    0.310    0.464    4.565
  516.952   81.203    0.299    0.463    4.652
  517.202   81.234    0.304    0.463    4.879
  517.452   80.401    0.297    0.472    5.166
  517.702   75.330    0.284    0.475    5.374
  517.952   68.141    0.280    0.456    5.809
  518.202   60.287    0.240    0.420    6.288
  518.452   60.343    0.178    0.345    6.254
  518.702   65.480    0.164    0.348    5.914
  518.952   72.202    0.177    0.384    5.330
  519.202   75.281    0.282    0.447    4.816
  519.452   80.650    0.308    0.473    4.328
  519.702   83.034    0.307    0.476    4.093
  519.952   83.674    0.297    0.467    4.095
  520.202   81.927    0.287    0.461    4.187
  520.452   82.961    0.296    0.455    4.179
  520.702   82.618    0.309    0.456    4.262
  520.952   80.809    0.301    0.466    4.258
  521.202   81.677    0.311    0.472    4.259
  521.452   81.256    0.302    0.465    4.268
  521.702   77.919    0.313    0.461    4.177
  521.952   75.967    0.303    0.457    4.184
  522.202   76.635    0.304    0.466    4.149
  522.452   78.247    0.295    0.472    4.113
  522.702   79.806    0.302    0.479    4.110
  522.952   80.542    0.315    0.475    4.084
  523.202   81.163    0.310    0.468    4.041
  523.452   81.621    0.317    0.463    4.041
  523.702   83.065    0.303    0.459    4.042
  523.952   82.892    0.303    0.460    4.043
  524.202   84.535    0.314    0.465    4.044
  524.452   85.465    0.308    0.474    4.045
  524.702   86.433    0.313    0.480    4.047
  524.952   87.194    0.318    0.489    4.047
  525.202   86.383    0.307    0.486    4.046
  525.452   85.392    0.295    0.479    4.113
  525.702   84.161    0.291    0.482    4.123
  525.952   82.882    0.309    0.483    4.127
  526.202   82.427    0.310    0.472    4.120
  526.452   82.324    0.302    0.464    4.213
  526.702   82.294    0.289    0.460    4.206
  526.952   83.808    0.289    0.452    4.261
  527.202   86.298    0.296    0.445    4.285
  527.452   88.230    0.303    0.443    4.284
  527.702   88.287    0.307    0.446    4.374
  527.952   87.474    0.296    0.456    4.370
  528.202   87.540    0.288    0.462    4.364
  528.452   88.189    0.279    0.459    4.459
  528.702   89.590    0.279    0.453    4.450
  528.952   90.563    0.276    0.460    4.521
  529.202   90.783    0.266    0.466    4.532
  529.452   92.507    0.256    0.456    4.534
  529.702   93.454    0.220    0.448    4.467
  529.952   94.427    0.164    0.452    4.265
  530.202   95.438    0.013    0.452    4.072
  530.452   94.365    0.001    0.457    3.882
  530.702   95.231    0.288    0.465    3.676
  530.952   98.282    0.261    0.464    3.525
  531.202   99.922    0.242    0.462    3.452
  531.452  101.569    0.255    0.463    3.458
  531.702   99.960    0.281    0.456    3.741
  531.952   96.807    0.288    0.468    4.098
  532.202   92.119    0.291    0.483    4.696
  532.452   88.688    0.277    0.499    5.708
  532.702   84.856    0.223    0.505    7.199
  532.952   80.939    0.219    0.479    9.148
  533.202   77.501    0.172    0.362   10.095
  533.452   74.564    0.116    0.269   10.113
  533.702   78.989    0.089    0.246    9.164
  533.952   88.163    0.096    0.281    7.963
  534.202   93.368    0.161    0.364    6.782
  534.452   99.297    0.200    0.424    5.743
  534.702  103.669    0.232    0.469    5.174
  534.952  105.697    0.243    0.455    4.903
  535.202  104.153    0.238    0.442    4.840
  535.452  101.844    0.223    0.458    4.829
  535.702   99.522    0.227    0.466    4.830
  535.952   98.419    0.221    0.457    4.924
  536.202  100.232    0.219    0.451    4.948
  536.452  102.558    0.231    0.445    5.009
  536.702  104.283    0.225    0.448    5.011
  536.952  103.532    0.219    0.455    5.013
  537.202  100.323    0.224    0.458    5.010
  537.452   97.919    0.228    0.462    5.161
  537.702   96.412    0.221    0.451    5.318
  537.952   94.141    0.206    0.437    5.479
  538.202   96.507    0.199    0.432    5.600
  538.452   99.739    0.219    0.436    5.719
  538.702  102.231    0.233    0.441    5.889
  538.952   99.900    0.238    0.450    6.029
  539.202   92.836    0.232    0.453    6.144
  539.452   90.651    0.224    0.456    6.208
  539.702   86.927    0.217    0.459    6.366
  539.952   87.438    0.232    0.448    6.608
  540.202   92.756    0.261    0.435    6.686
  540.452   97.051    0.267    0.422    6.740
  540.702  101.139    0.166    0.424    6.636
  540.952  102.899    0.100    0.433    6.456
  541.202  107.628   -0.002    0.452    6.150
  541.452  111.944    0.059    0.460    5.891
  541.702  116.507    0.100    0.471    5.686
  541.952  120.050    0.178    0.464    5.513
  542.202  121.354    0.209    0.452    5.342
  542.452  118.119    0.204    0.443    5.320
  542.702  116.293    0.214    0.431    5.425
  542.952  115.616    0.220    0.424    5.434
  543.202  116.465    0.229    0.417    5.311
  543.452  117.444    0.237    0.405    4.971
  543.702  114.825    0.232    0.401    4.762
  543.952  111.826    0.224    0.413    4.683
  544.202  108.293    0.213    0.435    4.607
  544.452  105.152    0.204    0.452    4.619
  544.702  102.904    0.203    0.449    4.526
  544.952  102.423    0.188    0.442    4.417
  545.202  103.454    0.173    0.451    4.018
  545.452  106.117    0.178    0.457    3.560
  545.702  107.038    0.198    0.455    3.075
  545.952  107.904    0.206    0.449    2.546
  546.202  107.853    0.213    0.449    2.230
  546.452  107.866    0.235    0.463    1.972
  546.702  106.833    0.250    0.488    1.830
  546.952  104.854    0.269    0.525    1.724
  547.202  104.743    0.263    0.532    1.725
  547.452  106.249    0.266    0.539    1.728
  547.702  108.657    0.260    0.533    1.783
  547.952  112.970    0.237    0.537    1.835
  548.202  115.180    0.197    0.529    1.933
  548.452  117.961    0.142    0.521    2.155
  548.702  118.631    0.051    0.520    2.344
  548.952  115.586    0.030    0.527    2.631
  549.202  111.768    0.032    0.504    2.957
  549.452  106.192    0.054    0.455    3.496
  549.702  106.414    0.167    0.425    4.057
  549.952  110.467    0.180    0.433    4.536
  550.202  106.743    0.194    0.441    4.972
  550.452  102.739    0.182    0.425    5.108
  550.702  103.202    0.147    0.407    4.732
  550.952  107.048    0.126    0.397    4.377
  551.202  110.003    0.138    0.425    4.074
  551.452  113.247    0.003    0.440    3.709
  551.702  114.354    0.170    0.463    3.736
