~VERSION INFORMATION
 VERS.                 2.0:   CWLS LOG ASCII STANDARD -VERSION 2.0
 WRAP.                  NO:   ONE LINE PER DEPTH STEP
~WELL INFORMATION BLOCK
#MNEM.UNIT           DATA                    DESCRIPTION OF MNEMONIC
#---------    -------------------            -------------------------------
# Generated from Intellog Unique Number	CS_73_76/WELL/2160
WELL.         GULF NISBET                    : Well_name    - WELL
LOC .         00/06-08-074-01W4/0            : Location     - LOCATION
UWI .         00/06-08-074-01W4/0            : Uwi          - UNIQUE WELL ID
ENTR.         SP                             : Entered      - ENTERED BY
SRVC.         SCHLUMBERGER                   : Scn          - SERVICE COMPANY
STRT.M        350                            : top_depth    - START DEPTH
STOP.M        630                            : bot_depth    - STOP DEPTH
STEP.M        0.25                           : increment    - STEP LENGTH
 NULL. -999.2500:NULL Value
~CURVE INFORMATION BLOCK
#MNEM UNIT       ERCB CURVE CODE    CURVE DESCRIPTION
#-----------   ------------------   ----------------------------------
DEPT.M        00 001 00 00         : DEPTH        - DEPTH
ILD .OHMM     00 120 00 00         : RESD         - DEEP RESISTIVITY (DIL)
NPHI.V/V      00 330 00 00         : PHIN         - NEUTRON POROSITY (LIMESTONE)
DPHI.V/V      00 890 00 00         : PHID         - DENSITY POROSITY (LIMESTONE)
GR  .API      00 310 00 00         : GR           - GAMMA RAY
~PARAMETER INFORMATION
#MNEM.UNIT           DATA             DESCRIPTION OF MNEMONIC
#---------         -----------     ------------------------------
GL  .M        705.5                : gl           - GROUND LEVEL ELEVATION
EREF.M        709.2                : kb           - ELEVATION OF DEPTH REFERENCE
DATM.M        705.5                : datum        - DATUM ELEVATION
TDD .M        640                  : tdd          - TOTAL DEPTH DRILLER
RUN .         ONE                  : Run          - RUN NUMBER
ENG .         BILL                 : Engineer     - RECORDING ENGINEER
WIT .         JIM                  : Witness      - WITNESSED BY
MUD .         GEL                  : Mud_type     - MUD TYPE
MATR.         LIMESTONE            : Logunit      - NEUTRON MATRIX
TMAX.C        19.5                 : BHT          - MAXIMUM RECORDED TEMPERATURE
BHTD.M        640                  : BHTDEP       - MAXIMUM RECORDED TEMPERATURE
MATR.         1                    : LOGUNIT      - NEUTRON MATRIX
RMT .C        25                   : MDTP         - TEMPERATURE OF MUD
NEUT.         1                    : NEUTRON      - NEUTRON TYPE
RESI.         0                    : RESIST       - RESISTIVITY TYPE
RMC .OHMM     0.25                 : RMC          - RESISTIVITY OF MUD CAKE
RMF .OHMM     0.25                 : RMF          - RESISTIVITY OF MUD FILTRATE
SUFT.C        15                   : SUFT         - SURFACE TEMPERATURE
~A  DEPTH     RESD     PHIN     PHID       GR
# ...
  524.000    7.640    0.351    0.212   81.095
  524.250    7.223    0.351    0.226   79.889
  524.500    6.829    0.360    0.238   78.686
  524.750    6.337    0.382    0.245   71.383
  525.000    5.560    0.387    0.257   62.250
  525.250    5.064    0.366    0.267   53.730
  525.500    4.970    0.340    0.263   51.916
  525.750    4.970    0.348    0.276   64.125
  526.000    5.063    0.388    0.269   92.799
  526.250    5.455    0.422    0.257  101.350
  526.500    5.769    0.450    0.245  103.195
  526.750    6.101    0.393    0.247   97.112
  527.000    6.573    0.367    0.236   84.933
  527.250    6.697    0.349    0.237   78.239
  527.500    6.951    0.330    0.245   72.158
  527.750    7.081    0.327    0.250   67.296
  528.000    7.081    0.349    0.253   64.259
  528.250    6.820    0.356    0.260   66.713
  528.500    6.329    0.348    0.271   73.438
  528.750    5.984    0.331    0.259   80.770
  529.000    5.764    0.325    0.254   83.832
  529.250    5.552    0.341    0.268   83.236
  529.500    5.449    0.347    0.282   84.472
  529.750    5.449    0.352    0.286   83.270
  530.000    5.448    0.361    0.278   85.115
  530.250    5.448    0.366    0.276   84.516
  530.500    5.655    0.374    0.281   80.261
  530.750    5.761    0.389    0.290   75.400
  531.000    5.760    0.401    0.285   74.195
  531.250    5.446    0.396    0.289   69.943
  531.500    4.960    0.420    0.298   67.516
  531.750    4.868    0.428    0.289   75.460
  532.000    4.868    0.417    0.277   84.621
  532.250    5.052    0.402    0.270   91.341
  532.500    5.343    0.399    0.268   96.845
  532.750    5.443    0.397    0.265   96.253
  533.000    5.650    0.387    0.256   97.490
  533.250    5.756    0.374    0.249   92.011
  533.500    5.755    0.389    0.254   71.905
  533.750    5.341    0.395    0.267   62.163
  534.000    4.956    0.395    0.286   57.298
  534.250    4.599    0.397    0.295   59.757
  534.500    4.514    0.380    0.297   62.213
  534.750    4.513    0.370    0.298   65.275
  535.000    4.685    0.363    0.285   68.944
  535.250    4.954    0.354    0.253   79.329
  535.500    5.438    0.344    0.234   86.049
  535.750    5.751    0.341    0.213  101.308
  536.000    6.082    0.342    0.196  106.200
  536.250    6.677    0.349    0.188   97.068
  536.500    7.608    0.353    0.199  105.620
  536.750    7.897    0.355    0.176  114.784
  537.000    7.750    0.406    0.177  119.065
  537.250    6.928    0.399    0.189  116.030
  537.500    6.429    0.416    0.189  116.656
  537.750    5.537    0.435    0.186  119.722
  538.000    5.043    0.492    0.196  122.784
  538.250    4.680    0.523    0.205  125.851
  538.500    4.508    0.521    0.211  127.080
  538.750    4.342    0.503    0.206  122.827
  539.000    4.261    0.486    0.197  119.793
  539.250    4.341    0.470    0.189  116.150
  539.500    4.423    0.476    0.190  110.678
  539.750    4.591    0.486    0.185  108.861
  540.000    4.855    0.466    0.163   93.024
  540.250    5.039    0.430    0.147   85.721
  540.500    5.134    0.335    0.146   89.394
  540.750    4.945    0.315    0.245   93.067
  541.000    4.589    0.328    0.258   97.964
  541.250    4.026    0.327    0.262  102.854
  541.500    3.667    0.328    0.268  113.846
  541.750    3.403    0.342    0.274  129.107
  542.000    3.340    0.348    0.280  137.050
  542.250    3.217    0.356    0.282  137.060
  542.500    3.157    0.359    0.280  132.806
  542.750    3.041    0.364    0.282  129.775
  543.000    2.985    0.369    0.285  118.813
  543.250    2.929    0.372    0.288  116.388
  543.500    2.929    0.374    0.288  112.743
  543.750    2.875    0.371    0.284  108.491
  544.000    2.875    0.375    0.278  115.825
  544.250    2.874    0.369    0.279  129.861
  544.500    2.874    0.353    0.275  146.951
  544.750    2.874    0.349    0.268  154.893
  545.000    2.928    0.347    0.256  154.907
  545.250    2.928    0.347    0.257  143.948
  545.500    2.927    0.365    0.264  135.425
  545.750    2.927    0.372    0.265  128.731
  546.000    2.927    0.383    0.274  137.285
  546.250    2.927    0.366    0.280  147.055
  546.500    2.981    0.347    0.271  154.387
  546.750    2.981    0.337    0.276  158.061
  547.000    3.037    0.345    0.273  153.197
  547.250    3.037    0.355    0.276  141.626
  547.500    3.037    0.360    0.283  135.545
  547.750    2.980    0.352    0.287  127.023
  548.000    2.766    0.355    0.292  109.353
  548.250    2.664    0.374    0.306  109.978
  548.500    2.519    0.369    0.317  120.969
  548.750    2.472    0.366    0.309  132.570
  549.000    2.472    0.378    0.294  147.220
  549.250    2.471    0.374    0.282  155.161
  549.500    2.565    0.369    0.266  160.053
  549.750    2.663    0.367    0.253  152.752
  550.000    2.764    0.362    0.248  137.521
  550.250    3.034    0.352    0.247  102.779
  550.500    3.208    0.345    0.238  100.360
  550.750    3.522    0.350    0.218  108.307
  551.000    4.013    0.361    0.198  111.363
  551.250    4.573    0.376    0.193  113.818
  551.500    5.211    0.397    0.209  112.612
  551.750    5.409    0.413    0.222  110.186
  552.000    4.658    0.417    0.233  107.154
  552.250    3.938    0.394    0.245  105.337
  552.500    3.520    0.391    0.257  107.796
  552.750    3.147    0.389    0.274  109.640
  553.000    2.813    0.387    0.288  110.261
  553.250    2.710    0.382    0.303  106.618
  553.500    2.709    0.382    0.302   95.657
  553.750    2.865    0.381    0.296   77.378
  554.000    3.389    0.376    0.261   84.101
  554.250    4.240    0.365    0.206  113.993
  554.500    5.404    0.347    0.184  118.279
  554.750    6.158    0.348    0.190  115.250
  555.000    6.760    0.375    0.194  112.822
  555.250    7.149    0.390    0.195  109.182
  555.500    7.560    0.393    0.204  106.755
  555.750    7.560    0.401    0.185  104.329
  556.000    7.702    0.388    0.172  103.732
  556.250    7.700    0.377    0.174  104.966
  556.500    7.700    0.397    0.193  107.422
  556.750    7.557    0.402    0.199  109.875
  557.000    7.556    0.390    0.206  109.282
  557.250    7.416    0.377    0.190  108.685
  557.500    7.278    0.441    0.194  115.414
  557.750    7.143    0.466    0.180  118.471
  558.000    6.753    0.472    0.175  123.366
  558.250    6.506    0.462    0.175  120.945
  558.500    6.037    0.446    0.179  119.126
  558.750    5.815    0.444    0.188  116.705
  559.000    5.707    0.472    0.186  114.280
  559.250    5.601    0.483    0.181  112.463
  559.500    5.601    0.490    0.183  114.307
  559.750    5.600    0.488    0.193  117.375
  560.000    5.705    0.473    0.209  117.994
  560.250    5.922    0.458    0.207  112.525
  560.500    6.033    0.445    0.199  108.268
  560.750    6.146    0.428    0.193  102.188
  561.000    6.145    0.430    0.187   97.933
  561.250    6.145    0.427    0.182   94.290
  561.500    6.144    0.425    0.191   93.693
  561.750    6.030    0.431    0.197   97.373
  562.000    5.918    0.432    0.205   99.215
  562.250    5.701    0.417    0.216   98.010
  562.500    5.492    0.414    0.220   95.582
  562.750    5.290    0.403    0.229   91.938
  563.000    5.191    0.386    0.232   96.227
  563.250    5.191    0.369    0.211  101.119
  563.500    5.388    0.393    0.195  106.007
  563.750    5.698    0.414    0.180  112.120
  564.000    6.026    0.434    0.175  115.184
  564.250    6.254    0.458    0.175  115.201
  564.500    6.372    0.449    0.169  114.605
  564.750    6.491    0.403    0.163  114.623
  565.000    6.613    0.395    0.166  115.246
  565.250    6.613    0.415    0.176  117.699
  565.500    6.612    0.427    0.173  120.152
  565.750    6.736    0.423    0.182  120.778
  566.000    6.735    0.406    0.190  118.961
  566.250    6.735    0.419    0.185  115.929
  566.500    6.861    0.423    0.187  114.723
  566.750    6.861    0.418    0.195  117.786
  567.000    6.860    0.420    0.189  117.198
  567.250    6.860    0.422    0.178  116.597
