~VERSION INFORMATION
 VERS.                 2.0:   CWLS LOG ASCII STANDARD -VERSION 2.0
 WRAP.                  NO:   ONE LINE PER DEPTH STEP
~WELL INFORMATION BLOCK
#MNEM.UNIT           DATA                    DESCRIPTION OF MNEMONIC
#---------    -------------------            -------------------------------
# Generated from Intellog Unique Number	CS_67_68/WELL/641
WELL.         AEC FISH CREEK                 : Well_name    - WELL
LOC .         00/05-29-068-07W4/0            : Location     - LOCATION
UWI .         00/05-29-068-07W4/0            : Uwi          - UNIQUE WELL ID
ENTR.         SP                             : Entered      - ENTERED BY
SRVC.         SCHLUMBERGER                   : Scn          - SERVICE COMPANY
STRT.M        290                            : top_depth    - START DEPTH
STOP.M        530                            : bot_depth    - STOP DEPTH
STEP.M        0.25                           : increment    - STEP LENGTH
 NULL. -999.2500:NULL Value
~CURVE INFORMATION BLOCK
#MNEM UNIT       ERCB CURVE CODE    CURVE DESCRIPTION
#-----------   ------------------   ----------------------------------
DEPT.M        00 001 00 00         : DEPTH        - DEPTH
ILD .OHMM     00 120 00 00         : RESD         - DEEP RESISTIVITY (DIL)
DPHI.V/V      00 890 00 00         : PHID         - DENSITY POROSITY (LIMESTONE)
NPHI.V/V      00 330 00 00         : PHIN         - NEUTRON POROSITY (LIMESTONE)
GR  .API      00 310 00 00         : GR           - GAMMA RAY
~PARAMETER INFORMATION
#MNEM.UNIT           DATA             DESCRIPTION OF MNEMONIC
#---------         -----------     ------------------------------
GL  .M        628.32               : gl           - GROUND LEVEL ELEVATION
EREF.M        631.9                : kb           - ELEVATION OF DEPTH REFERENCE
DATM.M        628.32               : datum        - DATUM ELEVATION
TDD .M        539                  : tdd          - TOTAL DEPTH DRILLER
RUN .         ONE                  : Run          - RUN NUMBER
ENG .         BILL                 : Engineer     - RECORDING ENGINEER
WIT .         JIM                  : Witness      - WITNESSED BY
MUD .         GEL                  : Mud_type     - MUD TYPE
MATR.         LIMESTONE            : Logunit      - NEUTRON MATRIX
TMAX.C        23                   : BHT          - MAXIMUM RECORDED TEMPERATURE
BHTD.M        539                  : BHTDEP       - MAXIMUM RECORDED TEMPERATURE
MATR.         1                    : LOGUNIT      - NEUTRON MATRIX
RMT .C        25                   : MDTP         - TEMPERATURE OF MUD
NEUT.         1                    : NEUTRON      - NEUTRON TYPE
RESI.         0                    : RESIST       - RESISTIVITY TYPE
RMC .OHMM     0.25                 : RMC          - RESISTIVITY OF MUD CAKE
RMF .OHMM     0.25                 : RMF          - RESISTIVITY OF MUD FILTRATE
SUFT.C        15                   : SUFT         - SURFACE TEMPERATURE
~A  DEPTH     RESD     PHID     PHIN       GR
# ...
  377.000    2.554    0.335    0.479   83.130
  377.250    2.781    0.326    0.456   76.616
  377.500    3.175    0.329    0.438   79.716
  377.750    3.556    0.311    0.424   85.218
  378.000    3.837    0.293    0.412   94.542
  378.250    3.846    0.276    0.445  102.634
  378.500    3.813    0.273    0.465  108.814
  378.750    3.866    0.288    0.478   92.194
  379.000    3.972    0.312    0.484   82.415
  379.250    4.088    0.331    0.461   77.499
  379.500    4.248    0.340    0.443   75.484
  379.750    4.355    0.335    0.460   75.995
  380.000    4.500    0.335    0.455   78.480
  380.250    4.545    0.341    0.465   80.962
  380.500    4.481    0.349    0.456   81.596
  380.750    4.376    0.343    0.438   76.807
  381.000    4.305    0.340    0.428   75.654
  381.250    4.299    0.342    0.434   81.407
  381.500    4.334    0.342    0.453   85.490
  381.750    4.452    0.332    0.452   89.884
  382.000    4.643    0.319    0.440   92.121
  382.250    5.010    0.306    0.430   91.459
  382.500    5.592    0.293    0.422   88.644
  382.750    5.843    0.285    0.429   82.872
  383.000    6.013    0.287    0.437   80.112
  383.250    6.096    0.299    0.427   80.131
  383.500    6.055    0.305    0.424   83.292
  383.750    5.958    0.307    0.442   89.042
  384.000    5.938    0.312    0.453   93.434
  384.250    5.909    0.320    0.464   92.467
  384.500    5.890    0.325    0.449   91.499
  384.750    6.074    0.323    0.436   94.907
  385.000    6.504    0.319    0.431   98.129
  385.250    7.341    0.287    0.412   97.962
  385.500    8.349    0.025    0.366   82.450
  385.750    9.213    0.010    0.129   73.224
  386.000   10.090    0.000    0.129   65.662
  386.250   11.218    0.046    0.195   57.359
  386.500    9.767    0.126    0.319   60.399
  386.750    7.798    0.253    0.407   70.029
  387.000    6.674    0.289    0.450   79.477
  387.250    5.909    0.299    0.453   87.321
  387.500    5.351    0.307    0.447   92.332
  387.750    5.042    0.321    0.442   96.910
  388.000    5.007    0.332    0.438   99.825
  388.250    5.067    0.319    0.434  101.630
  388.500    5.042    0.305    0.437  106.270
  388.750    4.998    0.311    0.456  109.554
  389.000    4.983    0.326    0.462   99.774
  389.250    4.985    0.337    0.462   94.863
  389.500    5.007    0.325    0.464   98.888
  389.750    5.068    0.300    0.458  102.663
  390.000    5.148    0.285    0.447  103.051
  390.250    5.259    0.272    0.456  104.116
  390.500    5.352    0.283    0.468  106.290
  390.750    5.436    0.294    0.478  107.420
  391.000    5.441    0.304    0.491  106.758
  391.250    5.423    0.299    0.468  104.866
  391.500    5.406    0.291    0.449  103.344
  391.750    5.409    0.286    0.444  103.611
  392.000    5.392    0.282    0.454  104.491
  392.250    5.397    0.273    0.451  105.926
  392.500    5.430    0.263    0.442  107.238
  392.750    5.474    0.255    0.436  107.872
  393.000    5.499    0.264    0.436  108.693
  393.250    5.504    0.259    0.445  109.202
  393.500    5.506    0.251    0.456  109.651
  393.750    5.510    0.246    0.462  111.767
  394.000    5.481    0.252    0.465  112.399
  394.250    5.413    0.263    0.437  111.800
  394.500    5.367    0.265    0.425  113.792
  394.750    5.340    0.259    0.438  112.083
  395.000    5.332    0.254    0.451  106.246
  395.250    5.356    0.250    0.436  109.592
  395.500    5.359    0.248    0.428  114.050
  395.750    5.343    0.245    0.432  116.654
  396.000    5.286    0.241    0.448  118.028
  396.250    5.250    0.238    0.459  117.616
  396.500    5.243    0.238    0.467  118.002
  396.750    5.226    0.242    0.470  119.253
  397.000    5.231    0.242    0.454  119.456
  397.250    5.253    0.246    0.442  118.552
  397.500    5.286    0.249    0.431  115.240
  397.750    5.339    0.238    0.422  109.529
  398.000    5.384    0.231    0.415  107.387
  398.250    5.407    0.229    0.432  109.625
  398.500    5.441    0.224    0.441  112.911
  398.750    5.434    0.219    0.450  113.975
  399.000    5.347    0.227    0.456  114.238
  399.250    5.191    0.239    0.462  117.339
  399.500    4.956    0.250    0.470  119.822
  399.750    4.775    0.267    0.462  122.120
  400.000    4.585    0.279    0.453  123.123
  400.250    4.460    0.271    0.451  121.726
  400.500    4.218    0.265    0.454  121.804
  400.750    3.892    0.294    0.455  121.761
  401.000    3.599    0.307    0.455  119.189
  401.250    3.416    0.317    0.457  116.558
  401.500    3.267    0.327    0.471  115.097
  401.750    3.178    0.334    0.479  112.836
  402.000    3.139    0.339    0.462  110.080
  402.250    3.147    0.341    0.452  107.017
  402.500    3.125    0.344    0.451  105.742
  402.750    3.092    0.328    0.458  105.449
  403.000    3.025    0.313    0.469  108.610
  403.250    2.976    0.298    0.462  113.436
  403.500    2.939    0.324    0.442  115.672
  403.750    2.935    0.351    0.441  110.022
  404.000    3.021    0.369    0.456  110.225
  404.250    3.163    0.315    0.445  113.509
  404.500    3.399    0.293    0.438  116.607
  404.750    3.606    0.285    0.455  110.710
  405.000    3.761    0.292    0.468  107.709
  405.250    3.893    0.294    0.452  109.514
  405.500    3.925    0.286    0.445  111.627
  405.750    4.118    0.279    0.450  113.862
  406.000    3.900    0.273    0.457  107.041
  406.250    3.845    0.295    0.463   97.815
  406.500    3.825    0.322    0.477   93.025
  406.750    3.827    0.338    0.488   92.796
  407.000    3.859    0.343    0.486   96.019
  407.250    3.861    0.346    0.478   90.860
  407.500    3.871    0.346    0.475   86.688
  407.750    3.919    0.346    0.477   87.385
  408.000    3.920    0.345    0.471   89.993
  408.250    3.930    0.345    0.465   90.501
  408.500    3.874    0.344    0.461   86.515
  408.750    3.876    0.342    0.477   84.559
  409.000    3.857    0.339    0.491   83.591
  409.250    3.852    0.332    0.492   86.138
  409.500    3.854    0.326    0.487   92.936
  409.750    3.864    0.321    0.480   97.080
  410.000    3.918    0.318    0.473   94.942
  410.250    4.048    0.316    0.465   94.161
  410.500    4.237    0.321    0.456   92.516
  410.750    4.512    0.325    0.477   90.189
  411.000    4.933    0.317    0.463   87.433
  411.250    5.352    0.294    0.165   85.727
  411.500    6.121    0.263    0.147   89.504
  411.750    6.960    0.202    0.141   85.147
  412.000    8.142    0.103    0.136   76.290
  412.250   10.058   -0.002    0.137   70.761
  412.500   11.396   -0.009    0.142   65.910
  412.750   11.952   -0.011    0.141   62.170
  413.000   11.715   -0.011    0.133   62.926
  413.250   10.669   -0.007    0.130   66.149
  413.500    9.591   -0.002    0.206   58.896
  413.750    8.508    0.008    0.272   56.880
  414.000    7.575    0.129    0.385   68.053
  414.250    6.595    0.226    0.435   79.596
  414.500    5.806    0.266    0.454   88.673
  414.750    5.160    0.289    0.448   94.915
  415.000    4.682    0.305    0.439   97.768
  415.250    4.346    0.315    0.433   97.910
  415.500    4.133    0.311    0.429   99.164
  415.750    4.066    0.307    0.447  100.225
  416.000    4.092    0.302    0.459  101.976
  416.250    4.253    0.298    0.458  102.788
  416.500    4.295    0.292    0.452  101.203
  416.750    4.346    0.282    0.452   99.989
  417.000    4.390    0.271    0.454  102.041
  417.250    4.425    0.263    0.453  104.155
  417.500    4.445    0.256    0.449  106.146
  417.750    4.473    0.252    0.444  107.950
  418.000    4.484    0.248    0.440  109.262
  418.250    4.487    0.243    0.445  103.859
  418.500    4.473    0.248    0.445  105.725
  418.750    4.426    0.248    0.441  111.104
  419.000    4.404    0.243    0.439  115.682
  419.250    4.373    0.238    0.447  115.824
  419.500    4.352    0.239    0.465  117.815
  419.750    4.355    0.250    0.478  120.792
  420.000    4.357    0.255    0.470  123.827
  420.250    4.352    0.250    0.462  121.630
