~VERSION INFORMATION
 VERS.                 2.0:   CWLS LOG ASCII STANDARD -VERSION 2.0
 WRAP.                  NO:   ONE LINE PER DEPTH STEP
~WELL INFORMATION BLOCK
#MNEM.UNIT           DATA                    DESCRIPTION OF MNEMONIC
#---------    -------------------            -------------------------------
# Generated from Intellog Unique Number	CS_77_79/WELL/3271
WELL.         ALLIED ROXANA MINERALS LTD.    : Well_name    - WELL
LOC .         00/05-33-079-17W4/0            : Location     - LOCATION
UWI .         00/05-33-079-17W4/0            : Uwi          - UNIQUE WELL ID
ENTR.         JOETTE                         : Entered      - ENTERED BY
SRVC.         SCHLUMBERGER                   : Scn          - SERVICE COMPANY
DATE.         08/24/92                       : Date         - LOG DATE
STRT.M        198.12                         : top_depth    - START DEPTH
STOP.M        411.37                         : bot_depth    - STOP DEPTH
STEP.M        0.25                           : increment    - STEP LENGTH
 NULL. -999.2500:NULL Value
~CURVE INFORMATION BLOCK
#MNEM UNIT       ERCB CURVE CODE    CURVE DESCRIPTION
#-----------   ------------------   ----------------------------------
DEPT.M        00 001 00 00         : DEPTH        - DEPTH
ILD .OHMM     00 120 00 00         : RESD         - DEEP RESISTIVITY (DLL)
NPHI.V/V      00 330 00 00         : PHIN         - NEUTRON POROSITY (SANDSTONE)
GR  .API      00 310 00 00         : GR           - GAMMA RAY
~PARAMETER INFORMATION
#MNEM.UNIT           DATA             DESCRIPTION OF MNEMONIC
#---------         -----------     ------------------------------
GL  .M        554.736              : gl           - GROUND LEVEL ELEVATION
EREF.M        557.784              : kb           - ELEVATION OF DEPTH REFERENCE
DATM.M        557.784              : datum        - DATUM ELEVATION
TDD .M        410.87               : tdd          - TOTAL DEPTH DRILLER
RUN .         ONE                  : Run          - RUN NUMBER
ENG .         BILL                 : Engineer     - RECORDING ENGINEER
WIT .         JIM                  : Witness      - WITNESSED BY
MUD .         GEL                  : Mud_type     - MUD TYPE
MATR.         SANDSTONE            : Logunit      - NEUTRON MATRIX
TMAX.C        5                    : BHT          - MAXIMUM RECORDED TEMPERATURE
BHTD.M        74                   : BHTDEP       - MAXIMUM RECORDED TEMPERATURE
RMT .C        1348                 : MDTP         - TEMPERATURE OF MUD
MUDD.KG/M     58                   : MWT          - MUD DENSITY
NEUT.         9.8                  : NEUTRON      - NEUTRON TYPE
RESI.         1                    : RESIST       - RESISTIVITY TYPE
RM  .OHMM     0                    : RM           - RESISTIVITY OF MUD
RMC .OHMM     4.22                 : RMC          - RESISTIVITY OF MUD CAKE
RMF .OHMM     4.22                 : RMF          - RESISTIVITY OF MUD FILTRATE
SUFT.C        4.22                 : SUFT         - SURFACE TEMPERATURE
SUFT.C        15                   : SUFT         - SURFACE TEMPERATURE
~A  DEPTH     RESD     PHIN       GR
# ...
  360.870   26.868    0.427   67.496
  361.120   33.022    0.475   64.539
  361.370   47.724    0.461   56.313
  361.620   54.471    0.438   45.154
  361.870   61.815    0.424   42.197
  362.120   65.781    0.411   40.995
  362.370   67.559    0.405   41.549
  362.620   67.342    0.427   43.844
  362.870   66.336    0.449   44.413
  363.120   64.935    0.438   47.886
  363.370   63.333    0.422   50.790
  363.620   60.932    0.424   56.026
  363.870   57.537    0.441   60.077
  364.120   56.534    0.451   62.371
  364.370   52.540    0.467   63.519
  364.620   48.754    0.464   64.088
  364.870   47.151    0.461   65.813
  365.120   41.570    0.440   68.123
  365.370   37.582    0.434   72.181
  365.620   32.597    0.420   76.248
  365.870   28.807    0.417   78.558
  366.120   26.009    0.416   80.267
  366.370   23.015    0.406   81.414
  366.620   21.015    0.397   82.569
  366.870   17.021    0.394   87.221
  367.120   15.819    0.399   91.872
  367.370   14.614    0.407   92.418
  367.620   14.006    0.413   96.484
  367.870   13.195    0.406   94.112
  368.120   12.186    0.376   91.740
  368.370   11.382    0.374   93.465
  368.620   10.177    0.379   96.930
  368.870    8.373    0.396   96.907
  369.120    7.566    0.411   96.883
  369.370    7.355    0.427   98.007
  369.620    7.340    0.439   99.740
  369.870    7.725    0.456  102.635
  370.120    7.915    0.461  107.279
  370.370    7.915    0.421  111.353
  370.620    8.876    0.400  108.980
  370.870    8.873    0.403  103.096
  371.120    9.448    0.407   99.546
  371.370    9.641    0.412  101.856
  371.620    9.824    0.403  104.166
  371.870   10.011    0.384  104.713
  372.120    9.999    0.387  103.511
  372.370    9.990    0.418  100.561
  372.620    9.978    0.430   98.189
  372.870    9.767    0.402  101.076
  373.120    9.354    0.396  103.964
  373.370    9.535    0.395  103.949
  373.620    9.725    0.396   99.813
  373.870    9.914    0.386   94.506
  374.120   10.101    0.378   91.556
  374.370   10.288    0.383   88.599
  374.620   10.475    0.389   88.568
  374.870   10.661    0.397   93.211
  375.120   10.646    0.397   92.010
  375.370   10.035    0.391   91.385
  375.620    9.026    0.385   94.281
  375.870    8.619    0.396   94.250
  376.120    8.411    0.403   93.056
  376.370    8.194    0.416   91.854
  376.620    8.185    0.394   94.164
  376.870    9.158    0.405   99.986
  377.120    9.552    0.456  104.630
  377.370   10.534    0.468  103.428
  377.620   12.908    0.509   99.885
  377.870   16.872    0.553   85.222
  378.120   21.435    0.556   65.868
  378.370   28.182    0.411   52.375
  378.620   26.182    0.383   44.135
  378.870   23.983    0.372   45.867
  379.120   23.372    0.365   52.860
  379.370   24.354    0.382   61.608
  379.620   26.329    0.398   59.821
  379.870   29.896    0.375   40.467
  380.120   33.860    0.350   33.413
  380.370   39.613    0.341   32.789
  380.620   31.450    0.374   36.862
  380.870   26.468    0.419   49.708
  381.120   18.103    0.454   56.115
  381.370   11.528    0.516   75.984
  381.620   10.317    0.588   81.814
  381.870   10.109    0.524   75.914
  382.120    9.901    0.430   71.201
  382.370    9.883    0.397   71.755
  382.620    9.874    0.398   73.488
  382.870    9.874    0.416   68.774
  383.120   10.238    0.474   55.266
  383.370   10.238    0.479   62.851
  383.620   10.810    0.434   71.600
  383.870   11.600    0.402   70.398
  384.120   12.184    0.373   67.425
  384.370   12.374    0.361   65.646
  384.620   12.557    0.361   65.029
  384.870   12.350    0.357   64.413
  385.120   11.142    0.373   62.626
  385.370    9.937    0.401   72.545
  385.620    8.729    0.426   76.611
  385.870    7.922    0.454   76.580
  386.120    7.509    0.476   81.817
  386.370    7.693    0.515   84.712
  386.620    7.687    0.515   78.828
  386.870    8.072    0.382   55.963
  387.120    8.653    0.399   57.688
  387.370    9.036    0.404   64.680
  387.620    8.825    0.396   68.153
  387.870    8.620    0.425   71.048
  388.120    9.006    0.497   72.773
  388.370   10.584    0.468   69.238
  388.620   13.753    0.451   55.737
  388.870   19.704    0.306   41.066
  389.120   36.792    0.261   37.531
  389.370   35.786    0.237   32.810
  389.620   33.982    0.216   35.705
  389.870   30.192    0.248   39.186
  390.120   25.210    0.277   45.008
  390.370   22.807    0.308   48.481
  390.620   24.786    0.346   46.702
  390.870   37.699    0.335   36.135
  391.120   48.623    0.285   27.317
  391.370   53.383    0.212   22.018
  391.620   51.581    0.188   19.061
  391.870   49.184    0.261   17.851
  392.120   47.379    0.275   17.828
  392.370   47.566    0.291   17.204
  392.620   48.747    0.284   17.173
  392.870   50.126    0.273   17.134
  393.120   52.500    0.251   17.103
  393.370   55.470    0.234   17.079
  393.620   55.855    0.213   17.041
  393.870   56.241    0.219   17.002
  394.120   55.033    0.216   16.986
  394.370   54.030    0.210   17.525
  394.620   52.225    0.210   17.502
  394.870   50.424    0.218   18.048
  395.120   49.020    0.214   18.025
  395.370   47.816    0.213   17.986
  395.620   46.809    0.210   17.947
  395.870   45.400    0.202   17.932
  396.120   44.794    0.202   17.893
  396.370   43.788    0.211   17.862
  396.620   42.186    0.234   17.823
  396.870   38.990    0.250   17.784
  397.120   34.008    0.253   17.769
  397.370   28.227    0.278   17.730
  397.620   26.029    0.309   17.706
  397.870   24.824    0.315   17.660
  398.120   24.806    0.304   17.644
  398.370   25.986    0.302   17.605
  398.620   29.360    0.301   17.575
  398.870   30.935    0.295   18.121
  399.120   34.306    0.283   18.090
  399.370   36.083    0.258   18.051
  399.620   39.649    0.246   18.035
  399.870   50.773    0.256   18.590
  400.120   53.941    0.249   19.136
  400.370   54.128    0.221   19.683
  400.620   49.339    0.211   20.245
  400.870   44.758    0.188   22.547
  401.120   42.357    0.181   24.280
  401.370   39.164    0.185   28.931
  401.620   34.576    0.187   33.582
  401.870   30.787    0.177   39.989
  402.120   27.992    0.152   46.982
  402.370   24.796    0.156   54.560
  402.620   22.001    0.187   75.599
  402.870   19.004    0.220   86.689
  403.120   14.220    0.206   88.414
  403.370   11.021    0.199   95.992
  403.620   10.416    0.229  104.748
  403.870   10.205    0.302  107.643
  404.120   10.787    0.261  102.337
  404.370   11.175    0.268  102.306
  404.620   12.555    0.295  107.542
  404.870   13.735    0.294  102.244
  405.120   15.910    0.175   74.696
  405.370   24.052    0.092   28.411
  405.620   49.489    0.088   32.477
  405.870   49.079    0.103   34.787
  406.120   48.865    0.123   35.349
  406.370   49.052    0.142   34.139
  406.620   52.025    0.151   30.011
  406.870   57.579    0.161   27.054
  407.120   56.772    0.153   21.755
  407.370   55.166    0.144   16.456
  407.620   54.561    0.135    9.971
  407.870   53.350    0.121    7.599
  408.120   49.958    0.105    4.641
  408.370   49.353    0.101    2.847
  408.620   47.548    0.111    2.246
  408.870   45.148    0.119    2.199
  409.120   43.548    0.125    2.160
  409.370   39.958    0.135    2.145
  409.620   62.013    0.127    2.145
  409.870   62.000    0.121    2.059
  410.120   61.991    0.109   14.928
  410.370   62.172    0.108   22.498
  410.620   57.392    0.120   22.467
  410.870   57.377    0.131   21.266
  411.120   57.166    0.138   20.649
  411.370   57.154    0.138   20.610
