~VERSION INFORMATION
 VERS.                 2.0:   CWLS LOG ASCII STANDARD -VERSION 2.0
 WRAP.                  NO:   ONE LINE PER DEPTH STEP
~WELL INFORMATION BLOCK
#MNEM.UNIT           DATA                    DESCRIPTION OF MNEMONIC
#---------    -------------------            -------------------------------
# Generated from Intellog Unique Number	CS_69_70/WELL/689
WELL.         AEC PRIMROSE                   : Well_name    - WELL
LOC .         00/05-04-069-04W4/0            : Location     - LOCATION
UWI .         00/05-04-069-04W4/0            : Uwi          - UNIQUE WELL ID
ENTR.         SP                             : Entered      - ENTERED BY
SRVC.         SCHLUMBERGER                   : Scn          - SERVICE COMPANY
STRT.M        350                            : top_depth    - START DEPTH
STOP.M        615                            : bot_depth    - STOP DEPTH
STEP.M        0.25                           : increment    - STEP LENGTH
 NULL. -999.2500:NULL Value
~CURVE INFORMATION BLOCK
#MNEM UNIT       ERCB CURVE CODE    CURVE DESCRIPTION
#-----------   ------------------   ----------------------------------
DEPT.M        00 001 00 00         : DEPTH        - DEPTH
ILD .OHMM     00 120 00 00         : RESD         - DEEP RESISTIVITY (DIL)
DPHI.V/V      00 890 00 00         : PHID         - DENSITY POROSITY (LIMESTONE)
NPHI.V/V      00 330 00 00         : PHIN         - NEUTRON POROSITY (LIMESTONE)
GR  .API      00 310 00 00         : GR           - GAMMA RAY
~PARAMETER INFORMATION
#MNEM.UNIT           DATA             DESCRIPTION OF MNEMONIC
#---------         -----------     ------------------------------
GL  .M        724.4                : gl           - GROUND LEVEL ELEVATION
EREF.M        728.1                : kb           - ELEVATION OF DEPTH REFERENCE
DATM.M        724.4                : datum        - DATUM ELEVATION
TDD .M        625                  : tdd          - TOTAL DEPTH DRILLER
RUN .         ONE                  : Run          - RUN NUMBER
ENG .         BILL                 : Engineer     - RECORDING ENGINEER
WIT .         JIM                  : Witness      - WITNESSED BY
MUD .         GEL                  : Mud_type     - MUD TYPE
MATR.         LIMESTONE            : Logunit      - NEUTRON MATRIX
TMAX.C        23                   : BHT          - MAXIMUM RECORDED TEMPERATURE
BHTD.M        625                  : BHTDEP       - MAXIMUM RECORDED TEMPERATURE
MATR.         1                    : LOGUNIT      - NEUTRON MATRIX
RMT .C        25                   : MDTP         - TEMPERATURE OF MUD
NEUT.         1                    : NEUTRON      - NEUTRON TYPE
RESI.         0                    : RESIST       - RESISTIVITY TYPE
RMC .OHMM     0.25                 : RMC          - RESISTIVITY OF MUD CAKE
RMF .OHMM     0.25                 : RMF          - RESISTIVITY OF MUD FILTRATE
SUFT.C        15                   : SUFT         - SURFACE TEMPERATURE
~A  DEPTH     RESD     PHID     PHIN       GR
# ...
  567.500    8.258    0.174    0.395   98.782
  567.750    8.398    0.174    0.407   91.657
  568.000    9.036    0.162    0.417   84.105
  568.250    9.870    0.134    0.264   74.908
  568.500   11.173    0.074    0.233   66.259
  568.750   12.389    0.027    0.220   63.340
  569.000   13.058    0.007    0.217   60.177
  569.250   13.378   -0.005    0.205   55.063
  569.500   13.326   -0.004    0.235   50.315
  569.750   11.612    0.013    0.294   55.991
  570.000    9.141    0.214    0.332   60.447
  570.250    8.117    0.232    0.369   63.318
  570.500    7.598    0.261    0.406   66.311
  570.750    7.274    0.269    0.429   65.647
  571.000    7.151    0.270    0.389   70.835
  571.250    7.122    0.236    0.358   85.836
  571.500    7.121    0.184    0.378   91.815
  571.750    7.477    0.180    0.387   96.576
  572.000    7.984    0.175    0.392  100.483
  572.250    8.258    0.168    0.385   99.088
  572.500    8.413    0.165    0.379   97.753
  572.750    8.411    0.168    0.369   97.029
  573.000    8.362    0.178    0.361   97.950
  573.250    8.408    0.174    0.357   98.687
  573.500    8.550    0.161    0.379   99.425
  573.750    8.484    0.149    0.397   98.639
  574.000    8.434    0.152    0.417   97.731
  574.250    8.496    0.179    0.412   94.507
  574.500    8.607    0.182    0.378   91.344
  574.750    8.719    0.180    0.357   88.547
  575.000    9.110    0.167    0.342   83.379
  575.250    9.209    0.164    0.339   83.313
  575.500    9.308    0.165    0.339   83.124
  575.750    9.374    0.178    0.343   83.363
  576.000    9.264    0.177    0.351   88.741
  576.250    9.174    0.171    0.361   92.466
  576.500    8.949    0.172    0.366   92.705
  576.750    8.375    0.194    0.374   91.599
  577.000    8.064    0.213    0.394   85.598
  577.250    7.807    0.205    0.394   79.781
  577.500    7.701    0.231    0.393   74.147
  577.750    7.785    0.244    0.386   70.165
  578.000    7.855    0.215    0.370   78.173
  578.250    7.866    0.193    0.365   80.982
  578.500    7.759    0.186    0.366   80.792
  578.750    7.498    0.211    0.384   73.507
  579.000    7.273    0.248    0.403   65.916
  579.250    6.820    0.272    0.402   54.409
  579.500    6.359    0.286    0.388   47.124
  579.750    6.030    0.287    0.381   40.144
  580.000    5.905    0.245    0.362   35.245
  580.250    5.825    0.244    0.353   47.473
  580.500    5.833    0.249    0.359   54.381
  580.750    5.975    0.237    0.366   56.272
  581.000    6.177    0.243    0.369   56.939
  581.250    6.303    0.249    0.368   62.194
  581.500    6.480    0.229    0.361   66.593
  581.750    6.587    0.220    0.375   64.936
  582.000    6.634    0.227    0.394   55.019
  582.250    6.581    0.270    0.403   49.018
  582.500    6.529    0.307    0.388   55.007
  582.750    6.550    0.276    0.365   60.751
  583.000    6.671    0.235    0.349   65.151
  583.250    6.962    0.210    0.356   67.470
  583.500    7.172    0.203    0.366   61.286
  583.750    7.386    0.233    0.356   59.017
  584.000    7.383    0.243    0.346   56.748
  584.250    7.095    0.257    0.344   48.973
  584.500    6.230    0.290    0.368   43.156
  584.750    5.605    0.320    0.384   38.684
  585.000    5.457    0.309    0.398   37.578
  585.250    5.579    0.262    0.364   50.113
  585.500    5.834    0.211    0.349   72.252
  585.750    6.204    0.196    0.354   78.914
  586.000    6.634    0.197    0.365   76.584
  586.250    6.989    0.202    0.369   68.198
  586.500    6.920    0.222    0.387   53.082
  586.750    6.563    0.250    0.381   41.942
  587.000    5.983    0.308    0.358   34.106
  587.250    5.621    0.298    0.342   43.338
  587.500    5.381    0.267    0.384   46.207
  587.750    5.171    0.288    0.418   37.820
  588.000    4.987    0.325    0.406   33.166
  588.250    4.792    0.338    0.390   31.937
  588.500    4.657    0.338    0.387   34.684
  588.750    4.534    0.346    0.394   28.683
  589.000    4.448    0.357    0.373   24.456
  589.250    4.438    0.358    0.362   23.105
  589.500    4.444    0.356    0.357   24.261
  589.750    4.433    0.339    0.374   27.804
  590.000    4.456    0.332    0.389   29.695
  590.250    4.513    0.327    0.406   33.237
  590.500    4.571    0.326    0.416   34.944
  590.750    4.664    0.335    0.389   32.369
  591.000    4.777    0.320    0.379   29.672
  591.250    4.985    0.298    0.371   33.887
  591.500    5.232    0.280    0.380   35.656
  591.750    5.471    0.265    0.372   35.956
  592.000    5.624    0.265    0.370   30.689
  592.250    5.611    0.317    0.387   32.519
  592.500    5.587    0.331    0.376   39.364
  592.750    5.501    0.318    0.368   44.131
  593.000    5.457    0.311    0.382   40.087
  593.250    5.454    0.323    0.395   43.263
  593.500    5.493    0.305    0.385   49.373
  593.750    5.564    0.275    0.382   52.978
  594.000    5.688    0.256    0.384   56.153
  594.250    5.804    0.252    0.373   56.698
  594.500    5.900    0.270    0.378   55.040
  594.750    5.853    0.287    0.397   46.838
  595.000    5.785    0.307    0.392   47.260
  595.250    5.728    0.277    0.379   52.883
  595.500    5.661    0.248    0.363   56.608
  595.750    5.585    0.279    0.358   39.534
  596.000    5.519    0.303    0.351   34.330
  596.250    5.497    0.312    0.342   29.369
  596.500    5.525    0.300    0.350   30.586
  596.750    5.809    0.288    0.347   31.315
  597.000    5.950    0.272    0.319   34.368
  597.250    5.925    0.282    0.296   34.791
  597.500    5.812    0.320    0.324   31.481
  597.750    5.481    0.343    0.376   29.089
  598.000    5.247    0.360    0.406   27.738
  598.250    4.966    0.356    0.406   26.999
  598.500    4.827    0.348    0.387   25.768
  598.750    4.770    0.338    0.379   25.580
  599.000    4.759    0.352    0.377   31.875
  599.250    4.847    0.337    0.365   46.246
  599.500    5.030    0.258    0.347   59.882
  599.750    5.379    0.230    0.349   69.847
  600.000    5.721    0.210    0.383   76.204
  600.250    6.151    0.259    0.419   67.879
  600.500    6.289    0.293    0.415   49.398
  600.750    6.158    0.327    0.380   33.793
  601.000    5.873    0.334    0.331   24.428
  601.250    5.654    0.321    0.312   27.603
  601.500    5.587    0.303    0.300   29.432
  601.750    5.702    0.279    0.294   29.854
  602.000    5.818    0.285    0.328   30.522
  602.250    5.848    0.301    0.362   31.434
  602.500    5.705    0.300    0.395   28.553
  602.750    5.359    0.309    0.410   26.468
  603.000    5.016    0.321    0.395   24.321
  603.250    4.748    0.339    0.388   23.642
  603.500    4.494    0.360    0.388   24.125
  603.750    4.359    0.362    0.416   25.405
  604.000    4.285    0.352    0.390   25.950
  604.250    4.227    0.354    0.368   26.189
  604.500    4.240    0.359    0.363   26.061
  604.750    4.302    0.359    0.370   23.486
  605.000    4.389    0.357    0.387   21.034
  605.250    4.461    0.356    0.387   20.722
  605.500    4.702    0.343    0.374   23.469
  605.750    4.870    0.325    0.362   26.033
  606.000    5.035    0.309    0.351   27.067
  606.250    5.245    0.304    0.347   28.468
  606.500    5.526    0.321    0.353   31.950
  606.750    5.954    0.332    0.352   41.303
  607.000    6.499    0.231    0.332   54.266
  607.250    6.977    0.145    0.306   73.408
  607.500    7.503    0.121    0.324   84.414
  607.750    8.054    0.120    0.333   86.794
  608.000    8.501    0.116    0.319   83.485
  608.250    9.108    0.111    0.306   82.256
  608.500    9.686    0.129    0.314   90.385
  608.750   10.417    0.137    0.355   93.745
  609.000   11.224    0.119    0.386   91.537
  609.250   12.369    0.036    0.381   82.600
  609.500   15.780    0.002    0.213   72.378
  609.750   21.298   -0.007    0.174   63.747
  610.000   33.154   -0.010    0.133   49.549
  610.250   48.781   -0.011    0.113   31.619
  610.500   62.351   -0.011    0.120   25.925
  610.750   72.830   -0.011    0.127   27.447
