~VERSION INFORMATION
 VERS.                 2.0:   CWLS LOG ASCII STANDARD -VERSION 2.0
 WRAP.                  NO:   ONE LINE PER DEPTH STEP
~WELL INFORMATION BLOCK
#MNEM.UNIT           DATA                    DESCRIPTION OF MNEMONIC
#---------    -------------------            -------------------------------
# Generated from Intellog Unique Number	CS_73_76/WELL/2158
WELL.         PEX KIRBY                      : Well_name    - WELL
LOC .         00/07-13-075-07W4/0            : Location     - LOCATION
UWI .         00/07-13-075-07W4/0            : Uwi          - UNIQUE WELL ID
ENTR.         SP                             : Entered      - ENTERED BY
SRVC.         SCHLUMBERGER                   : Scn          - SERVICE COMPANY
STRT.M        245                            : top_depth    - START DEPTH
STOP.M        475                            : bot_depth    - STOP DEPTH
STEP.M        0.25                           : increment    - STEP LENGTH
 NULL. -999.2500:NULL Value
~CURVE INFORMATION BLOCK
#MNEM UNIT       ERCB CURVE CODE    CURVE DESCRIPTION
#-----------   ------------------   ----------------------------------
DEPT.M        00 001 00 00         : DEPTH        - DEPTH
ILD .OHMM     00 120 00 00         : RESD         - DEEP RESISTIVITY (DIL)
DPHI.V/V      00 890 00 00         : PHID         - DENSITY POROSITY (LIMESTONE)
NPHI.V/V      00 330 00 00         : PHIN         - NEUTRON POROSITY (LIMESTONE)
GR  .API      00 310 00 00         : GR           - GAMMA RAY
~PARAMETER INFORMATION
#MNEM.UNIT           DATA             DESCRIPTION OF MNEMONIC
#---------         -----------     ------------------------------
GL  .M        642.12               : gl           - GROUND LEVEL ELEVATION
EREF.M        645.4                : kb           - ELEVATION OF DEPTH REFERENCE
DATM.M        642.12               : datum        - DATUM ELEVATION
TDD .M        480                  : tdd          - TOTAL DEPTH DRILLER
RUN .         ONE                  : Run          - RUN NUMBER
ENG .         BILL                 : Engineer     - RECORDING ENGINEER
WIT .         JIM                  : Witness      - WITNESSED BY
MUD .         GEL                  : Mud_type     - MUD TYPE
MATR.         LIMESTONE            : Logunit      - NEUTRON MATRIX
TMAX.C        21                   : BHT          - MAXIMUM RECORDED TEMPERATURE
BHTD.M        480                  : BHTDEP       - MAXIMUM RECORDED TEMPERATURE
MATR.         1                    : LOGUNIT      - NEUTRON MATRIX
RMT .C        25                   : MDTP         - TEMPERATURE OF MUD
NEUT.         1                    : NEUTRON      - NEUTRON TYPE
RESI.         0                    : RESIST       - RESISTIVITY TYPE
RMC .OHMM     0.25                 : RMC          - RESISTIVITY OF MUD CAKE
RMF .OHMM     0.25                 : RMF          - RESISTIVITY OF MUD FILTRATE
SUFT.C        15                   : SUFT         - SURFACE TEMPERATURE
~A  DEPTH     RESD     PHID     PHIN       GR
# ...
  419.000   14.089    0.189    0.338   96.509
  419.250   12.346    0.199    0.350  106.312
  419.500   12.344    0.212    0.353  103.258
  419.750   13.306    0.229    0.338   95.916
  420.000   14.617    0.243    0.333   82.454
  420.250   15.758    0.218    0.305   71.441
  420.500   19.019    0.204    0.277   66.548
  420.750   20.122    0.201    0.266   71.454
  421.000   20.500    0.210    0.299   69.013
  421.250   19.006    0.222    0.317   67.181
  421.500   18.300    0.233    0.326   71.474
  421.750   17.957    0.213    0.320   74.542
  422.000   16.966    0.190    0.333   75.160
  422.250   16.334    0.173    0.331   76.391
  422.500   16.332    0.186    0.331   77.623
  422.750   16.640    0.226    0.350   78.243
  423.000   18.278    0.256    0.344   71.513
  423.250   18.978    0.240    0.336   64.786
  423.500   20.077    0.224    0.323   67.242
  423.750   19.331    0.227    0.326   69.697
  424.000   16.939    0.210    0.328   72.766
  424.250   15.126    0.147    0.331   78.282
  424.500   13.006    0.137    0.334   88.698
  424.750   11.835    0.161    0.339   92.989
  425.000   11.396    0.180    0.338   95.445
  425.250   10.369    0.163    0.340   97.902
  425.500    9.984    0.149    0.355  100.356
  425.750    9.982    0.154    0.342   99.139
  426.000    9.979    0.146    0.332   96.696
  426.250    9.978    0.169    0.344   94.866
  426.500    9.976    0.182    0.362   97.322
  426.750   10.163    0.212    0.372   91.206
  427.000   10.355    0.251    0.371   72.847
  427.250   10.750    0.251    0.365   64.281
  427.500   11.372    0.227    0.371   67.349
  427.750   11.807    0.241    0.366   74.703
  428.000   13.468    0.238    0.339   75.934
  428.250   16.565    0.263    0.326   66.757
  428.500   20.375    0.315    0.341   58.192
  428.750   32.620    0.299    0.354   47.178
  429.000   55.264    0.288    0.359   46.575
  429.250   95.404    0.285    0.349   48.418
  429.500  187.906    0.285    0.340   50.873
  429.750  214.338    0.288    0.352   52.104
  430.000  214.295    0.281    0.345   53.334
  430.250  177.468    0.278    0.356   53.341
  430.500  133.760    0.278    0.346   52.124
  430.750  112.886    0.268    0.352   54.580
  431.000   86.700    0.257    0.338   53.974
  431.250   70.463    0.247    0.330   56.429
  431.500   55.146    0.257    0.332   60.722
  431.750   48.326    0.273    0.339   65.016
  432.000   44.811    0.268    0.358   64.408
  432.250   47.404    0.234    0.369   58.293
  432.500   52.071    0.179    0.355   57.075
  432.750   54.063    0.307    0.351   58.306
  433.000   57.195    0.296    0.355   58.313
  433.250   58.270    0.279    0.350   58.932
  433.500   52.034    0.272    0.361   60.776
  433.750   40.722    0.267    0.347   63.843
  434.000   35.686    0.251    0.352   70.586
  434.250   28.460    0.236    0.355   75.491
  434.500   23.570    0.242    0.362   78.557
  434.750   19.892    0.245    0.360   79.788
  435.000   16.166    0.213    0.352   80.409
  435.250   13.137    0.230    0.356   82.864
  435.500   11.955    0.235    0.353   81.646
  435.750   10.279    0.215    0.347   89.002
  436.000    9.713    0.189    0.344   92.679
  436.250    9.178    0.176    0.357  100.648
  436.500    8.672    0.187    0.364  104.326
  436.750    8.194    0.188    0.366  106.781
  437.000    7.742    0.181    0.362  105.563
  437.250    7.741    0.194    0.363  108.019
  437.500    7.739    0.198    0.353  111.087
  437.750    8.034    0.200    0.343  108.645
  438.000    8.826    0.189    0.335   97.018
  438.250    9.163    0.175    0.337   88.453
  438.500   10.452    0.186    0.341   84.175
  438.750   12.149    0.203    0.348   86.631
  439.000   13.858    0.225    0.345   75.006
  439.250   14.940    0.211    0.337   68.276
  439.500   15.511    0.178    0.332   71.345
  439.750   15.217    0.160    0.325   75.026
  440.000   15.215    0.188    0.338   78.704
  440.250   14.928    0.211    0.343   66.468
  440.500   14.646    0.245    0.329   60.352
  440.750   14.100    0.239    0.324   65.259
  441.000   13.836    0.201    0.326   68.936
  441.250   13.073    0.177    0.310   74.454
  441.500   12.352    0.163    0.304   79.358
  441.750   11.893    0.163    0.302   84.262
  442.000   11.890    0.183    0.311   81.822
  442.250   12.345    0.255    0.322   76.930
  442.500   13.819    0.272    0.326   70.813
  442.750   15.762    0.243    0.330   62.862
  443.000   16.992    0.259    0.341   59.193
  443.250   17.642    0.251    0.358   56.752
  443.500   17.309    0.258    0.346   62.884
  443.750   16.354    0.246    0.344   65.950
  444.000   14.063    0.228    0.336   67.792
  444.250   13.289    0.223    0.327   68.413
  444.500   11.866    0.223    0.328   70.867
  444.750   11.212    0.228    0.320   75.159
  445.000   10.201    0.242    0.322   77.617
  445.250   10.009    0.223    0.332   80.072
  445.500    9.820    0.199    0.341   78.852
  445.750    9.818    0.168    0.347   83.146
  446.000    9.633    0.168    0.354   81.318
  446.250    9.632    0.186    0.357   81.322
  446.500    9.629    0.157    0.348   84.392
  446.750    9.448    0.132    0.350   88.070
  447.000    9.446    0.141    0.348   89.913
  447.250    9.268    0.150    0.338   86.860
  447.500    9.093    0.161    0.358   86.253
  447.750    8.921    0.178    0.353   85.036
  448.000    8.753    0.189    0.353   84.430
  448.250    8.588    0.185    0.360   90.560
  448.500    8.587    0.153    0.356   99.137
  448.750    8.424    0.152    0.363  102.818
  449.000    8.423    0.165    0.354   97.314
  449.250    8.264    0.178    0.347   96.097
  449.500    8.261    0.178    0.345   94.878
  449.750    8.106    0.159    0.356   91.211
  450.000    8.004    0.131    0.346  105.920
  450.250    8.002    0.130    0.351  111.436
  450.500    8.309    0.135    0.347  104.095
  450.750    8.466    0.139    0.340  104.101
  451.000    8.789    0.134    0.340  104.107
  451.250    8.788    0.133    0.353  104.725
  451.500    9.124    0.124    0.350  107.179
  451.750    9.123    0.059    0.354   98.615
  452.000    8.950    0.059    0.373   93.110
  452.250    8.456    0.168    0.386   98.626
  452.500    8.142    0.156    0.383  103.530
  452.750    7.692    0.141    0.383  107.821
  453.000    7.406    0.130    0.390  107.216
  453.250    7.130    0.124    0.377  108.446
  453.500    6.995    0.114    0.370  110.290
  453.750    6.863    0.125    0.367  114.581
  454.000    6.733    0.127    0.361  114.586
  454.250    6.732    0.125    0.350  124.392
  454.500    6.731    0.138    0.346  129.293
  454.750    6.858    0.143    0.350  139.707
  455.000    7.256    0.149    0.346  137.264
  455.250    7.823    0.157    0.340  116.455
  455.500    8.123    0.168    0.350  114.623
  455.750    8.595    0.165    0.352  110.343
  456.000    8.757    0.133    0.361  110.351
  456.250    8.922    0.117    0.362  109.131
  456.500    9.090    0.128    0.357  103.627
  456.750    9.089    0.128    0.352  109.144
  457.000    8.918    0.118    0.346  100.578
  457.250    8.749    0.113    0.349  104.258
  457.500    8.746    0.117    0.352  106.102
  457.750    8.912    0.106    0.343  107.943
  458.000    8.910    0.094    0.352  103.053
  458.250    8.909    0.086    0.362  106.118
  458.500    9.077    0.112    0.367  108.574
  458.750    9.076    0.121    0.355  105.522
  459.000    9.246    0.126    0.367  105.525
  459.250    9.245    0.121    0.365  104.309
  459.500    9.419    0.121    0.355  103.700
  459.750    9.417    0.107    0.344  102.481
  460.000    9.416    0.101    0.329  100.652
  460.250    9.414    0.122    0.330   98.821
  460.500    9.591    0.121    0.339   95.765
  460.750    9.590    0.126    0.332   96.385
  461.000    9.587    0.132    0.348   99.451
  461.250    9.769    0.117    0.359  101.294
  461.500    9.952    0.107    0.346   95.180
  461.750    9.951    0.118    0.350   91.510
  462.000    9.949    0.118    0.366   92.129
  462.250   10.137    0.118    0.370   95.196
