~VERSION INFORMATION
 VERS.                 2.0:   CWLS LOG ASCII STANDARD -VERSION 2.0
 WRAP.                  NO:   ONE LINE PER DEPTH STEP
~WELL INFORMATION BLOCK
#MNEM.UNIT           DATA                    DESCRIPTION OF MNEMONIC
#---------    -------------------            -------------------------------
# Generated from Intellog Unique Number	CS_67_68/WELL/701
WELL.         AMOCO CANADA PETROLEUM         : Well_name    - WELL
LOC .         00/06-27-068-18W4/0            : Location     - LOCATION
UWI .         00/06-27-068-18W4/0            : Uwi          - UNIQUE WELL ID
ENTR.         SP                             : Entered      - ENTERED BY
SRVC.         SCHLUMBERGER                   : Scn          - SERVICE COMPANY
STRT.M        274.32                         : top_depth    - START DEPTH
STOP.M        514.82                         : bot_depth    - STOP DEPTH
STEP.M        0.25                           : increment    - STEP LENGTH
 NULL. -999.2500:NULL Value
~CURVE INFORMATION BLOCK
#MNEM UNIT       ERCB CURVE CODE    CURVE DESCRIPTION
#-----------   ------------------   ----------------------------------
DEPT.M        00 001 00 00         : DEPTH        - DEPTH
GR  .API      00 310 00 00         : GR           - GAMMA RAY
DPHI.V/V      00 890 00 00         : PHID         - DENSITY POROSITY (SANDSTONE)
NPHI.V/V      00 330 00 00         : PHIN         - NEUTRON POROSITY (SANDSTONE)
ILD .OHMM     00 120 00 00         : RESD         - DEEP RESISTIVITY (DIL)
~PARAMETER INFORMATION
#MNEM.UNIT           DATA             DESCRIPTION OF MNEMONIC
#---------         -----------     ------------------------------
GL  .M        546.659              : gl           - GROUND LEVEL ELEVATION
EREF.M        550.164              : kb           - ELEVATION OF DEPTH REFERENCE
DATM.M        546.659              : datum        - DATUM ELEVATION
TDD .M        521.208              : tdd          - TOTAL DEPTH DRILLER
RUN .         ONE                  : Run          - RUN NUMBER
ENG .         BILL                 : Engineer     - RECORDING ENGINEER
WIT .         JIM                  : Witness      - WITNESSED BY
MUD .         GEL                  : Mud_type     - MUD TYPE
MATR.         SANDSTONE            : Logunit      - NEUTRON MATRIX
TMAX.C        22.2222              : BHT          - MAXIMUM RECORDED TEMPERATURE
BHTD.M        521.208              : BHTDEP       - MAXIMUM RECORDED TEMPERATURE
MATR.         1                    : LOGUNIT      - NEUTRON MATRIX
RMT .C        25                   : MDTP         - TEMPERATURE OF MUD
NEUT.         1                    : NEUTRON      - NEUTRON TYPE
RESI.         0                    : RESIST       - RESISTIVITY TYPE
RMC .OHMM     0.25                 : RMC          - RESISTIVITY OF MUD CAKE
RMF .OHMM     0.25                 : RMF          - RESISTIVITY OF MUD FILTRATE
SUFT.C        15                   : SUFT         - SURFACE TEMPERATURE
~A  DEPTH       GR     PHID     PHIN     RESD
# ...
  317.820  101.380    0.219    0.480    2.948
  318.070   99.044    0.215    0.499    2.916
  318.320   96.492    0.227    0.512    2.899
  318.570   94.049    0.232    0.527    2.929
  318.820   92.280    0.239    0.542    3.023
  319.070   91.204    0.228    0.497    3.269
  319.320   92.883    0.209    0.443    3.507
  319.570   90.003    0.182    0.407    3.771
  319.820   88.002    0.164    0.389    4.185
  320.070   85.429    0.166    0.400    4.679
  320.320   81.150    0.192    0.408    5.182
  320.570   73.947    0.236    0.408    5.837
  320.820   68.145    0.268    0.365    6.453
  321.070   68.310    0.282    0.368    7.038
  321.320   69.354    0.260    0.375    7.502
  321.570   73.302    0.249    0.388    7.949
  321.820   77.703    0.267    0.392    8.034
  322.070   83.031    0.245    0.382    7.450
  322.320   87.692    0.212    0.392    6.889
  322.570   88.884    0.209    0.403    5.930
  322.820   86.685    0.232    0.409    5.103
  323.070   85.159    0.258    0.416    4.484
  323.320   86.136    0.279    0.422    4.118
  323.570   88.058    0.274    0.429    3.847
  323.820   90.695    0.261    0.436    3.747
  324.070   96.394    0.256    0.433    3.780
  324.320   98.849    0.257    0.422    3.864
  324.570  100.702    0.260    0.414    3.938
  324.820  100.818    0.276    0.406    4.051
  325.070  101.190    0.265    0.409    4.128
  325.320   97.240    0.259    0.429    4.227
  325.570   89.229    0.259    0.445    4.263
  325.820   82.961    0.268    0.461    4.275
  326.070   79.467    0.288    0.400    4.206
  326.320   77.598    0.286    0.371    4.152
  326.570   76.982    0.270    0.371    4.076
  326.820   80.578    0.256    0.375    4.133
  327.070   84.641    0.248    0.385    4.304
  327.320   89.872    0.240    0.389    4.607
  327.570   93.589    0.232    0.395    4.826
  327.820   91.535    0.223    0.400    4.960
  328.070   90.243    0.234    0.407    5.026
  328.320   88.645    0.251    0.412    4.932
  328.570   85.373    0.236    0.416    4.792
  328.820   80.088    0.216    0.412    4.672
  329.070   77.739    0.226    0.415    4.506
  329.320   75.367    0.230    0.423    4.300
  329.570   73.967    0.254    0.421    4.131
  329.820   73.745    0.270    0.416    3.970
  330.070   73.927    0.254    0.414    3.813
  330.320   74.838    0.259    0.412    3.677
  330.570   76.468    0.277    0.415    3.574
  330.820   79.974    0.298    0.434    3.586
  331.070   86.114    0.316    0.453    3.658
  331.320   91.276    0.327    0.485    3.862
  331.570   93.566    0.336    0.524    4.283
  331.820   89.914    0.310    0.565    4.600
  332.070   88.349    0.276    0.543    4.972
  332.320   86.510    0.262    0.526    5.343
  332.570   84.824    0.269    0.506    5.553
  332.820   85.803    0.255    0.485    5.623
  333.070   85.448    0.238    0.475    5.608
  333.320   85.518    0.227    0.469    5.565
  333.570   87.437    0.229    0.464    5.425
  333.820   90.081    0.243    0.467    5.206
  334.070   91.371    0.243    0.469    4.999
  334.320   89.254    0.231    0.460    4.865
  334.570   86.512    0.220    0.474    4.773
  334.820   84.357    0.212    0.491    4.679
  335.070   83.233    0.235    0.490    4.600
  335.320   82.840    0.249    0.502    4.563
  335.570   82.074    0.251    0.503    4.557
  335.820   80.843    0.240    0.460    4.634
  336.070   78.934    0.228    0.441    4.785
  336.320   77.239    0.221    0.427    4.787
  336.570   75.211    0.246    0.425    4.746
  336.820   73.805    0.276    0.433    4.656
  337.070   72.461    0.300    0.434    4.442
  337.320   71.286    0.308    0.433    4.265
  337.570   69.809    0.311    0.436    4.083
  337.820   68.233    0.315    0.454    3.932
  338.070   66.256    0.311    0.476    3.874
  338.320   65.272    0.309    0.458    3.879
  338.570   64.279    0.303    0.443    3.992
  338.820   63.110    0.297    0.437    4.136
  339.070   62.194    0.304    0.435    4.242
  339.320   61.817    0.300    0.431    4.356
  339.570   62.073    0.290    0.424    4.414
  339.820   62.558    0.283    0.417    4.475
  340.070   63.492    0.276    0.422    4.501
  340.320   65.660    0.277    0.427    4.486
  340.570   67.333    0.288    0.421    4.467
  340.820   68.584    0.299    0.419    4.454
  341.070   66.237    0.301    0.418    4.462
  341.320   66.187    0.308    0.416    4.622
  341.570   67.870    0.306    0.414    4.694
  341.820   73.288    0.289    0.417    4.679
  342.070   78.599    0.261    0.426    4.628
  342.320   84.546    0.221    0.426    4.565
  342.570   91.159    0.172    0.424    4.485
  342.820   97.733    0.175    0.425    4.372
  343.070  105.681    0.191    0.432    4.252
  343.320  109.274    0.203    0.446    4.108
  343.570  109.213    0.208    0.486    3.987
  343.820  109.491    0.217    0.470    3.917
  344.070  112.842    0.248    0.443    3.890
  344.320  112.048    0.253    0.414    4.051
  344.570  106.686    0.209    0.417    4.381
  344.820  101.892    0.214    0.432    4.672
  345.070   99.545    0.220    0.417    4.990
  345.320  102.733    0.211    0.396    5.219
  345.570  105.159    0.202    0.396    5.448
  345.820  104.370    0.199    0.415    5.618
  346.070  107.222    0.207    0.431    5.783
  346.320  109.079    0.214    0.441    5.849
  346.570  109.856    0.221    0.438    5.852
  346.820  107.562    0.231    0.438    5.831
  347.070  104.121    0.221    0.426    5.745
  347.320  100.305    0.230    0.421    5.705
  347.570   95.534    0.230    0.421    5.607
  347.820  101.341    0.214    0.424    5.531
  348.070  107.027    0.212    0.437    5.444
  348.320  112.380    0.212    0.436    5.315
  348.570  114.119    0.206    0.435    5.153
  348.820  115.595    0.198    0.435    5.036
  349.070  119.185    0.188    0.440    4.920
  349.320  122.375    0.195    0.427    4.823
  349.570  122.600    0.223    0.421    4.752
  349.820  120.274    0.209    0.432    4.718
  350.070  116.486    0.194    0.446    4.735
  350.320  111.856    0.204    0.451    4.769
  350.570  113.055    0.201    0.440    4.798
  350.820  116.985    0.156    0.436    4.845
  351.070  120.665    0.148    0.433    4.894
  351.320  122.697    0.168    0.428    4.926
  351.570  123.112    0.183    0.441    4.888
  351.820  125.546    0.192    0.463    4.709
  352.070  128.007    0.176    0.482    4.500
  352.320  129.751    0.178    0.495    4.130
  352.570  129.460    0.186    0.503    3.989
  352.820  126.107    0.213    0.507    3.797
  353.070  121.119    0.214    0.491    3.743
  353.320  112.448    0.209    0.493    3.744
  353.570  106.234    0.217    0.485    3.816
  353.820   96.501    0.225    0.474    3.901
  354.070   87.059    0.222    0.466    3.996
  354.320   86.417    0.210    0.471    4.084
  354.570   87.409    0.206    0.483    4.148
  354.820   89.084    0.226    0.479    4.184
  355.070   88.141    0.237    0.473    4.417
  355.320   85.748    0.249    0.473    4.227
  355.570   84.345    0.275    0.472    3.991
  355.820   83.825    0.313    0.462    3.828
  356.070   81.522    0.340    0.467    4.120
  356.320   79.658    0.371    0.496    4.484
  356.570   78.512    0.468    0.585    4.769
  356.820   79.053    0.520    0.614    5.039
  357.070   84.662    0.458    0.603    5.156
  357.320   93.115    0.382    0.527    5.166
  357.570   97.295    0.314    0.478    5.116
  357.820   92.543    0.256    0.473    5.004
  358.070   90.449    0.247    0.467    4.691
  358.320   87.595    0.258    0.461    4.246
  358.570   84.850    0.268    0.461    3.876
  358.820   81.533    0.278    0.465    3.707
  359.070   78.485    0.293    0.465    3.548
  359.320   76.430    0.310    0.450    3.508
  359.570   75.299    0.280    0.439    3.566
  359.820   75.616    0.278    0.431    3.654
  360.070   77.813    0.283    0.432    3.747
  360.320   79.942    0.289    0.431    3.910
  360.570   80.686    0.284    0.430    4.071
  360.820   78.445    0.289    0.428    4.504
  361.070   76.315    0.297    0.425    4.583
