~VERSION INFORMATION
 VERS.                 2.0:   CWLS LOG ASCII STANDARD -VERSION 2.0
 WRAP.                  NO:   ONE LINE PER DEPTH STEP
~WELL INFORMATION BLOCK
#MNEM.UNIT           DATA                    DESCRIPTION OF MNEMONIC
#---------    -------------------            -------------------------------
# Generated from Intellog Unique Number	CW_82_90/WELL/3060
WELL.         TEXEX WABASCA                  : Well_name    - WELL
LOC .         00/07-01-085-22W4/0            : Location     - LOCATION
UWI .         00/07-01-085-22W4/0            : Uwi          - UNIQUE WELL ID
ENTR.         JAYE                           : Entered      - ENTERED BY
SRVC.         WESTERN ATLAS                  : Scn          - SERVICE COMPANY
DATE.         4 FEB 75                       : Date         - LOG DATE
STRT.M        192.024                        : top_depth    - START DEPTH
STOP.M        426.774                        : bot_depth    - STOP DEPTH
STEP.M        0.25                           : increment    - STEP LENGTH
 NULL. -999.2500:NULL Value
~CURVE INFORMATION BLOCK
#MNEM UNIT       ERCB CURVE CODE    CURVE DESCRIPTION
#-----------   ------------------   ----------------------------------
DEPT.M        00 001 00 00         : DEPTH        - DEPTH
CALI.MM       00 280 01 00         : CAL          - CALIPER
GR  .API      00 310 00 00         : GR           - GAMMA RAY
NPHI.V/V      00 330 00 00         : PHIN         - NEUTRON POROSITY (SANDSTONE)
DPHI.V/V      00 890 00 00         : PHID         - DENSITY POROSITY (SANDSTONE)
ILD .OHMM     00 120 00 00         : RESD         - DEEP RESISTIVITY (DIL)
~PARAMETER INFORMATION
#MNEM.UNIT           DATA             DESCRIPTION OF MNEMONIC
#---------         -----------     ------------------------------
GL  .M        605.485              : gl           - GROUND LEVEL ELEVATION
EREF.M        608.533              : kb           - ELEVATION OF DEPTH REFERENCE
DATM.M        605.485              : datum        - DATUM ELEVATION
TDD .M        380.695              : tdd          - TOTAL DEPTH DRILLER
RUN .         ONE                  : Run          - RUN NUMBER
ENG .         CLARK                : Engineer     - RECORDING ENGINEER
WIT .         McDOUGAL             : Witness      - WITNESSED BY
MUD .         CHEM GEL             : Mud_type     - MUD TYPE
MATR.         SANDSTONE            : Logunit      - NEUTRON MATRIX
TMAX.C        25                   : BHT          - MAXIMUM RECORDED TEMPERATURE
BHTD.M        380.695              : BHTDEP       - MAXIMUM RECORDED TEMPERATURE
RMT .C        15.5556              : MDTP         - TEMPERATURE OF MUD
MUDD.KG/M     9200                 : MWT          - MUD DENSITY
NEUT.         1                    : NEUTRON      - NEUTRON TYPE
RESI.         0                    : RESIST       - RESISTIVITY TYPE
RM  .OHMM     8.8                  : RM           - RESISTIVITY OF MUD
RMC .OHMM     0                    : RMC          - RESISTIVITY OF MUD CAKE
RMF .OHMM     0                    : RMF          - RESISTIVITY OF MUD FILTRATE
SUFT.C        4                    : SUFT         - SURFACE TEMPERATURE
~A  DEPTH      CAL       GR     PHIN     PHID     RESD
# ...
  265.024  228.252   33.524    0.473    0.254    7.085
  265.274  229.021   31.956    0.465    0.247    7.547
  265.524  229.156   28.670    0.437    0.246    7.825
  265.774  229.086   24.838    0.422    0.250    8.412
  266.024  227.671   27.680    0.415    0.251    8.722
  266.274  226.475   29.718    0.406    0.256    9.208
  266.524  225.987   26.924    0.406    0.254    9.722
  266.774  224.994   29.704    0.420    0.240   10.171
  267.024  224.097   25.560    0.416    0.227   10.642
  267.274  223.201   21.237    0.413    0.212   11.133
  267.524  223.034   18.202    0.423    0.216   11.336
  267.774  223.273   17.915    0.435    0.250   11.438
  268.024  224.152   21.978    0.425    0.296   11.437
  268.274  224.152   22.984    0.415    0.295   11.436
  268.524  225.285   24.781    0.410    0.276   11.230
  268.774  225.610   29.213    0.423    0.257   11.027
  269.024  226.065   30.701    0.415    0.223   10.828
  269.274  226.931   30.847    0.403    0.192   10.537
  269.524  226.931   27.625    0.383    0.170   10.161
  269.774  229.720   22.385    0.374    0.167    9.536
  270.024  230.258   23.017    0.375    0.187    8.476
  270.274  230.914   30.753    0.422    0.200    7.603
  270.524  229.428   35.369    0.440    0.207    6.881
  270.774  228.920   34.291    0.451    0.215    6.006
  271.024  227.090   31.986    0.441    0.225    5.436
  271.274  227.090   37.277    0.437    0.234    4.920
  271.524  223.029   38.518    0.432    0.243    4.702
  271.774  221.296   29.907    0.423    0.255    4.617
  272.024  219.670   25.832    0.409    0.263    4.617
  272.274  218.362   20.524    0.395    0.164    4.658
  272.524  217.682   15.955    0.379    0.118    4.786
  272.774  218.126   14.752    0.381    0.126    5.192
  273.024  219.212   22.062    0.415    0.201    5.841
  273.274  219.971   20.922    0.443    0.272    6.874
  273.524  221.569   23.148    0.442    0.248    7.874
  273.774  223.051   27.826    0.436    0.246    8.698
  274.024  223.051   25.768    0.433    0.259    9.436
  274.274  225.125   26.644    0.438    0.279   10.236
  274.524  225.342   23.237    0.450    0.294   10.807
  274.774  224.767   17.997    0.447    0.301   10.806
  275.024  224.767   19.487    0.451    0.303   10.141
  275.274  224.019   23.489    0.457    0.308    8.852
  275.524  224.352   27.252    0.459    0.310    8.085
  275.774  225.330   24.211    0.429    0.313    8.613
  276.024  224.874   19.515    0.413    0.321    9.601
  276.274  224.575   10.907    0.426    0.328    9.600
  276.524  223.882   13.133    0.420    0.334    8.848
  276.774  223.882    8.501    0.414    0.332    8.081
  277.024  221.177   12.380    0.434    0.317    7.381
  277.274  220.994   19.505    0.432    0.296    6.802
  277.524  221.757   17.203    0.425    0.294    5.831
  277.774  222.948   16.924    0.430    0.292    5.230
  278.024  223.389   18.594    0.458    0.292    4.777
  278.274  223.326   18.312    0.457    0.296    4.606
  278.524  223.362   16.802    0.452    0.300    4.997
  278.774  223.093   21.359    0.428    0.304    6.267
  279.024  223.331   19.725    0.423    0.309    8.002
  279.274  223.786   17.728    0.422    0.313    9.249
  279.524  226.135   16.833    0.423    0.314   10.404
  279.774  226.456   19.920    0.425    0.312   10.033
  280.024  228.046   22.328    0.425    0.304    8.837
  280.274  229.643   28.719    0.417    0.218    8.145
  280.524  231.047   30.758    0.415    0.192    7.506
  280.774  231.479   32.006    0.426    0.194    6.612
  281.024  231.838   31.660    0.429    0.200    6.205
  281.274  232.184   32.358    0.427    0.205    5.876
  281.524  232.897   34.400    0.425    0.207    6.092
  281.774  231.225   33.260    0.423    0.209    6.374
  282.024  230.438   33.038    0.420    0.210    6.791
  282.274  230.362   32.937    0.410    0.208    7.301
  282.524  230.362   27.940    0.394    0.206    8.138
  282.774  230.362   29.981    0.393    0.201    8.749
  283.024  230.807   32.519    0.384    0.189    9.237
  283.274  230.626   30.886    0.377    0.166    9.664
  283.524  229.929   23.436    0.370    0.059   10.483
  283.774  229.929   18.317    0.372    0.002   10.674
  284.024  229.294   23.546    0.378    0.219   10.673
  284.274  230.258   24.729    0.384    0.200   10.576
  284.524  230.813   28.119    0.387    0.180   10.479
  284.774  230.813   31.454    0.397    0.223   10.197
  285.024  231.730   30.065    0.414    0.189    9.923
  285.274  230.922   27.882    0.418    0.185    9.569
  285.524  227.853   26.743    0.413    0.217    9.482
  285.774  224.884   29.886    0.411    0.243   10.011
  286.024  224.884   25.928    0.406    0.233   10.762
  286.274  226.006   20.257    0.398    0.228   11.362
  286.524  227.497   24.754    0.397    0.242   11.996
  286.774  228.357   27.526    0.406    0.227   12.214
  287.024  229.122   28.651    0.429    0.218   11.778
  287.274  229.359   32.838    0.417    0.228   10.855
  287.524  222.555   32.435    0.410    0.246    9.222
  287.774  219.383   26.759    0.404    0.259    8.197
  288.024  228.023   26.846    0.394    0.274    7.692
  288.274  229.308   25.396    0.384    0.283    7.485
  288.524  228.003   29.949    0.385    0.283    7.284
  288.774  224.616   28.564    0.387    0.278    7.088
  289.024  220.609   24.363    0.389    0.274    6.960
  289.274  222.930   29.226    0.396    0.272    6.897
  289.524  227.011   29.611    0.401    0.269    6.712
  289.774  229.849   22.163    0.402    0.263    6.531
  290.024  230.929   24.823    0.402    0.198    6.298
  290.274  228.885   25.519    0.394    0.183    6.073
  290.524  230.272   24.190    0.370    0.188    5.964
  290.774  232.693   17.477    0.369    0.189    5.963
  291.024  230.455   21.053    0.373    0.186    6.353
  291.274  225.513   19.791    0.382    0.185    6.955
  291.524  214.560   21.280    0.389    0.190   10.081
  291.774  212.839   26.328    0.384    0.247   14.881
  292.024  217.645   25.374    0.371    0.244   18.160
  292.274  219.864   21.716    0.359    0.213   18.999
  292.524  220.415   20.697    0.346    0.226   16.584
  292.774  221.495   21.760    0.336    0.215   13.711
  293.024  219.769   20.254    0.328    0.083   11.542
  293.274  215.973   19.969    0.326    0.139    9.805
  293.524  216.110   20.978    0.372    0.151    9.285
  293.774  222.062   22.528    0.377    0.128    9.285
  294.024  224.590   22.793    0.378    0.168    8.953
  294.274  224.938   26.428    0.393    0.212    8.634
  294.524  224.145   26.572    0.395    0.205    7.605
  294.774  223.252   26.351    0.395    0.207    6.638
  295.024  223.496   27.597    0.394    0.228    5.847
  295.274  225.927   28.786    0.398    0.267    5.292
  295.524  227.619   29.848    0.399    0.242    5.292
  295.774  229.310   35.625    0.395    0.218    5.537
  296.024  230.593   36.567    0.392    0.212    5.845
  296.274  228.666   36.102    0.392    0.217    6.399
  296.524  226.007   33.857    0.392    0.223    8.627
  296.774  224.594   31.550    0.392    0.229   10.917
  297.024  224.117   28.084    0.391    0.236   14.067
  297.274  224.048   23.393    0.394    0.252   15.123
  297.524  224.299   20.661    0.398    0.249   16.257
  297.774  224.123   28.640    0.398    0.272   16.703
  298.024  222.293   31.483    0.396    0.277   16.854
  298.274  223.680   29.052    0.386    0.271   17.006
  298.524  223.510   33.667    0.379    0.262   17.159
  298.774  223.342   31.792    0.379    0.268   17.159
  299.024  223.185   27.041    0.386    0.264   17.156
  299.274  223.220   24.307    0.379    0.262   17.311
  299.524  223.045   25.002    0.379    0.267   17.153
  299.774  222.256   23.437    0.387    0.265   17.152
  300.024  220.426   24.865    0.395    0.258   16.842
  300.274  219.324   25.073    0.406    0.254   16.538
  300.524  219.254   26.627    0.408    0.257   16.388
  300.774  220.026   25.298    0.420    0.253   16.535
  301.024  220.898   24.403    0.419    0.257   16.989
  301.274  221.554   28.651    0.418    0.270   17.614
