~VERSION INFORMATION
 VERS.                 2.0:   CWLS LOG ASCII STANDARD -VERSION 2.0
 WRAP.                  NO:   ONE LINE PER DEPTH STEP
~WELL INFORMATION BLOCK
#MNEM.UNIT           DATA                    DESCRIPTION OF MNEMONIC
#---------    -------------------            -------------------------------
# Generated from Intellog Unique Number	CW_79_81/WELL/288
WELL.         04-23-079-23W4                 : Well_name    - WELL
LOC .         00/04-23-079-23W4/0            : Location     - LOCATION
UWI .         00/04-23-079-23W4/0            : Uwi          - UNIQUE WELL ID
ENTR.         MAX                            : Entered      - ENTERED BY
SRVC.         COMPUTALOG                     : Scn          - SERVICE COMPANY
STRT.M        225                            : top_depth    - START DEPTH
STOP.M        477                            : bot_depth    - STOP DEPTH
STEP.M        0.25                           : increment    - STEP LENGTH
 NULL. -999.2500:NULL Value
~CURVE INFORMATION BLOCK
#MNEM UNIT       ERCB CURVE CODE    CURVE DESCRIPTION
#-----------   ------------------   ----------------------------------
DEPT.M        00 001 00 00         : DEPTH        - DEPTH
ILD .OHMM     00 120 00 00         : RESD         - DEEP RESISTIVITY (DIL)
NPHI.V/V      00 330 00 00         : PHIN         - NEUTRON POROSITY (SANDSTONE)
DPHI.V/V      00 890 00 00         : PHID         - DENSITY POROSITY (SANDSTONE)
CALI.MM       00 280 01 00         : CAL          - CALIPER
GR  .API      00 310 00 00         : GR           - GAMMA RAY
~PARAMETER INFORMATION
#MNEM.UNIT           DATA             DESCRIPTION OF MNEMONIC
#---------         -----------     ------------------------------
GL  .M        565.2                : gl           - GROUND LEVEL ELEVATION
EREF.M        570.2                : kb           - ELEVATION OF DEPTH REFERENCE
DATM.M        565.2                : datum        - DATUM ELEVATION
TDD .M        482                  : tdd          - TOTAL DEPTH DRILLER
RUN .         ONE                  : Run          - RUN NUMBER
ENG .         BILL                 : Engineer     - RECORDING ENGINEER
WIT .         JIM                  : Witness      - WITNESSED BY
MUD .         GEL                  : Mud_type     - MUD TYPE
MATR.         SANDSTONE            : Logunit      - NEUTRON MATRIX
TMAX.C        20                   : BHT          - MAXIMUM RECORDED TEMPERATURE
BHTD.M        482                  : BHTDEP       - MAXIMUM RECORDED TEMPERATURE
RMT .C        17.8                 : MDTP         - TEMPERATURE OF MUD
MUDD.KG/M     1080                 : MWT          - MUD DENSITY
NEUT.         1                    : NEUTRON      - NEUTRON TYPE
RESI.         0                    : RESIST       - RESISTIVITY TYPE
RM  .OHMM     7                    : RM           - RESISTIVITY OF MUD
RMC .OHMM     5.5                  : RMC          - RESISTIVITY OF MUD CAKE
RMF .OHMM     6                    : RMF          - RESISTIVITY OF MUD FILTRATE
SUFT.C        -5                   : SUFT         - SURFACE TEMPERATURE
~A  DEPTH     RESD     PHIN     PHID      CAL       GR
# ...
  261.500   60.748    0.454    0.342  229.600   49.012
  261.750   69.622    0.449    0.341  231.030   50.160
  262.000   73.508    0.430    0.336  232.455   50.134
  262.250   79.019    0.429    0.336  232.900   49.231
  262.500   84.954    0.449    0.341  233.838   48.916
  262.750   88.866    0.456    0.347  234.771   48.897
  263.000   94.658    0.456    0.347  235.226   47.119
  263.250   99.006    0.450    0.345  236.159   45.625
  263.500  103.554    0.449    0.346  237.101   46.190
  263.750  106.332    0.444    0.351  239.010   47.920
  264.000  107.225    0.443    0.355  240.435   48.196
  264.250  108.113    0.448    0.357  242.353   47.588
  264.500  108.001    0.455    0.358  245.236   47.270
  264.750  106.917    0.452    0.354  247.627   48.123
  265.000  106.917    0.455    0.352  248.565   48.685
  265.250  104.734    0.463    0.353  248.537   47.785
  265.500  100.906    0.468    0.355  247.032   46.010
  265.750   97.172    0.460    0.357  246.024   45.987
  266.000   95.320    0.439    0.356  244.031   47.715
  266.250   93.502    0.436    0.354  242.531   49.450
  266.500   92.543    0.452    0.351  241.025   50.306
  266.750   92.468    0.454    0.349  240.988   49.698
  267.000   92.383    0.451    0.349  240.458   49.675
  267.250   90.611    0.445    0.349  240.425   51.406
  267.500   89.702    0.436    0.349  240.871   51.968
  267.750   88.802    0.433    0.349  240.833   49.605
  268.000   87.921    0.449    0.351  240.800   49.583
  268.250   87.921    0.457    0.355  240.275   52.486
  268.500   86.156    0.451    0.357  238.765   54.804
  268.750   78.528    0.456    0.359  236.290   54.193
  269.000   74.257    0.465    0.351  234.306   55.341
  269.250   70.866    0.466    0.350  232.318   56.489
  269.500   67.004    0.465    0.353  230.818   55.291
  269.750   63.360    0.459    0.350  230.288   53.808
  270.000   57.751    0.452    0.344  228.788   54.078
  270.250   55.119    0.440    0.342  228.750   55.521
  270.500   53.575    0.440    0.341  228.708   58.132
  270.750   51.599    0.453    0.342  227.695   59.572
  271.000   49.236    0.456    0.344  226.678   59.547
  271.250   47.857    0.462    0.347  225.670   57.473
  271.500   46.091    0.468    0.347  225.140   56.576
  271.750   43.580    0.477    0.342  225.107   60.647
  272.000   40.834    0.478    0.329  225.065   65.308
  272.250   38.613    0.468    0.312  223.068   69.376
  272.500   36.180    0.467    0.318  222.060   67.604
  272.750   32.370    0.470    0.331  222.027   59.094
  273.000   31.753    0.467    0.346  221.009   56.145
  273.250   30.867    0.461    0.351  219.514   55.245
  273.500   29.457    0.462    0.350  218.004   55.513
  273.750   27.346    0.458    0.347  218.454   56.365
  274.000   25.856    0.453    0.341  218.909   57.220
  274.250   25.360    0.455    0.333  219.359   56.615
  274.500   25.105    0.451    0.332  218.341   55.130
  274.750   24.859    0.444    0.326  218.796   53.642
  275.000   25.065    0.449    0.332  221.183   54.497
  275.250   25.270    0.455    0.331  221.154   54.176
  275.500   25.479    0.450    0.320  221.112   52.691
  275.750   25.690    0.446    0.314  221.079   51.504
  276.000   25.664    0.437    0.322  221.525   50.601
  276.250   25.640    0.435    0.330  221.487   49.990
  276.500   25.383    0.434    0.331  221.450   49.678
  276.750   24.444    0.432    0.329  221.403   49.360
  277.000   23.762    0.430    0.333  221.375   49.335
  277.250   23.096    0.428    0.340  221.815   50.485
  277.500   22.861    0.422    0.345  221.782   52.508
  277.750   23.046    0.413    0.347  221.740   52.193
  278.000   23.456    0.424    0.341  222.195   51.875
  278.250   24.528    0.440    0.332  224.103   51.565
  278.500   25.191    0.436    0.333  227.484   50.958
  278.750   25.162    0.422    0.337  233.298   50.052
  279.000   25.139    0.417    0.338  239.111   49.447
  279.250   24.663    0.424    0.342  245.413   49.422
  279.500   23.753    0.425    0.347  249.272   49.984
  279.750   21.852    0.426    0.345  249.239   50.550
  280.000   18.854    0.431    0.318  240.907   52.280
  280.250   15.824    0.429    0.288  222.823   53.720
  280.500   14.423    0.422    0.273  219.850   54.575
  280.750   14.542    0.419    0.288  224.694   54.550
  281.000   15.072    0.428    0.307  230.020   53.360
  281.250   16.653    0.436    0.337  233.396   51.579
  281.500   20.358    0.437    0.350  233.846   50.682
  281.750   24.203    0.429    0.350  231.375   49.194
  282.000   26.505    0.412    0.315  227.432   47.120
  282.250   29.294    0.365    0.237  224.947   45.053
  282.500   35.475    0.299    0.160  223.943   43.565
  282.750   38.144    0.160    0.049  223.414   42.369
  283.000   39.532    0.156    0.043  222.888   41.179
  283.250   37.722    0.170    0.045  223.343   42.912
  283.500   35.345    0.207    0.048  223.292   47.570
  283.750   31.922    0.233    0.065  223.259   50.763
  284.000   28.055    0.302    0.240  223.709   52.789
  284.250   22.078    0.356    0.318  224.164   54.525
  284.500   20.503    0.417    0.344  226.072   54.201
  284.750   17.687    0.454    0.343  228.965   52.136
  285.000   15.976    0.464    0.327  233.311   48.890
  285.250   13.783    0.462    0.320  233.264   48.282
  285.500   11.463    0.460    0.320  230.798   48.850
  285.750    8.619    0.460    0.331  226.850   49.995
  286.000    7.573    0.466    0.352  225.359   52.021
  286.250    7.566    0.502    0.389  224.829   53.754
  286.500    7.771    0.550    0.418  226.742   53.433
  286.750    8.353    0.592    0.525  227.671   51.368
  287.000    9.843    0.598    0.598  226.662   44.029
  287.250   12.031    0.554    0.573  226.630   38.447
  287.500   13.919    0.526    0.468  228.538   40.180
  287.750   17.326    0.483    0.368  233.377   42.498
  288.000   20.418    0.466    0.353  242.116   42.763
  288.250   22.153    0.449    0.352  252.318   42.447
  288.500   24.258    0.433    0.353  251.306   43.595
  288.750   26.076    0.422    0.350  246.880   45.035
  289.000   27.277    0.422    0.344  234.652   45.598
  289.250   27.249    0.428    0.344  229.733   44.698
  289.500   26.005    0.438    0.345  227.741   44.968
  289.750   23.923    0.446    0.340  217.955   46.113
  290.000   20.831    0.435    0.330  216.450   46.678
  290.250   17.644    0.439    0.314  218.851   47.235
  290.500   15.646    0.442    0.306  221.237   47.511
  290.750   14.931    0.431    0.310  221.702   47.196
  291.000   15.055    0.435    0.327  221.702   46.000
  291.250   15.891    0.430    0.335  221.608   45.100
  291.500   17.401    0.432    0.343  221.584   45.663
  291.750   19.230    0.438    0.356  221.584   45.637
  292.000   20.485    0.434    0.355  221.509   44.447
  292.250   21.621    0.426    0.351  220.984   44.715
  292.500   22.611    0.422    0.328  221.922   45.567
  292.750   23.653    0.417    0.311  225.298   44.962
  293.000   24.965    0.406    0.289  226.718   44.937
  293.250   25.171    0.395    0.272  223.267   44.037
  293.500   24.694    0.414    0.297  231.032   43.429
  293.750   24.000    0.435    0.312  233.915   46.627
  294.000   23.539    0.443    0.326  229.006   46.307
  294.250   23.093    0.439    0.334  224.580   45.409
  294.500   22.443    0.441    0.337  223.558   46.557
  294.750   22.013    0.447    0.325  224.008   47.702
  295.000   21.990    0.450    0.337  224.463   47.094
  295.250   21.990    0.443    0.342  223.938   47.072
  295.500   21.955    0.433    0.346  221.945   47.632
  295.750   22.134    0.436    0.341  218.489   50.242
  296.000   22.114    0.450    0.314  215.531   52.268
  296.250   22.088    0.464    0.306  216.459   52.541
  296.500   21.872    0.461    0.309  220.327   49.300
  296.750   21.872    0.464    0.339  226.146   42.253
  297.000   21.824    0.461    0.361  227.571   41.935
  297.250   21.809    0.455    0.357  229.967   43.960
  297.500   21.588    0.460    0.354  233.821   42.765
  297.750   21.566    0.453    0.356  234.768   42.450
