~VERSION INFORMATION
 VERS.                 2.0:   CWLS LOG ASCII STANDARD -VERSION 2.0
 WRAP.                  NO:   ONE LINE PER DEPTH STEP
~WELL INFORMATION BLOCK
#MNEM.UNIT           DATA                    DESCRIPTION OF MNEMONIC
#---------    -------------------            -------------------------------
# Generated from Intellog Unique Number	CW_76_78/WELL/620
WELL.         PACIFIC MARTENCK 07-16         : Well_name    - WELL
LOC .         00/07-16-077-04W5/0            : Location     - LOCATION
UWI .         00/07-16-077-04W5/0            : Uwi          - UNIQUE WELL ID
ENTR.         JAYE                           : Entered      - ENTERED BY
SRVC.         SCHLUMBERGER                   : Scn          - SERVICE COMPANY
DATE.         14 FEB 78                      : Date         - LOG DATE
STRT.M        405.384                        : top_depth    - START DEPTH
STOP.M        637.134                        : bot_depth    - STOP DEPTH
STEP.M        0.25                           : increment    - STEP LENGTH
 NULL. -999.2500:NULL Value
~CURVE INFORMATION BLOCK
#MNEM UNIT       ERCB CURVE CODE    CURVE DESCRIPTION
#-----------   ------------------   ----------------------------------
DEPT.M        00 001 00 00         : DEPTH        - DEPTH
ILD .OHMM     00 120 00 00         : RESD         - DEEP RESISTIVITY (DIL)
DPHI.V/V      00 890 00 00         : PHID         - DENSITY POROSITY (SANDSTONE)
NPHI.V/V      00 330 00 00         : PHIN         - NEUTRON POROSITY (SANDSTONE)
GR  .API      00 310 00 00         : GR           - GAMMA RAY
CALI.MM       00 280 01 00         : CAL          - CALIPER
~PARAMETER INFORMATION
#MNEM.UNIT           DATA             DESCRIPTION OF MNEMONIC
#---------         -----------     ------------------------------
GL  .M        690.982              : gl           - GROUND LEVEL ELEVATION
EREF.M        694.334              : kb           - ELEVATION OF DEPTH REFERENCE
DATM.M        690.982              : datum        - DATUM ELEVATION
TDD .M        648.614              : tdd          - TOTAL DEPTH DRILLER
RUN .         ONE                  : Run          - RUN NUMBER
ENG .         DALV                 : Engineer     - RECORDING ENGINEER
WIT .         MEZEL                : Witness      - WITNESSED BY
BASE.         EDM                  : Branch       - HOME BASE OF LOGGING UNIT
MUD .         GEL CHEM             : Mud_type     - MUD TYPE
MATR.         SANDSTONE            : Logunit      - NEUTRON MATRIX
TMAX.C        0                    : BHT          - MAXIMUM RECORDED TEMPERATURE
BHTD.M        648                  : BHTDEP       - MAXIMUM RECORDED TEMPERATURE
RMT .C        14.4444              : MDTP         - TEMPERATURE OF MUD
MUDD.KG/M     1116                 : MWT          - MUD DENSITY
NEUT.         1                    : NEUTRON      - NEUTRON TYPE
RESI.         0                    : RESIST       - RESISTIVITY TYPE
RM  .OHMM     3.94                 : RM           - RESISTIVITY OF MUD
RMC .OHMM     0                    : RMC          - RESISTIVITY OF MUD CAKE
RMF .OHMM     0                    : RMF          - RESISTIVITY OF MUD FILTRATE
SUFT.C        -17                  : SUFT         - SURFACE TEMPERATURE
~A  DEPTH     RESD     PHID     PHIN       GR      CAL
# ...
  551.384    5.404    0.260    0.464   86.408  157.190
  551.634    5.282    0.252    0.474   85.109  157.408
  551.884    5.260    0.258    0.479   83.003  157.732
  552.134    5.328    0.259    0.481   82.449  158.370
  552.384    6.436    0.267    0.468   82.703  159.324
  552.634    6.909    0.234    0.452   81.466  159.962
  552.884    8.411    0.194    0.397   77.747  160.391
  553.134   10.892    0.140    0.348   74.959  161.134
  553.384   12.026    0.113    0.257   72.109  162.194
  553.634    9.671    0.102    0.240   71.741  161.991
  553.884    7.822    0.104    0.264   75.159  161.053
  554.134    6.519    0.153    0.289   78.950  160.220
  554.384    5.577    0.239    0.412   84.230  159.493
  554.634    5.192    0.251    0.464   86.655  158.449
  554.884    5.037    0.245    0.476   85.729  157.827
  555.134    4.951    0.236    0.464   85.920  157.520
  555.384    5.024    0.236    0.453   85.738  157.528
  555.634    5.175    0.257    0.451   85.308  157.326
  555.884    5.412    0.254    0.449   80.534  157.228
  556.134    5.810    0.256    0.443   77.188  157.341
  556.384    6.622    0.268    0.434   74.834  157.560
  556.634    7.852    0.269    0.427   72.480  157.883
  556.884    9.086    0.246    0.418   70.189  158.312
  557.134    9.134    0.193    0.395   68.828  159.580
  557.384    8.439    0.096    0.329   68.460  160.639
  557.634    6.724    0.087    0.300   70.513  160.227
  557.884    5.984    0.130    0.290   75.234  159.395
  558.134    5.396    0.200    0.413   81.135  158.246
  558.384    4.957    0.240    0.444   85.422  157.203
  558.634    4.737    0.247    0.459   84.372  156.896
  558.884    4.683    0.251    0.453   81.398  156.800
  559.134    4.699    0.262    0.442   77.306  156.597
  559.384    4.733    0.284    0.440   73.339  156.500
  559.634    4.767    0.280    0.443   72.909  156.507
  559.884    4.792    0.269    0.447   75.644  156.412
  560.134    4.791    0.263    0.448   79.187  156.523
  560.384    4.816    0.231    0.449   84.467  156.637
  560.634    4.914    0.242    0.462   88.816  156.960
  560.884    5.006    0.229    0.448   91.924  156.968
  561.134    5.080    0.208    0.438   92.797  156.765
  561.384    5.136    0.200    0.434   93.547  156.563
  561.634    5.202    0.204    0.433   97.275  157.306
  561.884    5.269    0.203    0.435  103.424  157.840
  562.134    5.267    0.199    0.435  107.400  158.689
  562.384    5.285    0.191    0.434  102.999  159.643
  562.634    5.303    0.193    0.435  102.570  160.282
  562.884    5.311    0.182    0.435  102.822  160.710
  563.134    5.329    0.191    0.434  103.509  161.874
  563.384    5.368    0.194    0.434  103.824  162.722
  563.634    5.346    0.189    0.433  107.553  163.360
  563.884    5.304    0.171    0.432  110.971  163.369
  564.134    5.263    0.153    0.434  111.659  163.376
  564.384    5.261    0.171    0.443  106.512  163.384
  564.634    5.329    0.177    0.459  104.158  163.288
  564.884    5.438    0.198    0.467  101.308  163.401
  565.134    5.665    0.210    0.453   96.534  163.303
  565.384    6.059    0.205    0.446   95.794  163.101
  565.634    6.383    0.196    0.441   96.667  163.109
  565.884    6.465    0.179    0.437   98.534  163.327
  566.134    6.343    0.188    0.428  101.580  163.861
  566.384    6.096    0.187    0.418  105.308  164.814
  566.634    5.859    0.176    0.407  109.347  166.188
  566.884    5.526    0.180    0.416  107.490  167.563
  567.134    5.311    0.196    0.434  105.013  168.412
  567.384    5.133    0.189    0.445  106.010  168.945
  567.634    4.970    0.180    0.461  108.435  168.953
  567.884    4.894    0.179    0.458  111.046  168.961
  568.134    4.893    0.175    0.453  112.727  169.075
  568.384    4.947    0.168    0.458  113.414  168.977
  568.634    5.020    0.176    0.463  113.295  168.985
  568.884    5.103    0.181    0.462  109.638  169.308
  569.134    5.247    0.177    0.442  110.449  169.632
  569.384    5.549    0.186    0.428  111.447  169.639
  569.634    5.857    0.193    0.425  108.783  169.437
  569.884    6.137    0.184    0.439  105.188  169.340
  570.134    6.465    0.164    0.431  103.331  167.772
  570.384    6.824    0.133    0.421  101.722  167.254
  570.634    7.285    0.140    0.415   99.617  166.631
  570.884    7.689    0.155    0.405   93.105  166.640
  571.134    8.162    0.158    0.411   85.042  166.227
  571.384    8.664    0.142    0.397   78.591  163.923
  571.634    9.388    0.124    0.350   74.624  162.354
  571.884   10.212    0.096    0.296   76.677  161.416
  572.134   11.107    0.206    0.312   81.026  160.584
  572.384   12.036    0.207    0.406   80.038  160.593
  572.634   12.681    0.181    0.409   76.816  160.389
  572.884   13.235    0.161    0.333   77.317  160.293
  573.134   13.381    0.163    0.389   81.790  160.196
  573.384   12.932    0.248    0.416   85.518  159.783
  573.634   11.837    0.243    0.432   85.275  159.581
  573.884   10.475    0.233    0.430   86.024  159.589
  574.134    9.183    0.221    0.421   87.519  159.491
  574.384    8.296    0.211    0.414   88.826  159.605
  574.634    7.439    0.203    0.432   87.962  159.928
  574.884    6.497    0.226    0.450   84.616  160.356
  575.134    5.580    0.236    0.465   87.661  160.784
  575.384    4.819    0.209    0.478   92.879  161.528
  575.634    4.631    0.191    0.488   90.277  162.483
  575.884    4.691    0.154    0.492   82.152  163.121
  576.134    4.787    0.132    0.375   75.950  163.759
  576.384    4.996    0.111    0.345   79.245  163.767
  576.634    5.215    0.181    0.399   86.883  163.460
  576.884    5.535    0.190    0.424   92.721  163.363
  577.134    6.032    0.207    0.425   94.215  163.161
  577.384    6.512    0.203    0.426   92.668  162.854
  577.634    7.056    0.198    0.438   88.515  162.545
  577.884    7.675    0.195    0.437   85.603  161.818
  578.134    8.208    0.194    0.430   82.504  161.511
  578.384    8.567    0.199    0.424   80.275  161.624
  578.634    8.581    0.189    0.409   78.232  161.737
  578.884    8.308    0.179    0.392   77.181  161.220
  579.134    7.925    0.216    0.410   76.751  161.017
  579.384    7.475    0.238    0.435   79.177  160.920
  579.634    7.011    0.242    0.431   82.346  160.928
  579.884    6.551    0.240    0.434   83.903  160.936
  580.134    6.133    0.227    0.476   82.852  161.259
  580.384    5.938    0.232    0.465   81.864  161.372
  580.634    5.881    0.237    0.457   80.504  161.906
  580.884    5.979    0.234    0.465   79.205  162.440
  581.134    6.335    0.251    0.467   77.658  162.762
  581.384    6.852    0.222    0.456   75.242  162.981
  581.634    7.328    0.196    0.425   74.378  163.199
  581.884    7.808    0.174    0.384   76.058  163.312
  582.134    7.849    0.170    0.341   78.173  163.742
  582.384    7.543    0.195    0.406   79.978  163.748
  582.634    6.970    0.215    0.447   81.037  163.651
  582.884    6.404    0.224    0.454   83.028  163.764
  583.134    6.354    0.221    0.464   84.585  163.982
  583.384    6.707    0.211    0.457   85.520  164.096
  583.634    7.119    0.229    0.456   86.083  164.313
  583.884    7.388    0.229    0.451   88.447  164.636
  584.134    7.386    0.218    0.430   91.306  164.960
  584.384    6.928    0.197    0.412   95.097  165.493
  584.634    6.425    0.190    0.407   98.639  165.712
  584.884    6.221    0.176    0.419   95.913  166.034
  585.134    6.046    0.160    0.431   94.614  166.358
  585.384    5.877    0.144    0.430   97.722  166.682
  585.634    5.733    0.172    0.421  102.133  167.109
  585.884    5.656    0.172    0.427  103.193  166.802
  586.134    5.644    0.171    0.432  102.825  166.705
  586.384    5.600    0.180    0.431  102.706  166.504
  586.634    5.515    0.166    0.430  101.655  166.405
  586.884    5.492    0.171    0.434  102.219  165.783
  587.134    5.480    0.185    0.446  102.347  165.266
  587.384    5.458    0.175    0.453  101.793  164.748
  587.634    5.425    0.159    0.446   96.213  164.125
