~VERSION INFORMATION
 VERS.                 2.0:   CWLS LOG ASCII STANDARD -VERSION 2.0
 WRAP.                  NO:   ONE LINE PER DEPTH STEP
~WELL INFORMATION BLOCK
#MNEM.UNIT           DATA                    DESCRIPTION OF MNEMONIC
#---------    -------------------            -------------------------------
# Generated from Intellog Unique Number	CS_73_76/WELL/2158
WELL.         PEX KIRBY                      : Well_name    - WELL
LOC .         00/07-13-075-07W4/0            : Location     - LOCATION
UWI .         00/07-13-075-07W4/0            : Uwi          - UNIQUE WELL ID
ENTR.         SP                             : Entered      - ENTERED BY
SRVC.         SCHLUMBERGER                   : Scn          - SERVICE COMPANY
STRT.M        245                            : top_depth    - START DEPTH
STOP.M        475                            : bot_depth    - STOP DEPTH
STEP.M        0.25                           : increment    - STEP LENGTH
 NULL. -999.2500:NULL Value
~CURVE INFORMATION BLOCK
#MNEM UNIT       ERCB CURVE CODE    CURVE DESCRIPTION
#-----------   ------------------   ----------------------------------
DEPT.M        00 001 00 00         : DEPTH        - DEPTH
ILD .OHMM     00 120 00 00         : RESD         - DEEP RESISTIVITY (DIL)
DPHI.V/V      00 890 00 00         : PHID         - DENSITY POROSITY (LIMESTONE)
NPHI.V/V      00 330 00 00         : PHIN         - NEUTRON POROSITY (LIMESTONE)
GR  .API      00 310 00 00         : GR           - GAMMA RAY
~PARAMETER INFORMATION
#MNEM.UNIT           DATA             DESCRIPTION OF MNEMONIC
#---------         -----------     ------------------------------
GL  .M        642.12               : gl           - GROUND LEVEL ELEVATION
EREF.M        645.4                : kb           - ELEVATION OF DEPTH REFERENCE
DATM.M        642.12               : datum        - DATUM ELEVATION
TDD .M        480                  : tdd          - TOTAL DEPTH DRILLER
RUN .         ONE                  : Run          - RUN NUMBER
ENG .         BILL                 : Engineer     - RECORDING ENGINEER
WIT .         JIM                  : Witness      - WITNESSED BY
MUD .         GEL                  : Mud_type     - MUD TYPE
MATR.         LIMESTONE            : Logunit      - NEUTRON MATRIX
TMAX.C        21                   : BHT          - MAXIMUM RECORDED TEMPERATURE
BHTD.M        480                  : BHTDEP       - MAXIMUM RECORDED TEMPERATURE
MATR.         1                    : LOGUNIT      - NEUTRON MATRIX
RMT .C        25                   : MDTP         - TEMPERATURE OF MUD
NEUT.         1                    : NEUTRON      - NEUTRON TYPE
RESI.         0                    : RESIST       - RESISTIVITY TYPE
RMC .OHMM     0.25                 : RMC          - RESISTIVITY OF MUD CAKE
RMF .OHMM     0.25                 : RMF          - RESISTIVITY OF MUD FILTRATE
SUFT.C        15                   : SUFT         - SURFACE TEMPERATURE
~A  DEPTH     RESD     PHID     PHIN       GR
# ...
  375.500    3.763    0.245    0.409   90.444
  375.750    4.542    0.271    0.406   91.062
  376.000    5.279    0.271    0.405   90.456
  376.250    0.865    0.276    0.416   92.912
  376.500    0.561    0.245    0.422   92.306
  376.750    0.431    0.243    0.422   95.986
  377.000    0.357    0.246    0.428   99.055
  377.250    0.307    0.260    0.422   97.837
  377.500    0.264    0.250    0.433   94.170
  377.750    0.290    0.240    0.422   94.790
  378.000    0.343    0.250    0.414   92.347
  378.250    0.604    0.238    0.411   97.865
  378.500    1.942    0.251    0.416   95.421
  378.750    5.368    0.260    0.415   93.591
  379.000    6.855    0.251    0.426   94.824
  379.250    6.122    0.251    0.409   93.605
  379.500    5.166    0.239    0.396   93.000
  379.750    5.263    0.240    0.379   91.169
  380.000    5.568    0.247    0.376   83.217
  380.250    6.002    0.293    0.355   75.264
  380.500    5.889    0.318    0.352   70.374
  380.750    6.000    0.296    0.360   67.931
  381.000    6.229    0.280    0.366   67.938
  381.250    6.589    0.266    0.365   71.007
  381.500    6.713    0.260    0.372   72.850
  381.750    6.712    0.255    0.374   75.306
  382.000    6.711    0.245    0.382   76.535
  382.250    6.461    0.236    0.385   78.991
  382.500    6.340    0.212    0.371   81.447
  382.750    6.338    0.202    0.358   83.290
  383.000    6.457    0.211    0.350   82.686
  383.250    6.831    0.207    0.335   82.079
  383.500    7.364    0.072    0.297   77.191
  383.750    7.939    0.050    0.292   74.135
  384.000    7.937    0.202    0.361   71.080
  384.250    7.936    0.230    0.372   82.106
  384.500    7.786    0.199    0.364   84.562
  384.750    7.496    0.177    0.380   85.180
  385.000    7.083    0.174    0.405   83.964
  385.250    6.820    0.171    0.386   88.871
  385.500    6.691    0.183    0.380   90.711
  385.750    6.690    0.197    0.377   94.391
  386.000    6.945    0.191    0.374   95.623
  386.250    7.076    0.201    0.369   91.956
  386.500    7.209    0.203    0.359   90.741
  386.750    7.345    0.198    0.352   90.134
  387.000    7.483    0.190    0.364   90.142
  387.250    7.480    0.193    0.370   90.147
  387.500    7.480    0.196    0.375   90.764
  387.750    7.338    0.194    0.365   91.386
  388.000    7.200    0.202    0.363   92.618
  388.250    7.199    0.202    0.359   92.621
  388.500    7.062    0.196    0.374   92.631
  388.750    7.061    0.193    0.363   92.635
  389.000    6.928    0.196    0.379   93.256
  389.250    6.927    0.210    0.371   93.261
  389.500    6.926    0.196    0.374   93.268
  389.750    6.794    0.180    0.374   93.887
  390.000    6.793    0.204    0.362   94.507
  390.250    6.665    0.218    0.352   93.288
  390.500    6.418    0.232    0.373   89.008
  390.750    5.840    0.226    0.380   89.016
  391.000    5.313    0.168    0.387   90.859
  391.250    4.927    0.203    0.402   87.806
  391.500    4.158    0.228    0.414   87.198
  391.750    3.509    0.308    0.426   85.369
  392.000    3.017    0.257    0.406   83.540
  392.250    2.644    0.206    0.400   83.545
  392.500    2.546    0.220    0.422   84.777
  392.750    2.498    0.246    0.434   84.784
  393.000    2.450    0.249    0.439   81.730
  393.250    2.450    0.279    0.446   78.674
  393.500    2.450    0.291    0.441   81.744
  393.750    2.449    0.233    0.421   81.138
  394.000    2.495    0.182    0.410   85.430
  394.250    2.495    0.194    0.421   89.109
  394.500    2.590    0.205    0.406   94.626
  394.750    2.740    0.200    0.419   97.694
  395.000    3.010    0.187    0.419   92.803
  395.250    3.433    0.187    0.407   89.138
  395.500    3.772    0.168    0.399   86.694
  395.750    4.143    0.156    0.409   87.313
  396.000    4.907    0.160    0.402   89.156
  396.250    5.391    0.163    0.378   89.164
  396.500    5.812    0.160    0.371   88.558
  396.750    6.149    0.173    0.371   86.116
  397.000    6.505    0.167    0.383   84.899
  397.250    6.627    0.163    0.402   91.029
  397.500    6.625    0.174    0.411   93.482
  397.750    5.916    0.195    0.415   94.715
  398.000    5.383    0.180    0.416   97.171
  398.250    4.992    0.180    0.424   99.012
  398.500    4.806    0.182    0.427   95.958
  398.750    4.805    0.195    0.405   94.740
  399.000    4.804    0.199    0.389   95.360
  399.250    4.714    0.189    0.380   95.978
  399.500    4.625    0.185    0.375   93.537
  399.750    4.288    0.195    0.366   92.931
  400.000    4.207    0.208    0.373   90.490
  400.250    4.128    0.226    0.370   86.827
  400.500    4.534    0.229    0.354   84.995
  400.750    4.797    0.240    0.345   82.550
  401.000    6.243    0.222    0.333   77.659
  401.250    7.122    0.097    0.342   73.378
  401.500    8.926    0.055    0.305   69.712
  401.750   13.254    0.017    0.281   66.047
  402.000   18.253    0.300    0.272   63.603
  402.250   21.215    0.311    0.313   67.285
  402.500   22.869    0.257    0.332   71.576
  402.750   23.743    0.168    0.311   72.807
  403.000   25.119    0.077    0.295   67.916
  403.250   26.079    0.059    0.279   61.189
  403.500   28.112    0.088    0.283   57.521
  403.750   29.185    0.129    0.351   64.876
  404.000   29.735    0.238    0.366   72.230
  404.250   30.295    0.253    0.360   75.909
  404.500   30.288    0.263    0.351   77.751
  404.750   28.084    0.258    0.357   72.251
  405.000   27.041    0.263    0.365   74.707
  405.250   27.548    0.257    0.358   75.935
  405.500   27.544    0.242    0.365   72.271
  405.750   26.519    0.246    0.379   69.215
  406.000   25.058    0.231    0.376   67.384
  406.250   21.956    0.203    0.396   72.288
  406.500   20.747    0.165    0.401   70.460
  406.750   18.878    0.199    0.378   70.466
  407.000   16.857    0.241    0.368   73.534
  407.250   15.631    0.241    0.351   75.378
  407.500   14.493    0.214    0.342   73.549
  407.750   14.221    0.203    0.357   71.106
  408.000   13.952    0.199    0.349   67.438
  408.250   13.689    0.214    0.349   64.383
  408.500   13.947    0.215    0.326   61.943
  408.750   14.479    0.224    0.317   61.949
  409.000   15.608    0.237    0.334   61.344
  409.250   16.204    0.258    0.344   63.185
  409.500   17.469    0.252    0.346   66.254
  409.750   19.554    0.237    0.334   68.709
  410.000   21.481    0.274    0.337   73.004
  410.250   23.598    0.259    0.342   76.683
  410.500   29.024    0.247    0.348   81.589
  410.750   34.379    0.260    0.344   82.817
  411.000   41.496    0.247    0.345   84.661
  411.250   41.486    0.235    0.352   81.609
  411.500   38.467    0.226    0.359   80.389
  411.750   34.349    0.220    0.356   83.457
  412.000   30.099    0.231    0.353   86.528
  412.250   26.878    0.242    0.348   87.144
  412.500   24.924    0.270    0.340   83.477
  412.750   23.110    0.295    0.341   71.239
  413.000   28.424    0.285    0.341   61.450
  413.250   37.696    0.274    0.346   46.763
  413.500   53.905    0.268    0.335   44.933
  413.750   89.616    0.263    0.327   46.777
  414.000  102.227    0.257    0.342   48.007
  414.250  106.130    0.248    0.353   48.013
  414.500   98.402    0.258    0.356   46.796
  414.750   91.234    0.253    0.352   48.028
  415.000   86.210    0.249    0.363   50.483
  415.250   79.940    0.239    0.354   55.388
  415.500   68.741    0.235    0.343   59.680
  415.750   60.238    0.238    0.349   63.360
  416.000   51.800    0.261    0.338   66.428
  416.250   49.880    0.255    0.331   68.884
  416.500   45.385    0.268    0.332   71.339
  416.750   42.081    0.266    0.337   74.407
  417.000   40.519    0.252    0.338   72.577
  417.250   37.572    0.242    0.336   76.258
  417.500   33.549    0.220    0.336   80.552
  417.750   28.312    0.200    0.338   80.556
  418.000   25.282    0.218    0.351   82.400
  418.250   22.576    0.207    0.359   83.019
  418.500   20.160    0.205    0.360   84.250
  418.750   16.695    0.203    0.336   91.606
