~VERSION INFORMATION
 VERS.                 2.0:   CWLS LOG ASCII STANDARD -VERSION 2.0
 WRAP.                  NO:   ONE LINE PER DEPTH STEP
~WELL INFORMATION BLOCK
#MNEM.UNIT           DATA                    DESCRIPTION OF MNEMONIC
#---------    -------------------            -------------------------------
# Generated from Intellog Unique Number	CW_82_90/WELL/3431
WELL.         CDN SUP                        : Well_name    - WELL
LOC .         00/07-26-090-22W4/0            : Location     - LOCATION
UWI .         00/07-26-090-22W4/0            : Uwi          - UNIQUE WELL ID
ENTR.         MAX                            : Entered      - ENTERED BY
SRVC.         SCHLUMBERGER                   : Scn          - SERVICE COMPANY
STRT.M        150                            : top_depth    - START DEPTH
STOP.M        240                            : bot_depth    - STOP DEPTH
STEP.M        0.25                           : increment    - STEP LENGTH
 NULL. -999.2500:NULL Value
~CURVE INFORMATION BLOCK
#MNEM UNIT       ERCB CURVE CODE    CURVE DESCRIPTION
#-----------   ------------------   ----------------------------------
DEPT.M        00 001 00 00         : DEPTH        - DEPTH
ILD .OHMM     00 120 00 00         : RESD         - DEEP RESISTIVITY (DIL)
NPHI.V/V      00 330 00 00         : PHIN         - NEUTRON POROSITY (SANDSTONE)
DPHI.V/V      00 890 00 00         : PHID         - DENSITY POROSITY (SANDSTONE)
CALI.MM       00 280 01 00         : CAL          - CALIPER
GR  .API      00 310 00 00         : GR           - GAMMA RAY
~PARAMETER INFORMATION
#MNEM.UNIT           DATA             DESCRIPTION OF MNEMONIC
#---------         -----------     ------------------------------
GL  .M        513.7                : gl           - GROUND LEVEL ELEVATION
EREF.M        516.8                : kb           - ELEVATION OF DEPTH REFERENCE
DATM.M        513                  : datum        - DATUM ELEVATION
TDD .M        244                  : tdd          - TOTAL DEPTH DRILLER
RUN .         ONE                  : Run          - RUN NUMBER
ENG .         BILL                 : Engineer     - RECORDING ENGINEER
WIT .         JIM                  : Witness      - WITNESSED BY
MUD .         GEL                  : Mud_type     - MUD TYPE
MATR.         SANDSTONE            : Logunit      - NEUTRON MATRIX
TMAX.C        17.1                 : BHT          - MAXIMUM RECORDED TEMPERATURE
BHTD.M        244                  : BHTDEP       - MAXIMUM RECORDED TEMPERATURE
MATR.         1                    : LOGUNIT      - NEUTRON MATRIX
RMT .C        16                   : MDTP         - TEMPERATURE OF MUD
NEUT.         1                    : NEUTRON      - NEUTRON TYPE
RESI.         0                    : RESIST       - RESISTIVITY TYPE
RMC .OHMM     2.8                  : RMC          - RESISTIVITY OF MUD CAKE
RMF .OHMM     2.8                  : RMF          - RESISTIVITY OF MUD FILTRATE
SUFT.C        -10                  : SUFT         - SURFACE TEMPERATURE
~A  DEPTH     RESD     PHIN     PHID      CAL       GR
  150.000    4.306    0.426    0.268  229.215   90.259
  150.250    4.228    0.467    0.305  231.135   97.310
  150.500    3.623    0.472    0.305  232.073   99.344
  150.750    3.525    0.466    0.291  231.045   96.076
  151.000    3.621    0.478    0.279  231.971   98.107
  151.250    3.653    0.483    0.290  232.434   99.266
  151.500    3.619    0.497    0.286  232.383   98.354
  151.750    3.521    0.498    0.293  231.847   97.442
  152.000    3.488    0.489    0.302  231.304   97.120
  152.250    3.583    0.478    0.304  230.767   96.208
  152.500    3.680    0.472    0.309  230.722   97.947
  152.750    3.780    0.479    0.319  230.682   97.330
  153.000    3.990    0.482    0.343  229.157   94.353
  153.250    4.250    0.469    0.352  226.156   91.672
  153.500    4.568    0.435    0.332  228.088   87.512
  153.750    5.137    0.418    0.313  232.467   85.424
  154.000    5.673    0.414    0.314  234.388   82.447
  154.250    6.379    0.420    0.312  238.269   80.061
  154.500    7.108    0.431    0.304  242.156   78.847
  154.750    7.780    0.437    0.279  241.122   76.464
  155.000    8.749    0.432    0.262  234.698   73.782
  155.250    8.906    0.416    0.268  228.257   71.392
  155.500    8.904    0.406    0.303  225.748   70.483
  155.750    8.741    0.401    0.328  225.217   69.863
  156.000    8.427    0.409    0.338  226.149   70.724
  156.250    7.029    0.420    0.349  226.098   73.351
  156.500    6.361    0.431    0.345  226.064   77.748
  156.750    4.980    0.437    0.332  226.019   83.616
  157.000    4.425    0.435    0.317  225.973   88.016
  157.250    4.756    0.430    0.304  225.928   90.348
  157.500    5.348    0.423    0.308  225.877   92.087
  157.750    6.015    0.413    0.312  225.837   89.406
  158.000    6.234    0.405    0.315  225.781   86.433
  158.250    5.540    0.400    0.318  226.238   83.456
  158.500    5.390    0.392    0.316  226.679   83.425
  158.750    5.291    0.390    0.310  226.634   86.642
  159.000    4.832    0.406    0.307  226.588   90.154
  159.250    4.575    0.418    0.306  226.543   93.080
  159.500    4.962    0.425    0.302  227.475   93.348
  159.750    6.164    0.431    0.303  226.938   88.598
  160.000    7.188    0.427    0.309  225.904   84.147
  160.250    8.083    0.420    0.318  225.379   77.337
  160.500    9.172    0.414    0.330  223.859   72.590
  160.750   10.038    0.392    0.327  222.824   70.790
  161.000   10.500    0.391    0.330  222.785   69.878
  161.250   10.688    0.399    0.329  223.723   69.848
  161.500   10.589    0.405    0.324  223.677   70.407
  161.750    9.846    0.402    0.313  223.632   70.678
  162.000    9.579    0.399    0.312  223.089   70.949
  162.250    9.319    0.401    0.318  222.541   71.807
  162.500    8.824    0.408    0.324  222.496   72.075
  162.750    7.494    0.414    0.322  222.948   72.342
  163.000    5.814    0.418    0.317  223.388   72.315
  163.250    4.551    0.414    0.316  223.354   73.169
  163.500    3.901    0.420    0.315  223.309   74.325
  163.750    3.343    0.434    0.313  223.749   78.125
  164.000    3.025    0.443    0.318  223.698   81.349
  164.250    2.970    0.466    0.325  223.167   86.041
  164.500    3.135    0.482    0.322  222.636   88.665
  164.750    3.525    0.493    0.322  224.551   89.231
  165.000    4.000    0.490    0.322  235.817   88.607
  165.250    4.339    0.480    0.314  237.247   88.580
  165.500    4.580    0.472    0.302  235.229   89.444
  165.750    4.834    0.460    0.291  233.709   90.597
  166.000    5.195    0.447    0.278  230.720   92.044
  166.250    5.483    0.430    0.267  229.692   92.895
  166.500    5.840    0.421    0.281  228.664   91.695
  166.750    6.334    0.424    0.276  226.155   89.305
  167.000    6.625    0.439    0.277  229.545   86.616
  167.250    6.868    0.438    0.268  233.437   84.233
  167.500    7.183    0.431    0.271  237.810   81.548
  167.750    7.312    0.421    0.279  233.341   79.758
  168.000    7.443    0.421    0.268  229.358   79.436
  168.250    7.577    0.428    0.263  227.346   79.700
  168.500    7.783    0.426    0.262  227.312   81.737
  168.750    8.067    0.417    0.257  225.786   82.300
  169.000    8.439    0.406    0.250  225.747   79.917
  169.250    9.152    0.390    0.238  230.125   72.808
  169.500   10.386    0.373    0.226  232.035   67.472
  169.750   11.470    0.354    0.204  226.588   62.722
  170.000   10.379    0.312    0.166  225.566   63.584
  170.250    9.224    0.302    0.179  226.006   69.750
  170.500    8.049    0.359    0.268  226.938   77.686
  170.750    7.553    0.378    0.279  226.407   82.377
  171.000    7.688    0.390    0.276  224.395   79.689
  171.250    7.345    0.398    0.280  225.333   77.309
  171.500    7.018    0.401    0.293  226.265   75.509
  171.750    7.144    0.412    0.309  227.203   76.960
  172.000    7.405    0.413    0.319  226.666   75.458
  172.250    7.336    0.413    0.324  225.141   72.478
  172.500    7.137    0.413    0.322  224.609   74.516
  172.750    6.819    0.408    0.305  224.072   78.916
  173.000    6.283    0.401    0.302  224.027   85.374
  173.250    6.058    0.395    0.302  223.976   83.577
  173.500    5.788    0.393    0.308  224.434   78.237
  173.750    5.237    0.402    0.305  224.874   77.620
  174.000    4.697    0.414    0.321  225.320   76.712
  174.250    3.847    0.408    0.320  225.767   78.447
  174.500    3.481    0.418    0.307  225.710   80.488
  174.750    3.326    0.435    0.315  226.162   81.051
  175.000    3.673    0.448    0.325  229.072   79.251
  175.250    4.522    0.478    0.332  223.613   78.637
  175.500    5.468    0.479    0.338  223.568   75.074
  175.750    7.303    0.447    0.345  223.517   68.257
  176.000    8.363    0.425    0.357  223.477   65.578
  176.250    8.668    0.403    0.354  223.432   65.256
  176.500    8.207    0.391    0.366  223.392   66.114
  176.750    7.562    0.386    0.368  223.341   68.148
  177.000    7.032    0.396    0.355  223.296   70.189
  177.250    6.841    0.391    0.343  223.714   70.453
  177.500    6.716    0.392    0.333  222.714   70.426
  177.750    6.475    0.399    0.322  222.669   70.992
  178.000    5.755    0.409    0.331  223.115   71.849
  178.250    5.302    0.417    0.347  224.053   73.297
  178.500    4.798    0.428    0.340  227.442   74.449
  178.750    5.157    0.440    0.358  228.872   74.419
  179.000    7.609    0.454    0.358  227.352   73.802
  179.250    9.453    0.467    0.334  224.357   72.893
  179.500   11.534    0.457    0.301  224.312   71.093
  179.750   15.266    0.338    0.271  222.798   68.998
  180.000   16.860    0.318    0.244  222.741   68.679
  180.250   16.702    0.293    0.228  223.193   66.587
  180.500   16.396    0.276    0.202  222.656   63.607
  180.750   15.809    0.261    0.136  223.102   62.404
  181.000   13.186    0.243    0.123  223.543   62.075
  181.250   11.824    0.260    0.133  223.017   63.522
  181.500   15.651    0.274    0.152  223.458   65.272
  181.750   17.285    0.303    0.157  222.921   71.434
  182.000   17.436    0.320    0.175  222.870   74.357
  182.250   10.593    0.294    0.167  222.824   73.150
  182.500    9.329    0.247    0.139  223.271   74.892
  182.750    8.141    0.268    0.097  223.711   77.519
  183.000    8.065    0.271    0.211  223.672   81.035
  183.250    7.704    0.397    0.257  223.632   83.957
  183.500    8.282    0.399    0.280  223.587   87.170
  183.750    8.131    0.394    0.271  224.027   88.323
  184.000    7.983    0.395    0.275  224.479   88.889
  184.250    7.766    0.397    0.285  226.400   87.977
  184.500    7.287    0.397    0.290  228.321   86.767
  184.750    6.775    0.395    0.290  226.304   85.563
  185.000    6.131    0.395    0.280  225.275   83.465
  185.250    6.184    0.396    0.270  225.230   83.441
  185.500    6.588    0.402    0.275  224.196   81.051
  185.750    7.341    0.398    0.264  223.664   79.847
  186.000    7.609    0.385    0.270  223.613   77.461
  186.250    7.538    0.388    0.330  224.060   73.599
