~VERSION INFORMATION
 VERS.                 2.0:   CWLS LOG ASCII STANDARD -VERSION 2.0
 WRAP.                  NO:   ONE LINE PER DEPTH STEP
~WELL INFORMATION BLOCK
#MNEM.UNIT           DATA                    DESCRIPTION OF MNEMONIC
#---------    -------------------            -------------------------------
# Generated from Intellog Unique Number	CS_73_76/WELL/769
WELL.         BOW VALLEY INDUSTRIES          : Well_name    - WELL
LOC .         00/07-13-073-15W4/0            : Location     - LOCATION
UWI .         00/07-13-073-15W4/0            : Uwi          - UNIQUE WELL ID
ENTR.         SP                             : Entered      - ENTERED BY
SRVC.         SCHLUMBERGER                   : Scn          - SERVICE COMPANY
STRT.M        350                            : top_depth    - START DEPTH
STOP.M        517                            : bot_depth    - STOP DEPTH
STEP.M        0.25                           : increment    - STEP LENGTH
 NULL. -999.2500:NULL Value
~CURVE INFORMATION BLOCK
#MNEM UNIT       ERCB CURVE CODE    CURVE DESCRIPTION
#-----------   ------------------   ----------------------------------
DEPT.M        00 001 00 00         : DEPTH        - DEPTH
ILD .OHMM     00 120 00 00         : RESD         - DEEP RESISTIVITY (DIL)
DPHI.V/V      00 890 00 00         : PHID         - DENSITY POROSITY (LIMESTONE)
NPHI.V/V      00 330 00 00         : PHIN         - NEUTRON POROSITY (LIMESTONE)
GR  .API      00 310 00 00         : GR           - GAMMA RAY
~PARAMETER INFORMATION
#MNEM.UNIT           DATA             DESCRIPTION OF MNEMONIC
#---------         -----------     ------------------------------
GL  .M        644.71               : gl           - GROUND LEVEL ELEVATION
EREF.M        648                  : kb           - ELEVATION OF DEPTH REFERENCE
DATM.M        644.71               : datum        - DATUM ELEVATION
TDD .M        525                  : tdd          - TOTAL DEPTH DRILLER
RUN .         ONE                  : Run          - RUN NUMBER
ENG .         BILL                 : Engineer     - RECORDING ENGINEER
WIT .         JIM                  : Witness      - WITNESSED BY
MUD .         GEL                  : Mud_type     - MUD TYPE
MATR.         LIMESTONE            : Logunit      - NEUTRON MATRIX
TMAX.C        23                   : BHT          - MAXIMUM RECORDED TEMPERATURE
BHTD.M        525                  : BHTDEP       - MAXIMUM RECORDED TEMPERATURE
MATR.         1                    : LOGUNIT      - NEUTRON MATRIX
RMT .C        25                   : MDTP         - TEMPERATURE OF MUD
NEUT.         1                    : NEUTRON      - NEUTRON TYPE
RESI.         0                    : RESIST       - RESISTIVITY TYPE
RMC .OHMM     0.25                 : RMC          - RESISTIVITY OF MUD CAKE
RMF .OHMM     0.25                 : RMF          - RESISTIVITY OF MUD FILTRATE
SUFT.C        15                   : SUFT         - SURFACE TEMPERATURE
~A  DEPTH     RESD     PHID     PHIN       GR
# ...
  393.500    5.401    0.316    0.521   73.023
  393.750    5.503    0.312    0.530   68.803
  394.000    5.504    0.314    0.520   68.198
  394.250    5.505    0.315    0.509   71.207
  394.500    5.506    0.305    0.497   74.819
  394.750    5.507    0.300    0.496   76.624
  395.000    5.508    0.292    0.496   79.031
  395.250    5.718    0.299    0.497   79.631
  395.500    5.935    0.297    0.497   76.615
  395.750    6.276    0.253    0.497   74.806
  396.000    6.888    0.143    0.498   71.791
  396.250    8.935    0.095    0.496   67.571
  396.500   11.377    0.100    0.437   65.159
  396.750   13.958    0.123    0.305   62.747
  397.000   16.197    0.145    0.322   62.142
  397.250   11.598    0.104    0.297   62.742
  397.500    9.998    0.137    0.357   75.389
  397.750    7.569    0.275    0.391   83.218
  398.000    6.526    0.294    0.420   82.612
  398.250    6.059    0.291    0.494   81.405
  398.500    5.627    0.287    0.517   80.800
  398.750    5.628    0.282    0.514   81.400
  399.000    5.734    0.279    0.509   83.204
  399.250    5.736    0.282    0.504   86.816
  399.500    5.844    0.285    0.497   89.223
  399.750    5.955    0.280    0.489   90.425
  400.000    5.956    0.273    0.491   91.626
  400.250    6.069    0.269    0.506   92.227
  400.500    6.070    0.261    0.512   92.224
  400.750    6.071    0.256    0.514   92.221
  401.000    6.073    0.244    0.508   92.821
  401.250    6.074    0.237    0.515   93.420
  401.500    6.075    0.252    0.521   93.418
  401.750    6.076    0.258    0.523   92.813
  402.000    5.965    0.272    0.518   88.592
  402.250    5.966    0.264    0.511   86.783
  402.500    5.858    0.269    0.512   85.576
  402.750    5.751    0.266    0.502   86.176
  403.000    5.752    0.258    0.489   91.595
  403.250    5.754    0.262    0.484   90.388
  403.500    5.754    0.274    0.474   84.360
  403.750    5.755    0.274    0.473   84.358
  404.000    5.865    0.264    0.478   87.367
  404.250    5.866    0.256    0.486   91.582
  404.500    5.867    0.272    0.497   93.988
  404.750    5.868    0.276    0.511   93.383
  405.000    5.869    0.266    0.519   93.983
  405.250    5.981    0.247    0.513   94.582
  405.500    5.982    0.260    0.509   91.568
  405.750    6.095    0.266    0.505   92.167
  406.000    6.326    0.244    0.493   88.550
  406.250    6.567    0.223    0.490   87.343
  406.500    6.945    0.217    0.489   87.941
  406.750    7.077    0.217    0.484   87.940
  407.000    7.211    0.213    0.494   86.732
  407.250    7.212    0.216    0.487   85.525
  407.500    7.348    0.221    0.476   83.715
  407.750    7.350    0.227    0.484   86.122
  408.000    7.489    0.249    0.483   83.107
  408.250    7.352    0.263    0.481   78.888
  408.500    7.219    0.281    0.478   80.692
  408.750    6.829    0.299    0.493   82.497
  409.000    6.582    0.315    0.505   83.097
  409.250    6.343    0.313    0.516   83.094
  409.500    6.344    0.301    0.508   84.898
  409.750    6.114    0.302    0.496   87.907
  410.000    6.115    0.312    0.490   88.507
  410.250    6.004    0.309    0.477   89.107
  410.500    6.005    0.303    0.467   89.706
  410.750    6.006    0.300    0.461   90.305
  411.000    6.007    0.293    0.473   90.304
  411.250    6.008    0.291    0.481   89.096
  411.500    6.009    0.287    0.487   87.888
  411.750    6.124    0.286    0.481   85.477
  412.000    6.125    0.291    0.477   83.667
  412.250    6.126    0.296    0.487   86.676
  412.500    6.127    0.291    0.501   85.468
  412.750    6.243    0.285    0.494   82.454
  413.000    6.244    0.279    0.484   81.849
  413.250    6.245    0.272    0.475   81.846
  413.500    6.246    0.280    0.485   81.240
  413.750    6.133    0.284    0.488   80.033
  414.000    6.134    0.286    0.487   82.439
  414.250    6.022    0.290    0.493   85.449
  414.500    5.697    0.294    0.488   89.061
  414.750    5.097    0.285    0.502   92.673
  415.000    4.394    0.269    0.519   98.694
  415.250    3.719    0.248    0.543  104.112
  415.500    3.266    0.259    0.569  106.520
  415.750    2.868    0.242    0.588  110.734
  416.000    2.615    0.232    0.586  113.141
  416.250    2.428    0.226    0.562  108.921
  416.500    2.340    0.237    0.579  105.907
  416.750    2.384    0.231    0.586  105.301
  417.000    2.521    0.228    0.575   99.275
  417.250    2.981    0.245    0.545   96.862
  417.500    3.271    0.259    0.507   99.870
  417.750    3.459    0.265    0.484  101.675
  418.000    4.089    0.263    0.490  102.878
  418.250    4.488    0.256    0.486  102.273
  418.500    4.746    0.241    0.478  100.462
  418.750    4.927    0.248    0.478   99.859
  419.000    4.928    0.248    0.477   97.446
  419.250    5.021    0.241    0.477   95.636
  419.500    5.022    0.242    0.480   95.031
  419.750    5.117    0.244    0.484   94.426
  420.000    5.118    0.250    0.483   94.423
  420.250    5.215    0.248    0.483   94.420
  420.500    5.314    0.233    0.488   94.418
  420.750    5.315    0.238    0.493   93.211
  421.000    5.415    0.251    0.480   88.991
  421.250    5.622    0.283    0.463   85.374
  421.500    5.728    0.302    0.443   81.757
  421.750    5.946    0.291    0.460   71.513
  422.000    6.172    0.266    0.471   64.282
  422.250    6.407    0.280    0.481   59.460
  422.500    6.528    0.293    0.492   55.843
  422.750    6.292    0.317    0.511   57.045
  423.000    6.177    0.320    0.491   58.849
  423.250    5.843    0.315    0.464   59.449
  423.500    5.326    0.329    0.453   60.049
  423.750    5.133    0.336    0.448   61.852
  424.000    5.040    0.342    0.468   62.453
  424.250    5.041    0.326    0.476   62.451
  424.500    5.136    0.325    0.459   62.448
  424.750    5.137    0.324    0.451   63.047
  425.000    5.138    0.316    0.465   62.442
  425.250    4.684    0.318    0.476   61.837
  425.500    4.862    0.323    0.464   60.630
  425.750    4.953    0.300    0.427   58.820
  426.000    5.142    0.109    0.261   55.806
  426.250    5.643    0.133    0.259   54.598
  426.500    6.428    0.172    0.342   57.004
  426.750    7.054    0.223    0.389   58.809
  427.000    7.323    0.284    0.450   61.216
  427.250    7.057    0.334    0.460   62.418
  427.500    5.755    0.328    0.470   63.620
  427.750    5.444    0.317    0.475   63.618
  428.000    5.246    0.319    0.465   61.205
  428.250    5.151    0.318    0.452   61.203
  428.500    5.347    0.323    0.447   62.404
  428.750    5.551    0.313    0.456   63.004
  429.000    5.655    0.304    0.459   63.604
  429.250    5.763    0.305    0.450   62.397
  429.500    5.764    0.314    0.451   58.177
  429.750    5.873    0.324    0.457   55.765
  430.000    5.984    0.320    0.458   55.160
  430.250    5.986    0.329    0.451   58.771
  430.500    5.877    0.312    0.445   60.576
  430.750    5.988    0.285    0.435   62.982
  431.000    5.989    0.252    0.429   63.583
  431.250    6.102    0.244    0.422   61.772
  431.500    6.103    0.305    0.435   59.962
  431.750    6.105    0.320    0.453   58.755
  432.000    6.106    0.325    0.469   56.343
  432.250    5.995    0.329    0.459   55.136
  432.500    5.671    0.324    0.450   55.133
  432.750    5.465    0.319    0.471   54.528
  433.000    5.267    0.314    0.470   55.127
  433.250    5.171    0.313    0.465   57.533
  433.500    5.469    0.308    0.479   58.134
  433.750    5.369    0.302    0.482   61.745
  434.000    5.370    0.324    0.487   63.550
  434.250    5.272    0.328    0.487   66.559
  434.500    5.176    0.333    0.485   65.352
  434.750    5.082    0.337    0.473   64.746
  435.000    5.083    0.337    0.462   64.744
  435.250    5.276    0.325    0.470   62.331
  435.500    5.477    0.319    0.470   59.918
  435.750    5.581    0.310    0.471   58.109
  436.000    5.582    0.294    0.461   55.697
  436.250    5.583    0.267    0.471   59.912
  436.500    5.584    0.294    0.488   63.523
  436.750    5.381    0.312    0.494   65.327
