~VERSION INFORMATION
 VERS.                 2.0:   CWLS LOG ASCII STANDARD -VERSION 2.0
 WRAP.                  NO:   ONE LINE PER DEPTH STEP
~WELL INFORMATION BLOCK
#MNEM.UNIT           DATA                    DESCRIPTION OF MNEMONIC
#---------    -------------------            -------------------------------
# Generated from Intellog Unique Number	CS_67_68/WELL/623
WELL.         INNER-CITY GAS LTD             : Well_name    - WELL
LOC .         00/03-18-068-12W4/0            : Location     - LOCATION
UWI .         00/03-18-068-12W4/0            : Uwi          - UNIQUE WELL ID
ENTR.         SP                             : Entered      - ENTERED BY
SRVC.         SCHLUMBERGER                   : Scn          - SERVICE COMPANY
STRT.M        300                            : top_depth    - START DEPTH
STOP.M        480                            : bot_depth    - STOP DEPTH
STEP.M        0.25                           : increment    - STEP LENGTH
 NULL. -999.2500:NULL Value
~CURVE INFORMATION BLOCK
#MNEM UNIT       ERCB CURVE CODE    CURVE DESCRIPTION
#-----------   ------------------   ----------------------------------
DEPT.M        00 001 00 00         : DEPTH        - DEPTH
ILD .OHMM     00 120 00 00         : RESD         - DEEP RESISTIVITY (DIL)
DPHI.V/V      00 890 00 00         : PHID         - DENSITY POROSITY (LIMESTONE)
NPHI.V/V      00 330 00 00         : PHIN         - NEUTRON POROSITY (LIMESTONE)
GR  .API      00 310 00 00         : GR           - GAMMA RAY
~PARAMETER INFORMATION
#MNEM.UNIT           DATA             DESCRIPTION OF MNEMONIC
#---------         -----------     ------------------------------
GL  .M        599                  : gl           - GROUND LEVEL ELEVATION
EREF.M        602.55               : kb           - ELEVATION OF DEPTH REFERENCE
DATM.M        599                  : datum        - DATUM ELEVATION
TDD .M        482                  : tdd          - TOTAL DEPTH DRILLER
RUN .         ONE                  : Run          - RUN NUMBER
ENG .         BILL                 : Engineer     - RECORDING ENGINEER
WIT .         JIM                  : Witness      - WITNESSED BY
MUD .         GEL                  : Mud_type     - MUD TYPE
MATR.         LIMESTONE            : Logunit      - NEUTRON MATRIX
TMAX.C        35                   : BHT          - MAXIMUM RECORDED TEMPERATURE
BHTD.M        482                  : BHTDEP       - MAXIMUM RECORDED TEMPERATURE
MATR.         1                    : LOGUNIT      - NEUTRON MATRIX
RMT .C        25                   : MDTP         - TEMPERATURE OF MUD
NEUT.         1                    : NEUTRON      - NEUTRON TYPE
RESI.         0                    : RESIST       - RESISTIVITY TYPE
RMC .OHMM     0.25                 : RMC          - RESISTIVITY OF MUD CAKE
RMF .OHMM     0.25                 : RMF          - RESISTIVITY OF MUD FILTRATE
SUFT.C        15                   : SUFT         - SURFACE TEMPERATURE
~A  DEPTH     RESD     PHID     PHIN       GR
# ...
  430.500    3.927    0.164    0.297  114.976
  430.750    4.858    0.137    0.260  103.568
  431.000    5.271    0.087    0.304   81.037
  431.250    5.410    0.135    0.414   91.946
  431.500    5.441    0.158    0.438  102.973
  431.750    4.834    0.173    0.448  112.670
  432.000    4.457    0.179    0.427  119.767
  432.250    4.154    0.174    0.445  120.458
  432.500    4.019    0.172    0.464  117.696
  432.750    4.094    0.167    0.435  109.073
  433.000    4.584    0.068    0.247   92.771
  433.250    5.297    0.005    0.202   82.274
  433.500    6.339    0.032    0.235   71.412
  433.750    7.217    0.084    0.343   78.569
  434.000    7.164    0.139    0.425   94.797
  434.250    6.581    0.172    0.450  107.760
  434.500    5.782    0.166    0.433  114.676
  434.750    5.071    0.163    0.440  116.150
  435.000    4.497    0.179    0.430  116.414
  435.250    4.286    0.191    0.422  116.135
  435.500    4.146    0.172    0.424  114.343
  435.750    4.170    0.166    0.439  112.129
  436.000    4.178    0.172    0.434  109.733
  436.250    4.155    0.167    0.430  107.821
  436.500    4.148    0.157    0.435  111.534
  436.750    4.126    0.152    0.439  115.669
  437.000    4.104    0.162    0.443  119.865
  437.250    4.081    0.171    0.435  122.002
  437.500    4.074    0.182    0.423  122.630
  437.750    4.075    0.183    0.402  124.526
  438.000    4.083    0.149    0.384  116.750
  438.250    4.091    0.160    0.428  115.380
  438.500    4.107    0.190    0.510  118.064
  438.750    4.207    0.202    0.429  120.204
  439.000    4.239    0.200    0.403  121.073
  439.250    4.216    0.186    0.380  121.344
  439.500    4.109    0.187    0.371  123.238
  439.750    4.026    0.193    0.392  122.956
  440.000    4.064    0.201    0.414  116.387
  440.250    4.451    0.199    0.453  113.326
  440.500    4.688    0.115    0.341  114.740
  440.750    4.892    0.068    0.293   90.939
  441.000    5.068    0.107    0.278   86.911
  441.250    5.022    0.163    0.323  104.469
  441.500    4.885    0.183    0.399  116.344
  441.750    4.717    0.195    0.377  121.445
  442.000    4.572    0.145    0.358  111.734
  442.250    4.538    0.110    0.356  102.263
  442.500    4.539    0.153    0.394  102.890
  442.750    4.531    0.193    0.410  114.404
  443.000    4.465    0.177    0.430  120.229
  443.250    4.352    0.166    0.440  121.220
  443.500    4.102    0.174    0.415  116.285
  443.750    3.831    0.184    0.416  118.605
  444.000    3.706    0.190    0.438  121.475
  444.250    3.860    0.186    0.464  122.036
  444.500    4.021    0.138    0.391  116.315
  444.750    3.784    0.095    0.335  108.964
  445.000    3.318    0.128    0.308  105.297
  445.250    2.867    0.165    0.356  111.184
  445.500    2.401    0.218    0.398  123.061
  445.750    2.090    0.228    0.426  124.051
  446.000    1.867    0.223    0.469  120.927
  446.250    1.744    0.228    0.503  118.896
  446.500    1.780    0.210    0.488  122.001
  446.750    1.793    0.201    0.443  120.693
  447.000    1.824    0.198    0.446  124.526
  447.250    1.893    0.200    0.469  130.414
  447.500    1.994    0.206    0.492  133.762
  447.750    2.077    0.212    0.512  134.815
  448.000    2.183    0.217    0.504  134.352
  448.250    2.291    0.221    0.494  131.715
  448.500    2.463    0.193    0.511  127.262
  448.750    2.763    0.159    0.532  122.630
  449.000    3.105    0.091    0.333  114.128
  449.250    3.743   -0.006    0.251  103.024
  449.500    4.505    0.026    0.299   92.466
  449.750    5.215    0.091    0.343   84.507
  450.000    5.616    0.128    0.380   99.043
  450.250    5.304    0.149    0.423  115.451
  450.500    4.360    0.165    0.459  128.234
  450.750    3.664    0.168    0.481  127.716
  451.000    3.316    0.154    0.506  129.549
  451.250    3.256    0.155    0.438  133.199
  451.500    3.256    0.159    0.402  135.277
  451.750    3.348    0.162    0.425  130.827
  452.000    3.673    0.131    0.432  125.530
  452.250    4.090    0.103    0.424  121.075
  452.500    4.316    0.089    0.404  116.443
  452.750    4.554    0.129    0.406  111.872
  453.000    4.701    0.129    0.412  108.326
  453.250    4.456    0.155    0.395  115.543
  453.500    3.958    0.177    0.396  125.302
  453.750    3.556    0.191    0.418  133.126
  454.000    3.315    0.191    0.433  137.622
  454.250    3.142    0.184    0.450  134.926
  454.500    3.068    0.192    0.451  138.092
  454.750    3.035    0.188    0.438  141.623
  455.000    3.052    0.176    0.437  143.398
  455.250    3.115    0.160    0.420  139.612
  455.500    3.197    0.159    0.392  133.828
  455.750    3.257    0.169    0.365  132.404
  456.000    3.246    0.176    0.405  141.494
  456.250    3.169    0.165    0.449  143.215
  456.500    3.060    0.142    0.521  141.721
  456.750    2.879    0.163    0.488  142.045
  457.000    2.806    0.154    0.501  137.414
  457.250    2.906    0.119    0.427  133.872
  457.500    2.961    0.140    0.406  139.393
  457.750    3.022    0.163    0.428  145.645
  458.000    3.085    0.173    0.463  147.602
  458.250    3.196    0.180    0.509  146.417
  458.500    3.422    0.161    0.410  134.950
  458.750    3.811    0.149    0.367  123.484
  459.000    4.314    0.160    0.360  111.111
  459.250    5.013    0.118    0.376   98.497
  459.500    5.665    0.120    0.385   89.571
  459.750    5.912    0.190    0.347   88.688
  460.000    6.227    0.225    0.305   86.836
  460.250    6.511    0.247    0.284   79.606
  460.500    6.682    0.255    0.294   76.783
  460.750    6.795    0.160    0.316   74.633
  461.000    6.859    0.113    0.337   74.894
  461.250    6.772    0.137    0.354   72.439
  461.500    6.575    0.164    0.377   71.192
  461.750    6.686    0.187    0.397   72.664
  462.000    6.825    0.169    0.381   74.200
  462.250    6.664    0.084    0.281   75.915
  462.500    6.212    0.110    0.286   76.605
  462.750    5.674    0.149    0.304   74.148
  463.000    5.309    0.182    0.319   77.194
  463.250    4.904    0.189    0.331   81.692
  463.500    4.700    0.185    0.342   83.830
  463.750    4.580    0.189    0.340   89.962
  464.000    4.539    0.172    0.331   98.750
  464.250    4.590    0.155    0.376  109.961
  464.500    4.728    0.195    0.467  123.104
  464.750    5.159    0.219    0.509  123.852
  465.000    5.917    0.209    0.385  111.964
  465.250    6.874    0.167    0.328   99.894
  465.500    7.884    0.162    0.355   90.120
  465.750    8.554    0.198    0.371   89.720
  466.000    8.993    0.220    0.390  121.366
  466.250    9.508    0.227    0.416  125.380
  466.500    9.996    0.231    0.418  110.951
  466.750   10.260    0.253    0.374   96.523
  467.000   10.261    0.249    0.365   90.499
  467.250    9.890    0.218    0.384   99.653
  467.500    9.101    0.176    0.397  112.438
  467.750    8.130    0.161    0.393  119.473
  468.000    7.621    0.160    0.377  126.628
  468.250    7.184    0.174    0.381  130.037
  468.500    6.848    0.194    0.395  119.297
  468.750    6.673    0.206    0.395  105.957
  469.000    6.887    0.183    0.368  107.917
  469.250    7.228    0.198    0.310  115.135
  469.500    7.391    0.232    0.267  113.160
  469.750    7.419    0.251    0.236   94.983
  470.000    7.352    0.204    0.261   95.007
  470.250    6.918    0.174    0.275  104.100
  470.500    6.716    0.171    0.288  105.694
  470.750    6.402    0.170    0.310  107.108
  471.000    6.113    0.170    0.336  109.066
  471.250    5.969    0.169    0.343  105.342
  471.500    5.947    0.181    0.298   98.107
  471.750    6.048    0.200    0.314   90.571
  472.000    6.323    0.144    0.342  108.370
  472.250    6.551    0.123    0.363  121.757
  472.500    6.711    0.148    0.350  122.326
  472.750    6.613    0.161    0.343  122.286
  473.000    6.222    0.151    0.355  123.096
  473.250    5.705    0.199    0.377  115.862
  473.500    5.437    0.255    0.401   98.652
  473.750    5.069    0.271    0.396   86.643
