~VERSION INFORMATION
 VERS.                 2.0:   CWLS LOG ASCII STANDARD -VERSION 2.0
 WRAP.                  NO:   ONE LINE PER DEPTH STEP
~WELL INFORMATION BLOCK
#MNEM.UNIT           DATA                    DESCRIPTION OF MNEMONIC
#---------    -------------------            -------------------------------
# Generated from Intellog Unique Number	CS_73_76/WELL/2166
WELL.         BOW VALLEY INDUSTRIES LTD.     : Well_name    - WELL
LOC .         00/06-23-074-14W4/0            : Location     - LOCATION
UWI .         00/06-23-074-14W4/0            : Uwi          - UNIQUE WELL ID
ENTR.         SP                             : Entered      - ENTERED BY
SRVC.         SCHLUMBERGER                   : Scn          - SERVICE COMPANY
STRT.M        410                            : top_depth    - START DEPTH
STOP.M        625                            : bot_depth    - STOP DEPTH
STEP.M        0.25                           : increment    - STEP LENGTH
 NULL. -999.2500:NULL Value
~CURVE INFORMATION BLOCK
#MNEM UNIT       ERCB CURVE CODE    CURVE DESCRIPTION
#-----------   ------------------   ----------------------------------
DEPT.M        00 001 00 00         : DEPTH        - DEPTH
GR  .API      00 310 00 00         : GR           - GAMMA RAY
NPHI.V/V      00 330 00 00         : PHIN         - NEUTRON POROSITY (LIMESTONE)
ILD .OHMM     00 120 00 00         : RESD         - DEEP RESISTIVITY (DIL)
DPHI.V/V      00 890 00 00         : PHID         - DENSITY POROSITY (LIMESTONE)
~PARAMETER INFORMATION
#MNEM.UNIT           DATA             DESCRIPTION OF MNEMONIC
#---------         -----------     ------------------------------
GL  .M        770.81               : gl           - GROUND LEVEL ELEVATION
EREF.M        774.16               : kb           - ELEVATION OF DEPTH REFERENCE
DATM.M        770.81               : datum        - DATUM ELEVATION
TDD .M        626                  : tdd          - TOTAL DEPTH DRILLER
RUN .         ONE                  : Run          - RUN NUMBER
ENG .         BILL                 : Engineer     - RECORDING ENGINEER
WIT .         JIM                  : Witness      - WITNESSED BY
MUD .         GEL                  : Mud_type     - MUD TYPE
MATR.         LIMESTONE            : Logunit      - NEUTRON MATRIX
TMAX.C        22                   : BHT          - MAXIMUM RECORDED TEMPERATURE
BHTD.M        626                  : BHTDEP       - MAXIMUM RECORDED TEMPERATURE
MATR.         1                    : LOGUNIT      - NEUTRON MATRIX
RMT .C        25                   : MDTP         - TEMPERATURE OF MUD
NEUT.         1                    : NEUTRON      - NEUTRON TYPE
RESI.         0                    : RESIST       - RESISTIVITY TYPE
RMC .OHMM     0.25                 : RMC          - RESISTIVITY OF MUD CAKE
RMF .OHMM     0.25                 : RMF          - RESISTIVITY OF MUD FILTRATE
SUFT.C        15                   : SUFT         - SURFACE TEMPERATURE
~A  DEPTH       GR     PHIN     RESD     PHID
# ...
  453.500  105.241    0.499    4.364    0.237
  453.750  100.971    0.490    4.363    0.225
  454.000  104.018    0.489    4.610    0.218
  454.250  100.358    0.490    4.871    0.241
  454.500   99.137    0.474    5.053    0.224
  454.750   99.746    0.474    5.242    0.229
  455.000  100.963    0.490    5.338    0.217
  455.250   99.743    0.505    5.746    0.239
  455.500   96.692    0.468    5.961    0.239
  455.750   94.252    0.444    6.184    0.229
  456.000   93.641    0.430    6.535    0.213
  456.250   92.420    0.424    6.779    0.230
  456.500   91.809    0.422    7.164    0.212
  456.750   90.588    0.441    7.295    0.219
  457.000   88.757    0.460    7.292    0.229
  457.250   87.536    0.470    7.155    0.217
  457.500   86.316    0.461    7.153    0.184
  457.750   88.144    0.467    7.019    0.165
  458.000   89.361    0.468    7.016    0.176
  458.250   89.360    0.462    6.886    0.176
  458.500   87.530    0.455    6.632    0.166
  458.750   84.479    0.468    6.631    0.160
  459.000   86.307    0.472    6.506    0.177
  459.250   88.135    0.470    6.504    0.223
  459.500   85.695    0.466    6.623    0.259
  459.750   82.644    0.472    6.871    0.274
  460.000   81.423    0.473    7.395    0.286
  460.250   81.421    0.472    7.531    0.280
  460.500   82.030    0.477    7.813    0.274
  460.750   81.419    0.485    8.105    0.256
  461.000   81.418    0.482    8.565    0.248
  461.250   80.806    0.466    8.884    0.242
  461.500   77.147    0.455    9.387    0.249
  461.750   69.829    0.432    9.561    0.247
  462.000   61.290    0.418    9.736    0.245
  462.250   58.240    0.432    9.914    0.261
  462.500   54.580    0.435    9.909    0.253
  462.750   53.359    0.436    9.907    0.257
  463.000   53.358    0.441    9.902    0.251
  463.250   53.356    0.447    9.898    0.259
  463.500   52.745    0.433    9.896    0.259
  463.750   50.305    0.420    9.891    0.269
  464.000   49.694    0.413    9.889    0.282
  464.250   50.912    0.412    9.885    0.286
  464.500   53.349    0.418    9.880    0.286
  464.750   54.568    0.413    9.878    0.296
  465.000   56.395    0.428    9.872    0.290
  465.250   57.613    0.441   10.054    0.281
  465.500   57.611    0.447   10.052    0.276
  465.750   57.001    0.450   10.046    0.284
  466.000   55.170    0.454   10.043    0.286
  466.250   52.730    0.441   10.040    0.280
  466.500   49.679    0.426    9.852    0.292
  466.750   47.239    0.415    9.849    0.292
  467.000   46.628    0.421    9.843    0.287
  467.250   46.016    0.409    9.841    0.279
  467.500   46.624    0.413    9.838    0.289
  467.750   47.233    0.426   10.017    0.286
  468.000   47.841    0.436   10.014    0.287
  468.250   47.840    0.443   10.011    0.297
  468.500   48.448    0.439   10.006    0.309
  468.750   48.447    0.442    9.819    0.300
  469.000   49.665    0.452    9.817    0.310
  469.250   51.493    0.458    9.812    0.307
  469.500   52.711    0.442    9.809    0.301
  469.750   52.100    0.427    9.806    0.296
  470.000   50.879    0.410    9.801    0.286
  470.250   51.488    0.402    9.798    0.284
  470.500   52.705    0.409    9.795    0.302
  470.750   53.314    0.414    9.789    0.319
  471.000   53.922    0.423    9.787    0.313
  471.250   54.531    0.415    9.784    0.309
  471.500   55.748    0.406    9.781    0.306
  471.750   55.748    0.402    9.776    0.305
  472.000   56.965    0.399    9.593    0.301
  472.250   56.964    0.406    9.592    0.294
  472.500   56.963    0.412    9.587    0.308
  472.750   56.961    0.431    9.582    0.324
  473.000   58.179    0.448    9.403    0.337
  473.250   58.178    0.465    9.399    0.344
  473.500   58.785    0.470    9.396    0.349
  473.750   58.784    0.465    9.394    0.334
  474.000   58.783    0.449    9.392    0.334
  474.250   59.392    0.437    9.563    0.336
  474.500   60.000    0.442    9.560    0.332
  474.750   59.998    0.447    9.555    0.338
  475.000   60.606    0.440    9.551    0.330
  475.250   61.215    0.424    9.548    0.335
  475.500   61.824    0.414    9.370    0.328
  475.750   63.651    0.426    9.367    0.335
  476.000   64.869    0.431    9.363    0.329
  476.250   64.868    0.440    9.360    0.318
  476.500   65.477    0.440    9.185    0.308
  476.750   63.646    0.444    9.181    0.301
  477.000   63.645    0.419    9.177    0.307
  477.250   64.253    0.408    9.006    0.326
  477.500   66.081    0.404    9.003    0.333
  477.750   67.299    0.406    9.000    0.337
  478.000   68.517    0.417    8.996    0.346
  478.250   68.515    0.435    8.994    0.347
  478.500   67.904    0.449    8.989    0.348
  478.750   66.074    0.457    8.823    0.341
  479.000   65.462    0.437    8.658    0.324
  479.250   65.461    0.453    8.187    0.335
  479.500   66.679    0.458    7.742    0.342
  479.750   69.116    0.471    7.739    0.343
  480.000   70.334    0.484    7.736    0.343
  480.250   70.943    0.474    7.877    0.341
  480.500   68.503    0.459    8.022    0.333
  480.750   64.843    0.449    8.017    0.329
  481.000   61.792    0.442    8.165    0.347
  481.250   61.181    0.446    8.315    0.351
  481.500   61.180    0.449    8.310    0.345
  481.750   61.179    0.454    8.463    0.335
  482.000   61.176    0.472    8.461    0.330
  482.250   61.175    0.484    8.616    0.336
  482.500   60.565    0.487    8.773    0.345
  482.750   59.953    0.491    8.771    0.350
  483.000   59.342    0.488    8.767    0.341
  483.250   58.731    0.483    8.603    0.335
  483.500   58.120    0.475    8.761    0.341
  483.750   58.728    0.463    8.757    0.334
  484.000   59.336    0.466    8.754    0.324
  484.250   59.945    0.481    8.752    0.311
  484.500   59.944    0.484    8.747    0.330
  484.750   59.942    0.463    8.745    0.341
  485.000   60.550    0.451    8.742    0.326
  485.250   60.549    0.463    8.739    0.313
  485.500   59.938    0.461    8.574    0.326
  485.750   59.327    0.460    8.572    0.322
  486.000   58.715    0.468    8.568    0.333
  486.250   58.104    0.461    8.566    0.336
  486.500   58.103    0.454    8.405    0.345
  486.750   58.711    0.459    8.403    0.352
  487.000   59.929    0.459    8.245    0.358
  487.250   61.148    0.461    8.091    0.355
  487.500   61.756    0.463    8.089    0.350
  487.750   60.535    0.474    7.935    0.345
  488.000   58.094    0.470    7.933    0.356
  488.250   56.873    0.472    7.932    0.332
  488.500   56.872    0.477    8.077    0.332
  488.750   56.871    0.478    8.225    0.340
  489.000   57.479    0.468    8.375    0.346
  489.250   57.477    0.455    8.529    0.350
  489.500   57.476    0.448    8.525    0.343
  489.750   55.645    0.457    8.366    0.337
  490.000   55.034    0.465    8.362    0.333
  490.250   56.252    0.480    8.206    0.333
  490.500   57.471    0.474    8.203    0.340
  490.750   58.688    0.463    8.201    0.345
  491.000   58.687    0.457    8.047    0.340
  491.250   58.686    0.477    8.043    0.333
  491.500   58.074    0.482    7.894    0.338
  491.750   58.073    0.459    7.890    0.328
  492.000   58.072    0.451    7.888    0.335
  492.250   59.289    0.452    7.740    0.338
  492.500   60.508    0.453    7.737    0.333
  492.750   62.335    0.469    7.735    0.331
  493.000   62.944    0.460    7.732    0.326
  493.250   65.991    0.451    7.729    0.331
  493.500   67.818    0.447    7.725    0.316
  493.750   69.647    0.451    7.724    0.306
  494.000   70.255    0.454    7.720    0.299
  494.250   70.864    0.445    7.718    0.317
  494.500   71.472    0.449    7.572    0.317
  494.750   70.861    0.446    7.570    0.315
  495.000   70.250    0.451    7.569    0.314
  495.250   69.639    0.448    7.565    0.314
  495.500   69.637    0.464    7.423    0.317
  495.750   68.416    0.470    7.421    0.311
  496.000   67.195    0.474    7.419    0.305
  496.250   66.584    0.475    7.416    0.302
  496.500   67.802    0.472    7.277    0.293
  496.750   69.630    0.463    7.274    0.286
