~VERSION INFORMATION
 VERS.                 2.0:   CWLS LOG ASCII STANDARD -VERSION 2.0
 WRAP.                  NO:   ONE LINE PER DEPTH STEP
~WELL INFORMATION BLOCK
#MNEM.UNIT           DATA                    DESCRIPTION OF MNEMONIC
#---------    -------------------            -------------------------------
# Generated from Intellog Unique Number	CS_67_68/WELL/2179
WELL.         GLOBEL ARTIC ISLANDS           : Well_name    - WELL
LOC .         00/07-32-067-17W4/0            : Location     - LOCATION
UWI .         00/07-32-067-17W4/0            : Uwi          - UNIQUE WELL ID
ENTR.         SP                             : Entered      - ENTERED BY
SRVC.         SCHLUMBERGER                   : Scn          - SERVICE COMPANY
STRT.M        345                            : top_depth    - START DEPTH
STOP.M        550                            : bot_depth    - STOP DEPTH
STEP.M        0.25                           : increment    - STEP LENGTH
 NULL. -999.2500:NULL Value
~CURVE INFORMATION BLOCK
#MNEM UNIT       ERCB CURVE CODE    CURVE DESCRIPTION
#-----------   ------------------   ----------------------------------
DEPT.M        00 001 00 00         : DEPTH        - DEPTH
ILD .OHMM     00 120 00 00         : RESD         - DEEP RESISTIVITY (DIL)
DPHI.V/V      00 890 00 00         : PHID         - DENSITY POROSITY (LIMESTONE)
NPHI.V/V      00 330 00 00         : PHIN         - NEUTRON POROSITY (LIMESTONE)
GR  .API      00 310 00 00         : GR           - GAMMA RAY
CALI.MM       00 280 01 00         : CAL          - CALIPER
~PARAMETER INFORMATION
#MNEM.UNIT           DATA             DESCRIPTION OF MNEMONIC
#---------         -----------     ------------------------------
GL  .M        589.2                : gl           - GROUND LEVEL ELEVATION
EREF.M        593                  : kb           - ELEVATION OF DEPTH REFERENCE
DATM.M        593                  : datum        - DATUM ELEVATION
TDD .M        555                  : tdd          - TOTAL DEPTH DRILLER
RUN .         ONE                  : Run          - RUN NUMBER
ENG .         BILL                 : Engineer     - RECORDING ENGINEER
WIT .         JIM                  : Witness      - WITNESSED BY
MUD .         GEL                  : Mud_type     - MUD TYPE
MATR.         LIMESTONE            : Logunit      - NEUTRON MATRIX
TMAX.C        19                   : BHT          - MAXIMUM RECORDED TEMPERATURE
BHTD.M        553.5                : BHTDEP       - MAXIMUM RECORDED TEMPERATURE
MATR.         1                    : LOGUNIT      - NEUTRON MATRIX
RMT .C        25                   : MDTP         - TEMPERATURE OF MUD
NEUT.         1                    : NEUTRON      - NEUTRON TYPE
RESI.         0                    : RESIST       - RESISTIVITY TYPE
RMC .OHMM     0.25                 : RMC          - RESISTIVITY OF MUD CAKE
RMF .OHMM     0.25                 : RMF          - RESISTIVITY OF MUD FILTRATE
SUFT.C        15                   : SUFT         - SURFACE TEMPERATURE
~A  DEPTH     RESD     PHID     PHIN       GR      CAL
# ...
  527.500   13.812    0.095    0.341   32.875  165.301
  527.750   13.566    0.022    0.321   36.787  167.158
  528.000   14.033    0.038    0.313   35.469  168.102
  528.250   14.983    0.061    0.320   32.387  167.627
  528.500   15.878    0.081    0.326   29.793  162.695
  528.750   16.486    0.104    0.334   29.020  165.464
  529.000   17.086    0.086    0.321   29.283  168.840
  529.250   17.321    0.065    0.313   30.336  167.351
  529.500   17.297    0.053    0.313   33.091  166.369
  529.750   17.533    0.028    0.303   33.114  168.533
  530.000   18.005    0.000    0.290   32.766  168.868
  530.250   18.454    0.021    0.280   31.692  167.384
  530.500   18.916    0.042    0.273   30.617  166.703
  530.750   19.281    0.053    0.266   30.514  166.531
  531.000   19.363    0.044    0.274   31.875  166.564
  531.250   19.445    0.035    0.268   32.804  166.293
  531.500   19.135    0.046    0.265   31.910  165.820
  531.750   18.795    0.031    0.270   30.167  165.547
  532.000   18.156    0.017    0.273   29.884  164.165
  532.250   17.216    0.027    0.275   29.964  162.976
  532.500   16.325    0.043    0.280   29.920  161.996
  532.750   15.917    0.041    0.283   30.426  162.129
  533.000   16.163    0.031    0.266   33.182  163.482
  533.250   16.358    0.020    0.266   33.628  166.050
  533.500   16.333    0.009    0.254   33.345  166.888
  533.750   15.953    0.000    0.245   35.308  166.111
  534.000   15.411    0.000    0.250   41.591  165.536
  534.250   14.969    0.000    0.250   47.691  166.177
  534.500   14.486    0.000    0.259   51.845  167.323
  534.750   13.067    0.000    0.270   54.540  168.166
  535.000   11.420    0.000    0.262   57.843  168.199
  535.250    9.513    0.007    0.255   81.031  167.018
  535.500    8.518    0.021    0.321  101.057  166.337
  535.750    7.768    0.030    0.349  115.609  167.789
  536.000    7.007    0.036    0.361  135.818  169.139
  536.250    6.570    0.037    0.367  137.479  169.881
  536.500    6.797    0.031    0.369  128.376  171.027
  536.750    7.517    0.042    0.372  115.687  171.978
  537.000    8.298    0.036    0.365  105.309  171.602
  537.250    8.695    0.030    0.353   98.638  170.315
  537.500    9.283    0.022    0.351   93.064  168.219
  537.750    9.930    0.037    0.347   87.732  166.735
  538.000   10.426    0.029    0.329   79.725  164.837
  538.250   10.765    0.030    0.296   68.191  161.328
  538.500   11.219    0.041    0.284   59.880  159.632
  538.750   11.478    0.055    0.293   54.184  162.706
  539.000   11.421    0.026    0.307   61.560  165.781
  539.250   11.012    0.023    0.307   64.012  164.493
  539.500   10.250    0.034    0.286   58.681  159.256
  539.750    9.263    0.033    0.268   73.357  155.740
  540.000    8.051    0.021    0.279   83.712  157.800
  540.250    6.743    0.008    0.306  102.277  159.961
  540.500    5.937    0.034    0.342  117.622  162.629
  540.750    5.355    0.052    0.380  121.411  165.396
  541.000    6.169    0.071    0.397  123.194  166.749
  541.250    8.457    0.063    0.409  108.681  166.276
  541.500   10.806    0.057    0.418   73.491  164.582
  541.750   14.225    0.045    0.291   61.774  163.298
  542.000   15.875    0.015    0.264   50.789  162.214
  542.250   17.426    0.000    0.256   49.409  162.249
  542.500   17.764    0.000    0.252   50.705  163.601
  542.750   16.473    0.000    0.256   51.637  164.142
  543.000   14.160    0.002    0.250   54.759  164.780
  543.250   12.194    0.000    0.236   61.649  165.823
  543.500   10.520    0.000    0.237   70.180  167.679
  543.750    9.212    0.000    0.260   82.240  169.639
  544.000    8.866    0.013    0.284   87.975  171.496
  544.250    9.396    0.023    0.309   85.684  172.039
  544.500   10.012    0.040    0.333   75.852  170.849
  544.750   11.216    0.025    0.267   56.231  169.368
  545.000   12.131    0.012    0.245   49.319  169.495
  545.250   12.003    0.000    0.234   52.318  165.072
  545.500    8.814    0.007    0.247   73.864  162.466
  545.750    7.647    0.018    0.295   88.780  162.498
  546.000    7.105    0.021    0.368  103.091  168.108
  546.250    6.813    0.070    0.382  116.426  170.778
  546.500    6.804    0.074    0.358  110.365  172.123
  546.750    7.183    0.030    0.342  104.002  170.739
  547.000    8.003    0.023    0.333   99.154  166.006
  547.250    8.608    0.037    0.338   90.479  164.824
  547.500    9.124    0.007    0.325   35.527  163.536
  547.750    9.351    0.000    0.273   21.864  160.429
  548.000    9.442    0.000    0.256   15.804  159.649
  548.250    9.378    0.005    0.271   11.992  160.086
  548.500    8.795    0.024    0.289   10.673  160.524
  548.750    8.293    0.045    0.310   11.121  161.776
  549.000    7.737    0.034    0.340   11.566  163.123
  549.250    7.738    0.021    0.284   11.948  164.776
  549.500    7.931    0.011    0.280   12.149  165.822
  549.750    8.145    0.013    0.317   12.413  166.565
  550.000    8.473    0.031    0.381   12.675  166.699
