~VERSION INFORMATION
 VERS.                 2.0:   CWLS LOG ASCII STANDARD -VERSION 2.0
 WRAP.                  NO:   ONE LINE PER DEPTH STEP
~WELL INFORMATION BLOCK
#MNEM.UNIT           DATA                    DESCRIPTION OF MNEMONIC
#---------    -------------------            -------------------------------
# Generated from Intellog Unique Number	CW_82_90/WELL/549
WELL.         MIAMI AMOCO WABASCA 06-34      : Well_name    - WELL
LOC .         00/06-34-084-01W5/0            : Location     - LOCATION
UWI .         00/06-34-084-01W5/0            : Uwi          - UNIQUE WELL ID
ENTR.         JAYE                           : Entered      - ENTERED BY
SRVC.         SCHLUMBERGER                   : Scn          - SERVICE COMPANY
DATE.         29 JAN 75                      : Date         - LOG DATE
STRT.M        274.32                         : top_depth    - START DEPTH
STOP.M        475.57                         : bot_depth    - STOP DEPTH
STEP.M        0.25                           : increment    - STEP LENGTH
 NULL. -999.2500:NULL Value
~CURVE INFORMATION BLOCK
#MNEM UNIT       ERCB CURVE CODE    CURVE DESCRIPTION
#-----------   ------------------   ----------------------------------
DEPT.M        00 001 00 00         : DEPTH        - DEPTH
CALI.MM       00 280 01 00         : CAL          - CALIPER
GR  .API      00 310 00 00         : GR           - GAMMA RAY
NPHI.V/V      00 330 00 00         : PHIN         - NEUTRON POROSITY (SANDSTONE)
DPHI.V/V      00 890 00 00         : PHID         - DENSITY POROSITY (SANDSTONE)
ILD .OHMM     00 120 00 00         : RESD         - DEEP RESISTIVITY (DIL)
~PARAMETER INFORMATION
#MNEM.UNIT           DATA             DESCRIPTION OF MNEMONIC
#---------         -----------     ------------------------------
GL  .M        627.583              : gl           - GROUND LEVEL ELEVATION
EREF.M        630.875              : kb           - ELEVATION OF DEPTH REFERENCE
DATM.M        627.583              : datum        - DATUM ELEVATION
TDD .M        475.488              : tdd          - TOTAL DEPTH DRILLER
RUN .         ONE                  : Run          - RUN NUMBER
ENG .         CROCKFORD            : Engineer     - RECORDING ENGINEER
WIT .         RUDD                 : Witness      - WITNESSED BY
BASE.         EDMONTON             : Branch       - HOME BASE OF LOGGING UNIT
MUD .         DAPP                 : Mud_type     - MUD TYPE
MATR.         SANDSTONE            : Logunit      - NEUTRON MATRIX
TMAX.C        25                   : BHT          - MAXIMUM RECORDED TEMPERATURE
BHTD.M        475.488              : BHTDEP       - MAXIMUM RECORDED TEMPERATURE
RMT .C        17.7778              : MDTP         - TEMPERATURE OF MUD
MUDD.KG/M     9600                 : MWT          - MUD DENSITY
NEUT.         1                    : NEUTRON      - NEUTRON TYPE
RESI.         0                    : RESIST       - RESISTIVITY TYPE
RM  .OHMM     2.8                  : RM           - RESISTIVITY OF MUD
RMC .OHMM     0                    : RMC          - RESISTIVITY OF MUD CAKE
RMF .OHMM     2.34                 : RMF          - RESISTIVITY OF MUD FILTRATE
SUFT.C        -17.7778             : SUFT         - SURFACE TEMPERATURE
~A  DEPTH      CAL       GR     PHIN     PHID     RESD
  274.320  181.039  108.195    0.571    0.196    2.652
  274.570  182.834  109.008    0.579    0.216    2.373
  274.820  181.420  108.301    0.588    0.233    2.202
  275.070  178.968  107.157    0.592    0.240    2.097
  275.320  177.043  108.220    0.588    0.239    2.030
  275.570  176.256  108.240    0.576    0.254    1.994
  275.820  174.530  108.204    0.582    0.241    1.963
  276.070  174.156  107.371    0.597    0.251    1.954
  276.320  175.425  106.715    0.600    0.259    1.944
  276.570  176.093  106.618    0.606    0.243    1.946
  276.820  175.396  106.090    0.605    0.251    1.962
  277.070  173.059  105.441    0.603    0.256    1.971
  277.320  169.989  104.361    0.613    0.259    1.983
  277.570  167.439  102.426    0.612    0.283    1.991
  277.820  168.819  100.061    0.603    0.290    2.000
  278.070  171.344   95.805    0.595    0.286    2.036
  278.320  173.759   92.710    0.583    0.254    2.051
  278.570  174.828   91.815    0.562    0.242    2.064
  278.820  175.386   90.428    0.567    0.259    2.088
  279.070  175.522   97.117    0.580    0.252    2.129
  279.320  177.635   99.582    0.556    0.231    2.162
  279.570  179.837  100.215    0.547    0.233    2.199
  279.820  183.083   99.504    0.547    0.232    2.250
  280.070  186.231   97.205    0.541    0.231    2.285
  280.320  187.928   95.758    0.530    0.236    2.337
  280.570  187.751   95.777    0.529    0.245    2.396
  280.820  186.029   96.473    0.541    0.241    2.442
  281.070  186.061   95.514    0.550    0.229    2.484
  281.320  187.245   94.501    0.554    0.231    2.514
  281.570  188.113   95.925    0.566    0.232    2.529
  281.820  188.551   99.492    0.579    0.222    2.564
  282.070  188.385  100.679    0.558    0.232    2.580
  282.320  186.865  100.453    0.542    0.223    2.601
  282.570  181.005  100.234    0.539    0.231    2.626
  282.820  180.211   99.273    0.547    0.236    2.638
  283.070  178.905   95.689    0.560    0.234    2.684
  283.320  174.593   90.698    0.562    0.224    2.966
  283.570  172.666   82.285    0.521    0.228    3.754
  283.820  170.320   74.054    0.461    0.208    4.441
  284.070  167.255   67.169    0.400    0.219    5.489
  284.320  167.394   68.964    0.415    0.237    6.363
  284.570  165.982   73.572    0.429    0.245    6.654
  284.820  164.054   79.095    0.434    0.239    6.622
  285.070  163.469   81.008    0.458    0.240    6.688
  285.320  162.368   80.970    0.487    0.258    7.311
  285.570  161.158   73.595    0.509    0.276    7.659
  285.820  160.470   69.766    0.504    0.294    7.778
  286.070  159.884   68.381    0.474    0.336    8.090
  286.320  160.133   62.843    0.454    0.337    8.569
  286.570  160.164   62.500    0.455    0.330    9.028
  286.820  159.898   63.559    0.468    0.334    9.356
  287.070  159.617   66.574    0.480    0.317    9.311
  287.320  159.861   70.570    0.488    0.293    9.164
  287.570  160.216   72.732    0.488    0.286    8.972
  287.820  160.767   74.160    0.474    0.311    8.814
  288.070  160.392   75.769    0.460    0.307    8.692
  288.320  159.389   76.770    0.466    0.299    8.555
  288.570  159.430   76.729    0.477    0.302    8.406
  288.820  159.571   74.244    0.490    0.307    8.289
  289.070  159.811   69.926    0.491    0.312    8.174
  289.320  159.537   67.627    0.502    0.316    8.119
  289.570  159.163   69.788    0.512    0.301    8.022
  289.820  158.784   71.031    0.509    0.307    7.969
  290.070  158.509   69.955    0.498    0.310    7.887
  290.320  158.142   67.895    0.505    0.301    7.636
  290.570  157.966   67.490    0.506    0.299    7.353
  290.820  158.306   69.346    0.491    0.293    6.963
  291.070  158.965   68.695    0.481    0.269    6.510
  291.320  159.935   67.860    0.483    0.252    6.087
  291.570  160.590   70.022    0.494    0.236    6.113
  291.820  158.453   71.083    0.504    0.246    6.535
  292.070  159.836   71.958    0.495    0.285    6.899
  292.320  161.013   72.166    0.485    0.297    7.018
  292.570  160.841   72.004    0.479    0.295    7.299
  292.820  160.259   71.234    0.473    0.293    7.676
  293.070  158.852   70.701    0.471    0.287    7.767
  293.320  159.088   69.746    0.470    0.273    7.547
  293.570  156.536   69.704    0.466    0.266    7.044
  293.820  156.160   70.890    0.470    0.255    6.621
  294.070  160.446   74.638    0.480    0.256    5.647
  294.320  163.171   81.629    0.492    0.269    4.703
  294.570  163.932   87.397    0.517    0.257    3.699
  294.820  164.071   94.570    0.542    0.232    2.970
  295.070  164.424   94.591    0.549    0.231    2.538
  295.320  164.869   94.551    0.550    0.245    2.373
  295.570  165.425   93.966    0.537    0.242    2.370
  295.820  166.183   94.536    0.541    0.235    2.398
  296.070  167.570   95.778    0.544    0.227    2.408
  296.320  169.880   96.110    0.543    0.235    2.428
  296.570  177.268   96.249    0.549    0.254    2.452
  296.820  180.932   96.822    0.556    0.255    2.509
  297.070  178.479   94.094    0.556    0.244    2.580
  297.320  176.970   91.792    0.538    0.232    2.679
  297.570  176.273   91.875    0.503    0.239    2.812
  297.820  173.830   92.447    0.499    0.231    3.017
  298.070  173.349   92.716    0.519    0.220    3.298
  298.320  170.589   92.918    0.529    0.215    3.545
  298.570  170.215   92.757    0.531    0.208    3.701
  298.820  171.905   91.375    0.539    0.219    3.717
  299.070  172.977   87.848    0.529    0.209    3.666
  299.320  173.636   79.434    0.517    0.221    3.729
  299.570  170.568   77.377    0.503    0.250    4.152
  299.820  166.050   80.766    0.477    0.257    4.278
  300.070  162.048   87.141    0.485    0.254    4.142
  300.320  160.325   93.457    0.519    0.238    3.678
  300.570  163.777   99.409    0.561    0.244    3.243
  300.820  168.367  103.346    0.557    0.246    2.817
  301.070  168.508  104.342    0.558    0.250    2.479
  301.320  165.338  104.669    0.555    0.251    2.400
  301.570  166.098  104.446    0.552    0.239    2.419
  301.820  166.341  100.006    0.557    0.235    2.568
  302.070  164.001   94.099    0.541    0.240    2.755
  302.320  163.000   90.025    0.509    0.250    3.000
  302.570  164.278   85.039    0.513    0.261    3.256
  302.820  164.941   82.552    0.525    0.250    3.506
  303.070  162.905   79.213    0.522    0.229    3.811
  303.320  160.662   74.161    0.501    0.245    4.353
  303.570  159.358   68.311    0.451    0.256    5.205
  303.820  160.431   61.977    0.422    0.237    6.023
  304.070  160.776   52.220    0.369    0.210    7.150
  304.320  160.913   45.822    0.377    0.166    8.212
  304.570  161.160   43.584    0.407    0.193    8.877
  304.820  161.607   42.747    0.434    0.244    9.283
  305.070  162.265   38.797    0.442    0.333    9.551
  305.320  162.717   37.963    0.442    0.325    9.609
  305.570  162.856   38.719    0.433    0.318    9.616
  305.820  162.793   41.979    0.419    0.323    9.501
  306.070  162.829   45.547    0.422    0.319    9.403
  306.320  163.286   48.814    0.430    0.315    9.221
  306.570  163.521   51.277    0.435    0.311    8.994
  306.820  163.564   53.679    0.442    0.317    8.708
  307.070  164.010   57.616    0.455    0.283    8.399
  307.320  164.564   60.146    0.468    0.254    7.782
  307.570  164.086   61.387    0.484    0.265    7.423
  307.820  161.844   55.845    0.450    0.294    6.890
  308.070  160.741   61.430    0.445    0.307    6.164
  308.320  160.775   63.529    0.458    0.286    5.494
  308.570  162.057   67.036    0.458    0.282    4.764
  308.820  163.237   77.205    0.479    0.264    4.223
  309.070  163.897   89.267    0.509    0.220    3.622
  309.320  165.586   97.356    0.531    0.219    3.234
  309.570  167.483   96.221    0.517    0.237    3.242
  309.820  166.901   91.839    0.529    0.260    3.397
  310.070  167.867   91.922    0.519    0.247    3.432
  310.320  170.489   90.661    0.509    0.238    3.440
  310.570  172.700   86.709    0.489    0.247    3.461
