~VERSION INFORMATION
 VERS.                 2.0:   CWLS LOG ASCII STANDARD -VERSION 2.0
 WRAP.                  NO:   ONE LINE PER DEPTH STEP
~WELL INFORMATION BLOCK
#MNEM.UNIT           DATA                    DESCRIPTION OF MNEMONIC
#---------    -------------------            -------------------------------
# Generated from Intellog Unique Number	CS_67_68/WELL/843
WELL.         MERLAND EXPLORATIONS           : Well_name    - WELL
LOC .         00/05-27-068-11W4/0            : Location     - LOCATION
UWI .         00/05-27-068-11W4/0            : Uwi          - UNIQUE WELL ID
ENTR.         SP                             : Entered      - ENTERED BY
SRVC.         SCHLUMBERGER                   : Scn          - SERVICE COMPANY
STRT.M        300                            : top_depth    - START DEPTH
STOP.M        505                            : bot_depth    - STOP DEPTH
STEP.M        0.25                           : increment    - STEP LENGTH
 NULL. -999.2500:NULL Value
~CURVE INFORMATION BLOCK
#MNEM UNIT       ERCB CURVE CODE    CURVE DESCRIPTION
#-----------   ------------------   ----------------------------------
DEPT.M        00 001 00 00         : DEPTH        - DEPTH
ILD .OHMM     00 120 00 00         : RESD         - DEEP RESISTIVITY (DIL)
DPHI.V/V      00 890 00 00         : PHID         - DENSITY POROSITY (LIMESTONE)
NPHI.V/V      00 330 00 00         : PHIN         - NEUTRON POROSITY (LIMESTONE)
GR  .API      00 310 00 00         : GR           - GAMMA RAY
~PARAMETER INFORMATION
#MNEM.UNIT           DATA             DESCRIPTION OF MNEMONIC
#---------         -----------     ------------------------------
GL  .M        615.2                : gl           - GROUND LEVEL ELEVATION
EREF.M        618                  : kb           - ELEVATION OF DEPTH REFERENCE
DATM.M        615.2                : datum        - DATUM ELEVATION
TDD .M        515                  : tdd          - TOTAL DEPTH DRILLER
RUN .         ONE                  : Run          - RUN NUMBER
ENG .         BILL                 : Engineer     - RECORDING ENGINEER
WIT .         JIM                  : Witness      - WITNESSED BY
MUD .         GEL                  : Mud_type     - MUD TYPE
MATR.         LIMESTONE            : Logunit      - NEUTRON MATRIX
TMAX.C        22                   : BHT          - MAXIMUM RECORDED TEMPERATURE
BHTD.M        515                  : BHTDEP       - MAXIMUM RECORDED TEMPERATURE
MATR.         1                    : LOGUNIT      - NEUTRON MATRIX
RMT .C        25                   : MDTP         - TEMPERATURE OF MUD
NEUT.         1                    : NEUTRON      - NEUTRON TYPE
RESI.         0                    : RESIST       - RESISTIVITY TYPE
RMC .OHMM     0.25                 : RMC          - RESISTIVITY OF MUD CAKE
RMF .OHMM     0.25                 : RMF          - RESISTIVITY OF MUD FILTRATE
SUFT.C        15                   : SUFT         - SURFACE TEMPERATURE
~A  DEPTH     RESD     PHID     PHIN       GR
# ...
  387.000    5.979    0.317    0.393   65.936
  387.250    5.840    0.311    0.393   67.694
  387.500    5.758    0.317    0.406   68.847
  387.750    5.806    0.312    0.421   68.245
  388.000    5.954    0.302    0.432   67.763
  388.250    6.230    0.294    0.421   66.676
  388.500    7.078    0.299    0.320   65.347
  388.750    7.951    0.180    0.275   63.836
  389.000    9.290    0.130    0.240   62.446
  389.250   10.202    0.121    0.211   61.480
  389.500   11.898    0.067    0.187   60.938
  389.750   13.390    0.045    0.168   59.185
  390.000   14.709    0.031    0.154   56.827
  390.250   16.187    0.022    0.143   55.196
  390.500   16.753    0.052    0.166   54.956
  390.750   13.864    0.094    0.184   58.894
  391.000    9.558    0.143    0.224   63.012
  391.250    6.104    0.186    0.329   66.223
  391.500    5.483    0.242    0.385   68.103
  391.750    5.112    0.285    0.411   69.618
  392.000    5.022    0.257    0.410   67.745
  392.250    5.064    0.161    0.356   64.539
  392.500    5.096    0.078    0.254   59.941
  392.750    5.235    0.017    0.194   54.738
  393.000    6.013    0.005    0.177   51.774
  393.250    6.780    0.002    0.167   49.477
  393.500    7.617    0.066    0.245   52.627
  393.750    7.262    0.154    0.283   61.831
  394.000    5.662    0.206    0.322   69.097
  394.250    4.900    0.273    0.389   72.974
  394.500    4.492    0.303    0.413   69.769
  394.750    4.119    0.312    0.423   69.529
  395.000    3.884    0.321    0.422   72.316
  395.250    3.712    0.331    0.424   75.891
  395.500    3.679    0.339    0.421   78.315
  395.750    3.600    0.336    0.409   81.041
  396.000    3.582    0.333    0.408   80.681
  396.250    3.599    0.330    0.413   78.383
  396.500    3.621    0.329    0.421   74.269
  396.750    3.701    0.328    0.425   73.788
  397.000    3.779    0.322    0.428   77.059
  397.250    5.002    0.318    0.428   76.820
  397.500    6.191    0.308    0.423   69.982
  397.750    6.954    0.208    0.257   65.868
  398.000    7.401    0.100    0.234   64.479
  398.250    7.123    0.096    0.266   64.602
  398.500    5.983    0.188    0.365   64.847
  398.750    5.016    0.286    0.410   67.392
  399.000    4.599    0.314    0.443   71.935
  399.250    4.377    0.325    0.459   75.812
  399.500    4.181    0.317    0.463   75.815
  399.750    4.001    0.313    0.462   76.483
  400.000    3.960    0.318    0.459   78.604
  400.250    3.993    0.318    0.447   78.062
  400.500    4.064    0.309    0.439   80.728
  400.750    4.160    0.302    0.448   83.939
  401.000    4.219    0.297    0.453   87.332
  401.250    4.293    0.275    0.439   89.392
  401.500    4.410    0.261    0.429   91.635
  401.750    4.512    0.253    0.422   93.575
  402.000    4.609    0.249    0.445   95.151
  402.250    4.681    0.240    0.460   95.941
  402.500    4.765    0.223    0.453   93.401
  402.750    4.821    0.210    0.451   89.469
  403.000    4.926    0.226    0.453   94.375
  403.250    4.966    0.249    0.442   95.770
  403.500    5.026    0.257    0.428   94.986
  403.750    5.105    0.261    0.418   94.443
  404.000    5.166    0.243    0.410   94.385
  404.250    5.248    0.237    0.407   96.446
  404.500    5.311    0.245    0.406   97.720
  404.750    5.256    0.233    0.403   98.449
  405.000    5.212    0.224    0.409   95.788
  405.250    5.140    0.218    0.430   95.065
  405.500    5.096    0.227    0.441   96.096
  405.750    5.061    0.226    0.446   97.976
  406.000    5.028    0.217    0.440   99.491
  406.250    4.975    0.222    0.433   99.132
  406.500    4.927    0.211    0.433   98.347
  406.750    4.919    0.207    0.446   97.320
  407.000    4.886    0.228    0.451   96.960
  407.250    4.791    0.230    0.439   98.597
  407.500    4.724    0.222    0.432  100.779
  407.750    4.631    0.217    0.425  102.416
  408.000    4.499    0.216    0.446  103.326
  408.250    4.329    0.214    0.463  102.421
  408.500    4.051    0.222    0.460  100.850
  408.750    3.599    0.229    0.452   97.160
  409.000    3.257    0.249    0.445   94.620
  409.250    2.730    0.283    0.488   94.744
  409.500    2.009    0.295    0.537   98.439
  409.750    1.795    0.282    0.555   97.110
  410.000    1.899    0.258    0.554   95.962
  410.250    2.072    0.250    0.540   96.268
  410.500    2.168    0.240    0.519   97.118
  410.750    2.285    0.228    0.494   98.028
  411.000    2.455    0.226    0.476   97.850
  411.250    2.618    0.237    0.479   97.671
  411.500    2.844    0.259    0.492   96.523
  411.750    3.244    0.276    0.491   92.954
  412.000    3.337    0.256    0.467   89.022
  412.250    3.512    0.230    0.448   89.751
  412.500    3.634    0.220    0.433   92.902
  412.750    3.699    0.216    0.449   93.450
  413.000    3.723    0.242    0.473   88.730
  413.250    3.706    0.259    0.479   84.859
  413.500    3.646    0.272    0.457   81.896
  413.750    3.622    0.282    0.449   82.987
  414.000    3.565    0.268    0.439   87.228
  414.250    3.488    0.258    0.431   89.107
  414.500    3.345    0.265    0.450   85.962
  414.750    3.243    0.291    0.459   77.914
  415.000    3.156    0.296    0.453   72.105
  415.250    3.049    0.312    0.443   68.415
  415.500    2.967    0.323    0.429   67.570
  415.750    2.871    0.328    0.421   66.362
  416.000    2.784    0.332    0.421   66.304
  416.250    2.745    0.334    0.418   69.333
  416.500    2.727    0.338    0.415   66.068
  416.750    2.723    0.325    0.413   64.981
  417.000    2.731    0.323    0.412   66.738
  417.250    2.738    0.336    0.421   65.349
  417.500    2.750    0.348    0.436   63.475
  417.750    2.758    0.352    0.431   63.538
  418.000    2.781    0.344    0.419   68.262
  418.250    2.835    0.337    0.413   72.987
  418.500    2.956    0.325    0.418   77.651
  418.750    3.076    0.306    0.423   82.073
  419.000    3.287    0.287    0.433   84.072
  419.250    3.538    0.257    0.428   85.286
  419.500    3.910    0.245    0.425   83.957
  419.750    4.107    0.234    0.432   83.172
  420.000    4.265    0.213    0.414   81.480
  420.250    4.446    0.204    0.393   79.909
  420.500    4.866    0.191    0.404   79.185
  420.750    5.226    0.163    0.416   79.914
  421.000    5.871    0.136    0.363   78.282
  421.250    6.366    0.129    0.331   75.984
  421.500    6.699    0.154    0.327   75.624
  421.750    6.593    0.168    0.366   77.564
  422.000    6.023    0.180    0.385   82.894
  422.250    5.543    0.191    0.403   85.196
  422.500    4.933    0.206    0.420   83.020
  422.750    4.607    0.221    0.419   81.267
  423.000    4.369    0.230    0.406   80.604
  423.250    4.189    0.242    0.407   82.543
  423.500    4.153    0.248    0.433   85.634
  423.750    4.164    0.236    0.434   88.239
  424.000    4.238    0.218    0.419   90.240
  424.250    4.338    0.202    0.405   90.787
  424.500    4.413    0.187    0.395   90.487
  424.750    5.091    0.197    0.392   89.097
  425.000    4.781    0.211    0.393   87.223
  425.250    4.750    0.213    0.397   84.260
  425.500    4.665    0.210    0.414   83.052
  425.750    4.498    0.215    0.429   85.173
  426.000    4.296    0.230    0.438   88.868
  426.250    4.066    0.240    0.444   92.563
  426.500    3.964    0.240    0.431   95.653
  426.750    3.865    0.240    0.435   97.896
  427.000    3.818    0.233    0.438   94.993
  427.250    3.807    0.226    0.420   92.029
  427.500    3.803    0.236    0.410   90.821
  427.750    3.821    0.248    0.425   90.764
  428.000    3.845    0.244    0.440   91.250
  428.250    3.876    0.237    0.453   91.374
  428.500    3.952    0.235    0.463   91.498
  428.750    3.985    0.225    0.470   89.442
  429.000    4.018    0.232    0.454   87.508
  429.250    4.061    0.238    0.445   89.932
  429.500    4.070    0.232    0.441   93.324
  429.750    4.095    0.224    0.451   96.232
  430.000    4.107    0.204    0.453   99.141
  430.250    4.026    0.210    0.440  101.262
