~VERSION INFORMATION
 VERS.                 2.0:   CWLS LOG ASCII STANDARD -VERSION 2.0
 WRAP.                  NO:   ONE LINE PER DEPTH STEP
~WELL INFORMATION BLOCK
#MNEM.UNIT           DATA                    DESCRIPTION OF MNEMONIC
#---------    -------------------            -------------------------------
# Generated from Intellog Unique Number	CW_76_78/WELL/185
WELL.         AMOCO 78 MARTEN HILLS 02-05    : Well_name    - WELL
LOC .         00/02-05-076-26W4/0            : Location     - LOCATION
UWI .         00/02-05-076-26W4/0            : Uwi          - UNIQUE WELL ID
ENTR.         JAYE                           : Entered      - ENTERED BY
SRVC.         SCHLUMBERGER                   : Scn          - SERVICE COMPANY
DATE.         23 FEB 76                      : Date         - LOG DATE
STRT.M        612.648                        : top_depth    - START DEPTH
STOP.M        804.148                        : bot_depth    - STOP DEPTH
STEP.M        0.25                           : increment    - STEP LENGTH
 NULL. -999.2500:NULL Value
~CURVE INFORMATION BLOCK
#MNEM UNIT       ERCB CURVE CODE    CURVE DESCRIPTION
#-----------   ------------------   ----------------------------------
DEPT.M        00 001 00 00         : DEPTH        - DEPTH
CALI.MM       00 280 01 00         : CAL          - CALIPER
ILD .OHMM     00 120 00 00         : RESD         - DEEP RESISTIVITY (DIL)
NPHI.V/V      00 330 00 00         : PHIN         - NEUTRON POROSITY (SANDSTONE)
DPHI.V/V      00 890 00 00         : PHID         - DENSITY POROSITY (SANDSTONE)
GR  .API      00 310 00 00         : GR           - GAMMA RAY
~PARAMETER INFORMATION
#MNEM.UNIT           DATA             DESCRIPTION OF MNEMONIC
#---------         -----------     ------------------------------
GL  .M        899.77               : gl           - GROUND LEVEL ELEVATION
EREF.M        903.427              : kb           - ELEVATION OF DEPTH REFERENCE
DATM.M        899.77               : datum        - DATUM ELEVATION
TDD .M        806.196              : tdd          - TOTAL DEPTH DRILLER
RUN .         ONE                  : Run          - RUN NUMBER
ENG .         LAZOR                : Engineer     - RECORDING ENGINEER
WIT .         HUCULAK              : Witness      - WITNESSED BY
MUD .         GEL                  : Mud_type     - MUD TYPE
MATR.         SANDSTONE            : Logunit      - NEUTRON MATRIX
TMAX.C        29.4444              : BHT          - MAXIMUM RECORDED TEMPERATURE
BHTD.M        805.282              : BHTDEP       - MAXIMUM RECORDED TEMPERATURE
RMT .C        15.5556              : MDTP         - TEMPERATURE OF MUD
MUDD.KG/M     1080                 : MWT          - MUD DENSITY
NEUT.         1                    : NEUTRON      - NEUTRON TYPE
RESI.         0                    : RESIST       - RESISTIVITY TYPE
RM  .OHMM     5.07                 : RM           - RESISTIVITY OF MUD
RMC .OHMM     0                    : RMC          - RESISTIVITY OF MUD CAKE
RMF .OHMM     7.19                 : RMF          - RESISTIVITY OF MUD FILTRATE
SUFT.C        -17.7778             : SUFT         - SURFACE TEMPERATURE
~A  DEPTH      CAL     RESD     PHIN     PHID       GR
  612.648  217.284    2.148    0.508    0.176  117.310
  612.898  217.474    2.095    0.503    0.188  118.263
  613.148  217.348    2.065    0.493    0.193  117.694
  613.398  217.074    2.067    0.487    0.186  115.050
  613.648  216.224    2.075    0.476    0.179  113.440
  613.898  215.664    2.073    0.477    0.184  114.883
  614.148  215.215    2.059    0.481    0.195  117.731
  614.398  215.073    2.064    0.492    0.193  118.926
  614.648  215.040    2.100    0.506    0.179  119.023
  614.898  215.308    2.152    0.517    0.179  117.905
  615.148  215.901    2.271    0.524    0.180  110.927
  615.398  216.497    2.397    0.500    0.171  106.149
  615.648  216.528    2.534    0.467    0.161  107.100
  615.898  216.612    2.655    0.458    0.165  104.882
  616.148  216.883    3.010    0.462    0.168   98.640
  616.398  216.933    3.660    0.469    0.183   90.503
  616.648  217.201    4.297    0.471    0.196   80.781
  616.898  217.173    4.862    0.468    0.212   68.802
  617.148  217.244    5.708    0.463    0.254   62.435
  617.398  216.885    6.414    0.462    0.254   58.936
  617.648  216.428    6.945    0.456    0.261   58.424
  617.898  215.681    7.276    0.462    0.262   56.816
  618.148  215.324    7.553    0.468    0.268   59.356
  618.398  214.894    7.698    0.473    0.277   59.825
  618.648  214.735    7.773    0.485    0.271   60.596
  618.898  214.694    7.750    0.478    0.262   61.607
  619.148  214.464    7.544    0.475    0.277   62.748
  619.398  214.516    7.210    0.453    0.280   63.637
  619.648  214.584    6.426    0.437    0.288   65.444
  619.898  215.686    5.602    0.420    0.275   68.107
  620.148  216.990    4.993    0.421    0.270   69.367
  620.398  220.666    4.450    0.432    0.264   66.662
  620.648  223.830    4.032    0.455    0.237   69.450
  620.898  222.354    3.854    0.476    0.243   71.071
  621.148  221.378    3.891    0.503    0.262   69.643
  621.398  220.101    4.511    0.489    0.255   65.719
  621.648  218.840    5.296    0.455    0.262   60.996
  621.898  218.168    5.960    0.436    0.278   60.184
  622.148  217.413    6.314    0.446    0.288   62.172
  622.398  216.958    6.602    0.455    0.292   62.030
  622.648  216.505    6.879    0.460    0.286   59.689
  622.898  216.158    7.089    0.464    0.265   57.044
  623.148  216.124    7.146    0.473    0.247   55.253
  623.398  216.097    7.136    0.469    0.257   55.600
  623.648  215.940    7.050    0.463    0.252   58.565
  623.898  215.908    6.875    0.455    0.251   60.679
  624.148  215.763    6.548    0.452    0.263   62.543
  624.398  215.929    6.291    0.443    0.281   65.085
  624.648  215.177    5.849    0.436    0.293   65.978
  624.898  214.409    5.418    0.436    0.275   63.458
  625.148  216.851    5.066    0.440    0.270   61.115
  625.398  218.261    4.823    0.451    0.267   59.382
  625.648  219.458    4.509    0.453    0.261   58.019
  625.898  219.329    4.301    0.458    0.279   58.426
  626.148  218.870    4.180    0.459    0.274   59.502
  626.398  218.014    4.174    0.462    0.274   60.883
  626.648  217.451    4.318    0.468    0.282   62.382
  626.898  217.316    4.474    0.475    0.301   62.548
  627.148  217.580    4.627    0.480    0.309   61.303
  627.398  217.768    4.829    0.476    0.301   63.170
  627.648  217.839    5.004    0.455    0.285   64.248
  627.898  218.100    5.008    0.446    0.257   61.539
  628.148  218.363    4.901    0.435    0.235   59.932
  628.398  218.434    4.667    0.451    0.245   61.617
  628.648  218.699    4.510    0.474    0.277   64.464
  628.898  218.580    4.366    0.491    0.289   65.172
  629.148  218.523    4.234    0.454    0.262   65.091
  629.398  218.594    4.084    0.435    0.255   65.373
  629.648  218.765    4.049    0.438    0.251   64.802
  629.898  218.827    3.993    0.453    0.251   63.439
  630.148  218.577    3.937    0.446    0.272   60.546
  630.398  218.123    3.882    0.439    0.289   59.731
  630.648  217.575    3.920    0.449    0.293   63.551
  630.898  217.329    3.981    0.460    0.285   65.056
  631.148  216.050    3.983    0.466    0.288   64.849
  631.398  214.362    4.037    0.460    0.288   63.973
  631.648  214.843    4.017    0.447    0.272   64.439
  631.898  216.042    3.918    0.436    0.242   66.737
  632.148  218.180    3.772    0.431    0.231   69.641
  632.398  219.484    3.665    0.449    0.250   71.875
  632.648  219.645    3.567    0.469    0.255   72.402
  632.898  219.715    3.498    0.478    0.252   72.505
  633.148  219.691    3.469    0.487    0.239   73.154
  633.398  219.655    3.483    0.492    0.249   73.435
  633.648  219.718    3.512    0.505    0.257   71.464
  633.898  219.880    3.565    0.490    0.255   73.146
  634.148  220.356    3.675    0.465    0.264   69.889
  634.398  220.729    3.738    0.470    0.252   67.858
  634.648  220.791    3.845    0.464    0.258   66.674
  634.898  220.040    3.969    0.457    0.255   65.188
  635.148  219.268    4.068    0.457    0.230   65.720
  635.398  218.818    4.153    0.460    0.203   66.549
  635.648  218.784    4.218    0.463    0.207   67.076
  635.898  219.680    4.236    0.461    0.245   68.271
  636.148  220.567    4.207    0.453    0.287   69.468
  636.398  221.361    4.194    0.450    0.265   72.439
  636.648  221.213    4.174    0.460    0.264   69.916
  636.898  220.040    4.161    0.462    0.258   67.388
  637.148  218.864    4.194    0.453    0.249   63.955
  637.398  218.205    4.403    0.435    0.236   61.917
  637.648  216.932    4.689    0.417    0.236   60.616
  637.898  215.864    5.087    0.411    0.219   59.553
  638.148  216.032    5.810    0.413    0.198   58.374
  638.398  216.828    6.223    0.404    0.185   58.598
  638.648  217.818    6.507    0.397    0.182   61.074
  638.898  219.121    6.536    0.397    0.190   63.917
  639.148  220.642    6.223    0.406    0.196   64.995
  639.398  221.423    5.733    0.413    0.208   65.218
  639.648  221.390    5.349    0.421    0.231   65.928
  639.898  221.138    4.928    0.421    0.244   67.061
  640.148  220.994    4.523    0.419    0.277   70.395
  640.398  220.856    4.190    0.416    0.273   75.072
  640.648  220.507    3.896    0.412    0.251   79.377
  640.898  220.883    3.543    0.417    0.228   87.409
  641.148  223.531    3.163    0.431    0.222   96.903
  641.398  229.486    2.773    0.476    0.223   98.039
  641.648  242.568    2.499    0.591    0.237   96.613
  641.898  235.609    2.332    0.570    0.246   99.337
  642.148  223.793    2.192    0.554    0.264  104.441
  642.398  226.446    2.162    0.577    0.269  110.335
  642.648  228.369    2.252    0.577    0.296  116.718
  642.898  224.522    2.385    0.551    0.280  122.553
  643.148  221.371    2.583    0.508    0.200  126.801
  643.398  219.372    2.813    0.519    0.140  129.953
  643.648  217.992    3.035    0.530    0.207  129.318
  643.898  217.229    3.372    0.490    0.217  115.937
  644.148  216.069    3.966    0.458    0.226  106.521
  644.398  216.027    4.657    0.438    0.187   97.651
  644.648  217.021    4.755    0.422    0.198   95.493
  644.898  218.941    4.478    0.404    0.210   99.253
  645.148  220.564    4.148    0.389    0.199  105.821
  645.398  222.064    3.878    0.409    0.186  107.507
  645.648  225.126    3.795    0.429    0.183  108.767
  645.898  225.502    3.947    0.449    0.211  112.463
  646.148  227.013    4.583    0.465    0.187  111.159
  646.398  227.907    5.187    0.480    0.166   94.910
  646.648  224.250    5.935    0.458    0.220   82.201
  646.898  220.292    6.583    0.439    0.240   70.771
  647.148  218.703    6.896    0.418    0.233   71.970
  647.398  217.639    6.701    0.408    0.188   76.036
  647.648  216.976    6.392    0.404    0.212   76.440
  647.898  216.755    6.075    0.410    0.225   74.585
  648.148  216.820    5.903    0.406    0.295   74.505
  648.398  217.189    6.005    0.416    0.301   75.580
  648.648  217.452    6.636    0.423    0.283   74.640
  648.898  218.040    7.252    0.430    0.261   72.422
