~VERSION INFORMATION
 VERS.                 2.0:   CWLS LOG ASCII STANDARD -VERSION 2.0
 WRAP.                  NO:   ONE LINE PER DEPTH STEP
~WELL INFORMATION BLOCK
#MNEM.UNIT           DATA                    DESCRIPTION OF MNEMONIC
#---------    -------------------            -------------------------------
# Generated from Intellog Unique Number	CW_70_72/WELL/3012
NULL.         -999.25                         : NULL_VALUE
WELL.         CITADEL ET AL MEYER 06-32      : Well_name    - WELL              
LOC .         06-32-070-25W4                 : Location     - LOCATION          
UWI .         00/06-32-070-25W4/0            : Uwi          - UNIQUE WELL ID    
ENTR.         J                              : Entered      - ENTERED BY        
SRVC.         COMPUTALOG                     : Scn          - SERVICE COMPANY   
DATE.         7 MAR 82                       : Date         - LOG DATE          
STRT.M        490                            : top_depth    - START DEPTH       
STOP.M        690                            : bot_depth    - STOP DEPTH        
STEP.M        0.25                           : increment    - STEP LENGTH       
~CURVE INFORMATION BLOCK
#MNEM UNIT       ERCB CURVE CODE    CURVE DESCRIPTION
#-----------   ------------------   ----------------------------------
DEPT.M        00 001 00 00         : DEPTH        - DEPTH                       
ILD .OHMM     00 120 00 00         : RESD         - DEEP RESISTIVITY (DIL)      
CALI.MM       00 280 01 00         : CAL          - CALIPER                     
GR  .API      00 310 00 00         : GR           - GAMMA RAY                   
NPHI.V/V      00 330 00 00         : PHIN         - NEUTRON POROSITY (SANDSTONE)
DPHI.V/V      00 890 00 00         : PHID         - DENSITY POROSITY (SANDSTONE)
~PARAMETER INFORMATION       
#MNEM.UNIT           DATA             DESCRIPTION OF MNEMONIC
#---------         -----------     ------------------------------
GL  .M        661                  : gl           - GROUND LEVEL ELEVATION      
EREF.M        665                  : kb           - ELEVATION OF DEPTH REFERENCE
DATM.M        661                  : datum        - DATUM ELEVATION             
TDD .M        725                  : tdd          - TOTAL DEPTH DRILLER         
RUN .         ONE                  : Run          - RUN NUMBER                  
ENG .         SVRCEL/BRULE         : Engineer     - RECORDING ENGINEER          
WIT .         CRIPPS/WETHERLY      : Witness      - WITNESSED BY                
BASE.         EDM                  : Branch       - HOME BASE OF LOGGING UNIT   
MUD .         GEL CHEM             : Mud_type     - MUD TYPE                    
MATR.         SANDSTONE            : Logunit      - NEUTRON MATRIX              
TMAX.C        30                   : BHT          - MAXIMUM RECORDED TEMPERATURE
BHTD.M        722                  : BHTDEP       - MAXIMUM RECORDED TEMPERATURE
RMT .C        16.6                 : MDTP         - TEMPERATURE OF MUD          
MUDD.KG/M     1210                 : MWT          - MUD DENSITY                 
NEUT.         1                    : NEUTRON      - NEUTRON TYPE                
RESI.         0                    : RESIST       - RESISTIVITY TYPE            
RM  .OHMM     3.4                  : RM           - RESISTIVITY OF MUD          
RMC .OHMM     3.5                  : RMC          - RESISTIVITY OF MUD CAKE     
RMF .OHMM     3.5                  : RMF          - RESISTIVITY OF MUD FILTRATE 
SUFT.C        0                    : SUFT         - SURFACE TEMPERATURE         
~A  DEPTH     RESD      CAL       GR     PHIN     PHID
# ...
  636.000    4.840  206.570  114.238    0.405    0.137
  636.250    4.932  206.264  115.699    0.435    0.138
  636.500    5.298  205.012  112.799    0.425    0.121
  636.750    6.067  202.917  104.399    0.389    0.108
  637.000    7.187  201.137   96.251    0.365    0.118
  637.250    8.417  199.570   91.644    0.370    0.112
  637.500    9.283  199.263   84.888    0.341    0.062
  637.750   10.276  199.170   78.004    0.310    0.049
  638.000   11.059  198.760   70.930    0.294    0.042
  638.250   11.592  198.666   66.702    0.288    0.062
  638.500   11.748  199.204   70.820    0.301    0.084
  638.750   10.734  199.953   76.262    0.308    0.104
  639.000    9.376  201.863   77.533    0.316    0.122
  639.250    8.329  203.033   77.224    0.325    0.140
  639.500    7.755  202.308   82.478    0.356    0.154
  639.750    7.262  200.842   87.794    0.384    0.170
  640.000    6.800  197.377   92.479    0.403    0.162
  640.250    6.686  194.228   91.349    0.382    0.154
  640.500    6.852  194.345   88.573    0.360    0.148
  640.750    7.062  199.308   86.621    0.348    0.154
  641.000    6.867  203.112   86.564    0.332    0.157
  641.250    6.478  204.179   88.785    0.316    0.155
  641.500    6.009  204.717   91.003    0.309    0.150
  641.750    5.595  205.043   93.476    0.324    0.132
  642.000    5.279  205.057   98.350    0.359    0.110
  642.250    5.162  205.382  100.695    0.410    0.069
  642.500    5.250  205.713   94.950    0.366    0.057
  642.750    5.889  206.040   87.056    0.319    0.067
  643.000    6.744  205.841   85.610    0.296    0.059
  643.250    7.507  206.062   84.542    0.268    0.042
  643.500    7.565  205.760   79.491    0.229    0.023
  643.750    7.273  205.558   73.430    0.225    0.037
  644.000    6.810  205.150   71.856    0.264    0.080
  644.250    6.072  205.054   80.334    0.328    0.100
  644.500    5.549  202.855   88.052    0.349    0.106
  644.750    5.435  204.131   94.380    0.333    0.100
  645.000    6.097  204.036   97.296    0.307    0.098
  645.250    6.439  203.942   98.440    0.303    0.100
  645.500    5.996  203.850   99.775    0.330    0.102
  645.750    5.583  203.649  101.804    0.396    0.106
  646.000    5.387  203.558  103.328    0.433    0.109
  646.250    5.511  203.251  105.484    0.445    0.111
  646.500    5.842  202.634  106.060    0.358    0.100
  646.750    6.101  201.906   98.482    0.320    0.080
  647.000    6.229  201.494   92.990    0.292    0.064
  647.250    6.312  201.088   87.307    0.292    0.063
  647.500    6.080  201.097   93.066    0.319    0.083
  647.750    5.703  201.531  100.533    0.341    0.114
  648.000    5.432  201.647  104.963    0.354    0.128
  648.250    5.242  202.292  104.845    0.363    0.137
  648.500    5.193  202.830  101.060    0.375    0.126
  648.750    5.174  203.580   98.538    0.381    0.118
  649.000    5.184  203.904   99.303    0.342    0.113
  649.250    5.283  204.339  101.269    0.329    0.112
  649.500    5.425  203.825  102.478    0.322    0.111
  649.750    5.591  202.044  102.864    0.327    0.112
  650.000    5.374  198.158  102.491    0.324    0.113
  650.250    5.428  196.378   99.274    0.297    0.115
  650.500    5.822  197.127  100.420    0.325    0.117
  650.750    5.675  198.614  102.196    0.381    0.110
  651.000    5.668  200.204  105.933    0.361    0.096
  651.250    6.335  201.798  103.601    0.305    0.072
  651.500    6.411  202.864   95.200    0.304    0.086
  651.750    6.367  203.611   92.425    0.359    0.097
  652.000    5.577  204.783  101.662    0.353    0.086
  652.250    3.990  205.110   85.993    0.309    0.057
  652.500    2.986  205.543   82.775    0.257    0.001
  652.750    2.986  205.872   84.048    0.278    0.059
  653.000    2.986  205.883   90.502    0.304    0.097
  653.250    2.910  206.315   99.548    0.323    0.120
  653.500    2.640  206.220  101.576    0.295    0.118
  653.750    2.640  205.600  100.509    0.290    0.100
  654.000    2.396  203.085   96.851    0.298    0.077
  654.250    2.396  199.196   94.583    0.283    0.058
  654.500    2.203  196.154   93.577    0.262    0.067
  654.750    2.203  197.956   94.595    0.267    0.094
  655.000    2.203  201.762   97.827    0.303    0.112
  655.250    2.071  203.562  103.714    0.327    0.111
  655.500    2.071  203.892  107.322    0.300    0.109
  655.750    2.071  204.008  111.121    0.301    0.107
  656.000    2.071  204.439  115.806    0.334    0.102
  656.250    2.071  204.874  120.996    0.360    0.092
  656.500    2.145  205.940  112.091    0.356    0.076
  656.750    2.134  206.794  103.122    0.298    0.053
  657.000    2.472  206.805   96.175    0.276    0.039
  657.250    3.558  205.025   96.309    0.278    0.049
  657.500    4.223  202.089   95.115    0.301    0.064
  657.750    4.836  201.993   94.996    0.300    0.083
  658.000    4.839  203.164   97.593    0.285    0.108
  658.250    3.745  203.915  104.239    0.273    0.124
  658.500    2.809  204.451  109.681    0.293    0.136
  658.750    2.646  205.200  115.314    0.343    0.148
  659.000    2.494  205.843  119.747    0.343    0.161
  659.250    2.294  206.697  122.154    0.321    0.173
  659.500    2.248  207.657  125.005    0.338    0.183
  659.750    2.183  208.617  121.978    0.384    0.151
  660.000    2.169  209.262  115.286    0.398    0.115
  660.250    2.340  209.063  107.202    0.376    0.090
  660.500    2.728  207.705  101.203    0.336    0.072
  660.750    3.247  206.873   94.257    0.309    0.058
  661.000    3.849  206.886   88.384    0.265    0.037
  661.250    4.091  207.319   87.824    0.245    0.030
  661.500    3.726  208.594   99.144    0.262    0.050
  661.750    3.419  210.397  109.772    0.340    0.075
  662.000    3.773  211.146  113.381    0.339    0.093
  662.250    4.134  211.261  114.400    0.329    0.102
  662.500    3.968  210.535  114.850    0.327    0.096
  662.750    3.882  207.389  114.856    0.327    0.082
  663.000    4.157  205.818  114.989    0.336    0.075
  663.250    4.774  204.988  118.346    0.353    0.079
  663.500    5.639  205.000  114.307    0.334    0.066
  663.750    6.342  205.432   95.920    0.295    0.021
  664.000    6.553  205.338   85.750    0.201   -0.001
  664.250    6.386  205.456   76.908    0.165   -0.021
  664.500    5.729  206.100   69.708    0.138   -0.027
  664.750    5.169  206.532   70.157    0.169    0.005
  665.000    4.972  206.754   99.241    0.251    0.059
  665.250    5.156  206.134  114.040    0.308    0.074
  665.500    6.254  205.831  111.392    0.326    0.083
  665.750    7.584  204.998  103.499    0.346    0.091
  666.000    8.045  203.852   97.184    0.380    0.102
  666.250    7.855  202.073   89.795    0.306    0.094
  666.500    7.304  200.295   81.649    0.219    0.032
  666.750    6.516  199.355   72.868    0.183    0.014
  667.000    5.856  198.946   67.186    0.163    0.001
  667.250    5.333  199.168   90.012    0.210    0.050
  667.500    4.968  199.812   99.059    0.307    0.070
  667.750    4.716  200.458  102.543    0.327    0.084
  668.000    4.580  200.571  104.763    0.328    0.089
  668.250    4.566  201.639  106.981    0.351    0.090
  668.500    4.682  202.069  110.277    0.359    0.085
  668.750    4.856  203.033  107.691    0.355    0.079
  669.000    5.037  203.359  104.348    0.348    0.077
  669.250    5.333  203.685  102.015    0.331    0.076
  669.500    5.626  203.910  100.568    0.329    0.071
  669.750    5.835  204.025  101.397    0.361    0.067
  670.000    5.950  203.931  102.731    0.369    0.062
  670.250    5.788  203.312  100.274    0.338    0.049
  670.500    5.588  203.322   96.804    0.313    0.040
  670.750    5.335  203.860   95.419    0.287    0.039
  671.000    5.074  203.860   96.248    0.301    0.056
  671.250    4.807  206.626  100.997    0.322    0.065
  671.500    4.495  207.374  105.238    0.327    0.071
  671.750    4.332  207.385  112.072    0.337    0.075
  672.000    4.246  207.395  117.200    0.361    0.071
  672.250    4.330  207.306  121.757    0.380    0.068
