~VERSION INFORMATION
 VERS.                 2.0:   CWLS LOG ASCII STANDARD -VERSION 2.0
 WRAP.                  NO:   ONE LINE PER DEPTH STEP
~WELL INFORMATION BLOCK
#MNEM.UNIT           DATA                    DESCRIPTION OF MNEMONIC
#---------    -------------------            -------------------------------
# Generated from Intellog Unique Number	CW_82_90/WELL/3418
WELL.         SIEBENS CHIPEWYAN              : Well_name    - WELL
LOC .         00/06-07-089-21W4/0            : Location     - LOCATION
UWI .         00/06-07-089-21W4/0            : Uwi          - UNIQUE WELL ID
ENTR.         MAX                            : Entered      - ENTERED BY
SRVC.         SCHLUMBERGER                   : Scn          - SERVICE COMPANY
STRT.M        121.92                         : top_depth    - START DEPTH
STOP.M        239.67                         : bot_depth    - STOP DEPTH
STEP.M        0.25                           : increment    - STEP LENGTH
 NULL. -999.2500:NULL Value
~CURVE INFORMATION BLOCK
#MNEM UNIT       ERCB CURVE CODE    CURVE DESCRIPTION
#-----------   ------------------   ----------------------------------
DEPT.M        00 001 00 00         : DEPTH        - DEPTH
GR  .API      00 310 00 00         : GR           - GAMMA RAY
CALI.MM       00 280 01 00         : CAL          - CALIPER
DPHI.V/V      00 890 00 00         : PHID         - DENSITY POROSITY (SANDSTONE)
NPHI.V/V      00 330 00 00         : PHIN         - NEUTRON POROSITY (SANDSTONE)
ILD .OHMM     00 120 00 00         : RESD         - DEEP RESISTIVITY (DIL)
~PARAMETER INFORMATION
#MNEM.UNIT           DATA             DESCRIPTION OF MNEMONIC
#---------         -----------     ------------------------------
GL  .M        511.15               : gl           - GROUND LEVEL ELEVATION
EREF.M        513.283              : kb           - ELEVATION OF DEPTH REFERENCE
DATM.M        511.15               : datum        - DATUM ELEVATION
TDD .M        242.621              : tdd          - TOTAL DEPTH DRILLER
RUN .         ONE                  : Run          - RUN NUMBER
ENG .         BILL                 : Engineer     - RECORDING ENGINEER
WIT .         JIM                  : Witness      - WITNESSED BY
MUD .         GEL                  : Mud_type     - MUD TYPE
MATR.         SANDSTONE            : Logunit      - NEUTRON MATRIX
TMAX.C        15.5556              : BHT          - MAXIMUM RECORDED TEMPERATURE
BHTD.M        242.621              : BHTDEP       - MAXIMUM RECORDED TEMPERATURE
MATR.         1                    : LOGUNIT      - NEUTRON MATRIX
RMT .C        17                   : MDTP         - TEMPERATURE OF MUD
NEUT.         1                    : NEUTRON      - NEUTRON TYPE
RESI.         0                    : RESIST       - RESISTIVITY TYPE
RMC .OHMM     2                    : RMC          - RESISTIVITY OF MUD CAKE
RMF .OHMM     1.94                 : RMF          - RESISTIVITY OF MUD FILTRATE
SUFT.C        -20.5556             : SUFT         - SURFACE TEMPERATURE
~A  DEPTH       GR      CAL     PHID     PHIN     RESD
# ...
  158.420   94.169  224.874    0.287    0.589    4.187
  158.670   94.722  224.835    0.280    0.573    4.667
  158.920   94.400  225.789    0.271    0.553    5.443
  159.170   94.370  226.246    0.267    0.524    6.292
  159.420   96.102  226.703    0.256    0.509    6.886
  159.670   96.659  226.664    0.235    0.496    7.535
  159.920   95.162  226.619    0.232    0.505    8.247
  160.170   92.781  227.076    0.242    0.519    9.359
  160.420   89.226  227.528    0.230    0.497   10.621
  160.670   85.968  226.489    0.214    0.448   11.730
  160.920   78.601  225.947    0.197    0.410   11.935
  161.170   75.043  225.415    0.175    0.384   11.816
  161.420   77.952  224.381    0.136    0.342   11.383
  161.670   84.379  223.839    0.122    0.386   10.573
  161.920   91.394  223.804    0.178    0.456    9.645
  162.170   92.245  223.262    0.246    0.480    9.039
  162.420   92.508  223.223    0.261    0.497    9.537
  162.670   88.660  223.183    0.271    0.510    9.700
  162.920   83.641  223.138    0.277    0.502    9.693
  163.170   80.966  223.590    0.266    0.486    9.599
  163.420   81.227  223.550    0.254    0.483    9.416
  163.670   80.027  224.013    0.250    0.495    9.323
  163.920   79.400  224.465    0.249    0.501    9.147
  164.170   81.725  224.425    0.236    0.502    8.892
  164.420   86.979  224.385    0.210    0.496    8.722
  164.670   89.587  224.340    0.252    0.487    8.478
  164.920   88.090  224.295    0.270    0.478    8.170
  165.170   88.354  223.763    0.286    0.493    7.185
  165.420   90.673  223.724    0.290    0.504    5.983
  165.670   92.690  223.679    0.281    0.497    4.847
  165.920   94.425  223.639    0.269    0.516    4.799
  166.170   93.516  223.594    0.264    0.552    5.204
  166.420   89.667  223.559    0.268    0.561    5.907
  166.670   84.942  224.006    0.275    0.563    6.764
  166.920   80.506  224.469    0.283    0.555    7.540
  167.170   77.542  225.408    0.287    0.532    8.715
  167.420   78.385  224.881    0.284    0.500   10.073
  167.670   79.831  224.339    0.278    0.499    9.703
  167.920   83.026  224.304    0.270    0.508    8.770
  168.170   86.518  224.752    0.258    0.502    7.643
  168.420   90.301  224.717    0.241    0.518    6.970
  168.670   89.101  224.175    0.260    0.547    6.902
  168.920   86.430  224.130    0.263    0.543    6.895
  169.170   83.755  224.090    0.257    0.535    6.825
  169.420   84.309  224.050    0.231    0.518    6.340
  169.670   86.624  223.508    0.209    0.507    5.525
  169.920   89.240  223.478    0.186    0.537    4.904
  170.170   92.442  223.429    0.222    0.566    4.681
  170.420   93.873  223.389    0.262    0.579    4.850
  170.670   93.840  222.857    0.277    0.564    5.072
  170.920   92.644  222.812    0.275    0.547    5.067
  171.170   95.549  222.772    0.269    0.536    5.016
  171.420   98.451  222.722    0.264    0.549    4.832
  171.670   98.128  222.692    0.257    0.563    5.007
  171.920   95.751  223.632    0.243    0.566    5.894
  172.170   93.069  223.597    0.250    0.571    6.751
  172.420   92.162  222.558    0.261    0.568    7.662
  172.670   90.665  222.518    0.266    0.549    8.856
  172.920   88.288  221.981    0.269    0.526    9.781
  173.170   85.023  221.946    0.246    0.509   11.408
  173.420   83.526  221.901    0.225    0.493   12.829
  173.670   79.681  222.354    0.208    0.500   13.292
  173.920   77.891  222.304    0.189    0.481   13.403
  174.170   80.796  222.279    0.218    0.471   12.796
  174.420   84.876  222.234    0.215    0.494   11.460
  174.670   88.075  222.686    0.218    0.503   10.171
  174.920   89.219  222.646    0.260    0.526    9.109
  175.170   88.896  222.114    0.270    0.527    8.696
  175.420   87.685  222.065    0.262    0.503    8.531
  175.670   86.192  222.030    0.245    0.480    8.599
  175.920   84.104  221.985    0.247    0.490    8.993
  176.170   81.723  222.447    0.255    0.518   10.490
  176.420   79.052  222.899    0.269    0.524   11.170
  176.670   75.497  223.357    0.279    0.513   12.337
  176.920   71.069  223.312    0.271    0.517   15.060
  177.170   68.391  222.775    0.252    0.525   18.053
  177.420   64.843  222.730    0.258    0.480   20.120
  177.670   61.879  224.187    0.212    0.399   21.617
  177.920   61.255  228.124    0.128    0.439   21.600
  178.170   63.573  230.569    0.253    0.495   21.978
  178.420   65.305  231.022    0.311    0.469   22.979
  178.670   65.272  230.982    0.310    0.461   24.248
  178.920   64.358  228.948    0.277    0.451   25.821
  179.170   61.984  226.915    0.257    0.403   27.742
  179.420   59.306  225.384    0.224    0.329   29.815
  179.670   58.690  224.355    0.183    0.309   32.932
  179.920   58.374  224.310    0.178    0.354   38.764
  180.170   57.750  223.773    0.182    0.311   46.047
  180.420   56.844  223.728    0.144    0.279   54.202
  180.670   56.517  223.688    0.090    0.241   62.081
  180.920   57.075  224.638    0.075    0.216   69.807
  181.170   57.926  224.603    0.026    0.194   69.737
  181.420   59.364  224.563    0.026    0.209   64.205
  181.670   60.211  224.513    0.040    0.221   53.459
  181.920   62.236  224.473    0.037    0.259   41.013
  182.170   63.968  224.438    0.036    0.329   33.532
  182.420   66.286  224.389    0.129    0.425   28.178
  182.670   70.953  224.354    0.226    0.450   23.250
  182.920   76.793  227.789    0.233    0.468   19.360
  183.170   83.514  226.253    0.222    0.488   16.718
  183.420   89.941  225.213    0.254    0.500   15.109
  183.670   93.137  225.184    0.229    0.485   14.035
  183.920   90.763  225.139    0.211    0.466   13.397
  184.170   85.443  225.104    0.186    0.439   13.022
  184.420   86.877  226.053    0.160    0.412   12.545
  184.670   89.203  228.996    0.174    0.436   12.308
  184.920   92.395  231.939    0.218    0.465   12.297
  185.170   93.543  231.894    0.230    0.468   12.285
  185.420   95.275  231.357    0.227    0.487   12.053
  185.670   95.531  231.317    0.218    0.489   11.718
  185.920   93.157  231.272    0.205    0.469   11.287
  186.170   92.244  231.233    0.201    0.464   10.973
  186.420   95.443  231.690    0.214    0.508   10.668
  186.670   97.472  231.615    0.207    0.501   10.370
  186.920  101.547  232.102    0.209    0.498    9.988
  187.170  102.692  232.062    0.214    0.509    9.890
  187.420  101.191  231.525    0.217    0.511   10.062
  187.670  100.872  231.486    0.220    0.504   10.521
  187.920   97.607  231.441    0.220    0.490   11.515
  188.170   93.762  229.403    0.217    0.477   13.070
  188.420   91.381  228.875    0.243    0.463   14.970
  188.670   89.590  228.836    0.253    0.447   16.532
  188.920   88.097  229.780    0.262    0.437   18.256
  189.170   86.596  230.242    0.246    0.427   18.573
  189.420   88.328  230.700    0.220    0.406   18.388
  189.670   92.114  230.650    0.198    0.403   17.879
  189.920   95.900  230.605    0.218    0.450   16.907
  190.170   93.808  229.079    0.245    0.450   16.144
  190.420   95.250  227.547    0.259    0.451   14.855
  190.670   99.620  227.011    0.269    0.454   14.314
  190.920  102.235  226.474    0.251    0.458   13.788
  191.170  103.380  226.424    0.221    0.461   13.649
  191.420  103.343  225.882    0.221    0.454   13.888
  191.670  102.730  225.852    0.234    0.450   13.875
  191.920  100.349  225.305    0.239    0.447   13.991
  192.170  100.022  225.265    0.244    0.439   14.105
  192.420   99.703  226.224    0.263    0.445   14.222
  192.670   98.206  226.180    0.257    0.454   13.949
  192.920   98.760  228.625    0.237    0.462   13.199
  193.170  101.959  231.071    0.234    0.492   11.503
  193.420  102.806  231.528    0.230    0.505   10.490
  193.670   98.671  231.483    0.228    0.479   10.673
  193.920   91.594  231.449    0.207    0.458   10.959
  194.170   91.565  230.902    0.188    0.424   11.048
  194.420   93.590  227.874    0.224    0.483   10.839
  194.670   91.788  227.834    0.267    0.493   11.128
