~VERSION INFORMATION
 VERS.                 2.0:   CWLS LOG ASCII STANDARD -VERSION 2.0
 WRAP.                  NO:   ONE LINE PER DEPTH STEP
~WELL INFORMATION BLOCK
#MNEM.UNIT           DATA                    DESCRIPTION OF MNEMONIC
#---------    -------------------            -------------------------------
# Generated from Intellog Unique Number	CS_77_79/WELL/885
WELL.         PARAMOUNT ET AL PORTAGE        : Well_name    - WELL
LOC .         00/06-28-079-15W4/0            : Location     - LOCATION
UWI .         00/06-28-079-15W4/0            : Uwi          - UNIQUE WELL ID
ENTR.         JHS                            : Entered      - ENTERED BY
SRVC.         SCHLUMBERGER                   : Scn          - SERVICE COMPANY
STRT.M        188.976                        : top_depth    - START DEPTH
STOP.M        447.726                        : bot_depth    - STOP DEPTH
STEP.M        0.25                           : increment    - STEP LENGTH
 NULL. -999.2500:NULL Value
~CURVE INFORMATION BLOCK
#MNEM UNIT       ERCB CURVE CODE    CURVE DESCRIPTION
#-----------   ------------------   ----------------------------------
DEPT.M        00 001 00 00         : DEPTH        - DEPTH
GR  .API      00 310 00 00         : GR           - GAMMA RAY
DPHI.V/V      00 890 00 00         : PHID         - DENSITY POROSITY (SANDSTONE)
NPHI.V/V      00 330 00 00         : PHIN         - NEUTRON POROSITY (SANDSTONE)
ILD .OHMM     00 120 00 00         : RESD         - DEEP RESISTIVITY (DIL)
~PARAMETER INFORMATION
#MNEM.UNIT           DATA             DESCRIPTION OF MNEMONIC
#---------         -----------     ------------------------------
GL  .M        619.354              : gl           - GROUND LEVEL ELEVATION
EREF.M        622.402              : kb           - ELEVATION OF DEPTH REFERENCE
DATM.M        622.402              : datum        - DATUM ELEVATION
TDD .M        449.58               : tdd          - TOTAL DEPTH DRILLER
RUN .         ONE                  : Run          - RUN NUMBER
ENG .         BILL                 : Engineer     - RECORDING ENGINEER
WIT .         JIM                  : Witness      - WITNESSED BY
MUD .         GEL                  : Mud_type     - MUD TYPE
MATR.         SANDSTONE            : Logunit      - NEUTRON MATRIX
TMAX.C        60                   : BHT          - MAXIMUM RECORDED TEMPERATURE
BHTD.M        449.58               : BHTDEP       - MAXIMUM RECORDED TEMPERATURE
MATR.         1                    : LOGUNIT      - NEUTRON MATRIX
RMT .C        25                   : MDTP         - TEMPERATURE OF MUD
NEUT.         1                    : NEUTRON      - NEUTRON TYPE
RESI.         0                    : RESIST       - RESISTIVITY TYPE
RMC .OHMM     0.25                 : RMC          - RESISTIVITY OF MUD CAKE
RMF .OHMM     0.25                 : RMF          - RESISTIVITY OF MUD FILTRATE
SUFT.C        15                   : SUFT         - SURFACE TEMPERATURE
~A  DEPTH       GR     PHID     PHIN     RESD
# ...
  362.976   81.173    0.333    0.484    7.350
  363.226   77.060    0.322    0.485    7.346
  363.476   76.612    0.317    0.490    7.546
  363.726   78.416    0.328    0.476    7.963
  363.976   76.947    0.316    0.466    8.201
  364.226   74.493    0.309    0.479    8.721
  364.476   72.386    0.316    0.502    9.088
  364.726   72.573    0.299    0.472    8.905
  364.976   73.744    0.292    0.451    8.784
  365.226   73.512    0.295    0.462    8.259
  365.476   76.402    0.321    0.482    7.725
  365.726   82.179    0.304    0.475    7.066
  365.976   85.345    0.296    0.471    6.995
  366.226   86.676    0.284    0.469    7.201
  366.476   83.367    0.251    0.448    7.992
  366.726   75.880    0.199    0.404    9.096
  366.976   71.328    0.028    0.224   11.301
  367.226   66.057    0.003    0.181   13.249
  367.476   62.856    0.009    0.197   13.065
  367.726   64.308    0.097    0.242   12.068
  367.976   70.486    0.216    0.360   10.054
  368.226   75.162    0.270    0.440    8.010
  368.476   75.668    0.296    0.472    6.615
  368.726   73.701    0.307    0.484    6.352
  368.976   72.430    0.304    0.488    6.368
  369.226   71.226    0.300    0.470    6.366
  369.476   71.086    0.284    0.438    6.364
  369.726   71.912    0.260    0.454    6.361
  369.976   74.834    0.305    0.486    6.359
  370.226   75.602    0.330    0.500    6.357
  370.476   76.061    0.343    0.493    6.354
  370.726   79.163    0.323    0.491    6.352
  370.976   78.938    0.312    0.484    6.349
  371.226   77.509    0.335    0.478    6.346
  371.476   78.619    0.337    0.482    6.344
  371.726   82.211    0.319    0.483    6.342
  371.976   79.627    0.317    0.475    6.345
  372.226   77.363    0.322    0.464    6.412
  372.476   76.340    0.308    0.453    6.535
  372.726   81.774    0.291    0.467    6.393
  372.976   85.723    0.301    0.472    6.336
  373.226   83.651    0.297    0.464    6.326
  373.476   79.978    0.304    0.452    6.203
  373.726   80.057    0.300    0.451    6.128
  373.976   80.593    0.290    0.462    6.119
  374.226   79.443    0.286    0.481    6.097
  374.476   77.624    0.274    0.472    6.329
  374.726   80.299    0.272    0.457    6.311
  374.976   82.688    0.285    0.467    6.328
  375.226   83.671    0.276    0.463    6.100
  375.476   86.503    0.279    0.448    6.104
  375.726   84.648    0.271    0.438    6.045
  375.976   84.841    0.262    0.444    5.703
  376.226   90.148    0.254    0.441    5.155
  376.476   89.382    0.246    0.444    4.840
  376.726   88.495    0.260    0.446    4.508
  376.976   91.329    0.267    0.456    4.049
  377.226   94.576    0.253    0.470    3.899
  377.476   97.569    0.254    0.480    3.873
  377.726   99.912    0.255    0.476    4.187
  377.976  101.278    0.247    0.478    4.519
  378.226  102.538    0.235    0.475    5.188
  378.476   98.835    0.232    0.469    5.893
  378.726   91.945    0.259    0.457    6.890
  378.976   84.143    0.242    0.448    7.074
  379.226   86.025    0.202    0.443    7.040
  379.476   88.653    0.180    0.442    6.474
  379.726   89.519    0.201    0.451    6.365
  379.976   93.111    0.225    0.442    6.010
  380.226   94.533    0.231    0.440    5.844
  380.476   93.791    0.226    0.444    6.123
  380.726   90.542    0.197    0.449    6.919
  380.976   84.447    0.170    0.387    7.204
  381.226   87.310    0.150    0.356    7.460
  381.476   95.973    0.171    0.388    7.435
  381.726   92.114    0.193    0.451    7.253
  381.976   89.149    0.192    0.459    7.019
  382.226   91.810    0.192    0.465    7.040
  382.476   98.004    0.192    0.467    7.043
  382.726   98.791    0.187    0.454    7.087
  382.976   97.854    0.193    0.437    7.234
  383.226   98.592    0.177    0.428    7.209
  383.476   98.356    0.169    0.422    7.440
  383.726   95.395    0.178    0.426    7.584
  383.976   91.006    0.189    0.431    7.816
  384.226   92.113    0.191    0.438    8.028
  384.476   92.786    0.198    0.440    8.180
  384.726   91.211    0.197    0.417    8.275
  384.976   92.004    0.183    0.413    8.623
  385.226   95.543    0.177    0.418    8.840
  385.476   96.913    0.164    0.422    8.553
  385.726   97.950    0.174    0.419    8.018
  385.976   98.910    0.177    0.428    7.087
  386.226  100.779    0.169    0.451    6.543
  386.476  104.310    0.167    0.464    5.653
  386.726  108.101    0.200    0.467    5.427
  386.976  108.588    0.221    0.465    4.942
  387.226  105.145    0.220    0.455    4.614
  387.476  100.532    0.235    0.447    4.505
  387.726   95.953    0.232    0.439    4.391
  387.976   91.286    0.223    0.433    4.283
  388.226   92.348    0.238    0.442    3.411
  388.476   96.335    0.212    0.458    2.776
  388.726   94.755    0.249    0.498    2.320
  388.976   90.201    0.268    0.559    1.977
  389.226   86.889    0.291    0.568    1.782
  389.476   85.283    0.304    0.578    1.780
  389.726   84.229    0.306    0.591    1.796
  389.976   87.398    0.303    0.583    2.141
  390.226   85.606    0.280    0.537    2.565
  390.476   79.838    0.266    0.498    2.996
  390.726   76.322    0.268    0.470    3.819
  390.976   75.463    0.260    0.460    4.803
  391.226   76.200    0.283    0.451    5.784
  391.476   76.309    0.250    0.455    6.287
  391.726   74.899    0.250    0.468    6.963
  391.976   75.016    0.252    0.474    7.544
  392.226   77.281    0.269    0.435    7.314
  392.476   81.103    0.249    0.421    6.594
  392.726   87.706    0.209    0.452    5.770
  392.976   94.869    0.196    0.481    4.988
  393.226   97.270    0.209    0.471    4.477
  393.476   96.843    0.207    0.452    3.945
  393.726   94.568    0.205    0.441    3.931
  393.976   96.130    0.192    0.434    3.925
  394.226   95.633    0.193    0.449    3.939
  394.476   96.088    0.228    0.474    3.643
  394.726   98.528    0.224    0.496    3.316
  394.976  101.489    0.213    0.495    3.341
  395.226  104.316    0.223    0.488    3.094
  395.476  106.236    0.216    0.488    3.112
  395.726  107.860    0.211    0.499    3.108
  395.976  108.558    0.209    0.505    3.097
  396.226  104.277    0.193    0.466    3.283
  396.476  104.312    0.187    0.453    3.277
  396.726  106.118    0.183    0.463    3.513
  396.976  111.821    0.209    0.486    3.495
  397.226  114.202    0.209    0.488    3.499
  397.476  115.436    0.216    0.480    3.502
  397.726  117.370    0.227    0.469    3.685
  397.976  116.773    0.209    0.471    3.951
  398.226  114.846    0.187    0.468    4.479
  398.476  113.344    0.178    0.459    5.114
  398.726  107.230    0.173    0.442    6.038
  398.976   96.101    0.164    0.417    7.199
  399.226   76.590    0.193    0.398    8.369
  399.476   72.410    0.213    0.400    8.199
  399.726   82.140    0.203    0.431    7.553
  399.976   89.062    0.195    0.457    6.064
  400.226   86.354    0.208    0.421    5.027
  400.476   77.533    0.214    0.404    4.613
  400.726   71.733    0.198    0.424    5.222
  400.976   74.950    0.188    0.411    5.870
  401.226   73.414    0.168    0.367    6.876
  401.476   68.366    0.192    0.357   11.097
  401.726   66.733    0.202    0.356   15.534
  401.976   61.937    0.221    0.360   18.590
  402.226   51.836    0.247    0.368   21.445
  402.476   52.848    0.265    0.373   22.970
  402.726   59.361    0.210    0.354   23.554
  402.976   71.036    0.195    0.355   21.409
  403.226   81.343    0.187    0.349   16.039
  403.476   86.294    0.183    0.334   14.641
  403.726   92.722    0.168    0.342   14.445
  403.976  100.270    0.169    0.394   14.754
  404.226  103.519    0.206    0.414   15.333
  404.476  103.242    0.222    0.411   16.824
  404.726   98.598    0.209    0.419   19.949
  404.976   92.498    0.191    0.401   23.510
  405.226   87.853    0.189    0.379   23.610
  405.476   86.643    0.203    0.368   22.722
  405.726   90.182    0.218    0.357   21.626
  405.976   96.794    0.200    0.348   19.198
  406.226   99.215    0.176    0.369   17.549
