~VERSION INFORMATION
 VERS.                 2.0:   CWLS LOG ASCII STANDARD -VERSION 2.0
 WRAP.                  NO:   ONE LINE PER DEPTH STEP
~WELL INFORMATION BLOCK
#MNEM.UNIT           DATA                    DESCRIPTION OF MNEMONIC
#---------    -------------------            -------------------------------
# Generated from Intellog Unique Number	CX_WELLS/WELL/2939
WELL.         GULF SURMONT                   : Well_name    - WELL
LOC .         00/06-25-082-09W4/0            : Location     - LOCATION
UWI .         00/06-25-082-09W4/0            : Uwi          - UNIQUE WELL ID
ENTR.         T                              : Entered      - ENTERED BY
SRVC.         SCHLUMBERGER                   : Scn          - SERVICE COMPANY
DATE.         03/04/92                       : Date         - LOG DATE
STRT.F        900                            : top_depth    - START DEPTH
STOP.F        1680.02                        : bot_depth    - STOP DEPTH
STEP.F        0.82                           : increment    - STEP LENGTH
 NULL. -999.2500:NULL Value
~CURVE INFORMATION BLOCK
#MNEM UNIT       ERCB CURVE CODE    CURVE DESCRIPTION
#-----------   ------------------   ----------------------------------
DEPT.F        00 001 00 00         : DEPTH        - DEPTH
GR  .API      00 310 00 00         : GR           - GAMMA RAY
NPHI.V/V      00 330 00 00         : PHIN         - NEUTRON POROSITY (SANDSTONE)
DPHI.V/V      00 890 00 00         : PHID         - DENSITY POROSITY (SANDSTONE)
ILD .OHMM     00 120 00 00         : RESD         - DEEP RESISTIVITY (OTHER)
~PARAMETER INFORMATION
#MNEM.UNIT           DATA             DESCRIPTION OF MNEMONIC
#---------         -----------     ------------------------------
GL  .F        2422                 : gl           - GROUND LEVEL ELEVATION
EREF.F        2432                 : kb           - ELEVATION OF DEPTH REFERENCE
DATM.F        2432                 : datum        - DATUM ELEVATION
TDD .F        1690                 : tdd          - TOTAL DEPTH DRILLER
RUN .         ONE                  : Run          - RUN NUMBER
ENG .         JO                   : Engineer     - RECORDING ENGINEER
WIT .         TIM                  : Witness      - WITNESSED BY
MUD .         GEL                  : Mud_type     - MUD TYPE
MATR.         SANDSTONE            : Logunit      - NEUTRON MATRIX
TMAX.F        62                   : BHT          - MAXIMUM RECORDED TEMPERATURE
BHTD.F        1690                 : BHTDEP       - MAXIMUM RECORDED TEMPERATURE
RMT .F        60                   : MDTP         - TEMPERATURE OF MUD
MUDD.LB/G     9.6                  : MWT          - MUD DENSITY
NEUT.         1                    : NEUTRON      - NEUTRON TYPE
RESI.         6.5                  : RESIST       - RESISTIVITY TYPE
RM  .OHMM     9.5                  : RM           - RESISTIVITY OF MUD
RMC .OHMM     9.5                  : RMC          - RESISTIVITY OF MUD CAKE
RMF .OHMM     9.5                  : RMF          - RESISTIVITY OF MUD FILTRATE
SUFT.F        39.2                 : SUFT         - SURFACE TEMPERATURE
~A  DEPTH       GR     PHIN     PHID     RESD
# ...
 1328.150   59.656    0.474    0.313   11.484
 1328.970   60.390    0.484    0.312   11.316
 1329.790   61.800    0.494    0.318   11.348
 1330.610   62.505    0.502    0.319   11.591
 1331.430   63.238    0.506    0.319   11.840
 1332.250   63.943    0.494    0.314   11.865
 1333.070   64.734    0.475    0.310   12.353
 1333.890   65.439    0.470    0.306   12.627
 1334.710   65.553    0.461    0.308   12.433
 1335.530   65.696    0.457    0.312   11.792
 1336.350   66.429    0.460    0.313   10.981
 1337.170   68.401    0.466    0.310    9.509
 1337.990   70.993    0.472    0.305    8.084
 1338.810   76.680    0.483    0.302    7.005
 1339.630   84.873    0.490    0.301    6.057
 1340.450   91.180    0.496    0.294    4.785
 1341.270   93.771    0.503    0.285    4.301
 1342.090   91.409    0.517    0.271    4.472
 1342.910   87.836    0.522    0.297    4.916
 1343.730   86.712    0.517    0.301    5.823
 1344.550   86.178    0.511    0.308    6.397
 1345.370   86.293    0.504    0.285    6.778
 1346.190   87.674    0.496    0.260    6.674
 1347.010   91.532    0.490    0.220    6.457
 1347.830   95.334    0.491    0.218    6.353
 1348.650   98.573    0.494    0.231    6.141
 1349.480  100.545    0.500    0.235    5.623
 1350.300  101.926    0.501    0.225    5.537
 1351.120  102.660    0.495    0.216    5.556
 1351.940  103.365    0.492    0.218    5.463
 1352.760  104.127    0.497    0.222    5.281
 1353.580  104.832    0.500    0.240    4.832
 1354.400  106.213    0.503    0.242    4.341
 1355.220  107.004    0.510    0.244    3.828
 1356.040  107.680    0.513    0.239    3.376
 1356.860  107.795    0.515    0.234    3.087
 1357.680  109.205    0.520    0.240    2.723
 1358.500  109.290    0.526    0.248    2.541
 1359.320  109.405    0.539    0.256    2.546
 1360.140  108.900    0.572    0.254    2.599
 1360.960  108.366    0.582    0.250    2.754
 1361.780  107.242    0.594    0.245    3.088
 1362.600  106.118    0.598    0.241    3.332
 1363.420  101.926    0.564    0.233    3.597
 1364.240  100.773    0.554    0.226    4.104
 1365.060   99.677    0.524    0.217    4.508
 1365.880   98.553    0.519    0.212    4.866
 1366.700   97.429    0.515    0.215    5.349
 1367.520   97.515    0.502    0.221    6.108
 1368.340   98.248    0.490    0.227    6.597
 1369.160   99.010    0.483    0.235    6.854
 1369.980   99.716    0.476    0.241    7.262
 1370.800  101.125    0.470    0.247    7.844
 1371.620  101.830    0.461    0.245    8.478
 1372.440  102.564    0.455    0.210    8.647
 1373.260  102.678    0.445    0.201    9.002
 1374.080  101.583    0.434    0.202    9.189
 1374.900  100.458    0.428    0.197    9.567
 1375.720   99.334    0.419    0.185    9.765
 1376.540   99.420    0.414    0.180    9.800
 1377.360  100.211    0.424    0.175    9.828
 1378.180  100.944    0.447    0.178    9.514
 1379.000  101.649    0.457    0.185    9.191
 1379.820  102.383    0.471    0.198    8.873
 1380.640  102.526    0.488    0.196    7.987
 1381.460  102.049    0.497    0.194    7.570
 1382.280  101.544    0.492    0.202    7.180
 1383.100  100.982    0.482    0.209    7.075
 1383.920   99.267    0.477    0.215    6.844
 1384.740   97.524    0.484    0.214    6.854
 1385.560   95.161    0.491    0.209    6.754
 1386.380   93.980    0.491    0.208    7.021
 1387.200   91.617    0.457    0.231    7.583
 1388.020   90.493    0.446    0.248    8.336
 1388.850   90.664    0.446    0.256    9.333
 1389.670   91.369    0.446    0.248    9.366
 1390.490   92.103    0.441    0.246    9.393
 1391.310   92.837    0.435    0.246    9.249
 1392.130   94.218    0.433    0.246    9.113
 1392.950   95.599    0.432    0.245    8.656
 1393.770   96.276    0.429    0.245    8.517
 1394.590   98.276    0.429    0.242    8.221
 1395.410   99.629    0.437    0.236    7.667
 1396.230  100.982    0.461    0.227    7.145
 1397.050  101.125    0.480    0.215    6.902
 1397.870  101.239    0.485    0.212    6.560
 1398.690  100.706    0.485    0.233    6.570
 1399.510  100.877    0.465    0.240    6.711
 1400.330  100.934    0.458    0.236    6.859
 1401.150  101.696    0.445    0.233    7.141
 1401.970  101.839    0.448    0.239    7.435
 1402.790  101.896    0.452    0.242    7.446
 1403.610  100.153    0.462    0.242    7.901
 1404.430   97.819    0.504    0.229    8.065
 1405.250   95.456    0.499    0.242    8.232
 1406.070   93.684    0.479    0.261    8.408
 1406.890   91.407    0.455    0.266    8.601
 1407.710   91.464    0.446    0.268    8.625
 1408.530   91.550    0.438    0.264    8.499
 1409.350   92.341    0.438    0.259    8.511
 1410.170   92.426    0.451    0.261    8.078
 1410.990   93.808    0.466    0.263    6.495
 1411.810   94.541    0.490    0.265    5.422
 1412.630   95.865    0.504    0.263    4.698
 1413.450   97.218    0.513    0.256    4.884
 1414.270   98.571    0.526    0.254    5.369
 1415.090   96.828    0.541    0.256    6.127
 1415.910   95.704    0.536    0.257    7.121
 1416.730   93.341    0.508    0.254    7.680
 1417.550   90.387    0.484    0.241    8.758
 1418.370   87.996    0.470    0.243    9.820
 1419.190   84.452    0.463    0.245   10.031
 1420.010   82.061    0.457    0.242   10.052
 1420.830   80.289    0.447    0.186    9.718
 1421.650   79.136    0.438    0.150    9.582
 1422.470   77.450    0.434    0.200    9.421
 1423.290   76.916    0.440    0.228    9.283
 1424.110   75.763    0.464    0.255    9.134
 1424.930   75.935    0.469    0.269    8.993
 1425.750   77.936    0.477    0.243    9.019
 1426.570   79.260    0.491    0.240    8.887
 1427.400   81.823    0.497    0.245    8.912
 1428.220   85.033    0.465    0.247    8.944
 1429.040   88.891    0.445    0.253    8.957
 1429.860   92.750    0.444    0.252    8.983
 1430.680   96.580    0.472    0.248    9.021
 1431.500   99.171    0.484    0.245    8.407
 1432.320  101.762    0.498    0.241    7.974
 1433.140  101.905    0.502    0.239    7.436
 1433.960  102.076    0.499    0.235    7.178
 1434.780  102.753    0.494    0.231    6.949
 1435.600  102.896    0.486    0.227    6.964
 1436.420  103.658    0.479    0.224    6.979
 1437.240  104.363    0.474    0.219    7.009
 1438.060  105.125    0.469    0.220    7.029
 1438.880  105.801    0.466    0.226    7.185
 1439.700  106.564    0.463    0.226    7.329
 1440.520  106.678    0.459    0.219    7.491
 1441.340  107.440    0.454    0.213    7.652
 1442.160  106.878    0.453    0.213    7.529
 1442.980  105.754    0.455    0.214    7.413
 1443.800  102.181    0.461    0.214    6.787
 1444.620   98.608    0.462    0.217    6.205
 1445.440   97.427    0.463    0.241    5.276
 1446.260   94.474    0.466    0.254    4.482
 1447.080   93.321    0.502    0.265    3.413
 1447.900   92.197    0.528    0.272    2.958
 1448.720   91.073    0.555    0.278    2.912
 1449.540   90.568    0.572    0.250    3.083
 1450.360   90.091    0.539    0.235    3.452
 1451.180   89.558    0.512    0.226    3.937
 1452.000   89.672    0.503    0.222    4.835
 1452.820   91.082    0.484    0.218    5.417
 1453.640   91.168    0.477    0.213    5.740
 1454.460   91.901    0.472    0.207    6.083
 1455.280   91.396    0.467    0.198    6.815
 1456.100   90.863    0.460    0.194    7.085
 1456.920   90.977    0.452    0.191    6.602
 1457.740   91.120    0.447    0.193    5.931
 1458.560   93.121    0.441    0.196    5.231
 1459.380   95.740    0.446    0.201    4.617
 1460.200   97.065    0.484    0.205    4.296
 1461.020   98.418    0.488    0.215    3.792
 1461.840   98.532    0.499    0.221    3.469
 1462.660   97.379    0.509    0.222    3.351
 1463.480   95.045    0.510    0.221    3.363
 1464.300   93.330    0.500    0.223    3.373
 1465.120   92.768    0.494    0.226    3.576
 1465.940   94.740    0.501    0.230    3.863
 1466.770   98.598    0.508    0.231    3.943
 1467.590  102.457    0.504    0.231    4.178
 1468.410  103.781    0.502    0.234    4.264
 1469.230  105.162    0.506    0.239    4.125
 1470.050  105.953    0.521    0.247    3.985
