~VERSION INFORMATION
 VERS.                 2.0:   CWLS LOG ASCII STANDARD -VERSION 2.0
 WRAP.                  NO:   ONE LINE PER DEPTH STEP
~WELL INFORMATION BLOCK
#MNEM.UNIT           DATA                    DESCRIPTION OF MNEMONIC
#---------    -------------------            -------------------------------
# Generated from Intellog Unique Number	CS_77_79/WELL/871
WELL.         HOME LEISMER                   : Well_name    - WELL
LOC .         00/06-11-078-07W4/0            : Location     - LOCATION
UWI .         00/06-11-078-07W4/0            : Uwi          - UNIQUE WELL ID
ENTR.         JHS                            : Entered      - ENTERED BY
SRVC.         SCHLUMBERGER                   : Scn          - SERVICE COMPANY
STRT.M        106.680                        : top_depth    - START DEPTH
STOP.M        344.180                        : bot_depth    - STOP DEPTH
STEP.M        0.25                           : increment    - STEP LENGTH
 NULL. -999.2500:NULL Value
~CURVE INFORMATION BLOCK
#MNEM UNIT       ERCB CURVE CODE    CURVE DESCRIPTION
#-----------   ------------------   ----------------------------------
DEPT.M        00 001 00 00         : DEPTH        - DEPTH
RHOB.KG/M3    00 350 00 00         : DENS         - BULK DENSITY
GR  .API      00 310 00 00         : GR           - GAMMA RAY
DPHI.V/V      00 890 00 00         : PHID         - DENSITY POROSITY (SANDSTONE)
NPHI.V/V      00 330 00 00         : PHIN         - NEUTRON POROSITY (SANDSTONE)
ILD .OHMM     00 120 00 00         : RESD         - DEEP RESISTIVITY (DIL)
~PARAMETER INFORMATION
#MNEM.UNIT           DATA             DESCRIPTION OF MNEMONIC
#---------         -----------     ------------------------------
GL  .M        533.461              : gl           - GROUND LEVEL ELEVATION
EREF.M        536.814              : kb           - ELEVATION OF DEPTH REFERENCE
DATM.M        536.814              : datum        - DATUM ELEVATION
TDD .M        347.472              : tdd          - TOTAL DEPTH DRILLER
RUN .         ONE                  : Run          - RUN NUMBER
ENG .         BILL                 : Engineer     - RECORDING ENGINEER
WIT .         JIM                  : Witness      - WITNESSED BY
MUD .         GEL                  : Mud_type     - MUD TYPE
MATR.         SANDSTONE            : Logunit      - NEUTRON MATRIX
TMAX.C        21.6667              : BHT          - MAXIMUM RECORDED TEMPERATURE
BHTD.M        347.472              : BHTDEP       - MAXIMUM RECORDED TEMPERATURE
MATR.         1                    : LOGUNIT      - NEUTRON MATRIX
RMT .C        25                   : MDTP         - TEMPERATURE OF MUD
NEUT.         1                    : NEUTRON      - NEUTRON TYPE
RESI.         0                    : RESIST       - RESISTIVITY TYPE
RMC .OHMM     0.25                 : RMC          - RESISTIVITY OF MUD CAKE
RMF .OHMM     0.25                 : RMF          - RESISTIVITY OF MUD FILTRATE
SUFT.C        15                   : SUFT         - SURFACE TEMPERATURE
~A  DEPTH     DENS       GR     PHID     PHIN     RESD
# ...
  289.180 2235.280   47.447    0.278    0.398   41.470
  289.430 2212.740   44.210    0.291    0.399   49.084
  289.680 2199.440   47.657    0.299    0.401   61.476
  289.930 2195.570   52.145    0.301    0.400   74.945
  290.180 2204.890   54.994    0.295    0.397   82.502
  290.430 2198.300   55.220    0.299    0.386   77.181
  290.680 2196.570   54.358    0.300    0.390   65.754
  290.930 2174.070   57.888    0.313    0.409   52.314
  291.180 2204.620   61.244    0.296    0.393   44.915
  291.430 2225.180   56.603    0.284    0.394   42.443
  291.680 2214.430   49.703    0.290    0.394   46.823
  291.930 2193.730   44.976    0.302    0.384   57.077
  292.180 2189.000   46.638    0.305    0.378   69.487
  292.430 2194.140   49.832    0.302    0.382   74.751
  292.680 2203.330   49.910    0.296    0.397   74.009
  292.930 2209.840   53.763    0.292    0.414   69.376
  293.180 2208.280   60.448    0.293    0.414   54.795
  293.430 2204.300   62.341    0.296    0.399   39.694
  293.680 2201.730   57.718    0.297    0.403   36.707
  293.930 2194.850   51.542    0.301    0.408   35.332
  294.180 2181.360   51.795    0.309    0.412   35.666
  294.430 2192.830   52.562    0.302    0.415   37.352
  294.680 2194.020   48.712    0.302    0.420   41.371
  294.930 2165.730   44.969    0.318    0.420   46.598
  295.180 2146.760   43.933    0.329    0.413   56.532
  295.430 2163.540   48.468    0.320    0.408   79.323
  295.680 2164.990   51.569    0.319    0.408   94.379
  295.930 2155.680   52.324    0.324    0.408  103.402
  296.180 2158.560   48.512    0.322    0.401  105.954
  296.430 2172.260   47.350    0.314    0.385  100.447
  296.680 2172.840   50.545    0.314    0.400   87.534
  296.930 2188.880   53.311    0.305    0.407   71.148
  297.180 2182.520   55.716    0.308    0.399   56.196
  297.430 2190.780   53.553    0.304    0.381   48.735
  297.680 2211.010   50.114    0.292    0.384   47.517
  297.930 2190.520   49.220    0.304    0.392   49.121
  298.180 2185.370   51.178    0.307    0.394   50.701
  298.430 2196.910   53.321    0.300    0.392   51.081
  298.680 2203.890   56.877    0.296    0.400   49.643
  298.930 2200.950   59.560    0.298    0.393   42.517
  299.180 2208.520   60.775    0.293    0.385   35.781
  299.430 2212.470   61.392    0.291    0.395   30.618
  299.680 2219.310   60.137    0.287    0.400   27.985
  299.930 2236.760   57.788    0.277    0.403   26.344
  300.180 2208.470   52.382    0.293    0.412   27.074
  300.430 2162.470   49.108    0.320    0.410   33.283
  300.680 2155.630   48.265    0.324    0.407   42.905
  300.930 2158.440   50.845    0.323    0.419   49.445
  301.180 2161.290   53.470    0.321    0.423   57.490
  301.430 2178.420   52.804    0.311    0.410   68.772
  301.680 2197.600   48.970    0.300    0.413   77.270
  301.930 2156.020   46.649    0.324    0.401   71.596
  302.180 2170.810   48.431    0.315    0.405   64.523
  302.430 2174.310   53.320    0.313    0.405   56.385
  302.680 2172.030   54.517    0.315    0.408   52.802
  302.930 2172.290   54.541    0.314    0.399   46.042
  303.180 2214.450   58.334    0.290    0.373   36.374
  303.430 2272.300   66.538    0.256    0.368   28.976
  303.680 2294.020   65.320    0.243    0.384   23.701
  303.930 2278.470   62.779    0.252    0.399   21.255
  304.180 2228.370   62.398    0.282    0.408   19.707
  304.430 2219.430   65.723    0.287    0.398   18.966
  304.680 2265.010   71.141    0.260    0.398   16.445
  304.930 2289.120   70.062    0.246    0.424   14.072
  305.180 2262.390   65.293    0.262    0.440   16.276
  305.430 2221.430   57.993    0.286    0.407   19.313
  305.680 2193.800   46.633    0.302    0.386   24.622
  305.930 2218.410   48.212    0.287    0.385   28.627
  306.180 2228.340   51.349    0.282    0.402   31.922
  306.430 2192.290   50.623    0.303    0.420   32.574
  306.680 2220.710   47.053    0.286    0.420   30.817
  306.930 2213.240   48.391    0.290    0.406   25.311
  307.180 2233.260   52.626    0.279    0.373   19.353
  307.430 2307.280   68.431    0.236    0.358   12.330
  307.680 2352.120   77.885    0.209    0.361   10.925
  307.930 2344.770   80.025    0.214    0.399   10.169
  308.180 2304.700   78.854    0.237    0.411   10.413
  308.430 2288.230   75.579    0.247    0.410   11.015
  308.680 2265.060   69.577    0.260    0.407   13.198
  308.930 2279.760   64.468    0.252    0.402   15.985
  309.180 2229.480   58.251    0.281    0.402   18.342
  309.430 2211.360   54.865    0.292    0.399   17.960
  309.680 2211.750   55.287    0.291    0.386   16.779
  309.930 2217.590   63.479    0.288    0.375   15.659
  310.180 2274.230   71.343    0.255    0.379   14.381
  310.430 2290.260   71.746    0.245    0.402   13.744
  310.680 2263.580   69.944    0.261    0.434   13.316
  310.930 2230.250   70.635    0.281    0.433   12.871
  311.180 2261.970   74.665    0.262    0.437   11.553
  311.430 2299.640   79.724    0.240    0.426   10.306
  311.680 2326.140   82.491    0.224    0.417    9.652
  311.930 2328.940   83.198    0.223    0.403    9.851
  312.180 2303.970   80.387    0.237    0.411   11.974
  312.430 2283.760   72.803    0.249    0.431   15.687
  312.680 2270.320   65.145    0.257    0.457   24.512
  312.930 2183.470   47.289    0.308    0.439   34.569
  313.180 2112.970   37.227    0.349    0.430   56.596
  313.430 2114.600   39.796    0.348    0.436   64.255
  313.680 2142.820   44.938    0.332    0.443   63.112
  313.930 2165.020   45.881    0.319    0.439   55.918
  314.180 2169.140   42.109    0.316    0.435   45.494
  314.430 2186.750   46.840    0.306    0.415   40.775
  314.680 2205.110   47.770    0.295    0.419   40.383
  314.930 2220.770   45.964    0.286    0.404   39.634
  315.180 2189.240   43.986    0.305    0.396   38.104
  315.430 2171.840   45.209    0.315    0.400   37.208
  315.680 2175.670   45.422    0.312    0.412   36.085
  315.930 2193.100   48.840    0.302    0.414   36.092
  316.180 2193.630   46.757    0.302    0.418   36.698
  316.430 2183.480   41.837    0.308    0.424   38.575
  316.680 2159.500   42.236    0.322    0.426   40.241
  316.930 2135.790   44.890    0.336    0.431   39.930
  317.180 2140.700   47.783    0.333    0.433   37.624
  317.430 2154.700   53.416    0.325    0.434   33.851
  317.680 2136.190   56.973    0.336    0.437   30.505
  317.930 2124.310   55.882    0.343    0.457   28.124
  318.180 2147.650   53.316    0.329    0.478   23.103
  318.430 2166.120   55.105    0.318    0.443   18.697
  318.680 2194.810   64.271    0.301    0.424   15.459
  318.930 2228.390   69.471    0.282    0.426   14.371
  319.180 2266.880   69.313    0.259    0.439   14.439
  319.430 2287.070   59.791    0.247    0.460   14.152
  319.680 2202.780   45.371    0.297    0.426   15.937
  319.930 2200.060   47.327    0.298    0.415   19.746
  320.180 2232.390   49.574    0.279    0.445   24.707
  320.430 2219.380   48.056    0.287    0.450   27.344
  320.680 2175.110   54.656    0.313    0.427   22.726
  320.930 2215.230   67.908    0.289    0.407   17.709
  321.180 2251.030   81.537    0.268    0.390   13.825
  321.430 2325.250   97.015    0.225    0.404   11.652
  321.680 2383.520  102.311    0.191    0.438    8.804
  321.930 2398.350  104.200    0.182    0.448    7.516
  322.180 2388.140  103.279    0.188    0.449    6.791
  322.430 2368.020   97.540    0.200    0.422    6.583
  322.680 2352.390   93.225    0.209    0.401    6.544
  322.930 2359.380   92.655    0.205    0.405    6.658
  323.180 2341.940   88.468    0.215    0.433    6.905
  323.430 2323.110   81.704    0.226    0.441    7.723
  323.680 2243.500   63.732    0.273    0.461    8.927
  323.930 2158.920   53.995    0.322    0.455   11.989
  324.180 2149.230   55.454    0.328    0.441   15.407
  324.430 2185.100   63.890    0.307    0.436   17.701
  324.680 2246.890   73.059    0.271    0.416   17.506
  324.930 2335.520   86.142    0.219    0.391   14.828
  325.180 2386.080  104.947    0.189    0.400   11.621
  325.430 2392.410  114.463    0.186    0.448    9.424
