~VERSION INFORMATION
 VERS.                 2.0:   CWLS LOG ASCII STANDARD -VERSION 2.0
 WRAP.                  NO:   ONE LINE PER DEPTH STEP
~WELL INFORMATION BLOCK
#MNEM.UNIT           DATA                    DESCRIPTION OF MNEMONIC
#---------    -------------------            -------------------------------
# Generated from Intellog Unique Number	CS_73_76/WELL/2181
WELL.         DOME PETROLEUM LIMITED         : Well_name    - WELL
LOC .         00/09-34-074-10W4/0            : Location     - LOCATION
UWI .         00/09-34-074-10W4/0            : Uwi          - UNIQUE WELL ID
ENTR.         SP                             : Entered      - ENTERED BY
SRVC.         SCHLUMBERGER                   : Scn          - SERVICE COMPANY
STRT.M        295                            : top_depth    - START DEPTH
STOP.M        495                            : bot_depth    - STOP DEPTH
STEP.M        0.25                           : increment    - STEP LENGTH
 NULL. -999.2500:NULL Value
~CURVE INFORMATION BLOCK
#MNEM UNIT       ERCB CURVE CODE    CURVE DESCRIPTION
#-----------   ------------------   ----------------------------------
DEPT.M        00 001 00 00         : DEPTH        - DEPTH
ILD .OHMM     00 120 00 00         : RESD         - DEEP RESISTIVITY (DIL)
DPHI.V/V      00 890 00 00         : PHID         - DENSITY POROSITY (LIMESTONE)
NPHI.V/V      00 330 00 00         : PHIN         - NEUTRON POROSITY (LIMESTONE)
GR  .API      00 310 00 00         : GR           - GAMMA RAY
~PARAMETER INFORMATION
#MNEM.UNIT           DATA             DESCRIPTION OF MNEMONIC
#---------         -----------     ------------------------------
GL  .M        675.02               : gl           - GROUND LEVEL ELEVATION
EREF.M        679                  : kb           - ELEVATION OF DEPTH REFERENCE
DATM.M        675.02               : datum        - DATUM ELEVATION
TDD .M        501                  : tdd          - TOTAL DEPTH DRILLER
RUN .         ONE                  : Run          - RUN NUMBER
ENG .         BILL                 : Engineer     - RECORDING ENGINEER
WIT .         JIM                  : Witness      - WITNESSED BY
MUD .         GEL                  : Mud_type     - MUD TYPE
MATR.         LIMESTONE            : Logunit      - NEUTRON MATRIX
TMAX.C        17                   : BHT          - MAXIMUM RECORDED TEMPERATURE
BHTD.M        501                  : BHTDEP       - MAXIMUM RECORDED TEMPERATURE
MATR.         1                    : LOGUNIT      - NEUTRON MATRIX
RMT .C        25                   : MDTP         - TEMPERATURE OF MUD
NEUT.         1                    : NEUTRON      - NEUTRON TYPE
RESI.         0                    : RESIST       - RESISTIVITY TYPE
RMC .OHMM     0.25                 : RMC          - RESISTIVITY OF MUD CAKE
RMF .OHMM     0.25                 : RMF          - RESISTIVITY OF MUD FILTRATE
SUFT.C        15                   : SUFT         - SURFACE TEMPERATURE
~A  DEPTH     RESD     PHID     PHIN       GR
# ...
  338.500   25.602    0.318    0.393   51.276
  338.750   25.124    0.315    0.400   50.686
  339.000   24.654    0.311    0.403   50.713
  339.250   24.655    0.305    0.397   51.334
  339.500   24.194    0.289    0.387   54.394
  339.750   22.857    0.299    0.385   57.445
  340.000   20.016    0.305    0.401   61.717
  340.250   17.529    0.310    0.420   64.166
  340.500   17.200    0.306    0.433   66.004
  340.750   17.202    0.285    0.418   73.312
  341.000   18.560    0.237    0.413   79.405
  341.250   19.649    0.252    0.425   83.062
  341.500   22.443    0.258    0.429   81.269
  341.750   25.634    0.255    0.425   79.457
  342.000   27.138    0.190    0.420   75.832
  342.250   26.630    0.086    0.389   70.998
  342.500   24.222    0.051    0.328   67.977
  342.750   21.210    0.056    0.247   73.464
  343.000   17.546    0.186    0.287   79.559
  343.250   14.793    0.244    0.367   82.609
  343.500   14.243    0.260    0.427   87.489
  343.750   13.714    0.254    0.442   90.544
  344.000   13.716    0.260    0.439   90.562
  344.250   13.459    0.266    0.434   90.583
  344.500   13.207    0.263    0.442   91.213
  344.750   12.960    0.267    0.452   91.832
  345.000   12.014    0.265    0.456   93.064
  345.250   11.350    0.265    0.465   95.512
  345.500   11.138    0.261    0.474   97.356
  345.750   11.139    0.256    0.482   96.769
  346.000   11.354    0.247    0.467   97.391
  346.250   11.572    0.256    0.437   98.625
  346.500   11.795    0.260    0.429   99.858
  346.750   12.022    0.264    0.422   96.234
  347.000   12.254    0.264    0.421   93.822
  347.250   12.489    0.251    0.420   93.843
  347.500   12.729    0.243    0.419   92.042
  347.750   12.975    0.252    0.414   89.632
  348.000   12.976    0.241    0.409   88.438
  348.250   12.977    0.219    0.411   86.638
  348.500   12.734    0.224    0.417   84.829
  348.750   12.031    0.214    0.426   85.453
  349.000   11.152    0.235    0.439   87.301
  349.250    9.766    0.206    0.452   89.136
  349.500    9.053    0.207    0.462   91.584
  349.750    8.717    0.222    0.479   94.032
  350.000    8.393    0.241    0.455   97.092
  350.250    8.393    0.239    0.446  100.762
  350.500    8.555    0.211    0.438  101.376
  350.750    9.057    0.220    0.441  101.398
  351.000    9.773    0.226    0.446   97.771
  351.250   10.746    0.238    0.452   91.717
  351.500   11.377    0.265    0.442   82.630
  351.750   12.750    0.272    0.426   77.787
  352.000   13.498    0.286    0.417   73.562
  352.250   14.564    0.294    0.407   70.545
  352.500   15.129    0.284    0.388   68.735
  352.750   15.420    0.281    0.373   67.537
  353.000   15.718    0.273    0.374   68.771
  353.250   15.719    0.283    0.393   69.398
  353.500   15.425    0.299    0.401   65.781
  353.750   15.426    0.308    0.399   66.407
  354.000   15.428    0.316    0.394   68.241
  354.250   15.139    0.313    0.392   72.518
  354.500   13.258    0.295    0.399   76.178
  354.750   12.765    0.282    0.401   79.840
  355.000   12.526    0.267    0.408   81.677
  355.250   12.060    0.255    0.411   84.127
  355.500   11.835    0.258    0.412   84.151
  355.750   11.613    0.262    0.406   84.165
  356.000   11.396    0.261    0.408   84.180
  356.250   11.183    0.257    0.419   84.819
  356.500   10.974    0.250    0.423   84.833
  356.750   10.769    0.253    0.422   85.457
  357.000   10.770    0.252    0.419   86.079
  357.250   10.568    0.242    0.418   87.319
  357.500   10.370    0.230    0.414   87.938
  357.750   10.177    0.221    0.414   91.000
  358.000   10.178    0.222    0.414   92.845
  358.250    9.987    0.225    0.416   93.461
  358.500    9.801    0.228    0.420   92.872
  358.750    9.801    0.232    0.418   90.467
  359.000    9.618    0.225    0.420   88.664
  359.250    9.438    0.212    0.426   88.071
  359.500    9.439    0.206    0.421   89.304
  359.750    9.263    0.201    0.420   91.754
  360.000    9.089    0.206    0.424   93.593
  360.250    8.919    0.212    0.426   93.006
  360.500    8.752    0.213    0.430   90.599
  360.750    8.753    0.222    0.436   89.401
  361.000    8.589    0.227    0.441   87.607
  361.250    8.590    0.219    0.443   87.014
  361.500    8.591    0.229    0.436   86.422
  361.750    8.591    0.233    0.426   85.228
  362.000    8.758    0.229    0.422   84.636
  362.250    8.758    0.223    0.421   84.655
  362.500    8.759    0.236    0.426   83.460
  362.750    8.927    0.238    0.428   81.056
  363.000    9.099    0.224    0.428   78.647
  363.250    9.453    0.242    0.432   78.658
  363.500    9.634    0.249    0.440   78.679
  363.750    9.820    0.257    0.448   79.910
  364.000   10.396    0.282    0.457   76.286
  364.250   10.596    0.305    0.466   73.267
  364.500   10.800    0.311    0.461   73.286
  364.750   11.220    0.312    0.454   75.736
  365.000   11.221    0.301    0.456   75.152
  365.250   11.436    0.296    0.454   71.531
  365.500   11.222    0.312    0.427   70.935
  365.750   11.013    0.318    0.418   73.388
  366.000   11.014    0.299    0.408   75.222
  366.250   11.015    0.291    0.401   79.498
  366.500   10.809    0.279    0.394   83.162
  366.750   10.810    0.270    0.388   84.996
  367.000   10.811    0.248    0.387   86.839
  367.250   10.812    0.243    0.400   86.856
  367.500   10.812    0.241    0.403   86.874
  367.750   11.020    0.244    0.407   89.325
  368.000   11.022    0.252    0.410   89.344
  368.250   11.234    0.256    0.414   86.330
  368.500   11.024    0.261    0.404   83.311
  368.750   11.025    0.269    0.406   79.688
  369.000   10.616    0.262    0.410   77.272
  369.250   10.417    0.242    0.409   78.506
  369.500   10.222    0.230    0.401   83.388
  369.750    9.297    0.217    0.395   87.659
  370.000    8.618    0.227    0.393   89.493
  370.250    7.839    0.232    0.391   91.336
  370.500    7.548    0.198    0.400   92.568
  370.750    6.997    0.193    0.407   95.630
  371.000    6.610    0.208    0.420   97.466
  371.250    6.365    0.214    0.426   99.313
  371.500    6.365    0.217    0.417   98.109
  371.750    6.612    0.220    0.419   92.058
  372.000    7.134    0.224    0.428   86.611
  372.250    7.411    0.236    0.439   81.769
  372.500    7.846    0.269    0.440   75.718
  372.750    7.847    0.285    0.434   71.483
  373.000    7.555    0.306    0.425   72.717
  373.250    7.003    0.323    0.438   77.596
  373.500    6.133    0.315    0.471   83.695
  373.750    5.473    0.295    0.486   86.136
  374.000    5.171    0.275    0.495   87.974
  374.250    4.615    0.251    0.494   88.604
  374.500    4.443    0.249    0.485   89.236
  374.750    4.198    0.249    0.498   89.857
  375.000    4.042    0.235    0.501   91.093
  375.250    3.966    0.239    0.505   92.934
  375.500    3.892    0.241    0.509   94.163
  375.750    3.819    0.238    0.517   97.230
  376.000    3.820    0.243    0.521   98.456
  376.250    3.820    0.252    0.512   99.685
  376.500    3.820    0.252    0.515   96.064
  376.750    3.969    0.247    0.522   95.472
  377.000    4.201    0.232    0.531   95.493
  377.250    4.448    0.233    0.536   94.297
  377.500    4.985    0.231    0.540   91.885
  377.750    5.379    0.226    0.515   87.656
  378.000    5.803    0.245    0.492   81.602
  378.250    6.628    0.265    0.459   74.939
  378.500    7.289    0.314    0.438   70.097
  378.750    7.864    0.335    0.422   67.079
  379.000    7.865    0.346    0.423   67.708
  379.250    8.170    0.350    0.427   68.339
  379.500    8.327    0.353    0.442   67.744
  379.750    8.328    0.369    0.459   64.735
  380.000    8.329    0.370    0.471   63.533
  380.250    8.173    0.353    0.487   62.948
  380.500    7.869    0.338    0.472   64.186
  380.750    7.435    0.342    0.466   64.805
  381.000    7.296    0.337    0.455   66.048
  381.250    6.892    0.326    0.445   66.064
  381.500    6.389    0.319    0.446   66.076
  381.750    5.923    0.314    0.464   66.708
