~VERSION INFORMATION
 VERS.                 2.0:   CWLS LOG ASCII STANDARD -VERSION 2.0
 WRAP.                  NO:   ONE LINE PER DEPTH STEP
~WELL INFORMATION BLOCK
#MNEM.UNIT           DATA                    DESCRIPTION OF MNEMONIC
#---------    -------------------            -------------------------------
# Generated from Intellog Unique Number	CW_70_72/WELL/3007
NULL.         -999.25                        : NULL_VALUE
WELL.         SULPETRO ET AL PARKER 06-17    : Well_name    - WELL              
LOC .         06-17-070-04W5                 : Location     - LOCATION          
UWI .         00/06-17-070-04W5/0            : Uwi          - UNIQUE WELL ID    
ENTR.         J                              : Entered      - ENTERED BY        
SRVC.         WESTERN ATLAS                  : Scn          - SERVICE COMPANY   
DATE.         4 JUNE 83                      : Date         - LOG DATE          
STRT.M        600                            : top_depth    - START DEPTH       
STOP.M        840                            : bot_depth    - STOP DEPTH        
STEP.M        0.25                           : increment    - STEP LENGTH       
~CURVE INFORMATION BLOCK
#MNEM UNIT       ERCB CURVE CODE    CURVE DESCRIPTION
#-----------   ------------------   ----------------------------------
DEPT.M        00 001 00 00         : DEPTH        - DEPTH                       
ILD .OHMM     00 120 00 00         : RESD         - DEEP RESISTIVITY (DIL)      
CALI.MM       00 280 01 00         : CAL          - CALIPER                     
GR  .API      00 310 00 00         : GR           - GAMMA RAY                   
NPHI.V/V      00 330 00 00         : PHIN         - NEUTRON POROSITY (SANDSTONE)
DPHI.V/V      00 890 00 00         : PHID         - DENSITY POROSITY (SANDSTONE)
~PARAMETER INFORMATION       
#MNEM.UNIT           DATA             DESCRIPTION OF MNEMONIC
#---------         -----------     ------------------------------
GL  .M        710.35               : gl           - GROUND LEVEL ELEVATION      
EREF.M        714.05               : kb           - ELEVATION OF DEPTH REFERENCE
DATM.M        710.35               : datum        - DATUM ELEVATION             
TDD .M        905                  : tdd          - TOTAL DEPTH DRILLER         
RUN .         ONE                  : Run          - RUN NUMBER                  
ENG .         ADAMOWSKI            : Engineer     - RECORDING ENGINEER          
WIT .         DAVID                : Witness      - WITNESSED BY                
BASE.         EDM                  : Branch       - HOME BASE OF LOGGING UNIT   
MUD .         GEL CHEM             : Mud_type     - MUD TYPE                    
MATR.         SANDSTONE            : Logunit      - NEUTRON MATRIX              
TMAX.C        33                   : BHT          - MAXIMUM RECORDED TEMPERATURE
BHTD.M        902.5                : BHTDEP       - MAXIMUM RECORDED TEMPERATURE
RMT .C        17                   : MDTP         - TEMPERATURE OF MUD          
MUDD.KG/M     1150                 : MWT          - MUD DENSITY                 
NEUT.         1                    : NEUTRON      - NEUTRON TYPE                
RESI.         0                    : RESIST       - RESISTIVITY TYPE            
RM  .OHMM     2.3                  : RM           - RESISTIVITY OF MUD          
RMC .OHMM     2.5                  : RMC          - RESISTIVITY OF MUD CAKE     
RMF .OHMM     1.9                  : RMF          - RESISTIVITY OF MUD FILTRATE 
SUFT.C        0                    : SUFT         - SURFACE TEMPERATURE         
~A  DEPTH     RESD      CAL       GR     PHIN     PHID
# ...
  746.000    3.367  153.795   60.198    0.325    0.205
  746.250    3.104  153.714   62.969    0.315    0.216
  746.500    2.758  153.113   68.247    0.317    0.226
  746.750    2.563  153.131   71.015    0.330    0.234
  747.000    2.389  152.740   62.069    0.337    0.240
  747.250    2.228  152.652   61.456    0.332    0.241
  747.500    2.048  152.779   65.668    0.325    0.244
  747.750    1.895  152.491   68.624    0.336    0.251
  748.000    1.783  152.507   66.445    0.351    0.272
  748.250    1.633  152.322   59.690    0.368    0.283
  748.500    1.432  152.445   53.625    0.354    0.288
  748.750    1.295  152.365   55.016    0.342    0.288
  749.000    1.188  152.385   59.167    0.349    0.288
  749.250    1.135  151.891   59.806    0.350    0.292
  749.500    1.109  151.496   57.060    0.338    0.297
  749.750    1.098  151.200   58.077    0.336    0.302
  750.000    1.127  151.116   57.088    0.343    0.306
  750.250    1.145  151.138   55.157    0.347    0.308
  750.500    1.212  150.852   56.237    0.349    0.311
  750.750    1.274  150.769   58.254    0.345    0.311
  751.000    1.334  150.784   61.778    0.352    0.310
  751.250    1.324  150.701   63.041    0.347    0.309
  751.500    1.296  150.520   63.244    0.343    0.307
  751.750    1.243  150.543   62.754    0.346    0.303
  752.000    1.207  150.562   61.704    0.347    0.291
  752.250    1.207  150.688   61.906    0.343    0.288
  752.500    1.210  150.812   61.854    0.343    0.294
  752.750    1.237  151.254   61.242    0.342    0.303
  753.000    1.259  152.318   59.876    0.331    0.307
  753.250    1.307  154.117   57.946    0.337    0.307
  753.500    1.323  155.598   56.017    0.350    0.307
  753.750    1.327  156.663   55.968    0.357    0.307
  754.000    1.321  157.633   55.917    0.358    0.310
  754.250    1.322  157.855   56.432    0.358    0.311
  754.500    1.337  158.296   58.826    0.359    0.310
  754.750    1.371  160.930   64.165    0.363    0.307
  755.000    1.449  165.232   68.753    0.374    0.302
  755.250    1.566  170.266   72.149    0.371    0.293
  755.500    1.808  174.779   77.050    0.365    0.282
  755.750    2.013  175.220   80.382    0.355    0.269
  756.000    2.458  180.668   78.015    0.358    0.250
  756.250    2.799  183.933   77.715    0.368    0.244
  756.500    3.129  184.893   78.668    0.378    0.246
  756.750    3.345  185.861   78.118    0.386    0.253
  757.000    3.437  186.502   76.689    0.389    0.258
  757.250    3.455  187.046   75.889    0.392    0.265
  757.500    3.434  187.589   74.835    0.391    0.272
  757.750    3.387  188.340   75.788    0.374    0.267
  758.000    3.303  188.156   77.870    0.351    0.259
  758.250    3.264  187.447   80.013    0.342    0.241
  758.500    3.231  187.263   81.028    0.334    0.232
  758.750    3.223  186.971   76.968    0.325    0.227
  759.000    3.245  186.368   72.783    0.318    0.225
  759.250    3.274  185.864   73.361    0.317    0.222
  759.500    3.296  185.152   72.872    0.326    0.218
  759.750    3.300  184.860   71.132    0.340    0.217
  760.000    3.237  183.736   69.013    0.355    0.233
  760.250    3.092  182.713   68.525    0.367    0.245
  760.500    2.911  182.420   69.730    0.379    0.257
  760.750    2.695  181.918   71.496    0.387    0.264
  761.000    2.551  181.315   73.829    0.391    0.269
  761.250    2.437  181.233   74.343    0.387    0.272
  761.500    2.346  180.941   74.166    0.368    0.273
  761.750    2.271  180.857   73.992    0.360    0.273
  762.000    2.232  180.466   74.509    0.360    0.271
  762.250    2.197  180.175   75.649    0.357    0.270
  762.500    2.167  179.982   76.538    0.345    0.269
  762.750    2.134  179.482   72.854    0.335    0.268
  763.000    2.108  178.355   68.544    0.331    0.267
  763.250    2.095  177.334   69.811    0.361    0.265
  763.500    2.102  176.938   69.822    0.363    0.261
  763.750    2.109  176.441   66.766    0.363    0.261
  764.000    2.102  176.145   68.409    0.369    0.265
  764.250    2.097  175.856   70.425    0.373    0.269
  764.500    2.135  175.874   70.566    0.365    0.268
  764.750    2.158  175.587   70.201    0.356    0.263
  765.000    2.177  175.607   71.217    0.343    0.257
  765.250    2.196  175.836   73.297    0.335    0.252
  765.500    2.199  175.033   75.379    0.331    0.246
  765.750    2.230  174.630   75.266    0.368    0.243
  766.000    2.266  174.334   75.467    0.370    0.242
  766.250    2.286  174.047   76.986    0.348    0.239
  766.500    2.315  174.284   78.565    0.329    0.235
  766.750    2.348  174.403   80.959    0.332    0.228
  767.000    2.418  174.528   83.102    0.360    0.230
  767.250    2.476  174.444   77.913    0.376    0.236
  767.500    2.568  175.099   72.349    0.354    0.232
  767.750    2.679  175.851   73.679    0.340    0.222
  768.000    2.811  176.806   76.637    0.330    0.198
  768.250    3.066  182.156   73.266    0.318    0.167
  768.500    3.750  184.473   70.397    0.306    0.143
  768.750    4.247  185.958   68.218    0.289    0.112
  769.000    5.041  187.443   67.416    0.278    0.095
  769.250    5.357  188.405   66.991    0.258    0.088
  769.500    5.835  188.736   68.071    0.250    0.088
  769.750    6.098  188.865   71.215    0.251    0.095
  770.000    5.624  188.155   74.739    0.262    0.127
  770.250    5.195  187.134   77.318    0.276    0.151
  770.500    4.756  186.945   79.339    0.282    0.156
  770.750    4.552  187.177   80.604    0.283    0.149
  771.000    4.491  187.930   82.370    0.285    0.143
  771.250    4.404  188.579   85.015    0.288    0.138
  771.500    4.319  189.224   88.225    0.293    0.146
  771.750    4.213  190.604   91.244    0.301    0.155
  772.000    4.188  191.879   95.017    0.314    0.162
  772.250    4.192  193.466   93.778    0.334    0.153
  772.500    4.260  195.581   93.540    0.328    0.141
  772.750    4.511  196.437   94.935    0.321    0.128
  773.000    4.849  196.772   95.633    0.314    0.119
  773.250    5.087  196.792   95.961    0.307    0.110
  773.500    5.189  196.606   96.599    0.293    0.113
  773.750    5.225  196.314   97.993    0.292    0.124
  774.000    5.202  195.606   96.187    0.313    0.123
  774.250    5.227  194.581   91.814    0.311    0.115
  774.500    5.233  193.038   88.569    0.296    0.106
  774.750    5.319  191.387   84.321    0.285    0.101
  775.000    5.528  186.571   84.921    0.284    0.090
  775.250    5.620  185.815   88.775    0.286    0.101
  775.500    5.670  185.575   92.263    0.288    0.115
  775.750    5.688  185.365   91.391    0.293    0.136
  776.000    5.579  185.238   93.747    0.297    0.159
  776.250    5.421  185.328   92.680    0.303    0.172
  776.500    5.161  185.452   90.046    0.308    0.180
  776.750    4.867  185.434   90.098    0.314    0.186
  777.000    4.504  185.823   91.656    0.322    0.189
  777.250    4.304  186.209   90.769    0.330    0.186
  777.500    4.044  187.361   84.520    0.332    0.178
  777.750    3.922  187.743   85.138    0.328    0.172
  778.000    3.833  187.856   88.743    0.323    0.165
  778.250    3.903  188.550   89.986    0.327    0.159
  778.500    4.027  188.851   83.295    0.330    0.153
  778.750    4.187  189.154   74.227    0.316    0.145
  779.000    4.320  189.968   71.976    0.306    0.136
  779.250    4.498  191.323   77.648    0.290    0.131
  779.500    4.598  192.871   83.572    0.318    0.133
  779.750    4.648  194.314   91.190    0.328    0.135
  780.000    4.671  195.020   96.612    0.318    0.130
  780.250    4.802  196.051   99.981    0.306    0.122
  780.500    4.880  197.196   95.663    0.301    0.117
  780.750    4.905  197.788   92.472    0.299    0.126
  781.000    4.958  199.560   91.521    0.303    0.134
  781.250    5.030  200.985   92.144    0.307    0.139
  781.500    5.084  202.951   94.626    0.301    0.136
  781.750    5.081  204.822   97.997    0.301    0.135
  782.000    5.012  206.174  101.802    0.319    0.137
  782.250    4.907  207.297  106.601    0.318    0.139
