~VERSION INFORMATION
 VERS.                 2.0:   CWLS LOG ASCII STANDARD -VERSION 2.0
 WRAP.                  NO:   ONE LINE PER DEPTH STEP
~WELL INFORMATION BLOCK
#MNEM.UNIT           DATA                    DESCRIPTION OF MNEMONIC
#---------    -------------------            -------------------------------
# Generated from Intellog Unique Number	CX_WELLS/WELL/1070
WELL.         07-19-088-18W4                 : Well_name    - WELL
LOC .         00/07-19-088-18W4/0            : Location     - LOCATION
UWI .         00/07-19-088-18W400            : Uwi          - UNIQUE WELL ID
ENTR.         DW                             : Entered      - ENTERED BY
SRVC.         SCHLUMBERGER                   : Scn          - SERVICE COMPANY
STRT.M        25                             : top_depth    - START DEPTH
STOP.M        173                            : bot_depth    - STOP DEPTH
STEP.M        0.25                           : increment    - STEP LENGTH
 NULL. -999.2500:NULL Value
~CURVE INFORMATION BLOCK
#MNEM UNIT       ERCB CURVE CODE    CURVE DESCRIPTION
#-----------   ------------------   ----------------------------------
DEPT.M        00 001 00 00         : DEPTH        - DEPTH
GR  .API      00 310 00 00         : GR           - GAMMA RAY
NPHI.V/V      00 330 00 00         : PHIN         - NEUTRON POROSITY (SANDSTONE)
DPHI.V/V      00 890 00 00         : PHID         - DENSITY POROSITY (SANDSTONE)
ILD .OHMM     00 120 00 00         : RESD         - DEEP RESISTIVITY (DIL)
~PARAMETER INFORMATION
#MNEM.UNIT           DATA             DESCRIPTION OF MNEMONIC
#---------         -----------     ------------------------------
GL  .M        512.14               : gl           - GROUND LEVEL ELEVATION
EREF.M        515.64               : kb           - ELEVATION OF DEPTH REFERENCE
DATM.M        515.64               : datum        - DATUM ELEVATION
TDD .M        175                  : tdd          - TOTAL DEPTH DRILLER
RUN .         ONE                  : Run          - RUN NUMBER
ENG .         BILL                 : Engineer     - RECORDING ENGINEER
WIT .         JIM                  : Witness      - WITNESSED BY
MUD .         GEL                  : Mud_type     - MUD TYPE
MATR.         SANDSTONE            : Logunit      - NEUTRON MATRIX
TMAX.C        17                   : BHT          - MAXIMUM RECORDED TEMPERATURE
BHTD.M        234                  : BHTDEP       - MAXIMUM RECORDED TEMPERATURE
MATR.         1                    : LOGUNIT      - NEUTRON MATRIX
RMT .C        25                   : MDTP         - TEMPERATURE OF MUD
NEUT.         1                    : NEUTRON      - NEUTRON TYPE
RESI.         0                    : RESIST       - RESISTIVITY TYPE
RMC .OHMM     0.25                 : RMC          - RESISTIVITY OF MUD CAKE
RMF .OHMM     0.25                 : RMF          - RESISTIVITY OF MUD FILTRATE
SUFT.C        15                   : SUFT         - SURFACE TEMPERATURE
~A  DEPTH       GR     PHIN     PHID     RESD
# ...
   68.500   34.282    0.467    0.318   37.675
   68.750   34.339    0.474    0.323   36.407
   69.000   34.470    0.489    0.327   35.764
   69.250   34.507    0.498    0.328   35.165
   69.500   35.180    0.445    0.330   35.232
   69.750   35.273    0.424    0.331   35.299
   70.000   34.172    0.434    0.332   35.366
   70.250   33.612    0.444    0.336   35.433
   70.500   33.687    0.456    0.337   34.840
   70.750   34.957    0.461    0.338   34.290
   71.000   37.440    0.462    0.336   34.322
   71.250   38.093    0.458    0.330   33.136
   71.500   41.771    0.448    0.324   32.566
   71.750   46.625    0.435    0.320   32.021
   72.000   48.510    0.429    0.325   30.914
   72.250   48.026    0.424    0.329   30.958
   72.500   47.466    0.433    0.336   30.454
   72.750   47.522    0.456    0.337   30.498
   73.000   45.861    0.474    0.337   30.556
   73.250   45.301    0.492    0.335   30.629
   73.500   43.584    0.508    0.333   30.687
   73.750   43.659    0.505    0.323   31.358
   74.000   44.369    0.489    0.315   31.402
   74.250   44.406    0.468    0.317   31.447
   74.500   43.884    0.447    0.321   31.537
   74.750   39.796    0.428    0.326   30.980
   75.000   38.098    0.409    0.329   31.053
   75.250   38.154    0.404    0.332   30.534
   75.500   38.210    0.424    0.334   30.606
   75.750   38.882    0.435    0.333   28.971
   76.000   40.171    0.420    0.332   25.934
   76.250   41.422    0.416    0.331   22.783
   76.500   43.307    0.421    0.331   20.384
   76.750   45.174    0.428    0.330   16.303
   77.000   46.444    0.438    0.329   12.796
   77.250   47.713    0.428    0.329    9.857
   77.500   51.970    0.409    0.318    8.185
   77.750   63.413    0.389    0.301    6.796
   78.000   76.648    0.342    0.287    6.205
   78.250   82.715    0.367    0.261    6.211
   78.500   86.990    0.411    0.246    6.223
   78.750   87.662    0.447    0.218    6.476
   79.000   88.316    0.481    0.204    6.865
   79.250   87.196    0.474    0.214    7.551
   79.500   84.303    0.456    0.228    8.963
   79.750   80.794    0.445    0.245   10.241
   80.000   74.877    0.477    0.252   12.386
   80.250   69.557    0.509    0.256   14.421
   80.500   63.658    0.475    0.266   16.798
   80.750   58.955    0.430    0.280   17.814
   81.000   54.848    0.414    0.297   18.169
   81.250   51.358    0.487    0.312   18.909
   81.500   50.836    0.485    0.316   18.945
   81.750   50.294    0.462    0.313   19.350
   82.000   50.369    0.453    0.308   19.396
   82.250   49.866    0.443    0.303   19.423
   82.500   48.727    0.445    0.306   19.451
   82.750   47.626    0.452    0.309   19.144
   83.000   47.701    0.461    0.312   18.814
   83.250   47.776    0.466    0.311   18.841
   83.500   48.430    0.460    0.310   18.552
   83.750   49.699    0.450    0.307   18.570
   84.000   50.987    0.437    0.304   18.605
   84.250   51.678    0.440    0.302   18.649
   84.500   52.332    0.477    0.297   18.685
   84.750   53.004    0.504    0.292   18.729
   85.000   53.098    0.514    0.286   19.103
   85.250   52.557    0.520    0.281   19.502
   85.500   50.877    0.508    0.279   19.919
   85.750   49.739    0.488    0.279   20.720
   86.000   48.600    0.470    0.280   21.973
   86.250   46.286    0.451    0.283   22.846
   86.500   45.166    0.425    0.287   23.777
   86.750   45.839    0.398    0.291   24.262
   87.000   47.743    0.383    0.294   25.263
   87.250   48.994    0.374    0.305   25.791
   87.500   50.879    0.424    0.305   25.840
   87.750   52.149    0.478    0.306   26.367
   88.000   52.205    0.475    0.310   26.430
   88.250   52.280    0.435    0.314   26.982
   88.500   51.776    0.414    0.316   27.546
   88.750   51.273    0.412    0.319   28.121
   89.000   50.116    0.416    0.320   28.188
   89.250   49.612    0.412    0.321   28.763
   89.500   49.687    0.410    0.323   28.818
   89.750   49.164    0.422    0.324   29.462
   90.000   49.258    0.444    0.325   29.490
   90.250   49.333    0.454    0.325   30.092
   90.500   49.408    0.463    0.324   30.163
   90.750   49.483    0.470    0.325   30.235
   91.000   49.577    0.471    0.326   30.278
   91.250   49.633    0.465    0.327   30.336
   91.500   49.689    0.451    0.328   30.408
   91.750   49.764    0.440    0.331   30.451
   92.000   49.839    0.430    0.331   30.509
   92.250   50.511    0.430    0.331   30.582
   92.500   50.586    0.437    0.331   30.625
   92.750   50.680    0.457    0.329   30.156
   93.000   50.157    0.479    0.329   30.199
   93.250   49.635    0.477    0.330   30.242
   93.500   50.923    0.472    0.329   29.750
   93.750   53.388    0.464    0.326   29.266
   94.000   55.852    0.465    0.324   28.749
   94.250   56.524    0.470    0.323   28.281
   94.500   54.191    0.476    0.323   27.794
   94.750   51.279    0.481    0.323   27.847
   95.000   55.592    0.473    0.321   27.381
   95.250   56.227    0.465    0.322   26.949
   95.500   56.301    0.456    0.323   27.000
   95.750   55.200    0.463    0.323   26.548
   96.000   54.659    0.478    0.323   26.611
   96.250   54.753    0.495    0.324   26.637
   96.500   54.809    0.465    0.327   26.687
   96.750   55.519    0.440    0.332   26.738
   97.000   55.575    0.446    0.336   26.789
   97.250   56.266    0.467    0.337   26.840
   97.500   56.957    0.477    0.333   26.916
   97.750   57.032    0.493    0.332   26.453
   98.000   57.088    0.471    0.334   26.023
   98.250   57.145    0.452    0.334   26.073
   98.500   56.660    0.423    0.332   25.624
   98.750   56.716    0.425    0.330   25.195
   99.000   56.772    0.425    0.328   24.773
   99.250   56.847    0.418    0.326   24.359
   99.500   57.519    0.367    0.327   24.428
   99.750   58.191    0.377    0.331   24.463
  100.000   60.674    0.454    0.333   24.533
  100.250   64.333    0.495    0.334   24.556
  100.500   70.979    0.501    0.334   25.069
  100.750   75.254    0.467    0.338   25.605
  101.000   72.342    0.457    0.343   25.642
  101.250   69.412    0.455    0.349   25.691
  101.500   65.305    0.464    0.341   25.739
  101.750   64.186    0.474    0.334   25.813
  102.000   64.279    0.475    0.329   25.862
  102.250   64.354    0.465    0.324   25.911
  102.500   63.832    0.455    0.315   25.961
  102.750   62.133    0.461    0.316   26.010
  103.000   62.190    0.471    0.318   26.047
  103.250   61.686    0.478    0.319   26.097
  103.500   61.145    0.469    0.324   26.146
  103.750   61.239    0.463    0.328   26.196
  104.000   61.313    0.469    0.334   25.782
  104.250   61.370    0.480    0.338   25.831
  104.500   61.445    0.491    0.337   25.880
  104.750   61.576    0.501    0.336   25.929
  105.000   61.632    0.508    0.332   25.495
  105.250   61.669    0.490    0.328   25.544
  105.500   61.166    0.475    0.327   25.593
  105.750   60.643    0.463    0.327   25.176
  106.000   60.140    0.453    0.327   25.212
  106.250   60.196    0.448    0.327   24.790
  106.500   60.271    0.443    0.323   24.387
  106.750   60.943    0.438    0.321   23.967
  107.000   61.018    0.433    0.319   23.577
  107.250   61.690    0.431    0.316   22.752
  107.500   64.173    0.463    0.311   21.145
  107.750   65.443    0.489    0.308   17.883
  108.000   67.907    0.492    0.305   15.131
  108.250   70.969    0.478    0.303   12.565
  108.500   74.030    0.457    0.302   10.235
  108.750   80.097    0.448    0.285    8.033
  109.000   86.743    0.437    0.253    6.670
  109.250   92.194    0.424    0.236    5.337
  109.500   98.280    0.430    0.229    4.871
  109.750  100.744    0.439    0.222    4.696
  110.000  101.398    0.440    0.216    4.531
  110.250  102.089    0.412    0.210    4.455
  110.500  102.742    0.411    0.209    4.381
  110.750  102.873    0.438    0.216    4.559
  111.000  103.508    0.453    0.215    4.924
  111.250  103.602    0.476    0.200    5.321
  111.500  104.274    0.493    0.198    5.532
  111.750  104.349    0.486    0.195    5.867
