~VERSION INFORMATION
 VERS.                 2.0:   CWLS LOG ASCII STANDARD -VERSION 2.0
 WRAP.                  NO:   ONE LINE PER DEPTH STEP
~WELL INFORMATION BLOCK
#MNEM.UNIT           DATA                    DESCRIPTION OF MNEMONIC
#---------    -------------------            -------------------------------
# Generated from Intellog Unique Number	CS_71_72/WELL/774
WELL.         SUN OIL COMPANY                : Well_name    - WELL
LOC .         00/06-22-072-16W4/0            : Location     - LOCATION
UWI .         00/06-22-072-16W4/0            : Uwi          - UNIQUE WELL ID
ENTR.         SP                             : Entered      - ENTERED BY
SRVC.         SCHLUMBERGER                   : Scn          - SERVICE COMPANY
STRT.M        256.032                        : top_depth    - START DEPTH
STOP.M        435.532                        : bot_depth    - STOP DEPTH
STEP.M        0.25                           : increment    - STEP LENGTH
 NULL. -999.2500:NULL Value
~CURVE INFORMATION BLOCK
#MNEM UNIT       ERCB CURVE CODE    CURVE DESCRIPTION
#-----------   ------------------   ----------------------------------
DEPT.M        00 001 00 00         : DEPTH        - DEPTH
GR  .API      00 310 00 00         : GR           - GAMMA RAY
DPHI.V/V      00 890 00 00         : PHID         - DENSITY POROSITY (SANDSTONE)
NPHI.V/V      00 330 00 00         : PHIN         - NEUTRON POROSITY (SANDSTONE)
ILD .OHMM     00 120 00 00         : RESD         - DEEP RESISTIVITY (DIL)
~PARAMETER INFORMATION
#MNEM.UNIT           DATA             DESCRIPTION OF MNEMONIC
#---------         -----------     ------------------------------
GL  .M        579.577              : gl           - GROUND LEVEL ELEVATION
EREF.M        582.473              : kb           - ELEVATION OF DEPTH REFERENCE
DATM.M        579.577              : datum        - DATUM ELEVATION
TDD .M        437.388              : tdd          - TOTAL DEPTH DRILLER
RUN .         ONE                  : Run          - RUN NUMBER
ENG .         BILL                 : Engineer     - RECORDING ENGINEER
WIT .         JIM                  : Witness      - WITNESSED BY
MUD .         GEL                  : Mud_type     - MUD TYPE
MATR.         SANDSTONE            : Logunit      - NEUTRON MATRIX
TMAX.C        18.3333              : BHT          - MAXIMUM RECORDED TEMPERATURE
BHTD.M        437.388              : BHTDEP       - MAXIMUM RECORDED TEMPERATURE
MATR.         1                    : LOGUNIT      - NEUTRON MATRIX
RMT .C        25                   : MDTP         - TEMPERATURE OF MUD
NEUT.         1                    : NEUTRON      - NEUTRON TYPE
RESI.         0                    : RESIST       - RESISTIVITY TYPE
RMC .OHMM     0.25                 : RMC          - RESISTIVITY OF MUD CAKE
RMF .OHMM     0.25                 : RMF          - RESISTIVITY OF MUD FILTRATE
SUFT.C        15                   : SUFT         - SURFACE TEMPERATURE
~A  DEPTH       GR     PHID     PHIN     RESD
  256.032  100.792    0.214    0.479    3.725
  256.282   99.966    0.205    0.505    3.804
  256.532   97.417    0.200    0.516    3.820
  256.782   95.514    0.203    0.509    3.874
  257.032   95.067    0.209    0.501    3.922
  257.282   96.964    0.215    0.507    3.788
  257.532   98.917    0.223    0.517    3.566
  257.782  101.417    0.229    0.507    3.257
  258.032  102.326    0.239    0.493    3.117
  258.282  101.782    0.232    0.509    3.122
  258.532  101.293    0.230    0.528    3.143
  258.782   99.883    0.238    0.535    3.248
  259.032   99.045    0.234    0.521    3.343
  259.282  100.030    0.225    0.503    3.523
  259.532  100.047    0.219    0.524    3.700
  259.782   99.002    0.235    0.530    3.787
  260.032   98.687    0.223    0.526    3.699
  260.282   96.614    0.216    0.534    3.472
  260.532   94.652    0.225    0.531    3.300
  260.782   92.633    0.226    0.519    3.147
  261.032   89.755    0.236    0.507    3.577
  261.282   83.974    0.252    0.534    4.327
  261.532   78.011    0.292    0.559    5.489
  261.782   64.909    0.390    0.587    7.171
  262.032   55.315    0.525    0.608    8.802
  262.282   49.963    0.616    0.626    9.445
  262.532   50.060    0.557    0.630    8.759
  262.782   57.020    0.463    0.598    8.040
  263.032   66.786    0.312    0.548    7.061
  263.282   69.508    0.285    0.496    6.325
  263.532   67.061    0.281    0.467    5.809
  263.782   69.311    0.287    0.449    5.482
  264.032   72.121    0.293    0.436    5.201
  264.282   74.131    0.303    0.434    5.058
  264.532   74.706    0.295    0.429    4.904
  264.782   74.190    0.291    0.423    4.888
  265.032   72.796    0.297    0.427    4.992
  265.282   72.850    0.301    0.433    5.065
  265.532   73.004    0.304    0.439    5.122
  265.782   74.677    0.299    0.437    5.192
  266.032   77.103    0.295    0.423    5.343
  266.282   77.330    0.303    0.443    5.610
  266.532   78.406    0.297    0.449    5.804
  266.782   79.629    0.292    0.456    5.869
  267.032   83.325    0.284    0.447    6.069
  267.282   87.778    0.279    0.432    6.272
  267.532   92.003    0.274    0.432    6.287
  267.782   93.737    0.269    0.438    6.290
  268.032   91.720    0.266    0.441    6.102
  268.282   94.152    0.264    0.445    5.929
  268.532   92.672    0.269    0.452    5.756
  268.782   89.451    0.280    0.459    5.855
  269.032   86.854    0.285    0.456    6.130
  269.282   87.196    0.275    0.441    6.554
  269.532   89.587    0.243    0.418    6.772
  269.782   90.417    0.215    0.395    6.805
  270.032   88.330    0.203    0.391    6.713
  270.282   82.745    0.205    0.406    6.469
  270.532   76.794    0.215    0.417    6.221
  270.782   67.401    0.216    0.399    5.837
  271.032   61.055    0.206    0.373    5.586
  271.282   55.992    0.199    0.370    5.196
  271.532   60.397    0.232    0.386    5.056
  271.782   61.731    0.249    0.395    4.803
  272.032   62.173    0.262    0.416    4.670
  272.282   61.058    0.278    0.423    4.667
  272.532   63.804    0.287    0.426    4.790
  272.782   68.126    0.288    0.422    4.946
  273.032   74.554    0.232    0.448    5.004
  273.282   80.461    0.181    0.468    5.050
  273.532   90.298    0.142    0.488    4.994
  273.782   97.688    0.128    0.498    4.573
  274.032  101.333    0.082    0.483    4.283
  274.282  105.045    0.135    0.494    4.239
  274.532  111.292    0.146    0.515    4.129
  274.782  115.432    0.148    0.524    4.224
  275.032  118.675    0.177    0.535    4.367
  275.282  120.708    0.176    0.526    4.408
  275.532  121.533    0.172    0.520    4.477
  275.782  120.197    0.164    0.516    4.353
  276.032  118.907    0.145    0.513    4.113
  276.282  117.400    0.124    0.520    3.755
  276.532  115.807    0.171    0.535    3.431
  276.782  118.940    0.181    0.549    3.221
  277.032  122.365    0.183    0.563    3.361
  277.282  125.275    0.207    0.567    3.972
  277.532  125.954    0.204    0.534    4.715
  277.782  124.669    0.218    0.513    5.404
  278.032  121.752    0.230    0.482    6.223
  278.282  119.444    0.233    0.453    6.666
  278.532  116.135    0.231    0.435    7.027
  278.782  112.104    0.229    0.430    7.061
  279.032  109.293    0.231    0.432    7.072
  279.282  108.892    0.230    0.444    6.736
  279.532  110.025    0.208    0.451    6.254
  279.782  110.509    0.190    0.461    5.801
  280.032  111.657    0.174    0.469    5.309
  280.282  113.602    0.155    0.479    5.070
  280.532  111.094    0.161    0.494    4.904
  280.782  107.155    0.175    0.515    4.968
  281.032  105.230    0.187    0.529    5.302
  281.282  108.146    0.208    0.538    5.717
  281.532  110.275    0.229    0.539    6.114
  281.782  111.453    0.243    0.500    6.388
  282.032  103.122    0.242    0.460    6.670
  282.282   94.709    0.251    0.433    6.956
  282.532   86.768    0.258    0.419    7.159
  282.782   84.259    0.253    0.430    7.317
  283.032   80.243    0.241    0.437    7.310
  283.282   77.880    0.223    0.452    7.324
  283.532   75.786    0.218    0.461    7.116
  283.782   77.723    0.223    0.470    7.059
  284.032   78.266    0.224    0.455    6.836
  284.282   80.716    0.238    0.444    6.821
  284.532   85.632    0.253    0.442    6.825
  284.782   91.109    0.272    0.433    6.921
  285.032   95.526    0.254    0.430    6.996
  285.282   99.562    0.238    0.434    7.104
  285.532  102.102    0.217    0.421    7.046
  285.782  101.530    0.217    0.421    6.833
  286.032  101.578    0.221    0.440    6.626
  286.282  102.502    0.228    0.460    6.623
  286.532  105.097    0.237    0.475    6.627
  286.782  108.556    0.242    0.486    6.619
  287.032  113.391    0.236    0.483    6.764
  287.282  115.816    0.236    0.472    6.899
  287.532  117.653    0.245    0.471    6.977
  287.782  115.515    0.257    0.482    7.168
  288.032  110.486    0.277    0.494    7.308
  288.282  108.286    0.273    0.474    7.491
  288.532  103.536    0.255    0.443    7.625
  288.782  100.158    0.233    0.417    7.741
  289.032  100.986    0.221    0.407    7.837
  289.282  103.379    0.214    0.394    7.755
  289.532  106.272    0.211    0.382    7.413
  289.782  110.063    0.211    0.391    6.782
  290.032  111.322    0.209    0.403    6.193
  290.282  112.707    0.205    0.426    5.568
  290.532  110.294    0.197    0.460    5.007
  290.782  113.797    0.191    0.495    5.195
  291.032  117.610    0.208    0.509    5.388
  291.282  110.233    0.223    0.492    5.629
  291.532  102.069    0.242    0.473    5.809
  291.782   92.915    0.254    0.467    6.134
  292.032   88.407    0.245    0.475    6.183
  292.282   84.782    0.222    0.484    6.289
  292.532   88.168    0.255    0.475    6.304
  292.782   92.498    0.258    0.457    6.180
  293.032   95.622    0.260    0.449    6.096
  293.282   97.639    0.265    0.445    6.071
  293.532   98.959    0.261    0.447    6.201
  293.782   99.666    0.254    0.443    6.279
  294.032   98.942    0.243    0.432    6.493
  294.282   99.016    0.230    0.432    6.569
  294.532   99.995    0.228    0.453    6.720
  294.782  101.797    0.241    0.470    6.542
  295.032  101.161    0.249    0.449    6.567
  295.282   95.651    0.258    0.431    6.975
  295.532   91.376    0.272    0.434    7.598
  295.782   94.382    0.278    0.461    8.870
  296.032   88.150    0.242    0.469   10.308
  296.282   78.207    0.219    0.420   13.128
  296.532   73.738    0.180    0.383   16.749
  296.782   67.972    0.091    0.302   21.962
  297.032   64.733    0.051    0.276   27.162
  297.282   61.598    0.154    0.223   26.800
  297.532   58.241    0.221    0.285   21.136
  297.782   60.949    0.254    0.321   17.513
  298.032   67.558    0.266    0.356   14.168
  298.282   72.665    0.259    0.406   11.372
  298.532   78.276    0.246    0.449    9.580
  298.782   83.451    0.223    0.450    8.974
  299.032   88.489    0.229    0.453    7.683
  299.282   92.037    0.242    0.464    7.063
