~VERSION INFORMATION
 VERS.                 2.0:   CWLS LOG ASCII STANDARD -VERSION 2.0
 WRAP.                  NO:   ONE LINE PER DEPTH STEP
~WELL INFORMATION BLOCK
#MNEM.UNIT           DATA                    DESCRIPTION OF MNEMONIC
#---------    -------------------            -------------------------------
# Generated from Intellog Unique Number	CS_67_68/WELL/843
WELL.         MERLAND EXPLORATIONS           : Well_name    - WELL
LOC .         00/05-27-068-11W4/0            : Location     - LOCATION
UWI .         00/05-27-068-11W4/0            : Uwi          - UNIQUE WELL ID
ENTR.         SP                             : Entered      - ENTERED BY
SRVC.         SCHLUMBERGER                   : Scn          - SERVICE COMPANY
STRT.M        300                            : top_depth    - START DEPTH
STOP.M        505                            : bot_depth    - STOP DEPTH
STEP.M        0.25                           : increment    - STEP LENGTH
 NULL. -999.2500:NULL Value
~CURVE INFORMATION BLOCK
#MNEM UNIT       ERCB CURVE CODE    CURVE DESCRIPTION
#-----------   ------------------   ----------------------------------
DEPT.M        00 001 00 00         : DEPTH        - DEPTH
ILD .OHMM     00 120 00 00         : RESD         - DEEP RESISTIVITY (DIL)
DPHI.V/V      00 890 00 00         : PHID         - DENSITY POROSITY (LIMESTONE)
NPHI.V/V      00 330 00 00         : PHIN         - NEUTRON POROSITY (LIMESTONE)
GR  .API      00 310 00 00         : GR           - GAMMA RAY
~PARAMETER INFORMATION
#MNEM.UNIT           DATA             DESCRIPTION OF MNEMONIC
#---------         -----------     ------------------------------
GL  .M        615.2                : gl           - GROUND LEVEL ELEVATION
EREF.M        618                  : kb           - ELEVATION OF DEPTH REFERENCE
DATM.M        615.2                : datum        - DATUM ELEVATION
TDD .M        515                  : tdd          - TOTAL DEPTH DRILLER
RUN .         ONE                  : Run          - RUN NUMBER
ENG .         BILL                 : Engineer     - RECORDING ENGINEER
WIT .         JIM                  : Witness      - WITNESSED BY
MUD .         GEL                  : Mud_type     - MUD TYPE
MATR.         LIMESTONE            : Logunit      - NEUTRON MATRIX
TMAX.C        22                   : BHT          - MAXIMUM RECORDED TEMPERATURE
BHTD.M        515                  : BHTDEP       - MAXIMUM RECORDED TEMPERATURE
MATR.         1                    : LOGUNIT      - NEUTRON MATRIX
RMT .C        25                   : MDTP         - TEMPERATURE OF MUD
NEUT.         1                    : NEUTRON      - NEUTRON TYPE
RESI.         0                    : RESIST       - RESISTIVITY TYPE
RMC .OHMM     0.25                 : RMC          - RESISTIVITY OF MUD CAKE
RMF .OHMM     0.25                 : RMF          - RESISTIVITY OF MUD FILTRATE
SUFT.C        15                   : SUFT         - SURFACE TEMPERATURE
~A  DEPTH     RESD     PHID     PHIN       GR
# ...
  343.500    3.660    0.270    0.449   95.983
  343.750    3.576    0.259    0.453   98.710
  344.000    3.480    0.247    0.460  100.650
  344.250    3.463    0.269    0.450  100.289
  344.500    3.538    0.279    0.443   95.328
  344.750    3.661    0.287    0.435   89.338
  345.000    3.904    0.285    0.425   85.285
  345.250    4.108    0.272    0.417   82.442
  345.500    4.316    0.264    0.409   80.992
  345.750    4.425    0.254    0.393   79.603
  346.000    4.495    0.267    0.421   79.303
  346.250    4.550    0.284    0.445   83.724
  346.500    4.553    0.298    0.458   82.214
  346.750    4.498    0.315    0.471   79.795
  347.000    4.426    0.334    0.476   78.103
  347.250    4.340    0.348    0.469   77.682
  347.500    4.280    0.332    0.462   77.624
  347.750    4.266    0.320    0.455   78.111
  348.000    4.294    0.329    0.449   79.808
  348.250    4.386    0.319    0.459   83.745
  348.500    4.481    0.303    0.443   89.741
  348.750    4.509    0.275    0.434   93.315
  349.000    4.514    0.258    0.433   93.681
  349.250    4.516    0.251    0.434   92.413
  349.500    4.486    0.247    0.432   90.418
  349.750    4.490    0.261    0.434   87.878
  350.000    4.518    0.288    0.445   85.278
  350.250    4.555    0.307    0.448   83.101
  350.500    4.611    0.327    0.443   81.590
  350.750    4.631    0.339    0.437   81.411
  351.000    4.679    0.307    0.430   87.467
  351.250    4.717    0.279    0.433   94.976
  351.500    4.756    0.260    0.443   99.337
  351.750    4.795    0.264    0.452   94.800
  352.000    4.808    0.284    0.445   88.265
  352.250    4.795    0.254    0.442   84.514
  352.500    4.762    0.237    0.440   87.241
  352.750    4.731    0.232    0.440   90.452
  353.000    4.682    0.247    0.437   93.300
  353.250    4.624    0.264    0.428   94.816
  353.500    4.562    0.282    0.423   89.734
  353.750    4.555    0.293    0.433   84.833
  354.000    4.516    0.303    0.414   81.930
  354.250    4.511    0.306    0.402   79.754
  354.500    4.514    0.307    0.391   79.393
  354.750    4.535    0.288    0.398   80.304
  355.000    4.564    0.282    0.405   80.911
  355.250    4.602    0.286    0.409   81.096
  355.500    4.632    0.285    0.411   80.978
  355.750    4.661    0.286    0.405   80.798
  356.000    4.691    0.295    0.401   81.225
  356.250    4.694    0.281    0.395   82.741
  356.500    4.698    0.276    0.407   82.380
  356.750    4.693    0.286    0.421   80.809
  357.000    4.662    0.292    0.405   77.603
  357.250    4.657    0.301    0.397   77.909
  357.500    4.678    0.308    0.413   81.725
  357.750    4.691    0.301    0.421   85.118
  358.000    4.711    0.295    0.407   87.602
  358.250    4.451    0.288    0.398   83.609
  358.500    4.573    0.280    0.387   86.700
  358.750    4.679    0.271    0.384   89.729
  359.000    4.797    0.262    0.399   93.242
  359.250    4.937    0.266    0.408   92.276
  359.500    5.024    0.275    0.413   88.163
  359.750    5.133    0.282    0.402   86.955
  360.000    5.284    0.284    0.390   87.987
  360.250    5.396    0.273    0.383   90.411
  360.500    5.502    0.268    0.398   91.321
  360.750    5.631    0.272    0.408   91.869
  361.000    5.698    0.268    0.418   91.992
  361.250    5.745    0.260    0.419   91.874
  361.500    5.718    0.255    0.410   97.627
  361.750    5.565    0.249    0.402  103.441
  362.000    5.355    0.256    0.397  108.105
  362.250    5.193    0.239    0.404  106.836
  362.500    5.148    0.219    0.417  112.590
  362.750    5.192    0.233    0.425  111.987
  363.000    5.234    0.267    0.431  105.331
  363.250    5.260    0.272    0.444   97.767
  363.500    5.252    0.287    0.458   90.022
  363.750    5.180    0.304    0.466   85.847
  364.000    5.106    0.316    0.468   82.702
  364.250    5.025    0.328    0.458   81.191
  364.500    4.912    0.317    0.443   79.196
  364.750    4.859    0.313    0.434   74.054
  365.000    4.826    0.317    0.424   69.456
  365.250    4.794    0.323    0.413   67.884
  365.500    4.815    0.326    0.394   67.040
  365.750    4.903    0.329    0.382   67.163
  366.000    4.980    0.330    0.377   68.317
  366.250    5.048    0.302    0.380   71.043
  366.500    5.166    0.275    0.383   74.677
  366.750    5.258    0.266    0.386   78.373
  367.000    5.330    0.253    0.397   80.918
  367.250    5.344    0.261    0.398   83.100
  367.500    5.319    0.271    0.386   83.828
  367.750    5.224    0.281    0.380   78.746
  368.000    5.057    0.279    0.374   74.270
  368.250    4.976    0.269    0.394   75.483
  368.500    4.906    0.263    0.402   79.360
  368.750    4.856    0.262    0.408   82.631
  369.000    4.595    0.271    0.400   84.571
  369.250    4.650    0.269    0.388   85.542
  369.500    4.795    0.256    0.383   85.242
  369.750    4.925    0.247    0.378   83.731
  370.000    5.070    0.239    0.374   85.005
  370.250    5.129    0.244    0.395   87.369
  370.500    5.172    0.258    0.408   89.006
  370.750    5.186    0.255    0.404   88.585
  371.000    5.209    0.241    0.393   85.924
  371.250    5.194    0.230    0.400   85.321
  371.500    5.180    0.223    0.407   86.111
  371.750    5.173    0.225    0.403   86.658
  372.000    5.139    0.215    0.405   87.630
  372.250    5.105    0.214    0.414   89.691
  372.500    5.090    0.224    0.420   91.872
  372.750    5.066    0.236    0.409   93.448
  373.000    5.069    0.244    0.403   91.090
  373.250    5.045    0.254    0.423   85.827
  373.500    5.020    0.275    0.434   80.139
  373.750    4.922    0.291    0.445   79.718
  374.000    4.555    0.302    0.452   82.021
  374.250    4.122    0.302    0.456   80.631
  374.500    3.567    0.281    0.458   85.719
  374.750    2.963    0.270    0.472   91.714
  375.000    2.403    0.289    0.487   96.681
  375.250    2.150    0.283    0.498   96.683
  375.500    2.221    0.289    0.514   93.962
  375.750    2.427    0.311    0.546   87.245
  376.000    2.611    0.337    0.504   77.502
  376.250    2.901    0.345    0.473   72.783
  376.500    3.314    0.343    0.450   69.941
  376.750    3.743    0.355    0.431   67.281
  377.000    4.189    0.355    0.423   65.891
  377.250    4.509    0.349    0.421   65.348
  377.500    4.684    0.343    0.422   66.864
  377.750    4.722    0.338    0.429   68.804
  378.000    4.709    0.336    0.438   69.533
  378.250    4.652    0.335    0.444   69.354
  378.500    4.614    0.341    0.442   69.780
  378.750    4.598    0.345    0.434   69.117
  379.000    4.585    0.348    0.428   67.486
  379.250    4.571    0.350    0.421   66.762
  379.500    4.541    0.352    0.416   69.065
  379.750    4.527    0.356    0.425   66.949
  380.000    4.507    0.361    0.435   65.801
  380.250    4.492    0.346    0.442   65.441
  380.500    4.479    0.346    0.443   65.322
  380.750    4.466    0.352    0.431   65.083
  381.000    4.453    0.360    0.429   64.904
  381.250    4.448    0.353    0.435   65.028
  381.500    4.435    0.346    0.446   65.575
  381.750    4.422    0.348    0.455   68.362
  382.000    4.418    0.354    0.443   70.544
  382.250    4.422    0.342    0.436   72.181
  382.500    4.450    0.336    0.433   74.121
  382.750    4.477    0.330    0.433   77.150
  383.000    4.574    0.321    0.437   75.639
  383.250    4.716    0.307    0.443   75.763
  383.500    4.908    0.294    0.447   81.395
  383.750    5.254    0.303    0.447   86.725
  384.000    5.518    0.311    0.435   82.854
  384.250    5.819    0.302    0.424   77.166
  384.500    6.021    0.297    0.420   74.747
  384.750    6.267    0.299    0.423   72.631
  385.000    6.437    0.303    0.426   71.726
  385.250    6.539    0.305    0.429   70.881
  385.500    6.569    0.303    0.417   69.007
  385.750    6.576    0.299    0.409   66.407
  386.000    6.569    0.302    0.401   65.320
  386.250    6.524    0.307    0.401   65.081
  386.500    6.397    0.314    0.397   65.204
  386.750    6.270    0.318    0.394   65.571
