~VERSION INFORMATION
 VERS.                 2.0:   CWLS LOG ASCII STANDARD -VERSION 2.0
 WRAP.                  NO:   ONE LINE PER DEPTH STEP
~WELL INFORMATION BLOCK
#MNEM.UNIT           DATA                    DESCRIPTION OF MNEMONIC
#---------    -------------------            -------------------------------
# Generated from Intellog Unique Number	CS_71_72/WELL/781
WELL.         SULPETRO BRENDA IPIATIK        : Well_name    - WELL
LOC .         00/06-28-072-10W4/0            : Location     - LOCATION
UWI .         00/06-28-072-10W4/0            : Uwi          - UNIQUE WELL ID
ENTR.         SP                             : Entered      - ENTERED BY
SRVC.         SCHLUMBERGER                   : Scn          - SERVICE COMPANY
STRT.M        300                            : top_depth    - START DEPTH
STOP.M        520                            : bot_depth    - STOP DEPTH
STEP.M        0.25                           : increment    - STEP LENGTH
 NULL. -999.2500:NULL Value
~CURVE INFORMATION BLOCK
#MNEM UNIT       ERCB CURVE CODE    CURVE DESCRIPTION
#-----------   ------------------   ----------------------------------
DEPT.M        00 001 00 00         : DEPTH        - DEPTH
ILD .OHMM     00 120 00 00         : RESD         - DEEP RESISTIVITY (DIL)
DPHI.V/V      00 890 00 00         : PHID         - DENSITY POROSITY (LIMESTONE)
NPHI.V/V      00 330 00 00         : PHIN         - NEUTRON POROSITY (LIMESTONE)
GR  .API      00 310 00 00         : GR           - GAMMA RAY
~PARAMETER INFORMATION
#MNEM.UNIT           DATA             DESCRIPTION OF MNEMONIC
#---------         -----------     ------------------------------
GL  .M        659.79               : gl           - GROUND LEVEL ELEVATION
EREF.M        662.39               : kb           - ELEVATION OF DEPTH REFERENCE
DATM.M        659.79               : datum        - DATUM ELEVATION
TDD .M        53.2                 : tdd          - TOTAL DEPTH DRILLER
RUN .         ONE                  : Run          - RUN NUMBER
ENG .         BILL                 : Engineer     - RECORDING ENGINEER
WIT .         JIM                  : Witness      - WITNESSED BY
MUD .         GEL                  : Mud_type     - MUD TYPE
MATR.         LIMESTONE            : Logunit      - NEUTRON MATRIX
TMAX.C        0.26                 : BHT          - MAXIMUM RECORDED TEMPERATURE
BHTD.M        532                  : BHTDEP       - MAXIMUM RECORDED TEMPERATURE
MATR.         1                    : LOGUNIT      - NEUTRON MATRIX
RMT .C        25                   : MDTP         - TEMPERATURE OF MUD
NEUT.         1                    : NEUTRON      - NEUTRON TYPE
RESI.         0                    : RESIST       - RESISTIVITY TYPE
RMC .OHMM     0.25                 : RMC          - RESISTIVITY OF MUD CAKE
RMF .OHMM     0.25                 : RMF          - RESISTIVITY OF MUD FILTRATE
SUFT.C        15                   : SUFT         - SURFACE TEMPERATURE
~A  DEPTH     RESD     PHID     PHIN       GR
# ...
  343.500    7.564    0.209    0.353  119.019
  343.750    8.470    0.214    0.368  119.632
  344.000    8.963    0.215    0.392  117.787
  344.250    9.485    0.227    0.419  114.712
  344.500   10.036    0.253    0.415  109.792
  344.750   11.028    0.271    0.397  100.569
  345.000   11.669    0.289    0.390   94.420
  345.250   11.891    0.304    0.399   90.730
  345.500   11.890    0.313    0.410   89.500
  345.750   11.889    0.309    0.397   88.269
  346.000   11.888    0.303    0.385   89.496
  346.250   11.887    0.299    0.388   90.725
  346.500   12.112    0.300    0.398   91.339
  346.750   12.817    0.303    0.406   91.952
  347.000   14.352    0.304    0.409   91.950
  347.250   15.188    0.300    0.425   91.334
  347.500   17.007    0.284    0.446   90.103
  347.750   17.996    0.253    0.337   87.643
  348.000   18.337    0.202    0.236   85.183
  348.250   17.657    0.015    0.114   81.493
  348.500   15.181    0.020    0.103   78.418
  348.750   12.334    0.089    0.148   78.416
  349.000   11.012    0.235    0.277   88.865
  349.250   10.604    0.285    0.360   96.241
  349.500   10.404    0.288    0.383  100.543
  349.750   10.018    0.272    0.371  103.001
  350.000    9.466    0.261    0.403   97.466
  350.250    8.944    0.271    0.408   91.932
  350.500    8.138    0.294    0.376   95.005
  350.750    7.985    0.276    0.374  102.995
  351.000    7.984    0.268    0.360  107.297
  351.250    7.983    0.255    0.353  106.066
  351.500    7.834    0.255    0.358   99.917
  351.750    7.833    0.257    0.371   97.457
  352.000    7.832    0.252    0.361   99.299
  352.250    8.288    0.240    0.351  102.372
  352.500    9.107    0.234    0.352  105.444
  352.750    9.637    0.227    0.374  107.287
  353.000   10.007    0.234    0.395  103.597
  353.250   10.589    0.256    0.420  101.137
  353.500   10.588    0.260    0.437   98.061
  353.750   10.389    0.263    0.421   96.215
  354.000   10.194    0.261    0.408   95.600
  354.250   10.002    0.260    0.399   95.598
  354.500    9.815    0.266    0.402   96.211
  354.750    9.630    0.267    0.392   96.825
  355.000    8.929    0.256    0.384   97.438
  355.250    7.973    0.246    0.374   99.280
  355.500    6.985    0.242    0.368   99.894
  355.750    6.120    0.235    0.371  101.123
  356.000    5.569    0.227    0.406  104.810
  356.250    5.262    0.220    0.371  110.341
  356.500    5.674    0.215    0.358  112.799
  356.750    6.598    0.230    0.402  114.642
  357.000    7.968    0.241    0.424  112.796
  357.250    9.442    0.247    0.435  104.188
  357.500   11.190    0.247    0.413   98.039
  357.750   13.012    0.266    0.427   87.587
  358.000   14.031    0.290    0.442   80.824
  358.250   14.298    0.315    0.419   74.060
  358.500   14.846    0.327    0.397   70.370
  358.750   14.567    0.319    0.388   72.828
  359.000   14.294    0.308    0.389   75.900
  359.250   13.762    0.300    0.430   78.357
  359.500   13.504    0.300    0.463   78.356
  359.750   13.251    0.304    0.436   78.969
  360.000   13.002    0.299    0.419   82.656
  360.250   13.001    0.281    0.394   85.114
  360.500   12.757    0.276    0.381   88.801
  360.750   12.756    0.279    0.387   90.029
  361.000   12.516    0.282    0.400   92.487
  361.250   12.515    0.263    0.382   95.559
  361.500   12.752    0.260    0.405   96.173
  361.750   12.751    0.271    0.423   90.024
  362.000   12.993    0.277    0.407   84.490
  362.250   13.240    0.277    0.402   80.800
  362.500   13.238    0.266    0.394   83.257
  362.750   12.990    0.262    0.372   85.715
  363.000   12.989    0.261    0.365   86.328
  363.250   12.272    0.267    0.377   86.942
  363.500   11.816    0.272    0.397   85.710
  363.750   11.595    0.261    0.371   88.783
  364.000   11.164    0.249    0.355   91.856
  364.250   10.750    0.241    0.345   94.313
  364.500   10.351    0.230    0.339   95.541
  364.750    9.780    0.223    0.332   96.155
  365.000    9.417    0.221    0.349   97.383
  365.250    9.240    0.223    0.365   97.996
  365.500    9.067    0.226    0.390   98.609
  365.750    8.896    0.234    0.392  104.755
  366.000    8.730    0.239    0.382  109.057
  366.250    8.248    0.226    0.377  112.744
  366.500    7.793    0.213    0.370  117.046
  366.750    7.226    0.200    0.376  117.045
  367.000    6.575    0.192    0.384  115.199
  367.250    6.213    0.189    0.374  108.435
  367.500    6.212    0.194    0.368  105.361
  367.750    7.938    0.210    0.371   99.826
  368.000    8.890    0.223    0.377   96.137
  368.250   10.735    0.244    0.418   92.447
  368.500   12.722    0.272    0.444   85.683
  368.750   14.245    0.302    0.428   77.690
  369.000   15.361    0.315    0.403   67.238
  369.250   15.653    0.305    0.394   64.162
  369.500   15.950    0.297    0.404   66.620
  369.750   15.650    0.291    0.391   69.692
  370.000   14.787    0.286    0.371   73.379
  370.250   13.972    0.288    0.360   77.681
  370.500   13.454    0.291    0.378   82.597
  370.750   12.712    0.291    0.383   85.670
  371.000   12.240    0.272    0.366   91.817
  371.250   12.010    0.266    0.366   96.118
  371.500   11.785    0.258    0.355   97.961
  371.750   11.783    0.256    0.363   98.574
  372.000   12.469    0.257    0.378   99.188
  372.250   13.963    0.249    0.398   98.572
  372.500   14.499    0.246    0.434   92.423
  372.750   15.932    0.267    0.466   75.823
  373.000   16.234    0.283    0.424   67.830
  373.250   16.858    0.305    0.386   61.066
  373.500   17.505    0.314    0.366   59.221
  373.750   18.176    0.315    0.368   59.219
  374.000   18.521    0.314    0.379   59.218
  374.250   18.872    0.309    0.363   59.216
  374.500   18.870    0.308    0.350   59.830
  374.750   18.868    0.305    0.341   59.828
  375.000   18.867    0.304    0.336   59.827
  375.250   19.224    0.304    0.347   59.826
  375.500   19.589    0.307    0.360   59.824
  375.750   19.222    0.314    0.372   59.823
  376.000   19.221    0.321    0.383   59.207
  376.250   19.218    0.324    0.395   57.975
  376.500   19.216    0.318    0.407   57.360
  376.750   19.215    0.314    0.400   57.357
  377.000   19.214    0.312    0.394   57.971
  377.250   19.212    0.309    0.379   58.584
  377.500   19.210    0.308    0.384   59.198
  377.750   19.208    0.309    0.403   59.812
  378.000   19.207    0.312    0.415   61.654
  378.250   18.846    0.316    0.426   61.653
  378.500   18.844    0.318    0.399   61.652
  378.750   18.491    0.318    0.388   59.191
  379.000   18.489    0.318    0.377   59.189
  379.250   18.488    0.320    0.384   59.803
  379.500   18.140    0.326    0.375   61.646
  379.750   17.799    0.328    0.356   62.259
  380.000   17.465    0.326    0.351   62.873
  380.250   17.463    0.323    0.376   62.257
  380.500   17.135    0.321    0.386   61.640
  380.750   17.134    0.323    0.398   62.254
  381.000   16.812    0.326    0.396   63.482
  381.250   17.458    0.324    0.405   64.710
  381.500   17.456    0.319    0.409   65.323
  381.750   17.455    0.318    0.409   65.937
  382.000   17.453    0.321    0.403   65.320
  382.250   17.452    0.323    0.403   64.704
  382.500   17.450    0.317    0.410   64.088
  382.750   17.122    0.315    0.419   63.472
  383.000   17.121    0.317    0.424   62.241
  383.250   17.120    0.319    0.431   62.240
  383.500   17.445    0.318    0.412   62.238
  383.750   17.443    0.310    0.403   62.852
  384.000   17.442    0.307    0.399   62.851
  384.250   17.772    0.303    0.424   62.849
  384.500   17.770    0.300    0.424   62.848
  384.750   17.770    0.304    0.431   61.002
  385.000   17.767    0.312    0.433   60.386
  385.250   17.766    0.317    0.426   59.154
  385.500   17.765    0.319    0.413   59.768
  385.750   17.763    0.319    0.398   60.381
  386.000   18.100    0.317    0.378   60.380
  386.250   18.098    0.317    0.368   60.994
  386.500   18.097    0.317    0.376   61.606
  386.750   18.096    0.317    0.387   61.605
