~VERSION INFORMATION
 VERS.                 2.0:   CWLS LOG ASCII STANDARD -VERSION 2.0
 WRAP.                  NO:   ONE LINE PER DEPTH STEP
~WELL INFORMATION BLOCK
#MNEM.UNIT           DATA                    DESCRIPTION OF MNEMONIC
#---------    -------------------            -------------------------------
# Generated from Intellog Unique Number	CN_91_93/WELL/3039
WELL.         PARAMOUNT RESOURCES LTD.       : Well_name    - WELL
LOC .         00/06-29-092-20W4/0            : Location     - LOCATION
UWI .         00/06-29-092-20W4/0            : Uwi          - UNIQUE WELL ID
ENTR.         JOETTE                         : Entered      - ENTERED BY
SRVC.         COMPUTALOG                     : Scn          - SERVICE COMPANY
DATE.         04/09/92                       : Date         - LOG DATE
STRT.F        100                            : top_depth    - START DEPTH
STOP.F        703.675                        : bot_depth    - STOP DEPTH
STEP.F        0.82                           : increment    - STEP LENGTH
 NULL. -999.2500:NULL Value
~CURVE INFORMATION BLOCK
#MNEM UNIT       ERCB CURVE CODE    CURVE DESCRIPTION
#-----------   ------------------   ----------------------------------
DEPT.F        00 001 00 00         : DEPTH        - DEPTH
GR  .API      00 310 00 00         : GR           - GAMMA RAY
NPHI.V/V      00 330 00 00         : PHIN         - NEUTRON POROSITY (SANDSTONE)
DPHI.V/V      00 890 00 00         : PHID         - DENSITY POROSITY (SANDSTONE)
ILD .OHMM     00 120 00 00         : RESD         - DEEP RESISTIVITY (DIL)
~PARAMETER INFORMATION
#MNEM.UNIT           DATA             DESCRIPTION OF MNEMONIC
#---------         -----------     ------------------------------
GL  .F        1698                 : gl           - GROUND LEVEL ELEVATION
EREF.F        1708                 : kb           - ELEVATION OF DEPTH REFERENCE
DATM.F        1708                 : datum        - DATUM ELEVATION
TDD .F        702                  : tdd          - TOTAL DEPTH DRILLER
RUN .         ONE                  : Run          - RUN NUMBER
ENG .         JO                   : Engineer     - RECORDING ENGINEER
WIT .         TIM                  : Witness      - WITNESSED BY
MUD .         GEL                  : Mud_type     - MUD TYPE
MATR.         SANDSTONE            : Logunit      - NEUTRON MATRIX
TMAX.F        58                   : BHT          - MAXIMUM RECORDED TEMPERATURE
BHTD.F        702                  : BHTDEP       - MAXIMUM RECORDED TEMPERATURE
RMT .F        58                   : MDTP         - TEMPERATURE OF MUD
MUDD.LB/G     9                    : MWT          - MUD DENSITY
NEUT.         1                    : NEUTRON      - NEUTRON TYPE
RESI.         0                    : RESIST       - RESISTIVITY TYPE
RM  .OHMM     3.6                  : RM           - RESISTIVITY OF MUD
RMC .OHMM     3.6                  : RMC          - RESISTIVITY OF MUD CAKE
RMF .OHMM     3.6                  : RMF          - RESISTIVITY OF MUD FILTRATE
SUFT.F        39.2                 : SUFT         - SURFACE TEMPERATURE
~A  DEPTH       GR     PHIN     PHID     RESD
# ...
  528.150   33.258    0.363    0.316   15.047
  528.970   32.787    0.390    0.327   14.238
  529.790   34.695    0.407    0.293   13.675
  530.610   33.597    0.418    0.252   12.620
  531.430   35.505    0.421    0.226   11.974
  532.251   39.845    0.349    0.191   11.572
  533.071   42.329    0.359    0.191   11.015
  533.891   49.675    0.385    0.198   10.859
  534.711   51.034    0.408    0.196   10.785
  535.531   50.485    0.415    0.202   10.799
  536.352   43.975    0.423    0.207   11.876
  537.172   39.870    0.430    0.176   13.449
  537.992   39.347    0.415    0.170   15.595
  538.812   38.928    0.406    0.203   17.083
  539.633   38.406    0.409    0.206   20.544
  540.453   38.484    0.412    0.153   22.855
  541.273   36.209    0.321    0.088   22.951
  542.093   32.706    0.286   -0.020   22.221
  542.913   30.980    0.225    0.016   19.932
  543.734   26.849    0.214    0.045   18.628
  544.554   23.973    0.257    0.085   16.916
  545.374   30.064    0.287    0.132   14.874
  546.194   39.816    0.321    0.151   13.490
  547.014   48.364    0.352    0.159   13.748
  547.835   49.096    0.386    0.192   13.677
  548.655   47.972    0.402    0.213   13.031
  549.475   46.874    0.407    0.221   12.389
  550.295   43.972    0.405    0.215   12.728
  551.115   44.076    0.357    0.187   13.228
  551.936   47.213    0.348    0.151   13.980
  552.756   50.350    0.353    0.075   13.581
  553.576   52.232    0.340    0.040   13.759
  554.396   46.925    0.298    0.004   14.019
  555.217   37.983    0.300    0.161   14.109
  556.037   36.310    0.351    0.186   13.789
  556.857   38.794    0.374    0.202   12.649
  557.677   46.140    0.375    0.199   11.430
  558.497   52.257    0.366    0.189   11.361
  559.318   55.394    0.357    0.191   11.862
  560.138   51.263    0.352    0.199   12.778
  560.958   48.962    0.348    0.198   13.691
  561.778   47.890    0.356    0.193   14.771
  562.598   50.975    0.369    0.179   15.275
  563.419   54.714    0.380    0.183   15.042
  564.239   56.622    0.402    0.196   14.722
  565.059   56.726    0.373    0.196   15.310
  565.879   58.635    0.348    0.193   16.142
  566.699   59.340    0.356    0.194   16.891
  567.520   53.431    0.358    0.186   15.999
  568.340   45.745    0.303    0.121   15.518
  569.160   44.621    0.259    0.070   13.476
  569.980   41.091    0.294    0.123   12.503
  570.801   47.836    0.335    0.174   11.778
  571.621   52.150    0.406    0.182   11.455
  572.441   54.058    0.421    0.182   11.384
  573.261   53.012    0.386    0.183   12.136
  574.081   48.254    0.366    0.175   11.491
  574.902   50.789    0.356    0.142   10.849
  575.722   56.907    0.327    0.114   10.526
  576.542   52.227    0.338    0.142   10.212
  577.362   48.697    0.381    0.168   10.056
  578.182   45.769    0.387    0.184   10.152
  579.003   44.671    0.398    0.179   10.819
  579.823   46.004    0.386    0.180   11.896
  580.643   46.134    0.359    0.175   14.043
  581.463   44.435    0.329    0.142   18.489
  582.283   43.310    0.276    0.179   21.951
  583.104   44.617    0.299    0.225   23.192
  583.924   43.519    0.311    0.195   23.780
  584.744   38.813    0.254    0.011   22.640
  585.564   35.284    0.222    0.027   21.338
  586.385   32.382    0.232    0.118   19.460
  587.205   42.133    0.259    0.161   17.748
  588.025   53.087    0.297    0.192   14.801
  588.845   56.250    0.315    0.181   13.499
  589.665   55.126    0.330    0.174   13.182
  590.486   51.596    0.342    0.167   13.275
  591.306   51.125    0.350    0.175   13.778
  592.126   52.432    0.357    0.163   13.956
  592.946   52.537    0.327    0.127   13.888
  593.766   52.040    0.315    0.138   13.650
  594.587   51.569    0.322    0.164   13.177
  595.407   51.647    0.348    0.180   13.016
  596.227   52.327    0.374    0.182   12.532
  597.047   55.464    0.397    0.179   11.969
  597.867   57.973    0.405    0.169   12.062
  598.688   56.274    0.416    0.111   13.142
  599.508   52.169    0.389    0.055   13.727
  600.328   48.064    0.320    0.026   14.561
  601.148   44.561    0.261    0.082   15.146
  601.969   44.665    0.356    0.135   12.120
  602.789   47.175    0.381    0.179    9.257
  603.609   47.880    0.407    0.098    8.363
  604.429   47.985    0.440    0.125    7.554
  605.249   52.900    0.470    0.176    7.075
  606.070   58.442    0.477    0.199    7.250
  606.890   57.370    0.503    0.185    8.246
  607.710   59.304    0.433    0.182    9.405
  608.530   59.958    0.402    0.082   10.652
  609.350   58.284    0.331    0.075   11.155
  610.171   51.722    0.315    0.124   11.573
  610.991   40.428    0.341    0.158   11.669
  611.811   43.513    0.355    0.133   11.024
  612.631   46.022    0.365    0.148   10.868
  613.451   46.127    0.368    0.180   11.456
  614.272   48.113    0.373    0.179   11.303
  615.092   49.969    0.379    0.171   10.904
  615.912   54.309    0.388    0.177   10.751
  616.732   59.250    0.395    0.181   11.339
  617.552   58.126    0.405    0.179   12.085
  618.373   53.393    0.355    0.174   13.248
  619.193   49.916    0.304    0.144   14.325
  620.013   48.190    0.269    0.097   15.651
  620.833   46.491    0.250    0.062   16.895
  621.654   47.223    0.260    0.119   16.414
  622.474   48.504    0.281    0.179   15.769
  623.294   49.837    0.305    0.186   14.465
  624.114   50.568    0.327    0.182   14.312
  624.934   50.072    0.340    0.175   14.323
  625.755   50.176    0.339    0.177   14.662
  626.575   51.457    0.325    0.179   15.416
  627.395   52.189    0.313    0.174   15.509
  628.215   51.090    0.316    0.136   15.928
  629.035   51.796    0.320    0.091   17.500
  629.856   54.279    0.300    0.125   19.483
  630.676   58.619    0.285    0.092   20.806
  631.496   56.920    0.313    0.050   20.164
  632.316   53.416    0.262    0.024   19.598
  633.136   49.913    0.247    0.118   18.953
  633.957   48.788    0.241    0.168   18.146
  634.777   45.938    0.244    0.190   17.744
  635.597   45.415    0.271    0.194   17.178
  636.417   45.520    0.318    0.173   16.779
  637.238   45.650    0.335    0.159   18.023
  638.058   45.703    0.308    0.154   19.265
  638.878   47.036    0.279    0.156   21.493
  639.698   46.539    0.254    0.102   21.835
  640.518   43.009    0.225    0.085   19.710
  641.339   38.303    0.226    0.068   18.655
  642.159   36.656    0.252    0.123   17.433
  642.979   37.309    0.267    0.170   15.557
  643.799   40.472    0.278    0.200   14.089
  644.619   41.152    0.289    0.169   12.621
  645.440   42.459    0.312    0.141   12.222
  646.260   41.387    0.348    0.057   13.384
  647.080   42.694    0.357    0.059   13.562
  647.900   43.975    0.309    0.133   12.996
  648.720   44.105    0.356    0.144   12.104
  649.541   46.013    0.393    0.155   11.623
  650.361   50.928    0.396    0.142   11.716
  651.181   53.438    0.356    0.146   11.645
  652.001   52.993    0.365    0.164   11.328
  652.822   52.470    0.386    0.163   11.257
  653.642   51.973    0.389    0.132   11.678
  654.462   47.842    0.341    0.100   11.607
  655.282   41.332    0.326    0.129   11.703
  656.102   46.247    0.318    0.161   11.550
  656.923   53.593    0.367    0.158   11.394
  657.743   56.704    0.402    0.160   11.569
  658.563   54.429    0.398    0.165   12.242
  659.383   53.907    0.390    0.161   12.499
  660.203   56.416    0.384    0.115   12.674
  661.024   58.952    0.381    0.093   13.092
  661.844   57.252    0.386    0.121   12.775
  662.664   54.376    0.394    0.132   11.884
  663.484   53.226    0.398    0.148   11.157
  664.304   53.330    0.388    0.159   10.514
  665.125   57.069    0.386    0.163   10.358
  665.945   60.179    0.397    0.167   10.293
  666.765   62.715    0.408    0.137   10.709
  667.585   57.983    0.407    0.137   11.540
  668.406   56.283    0.397    0.162   12.538
  669.226   58.793    0.391    0.166   13.451
  670.046   60.701    0.400    0.172   15.106
