~VERSION INFORMATION
 VERS.                 2.0:   CWLS LOG ASCII STANDARD -VERSION 2.0
 WRAP.                  NO:   ONE LINE PER DEPTH STEP
~WELL INFORMATION BLOCK
#MNEM.UNIT           DATA                    DESCRIPTION OF MNEMONIC
#---------    -------------------            -------------------------------
# Generated from Intellog Unique Number	CW_82_90/WELL/2587
WELL.         IOE MUSKWA 06-13               : Well_name    - WELL
LOC .         00/06-13-082-03W5/0            : Location     - LOCATION
UWI .         00/06-13-082-03W5/0            : Uwi          - UNIQUE WELL ID
ENTR.         JJ                             : Entered      - ENTERED BY
SRVC.         SCHLUMBERGER                   : Scn          - SERVICE COMPANY
DATE.         22 MAR 66                      : Date         - LOG DATE
STRT.M        347.472                        : top_depth    - START DEPTH
STOP.M        475.472                        : bot_depth    - STOP DEPTH
STEP.M        0.25                           : increment    - STEP LENGTH
 NULL. -999.2500:NULL Value
~CURVE INFORMATION BLOCK
#MNEM UNIT       ERCB CURVE CODE    CURVE DESCRIPTION
#-----------   ------------------   ----------------------------------
DEPT.M        00 001 00 00         : DEPTH        - DEPTH
ILD .OHMM     00 120 00 00         : RESD         - DEEP RESISTIVITY (DIL)
GR  .API      00 310 00 00         : GR           - GAMMA RAY
DELT.US/F     00 520 00 00         : DELT         - SONIC TRAVEL TIME
CALI.MM       00 280 01 00         : CAL          - CALIPER
~PARAMETER INFORMATION
#MNEM.UNIT           DATA             DESCRIPTION OF MNEMONIC
#---------         -----------     ------------------------------
GL  .M        580.034              : gl           - GROUND LEVEL ELEVATION
EREF.M        583.387              : kb           - ELEVATION OF DEPTH REFERENCE
DATM.M        580.034              : datum        - DATUM ELEVATION
TDD .M        495.3                : tdd          - TOTAL DEPTH DRILLER
RUN .         ONE                  : Run          - RUN NUMBER
ENG .         MOORE                : Engineer     - RECORDING ENGINEER
WIT .         BYNRE                : Witness      - WITNESSED BY
BASE.         V.V.                 : Branch       - HOME BASE OF LOGGING UNIT
MUD .         GEL                  : Mud_type     - MUD TYPE
MATR.         SANDSTONE            : Logunit      - NEUTRON MATRIX
TMAX.C        38.8889              : BHT          - MAXIMUM RECORDED TEMPERATURE
BHTD.M        493.776              : BHTDEP       - MAXIMUM RECORDED TEMPERATURE
RMT .C        8.88889              : MDTP         - TEMPERATURE OF MUD
MUDD.KG/M     1128                 : MWT          - MUD DENSITY
NEUT.         1                    : NEUTRON      - NEUTRON TYPE
RESI.         0                    : RESIST       - RESISTIVITY TYPE
RM  .OHMM     4.04                 : RM           - RESISTIVITY OF MUD
RMC .OHMM     3.46                 : RMC          - RESISTIVITY OF MUD CAKE
RMF .OHMM     0                    : RMF          - RESISTIVITY OF MUD FILTRATE
SUFT.C        5                    : SUFT         - SURFACE TEMPERATURE
~A  DEPTH     RESD       GR     DELT      CAL
  347.472    7.159   85.559  410.577  161.023
  347.722    7.143   83.461  414.323  160.731
  347.972    7.117   81.354  413.924  160.251
  348.222    6.997   80.671  412.187  159.804
  348.472    6.919   82.293  408.913  159.336
  348.722    7.006   87.016  412.793  158.925
  348.972    7.219   87.517  415.535  158.487
  349.222    7.688   79.637  412.997  159.985
  349.472    8.416   71.877  404.975  160.326
  349.722    9.199   67.155  393.879  160.098
  349.972    9.859   60.321  395.418  160.546
  350.222   10.092   58.379  392.612  160.963
  350.472    9.965   61.916  386.663  161.270
  350.722    9.267   64.401  383.255  161.679
  350.972    8.292   65.653  384.193  164.078
  351.222    7.414   66.419  385.264  162.137
  351.472    7.028   68.645  383.461  167.449
  351.722    7.055   69.493  385.803  169.881
  351.972    7.319   66.455  392.758  162.373
  352.222    7.449   62.428  393.362  159.807
  352.472    7.290   58.847  395.102  159.715
  352.722    7.217   55.753  394.770  159.864
  352.972    8.211   52.091  387.149  160.313
  353.222    9.569   50.882  380.398  159.205
  353.472   10.708   53.334  375.987  159.351
  353.722   11.319   77.627  376.791  158.953
  353.972   11.422   93.145  374.119  159.107
  354.222   11.155   83.534  353.795  158.750
  354.472   10.646   71.018  308.667  158.343
  354.722   10.090   56.776  292.622  158.970
  354.972    9.585   66.786  334.679  159.537
  355.222    9.055   73.845  390.241  159.770
  355.472    8.432   76.904  395.726  159.620
  355.722    7.902   76.129  397.800  159.541
  355.972    7.598   73.570  404.689  159.863
  356.222    7.600   72.070  399.007  160.021
  356.472    7.847   73.307  395.867  160.008
  356.722    8.043   79.934  394.598  159.993
  356.972    8.077   85.738  391.458  159.822
  357.222    8.058   82.508  389.855  160.002
  357.472    7.997   79.854  393.935  160.153
  357.722    7.940   84.398  396.812  160.171
  357.972    7.885   83.397  399.555  160.088
  358.222    7.832   79.531  399.490  159.889
  358.472    7.767   80.213  398.355  159.856
  358.722    7.655   83.593  395.883  159.757
  358.972    7.574   80.186  394.481  159.750
  359.222    7.607   75.294  394.482  160.090
  359.472    7.719   77.986  398.028  160.346
  359.722    7.954   81.382  401.974  160.538
  359.972    8.442   82.921  407.125  160.397
  360.222    9.052   74.307  407.327  160.750
  360.472    9.950   66.849  394.358  160.484
  360.722   10.867   58.781  385.066  160.259
  360.972   11.539   55.040  380.254  160.373
  361.222   12.004   59.215  380.390  160.511
  361.472   12.231   65.146  383.066  160.772
  361.722   12.194   71.212  394.233  160.863
  361.972   12.095   68.528  397.578  160.738
  362.222   12.194   62.288  395.106  160.784
  362.472   12.533   57.251  382.539  160.829
  362.722   12.482   53.339  378.796  160.940
  362.972   12.069   52.149  380.737  160.952
  363.222   11.680   54.598  384.751  160.767
  363.472   11.430   58.890  385.688  160.941
  363.722   11.545   63.483  385.088  160.912
  363.972   12.036   63.320  385.558  161.054
  364.222   12.863   62.857  386.696  161.022
  364.472   13.947   63.204  369.582  160.590
  364.722   14.755   59.366  357.148  160.255
  364.972   14.882   53.504  354.074  160.136
  365.222   14.765   51.522  276.786  160.478
  365.472   15.001   50.575  252.852  160.858
  365.722   15.291   52.511  263.619  160.902
  365.972   15.249   54.933  290.164  160.837
  366.222   14.742   57.901  344.589  160.721
  366.472   13.952   60.996  372.137  160.783
  366.722   13.138   56.846  380.497  160.562
  366.972   12.314   55.245  383.307  160.492
  367.222   11.292   65.191  386.250  160.635
  367.472   10.143   74.139  387.790  160.769
  367.722    9.047   78.648  389.463  160.853
  367.972    7.854   75.827  392.139  160.817
  368.222    6.977   74.145  395.150  160.550
  368.472    6.138   79.083  399.832  160.808
  368.722    5.652   81.726  406.988  161.347
  368.972    5.621   79.931  411.937  161.648
  369.222    5.877   76.900  408.596  161.844
  369.472    6.413   73.724  401.511  161.990
  369.722    7.105   70.767  391.417  162.072
  369.972    7.871   68.068  401.849  161.748
  370.222    8.539   64.853  405.996  161.568
  370.472    8.850   62.786  400.448  161.547
  370.722    8.707   67.344  390.889  161.323
  370.972    8.567   76.060  391.894  161.290
  371.222    8.657   81.422  389.288  161.397
  371.472    9.136   80.749  395.708  161.416
  371.722    9.802   77.684  403.934  161.498
  371.972   10.592   78.824  404.203  161.574
  372.222   11.184   72.660  376.859  161.642
  372.472   10.685   61.718  288.874  161.719
  372.722    9.344   51.863  260.059  161.432
  372.972    7.828   44.997  247.826  161.179
  373.222    6.491   53.722  277.714  161.218
  373.472    5.584   69.589  332.607  161.267
  373.722    4.918   81.391  368.045  161.666
  373.972    5.242   80.014  390.311  161.670
  374.222    5.939   71.463  402.949  161.817
  374.472    6.664   61.288  412.980  161.853
  374.722    7.402   54.402  366.715  161.950
  374.972    7.586   52.236  261.547  164.881
  375.222    7.206   52.422  261.214  167.905
  375.472    6.355   60.701  309.355  166.610
  375.722    5.518   62.489  370.266  164.997
  375.972    5.350   63.792  396.744  165.661
  376.222    5.778   63.751  399.220  167.438
  376.472    6.618   65.885  398.820  168.056
  376.722    7.305   65.290  399.357  166.400
  376.972    7.671   65.102  383.112  165.429
  377.222    7.885   66.514  329.893  166.621
  377.472    7.963   70.019  325.015  167.758
  377.722    7.722   71.872  358.112  166.665
  377.972    6.573   78.277  396.558  168.632
  378.222    6.760   82.195  399.435  168.892
  378.472    6.893   85.883  399.504  168.005
  378.722    6.961   88.023  400.842  167.722
  378.972    6.974   89.250  398.504  166.989
  379.222    6.957   82.067  398.907  168.144
  379.472    6.900   76.922  403.188  167.423
  379.722    6.839   77.495  407.201  166.700
  379.972    6.945   76.126  406.000  167.386
  380.222    7.170   75.366  398.914  167.581
  380.472    7.620   77.071  393.969  165.741
  380.722    8.003   78.257  395.107  168.252
  380.972    8.096   79.039  396.179  168.882
  381.222    8.118   76.531  381.137  168.691
  381.472    8.337   78.072  370.040  168.433
  381.722    8.739   82.613  367.836  168.980
  381.972    9.272   79.967  367.169  168.349
  382.222    9.894   77.198  367.104  167.169
  382.472   10.561   72.864  372.922  168.679
  382.722   11.431   66.479  376.134  168.355
  382.972   11.823   66.362  371.723  168.216
  383.222   11.702   77.580  364.704  168.559
  383.472   11.188   83.585  364.505  168.474
  383.722   10.786   83.581  366.647  167.425
  383.972   11.155   78.784  367.919  166.575
  384.222   11.760   78.380  367.386  166.638
  384.472   11.429   79.190  340.778  168.009
  384.722   10.742   71.977  270.710  168.727
  384.972   10.088   63.974  260.683  169.491
  385.222    9.321   58.506  329.216  169.284
  385.472    8.784   60.628  348.340  169.271
  385.722    9.349   63.913  361.313  168.846
  385.972   10.693   61.717  370.274  167.484
  386.222   13.095   57.986  325.078  167.611
  386.472   16.280   53.690  268.049  166.702
  386.722   21.041   49.205  228.069  169.070
  386.972   21.442   44.175  209.015  168.126
  387.222   17.595   40.587  219.447  169.382
  387.472   13.482   53.625  240.309  169.398
  387.722   10.986   66.851  265.718  168.166
  387.972    9.595   70.049  300.487  169.496
  388.222    9.041   72.716  360.863  168.965
  388.472    8.807   72.824  367.885  170.846
  388.722    8.805   69.431  363.608  169.202
  388.972    8.864   66.325  362.072  168.221
  389.222    8.816   64.525  357.393  168.435
  389.472    8.480   64.841  351.913  167.902
  389.722    8.122   68.883  351.513  168.359
  389.972    8.434   76.971  358.937  169.540
  390.222    9.361   84.794  359.273  170.036
  390.472   10.325   82.212  361.615  169.618
  390.722   11.050   69.479  366.898  169.992
