~VERSION INFORMATION
 VERS.                 2.0:   CWLS LOG ASCII STANDARD -VERSION 2.0
 WRAP.                  NO:   ONE LINE PER DEPTH STEP
~WELL INFORMATION BLOCK
#MNEM.UNIT           DATA                    DESCRIPTION OF MNEMONIC
#---------    -------------------            -------------------------------
# Generated from Intellog Unique Number	CS_73_76/WELL/2000
WELL.         BOW VALLEY INDUSTRIES LTD.     : Well_name    - WELL
LOC .         00/06-36-075-15W4/0            : Location     - LOCATION
UWI .         00/06-36-075-15W4/0            : Uwi          - UNIQUE WELL ID
ENTR.         SP                             : Entered      - ENTERED BY
SRVC.         SCHLUMBERGER                   : Scn          - SERVICE COMPANY
STRT.M        353.568                        : top_depth    - START DEPTH
STOP.M        548.318                        : bot_depth    - STOP DEPTH
STEP.M        0.25                           : increment    - STEP LENGTH
 NULL. -999.2500:NULL Value
~CURVE INFORMATION BLOCK
#MNEM UNIT       ERCB CURVE CODE    CURVE DESCRIPTION
#-----------   ------------------   ----------------------------------
DEPT.M        00 001 00 00         : DEPTH        - DEPTH
GR  .API      00 310 00 00         : GR           - GAMMA RAY
DPHI.V/V      00 890 00 00         : PHID         - DENSITY POROSITY (SANDSTONE)
NPHI.V/V      00 330 00 00         : PHIN         - NEUTRON POROSITY (SANDSTONE)
ILD .OHMM     00 120 00 00         : RESD         - DEEP RESISTIVITY (DIL)
~PARAMETER INFORMATION
#MNEM.UNIT           DATA             DESCRIPTION OF MNEMONIC
#---------         -----------     ------------------------------
GL  .M        729.082              : gl           - GROUND LEVEL ELEVATION
EREF.M        732.13               : kb           - ELEVATION OF DEPTH REFERENCE
DATM.M        729.082              : datum        - DATUM ELEVATION
TDD .M        558.394              : tdd          - TOTAL DEPTH DRILLER
RUN .         ONE                  : Run          - RUN NUMBER
ENG .         BILL                 : Engineer     - RECORDING ENGINEER
WIT .         JIM                  : Witness      - WITNESSED BY
MUD .         GEL                  : Mud_type     - MUD TYPE
MATR.         SANDSTONE            : Logunit      - NEUTRON MATRIX
TMAX.C        60                   : BHT          - MAXIMUM RECORDED TEMPERATURE
BHTD.M        558.394              : BHTDEP       - MAXIMUM RECORDED TEMPERATURE
MATR.         1                    : LOGUNIT      - NEUTRON MATRIX
RMT .C        25                   : MDTP         - TEMPERATURE OF MUD
NEUT.         1                    : NEUTRON      - NEUTRON TYPE
RESI.         0                    : RESIST       - RESISTIVITY TYPE
RMC .OHMM     0.25                 : RMC          - RESISTIVITY OF MUD CAKE
RMF .OHMM     0.25                 : RMF          - RESISTIVITY OF MUD FILTRATE
SUFT.C        15                   : SUFT         - SURFACE TEMPERATURE
~A  DEPTH       GR     PHID     PHIN     RESD
# ...
  440.568   78.714    0.299    0.474    6.115
  440.818   82.564    0.285    0.478    5.934
  441.068   86.434    0.273    0.479    5.890
  441.318   88.996    0.265    0.470    5.900
  441.568   88.027    0.255    0.456    5.780
  441.818   86.724    0.234    0.454    5.673
  442.068   85.655    0.216    0.458    5.615
  442.318   86.539    0.209    0.462    5.474
  442.568   87.923    0.208    0.456    5.277
  442.818   87.952    0.208    0.448    4.861
  443.068   88.186    0.200    0.445    4.238
  443.318   89.097    0.203    0.460    3.493
  443.568   91.561    0.221    0.477    2.615
  443.818   94.779    0.216    0.486    1.959
  444.068   96.775    0.213    0.494    1.578
  444.318   97.976    0.219    0.495    1.183
  444.568   99.274    0.226    0.495    0.976
  444.818   99.340    0.230    0.493    1.047
  445.068   98.823    0.224    0.484    1.313
  445.318   97.398    0.229    0.476    1.843
  445.568   96.087    0.228    0.475    2.562
  445.818   97.016    0.224    0.479    3.364
  446.068   97.406    0.229    0.484    4.131
  446.318   97.474    0.219    0.485    4.404
  446.568   96.816    0.225    0.487    4.596
  446.818   97.982    0.235    0.496    4.885
  447.068   97.360    0.239    0.503    5.233
  447.318   96.695    0.249    0.505    5.627
  447.568   95.393    0.258    0.491    6.066
  447.818   90.303    0.273    0.488    6.647
  448.068   80.370    0.282    0.485    7.100
  448.318   72.121    0.291    0.473    7.404
  448.568   67.404    0.295    0.464    7.671
  448.818   67.598    0.295    0.463    7.911
  449.068   67.903    0.295    0.463    8.156
  449.318   68.760    0.293    0.466    8.415
  449.568   69.856    0.293    0.464    8.513
  449.818   71.096    0.299    0.469    8.628
  450.068   73.903    0.288    0.470    8.373
  450.318   75.793    0.281    0.463    7.131
  450.568   77.631    0.274    0.458    4.544
  450.818   80.297    0.270    0.462    3.401
  451.068   84.201    0.260    0.484    2.616
  451.318   87.918    0.250    0.505    2.221
  451.568   91.441    0.242    0.528    1.905
  451.818   95.530    0.239    0.552    1.673
  452.068   99.114    0.251    0.572    1.727
  452.318  101.976    0.257    0.566    2.082
  452.568  103.267    0.255    0.557    2.245
  452.818  103.963    0.257    0.537    2.729
  453.068  102.361    0.263    0.497    3.335
  453.318   98.654    0.271    0.467    3.979
  453.568   91.828    0.279    0.460    5.081
  453.818   85.941    0.282    0.462    5.916
  454.068   80.656    0.292    0.467    6.414
  454.318   78.120    0.303    0.470    6.453
  454.568   75.794    0.310    0.474    6.346
  454.818   74.321    0.304    0.482    6.221
  455.068   73.470    0.308    0.482    6.112
  455.318   70.928    0.303    0.463    6.040
  455.568   68.390    0.301    0.453    6.002
  455.818   68.059    0.286    0.443    5.999
  456.068   69.163    0.275    0.433    6.037
  456.318   72.494    0.270    0.427    6.354
  456.568   75.961    0.258    0.423    6.503
  456.818   78.367    0.238    0.417    7.478
  457.068   80.626    0.216    0.407    8.611
  457.318   79.724    0.184    0.394   10.099
  457.568   76.463    0.150    0.356   13.145
  457.818   71.494    0.113    0.286   17.607
  458.068   66.272    0.082    0.227   22.414
  458.318   61.142    0.028    0.191   27.502
  458.568   58.020    0.000    0.193   30.469
  458.818   54.388    0.000    0.205   27.500
  459.068   52.397   -0.000    0.210   20.877
  459.318   54.123    0.005    0.219   15.446
  459.568   58.210    0.046    0.248   11.614
  459.818   62.947    0.112    0.284    9.174
  460.068   68.393    0.158    0.345    7.984
  460.318   73.545    0.193    0.393    7.239
  460.568   77.092    0.222    0.431    6.684
  460.818   81.106    0.240    0.441    6.369
  461.068   82.963    0.251    0.448    6.212
  461.318   82.880    0.260    0.455    6.225
  461.568   82.530    0.268    0.461    6.100
  461.818   81.508    0.257    0.466    6.088
  462.068   83.886    0.246    0.453    5.897
  462.318   85.895    0.241    0.448    5.719
  462.568   86.948    0.237    0.444    5.534
  462.818   86.460    0.241    0.451    5.284
  463.068   85.994    0.246    0.460    5.131
  463.318   87.054    0.244    0.474    4.984
  463.568   89.030    0.248    0.471    4.965
  463.818   90.448    0.243    0.469    5.364
  464.068   91.149    0.242    0.467    5.686
  464.318   90.195    0.238    0.461    6.031
  464.568   88.210    0.236    0.453    6.582
  464.818   85.842    0.232    0.447    7.078
  465.068   84.211    0.248    0.441    7.317
  465.318   83.298    0.259    0.442    7.171
  465.568   81.744    0.274    0.447    7.087
  465.818   78.769    0.286    0.449    6.859
  466.068   75.677    0.293    0.437    6.959
  466.318   69.066    0.296    0.431    7.083
  466.568   63.674    0.300    0.427    6.786
  466.818   61.307    0.302    0.427    6.965
  467.068   60.249    0.304    0.429    7.191
  467.318   59.601    0.297    0.433    7.223
  467.568   57.782    0.291    0.438    7.083
  467.818   57.140    0.297    0.439    7.102
  468.068   57.151    0.307    0.439    6.949
  468.318   57.718    0.304    0.443    6.834
  468.568   58.345    0.301    0.443    6.840
  468.818   59.032    0.298    0.434    6.668
  469.068   58.466    0.292    0.429    6.585
  469.318   57.712    0.292    0.431    6.447
  469.568   57.752    0.297    0.440    6.462
  469.818   57.761    0.290    0.440    6.353
  470.068   57.928    0.288    0.436    6.475
  470.318   58.943    0.296    0.435    6.460
  470.568   59.289    0.303    0.440    6.442
  470.818   60.161    0.309    0.445    6.553
  471.068   60.115    0.309    0.446    6.460
  471.318   60.448    0.306    0.443    6.340
  471.568   61.550    0.304    0.439    6.192
  471.818   63.552    0.297    0.436    6.010
  472.068   65.542    0.302    0.434    5.823
  472.318   66.737    0.311    0.439    5.782
  472.568   67.718    0.312    0.440    5.790
  472.818   68.649    0.308    0.438    5.665
  473.068   70.334    0.304    0.437    5.675
  473.318   72.073    0.301    0.438    5.676
  473.568   75.979    0.295    0.442    5.684
  473.818   77.362    0.289    0.442    5.570
  474.068   78.859    0.283    0.437    5.574
  474.318   80.373    0.281    0.433    5.572
  474.568   80.870    0.284    0.443    5.571
  474.818   81.159    0.281    0.452    5.552
  475.068   82.087    0.273    0.457    5.817
  475.318   82.594    0.262    0.460    5.979
  475.568   82.427    0.255    0.452    6.403
  475.818   80.641    0.239    0.445    6.861
  476.068   78.106    0.227    0.438    7.209
  476.318   75.870    0.207    0.436    6.985
  476.568   74.925    0.227    0.448    6.430
  476.818   74.849    0.243    0.457    5.485
  477.068   75.680    0.258    0.463    5.037
  477.318   77.254    0.257    0.466    4.467
  477.568   79.142    0.249    0.465    4.203
  477.818   81.785    0.240    0.468    3.950
  478.068   84.216    0.224    0.479    3.851
  478.318   86.853    0.213    0.474    3.735
  478.568   89.625    0.204    0.457    3.712
  478.818   92.146    0.209    0.460    3.711
  479.068   92.594    0.212    0.467    3.705
  479.318   94.656    0.215    0.473    3.787
  479.568   95.664    0.219    0.478    3.965
  479.818   97.458    0.210    0.485    4.149
  480.068   98.068    0.195    0.474    4.468
  480.318   97.805    0.186    0.466    4.746
  480.568   95.065    0.195    0.454    5.020
  480.818   93.292    0.182    0.444    5.175
  481.068   94.242    0.199    0.446    5.081
  481.318   95.116    0.207    0.451    4.982
  481.568   95.097    0.207    0.443    4.905
  481.818   94.092    0.215    0.446    4.862
  482.068   93.817    0.214    0.451    4.717
  482.318   93.205    0.205    0.450    4.645
  482.568   94.127    0.197    0.448    4.590
  482.818   95.087    0.190    0.445    4.634
  483.068   94.187    0.201    0.438    4.755
  483.318   92.843    0.188    0.428    4.959
  483.568   91.480    0.180    0.422    5.673
  483.818   87.713    0.164    0.415    6.568
