~VERSION INFORMATION
 VERS.                 2.0:   CWLS LOG ASCII STANDARD -VERSION 2.0
 WRAP.                  NO:   ONE LINE PER DEPTH STEP
~WELL INFORMATION BLOCK
#MNEM.UNIT           DATA                    DESCRIPTION OF MNEMONIC
#---------    -------------------            -------------------------------
# Generated from Intellog Unique Number	CW_70_72/WELL/288
NULL.         -999.25                        : NULL_VALUE
WELL.         GULF NORCEN MITSUE 04-31       : Well_name    - WELL              
LOC .         04-31-072-03W5                 : Location     - LOCATION          
UWI .         00/04-31-072-03W5/0            : Uwi          - UNIQUE WELL ID    
ENTR.         JAYE                           : Entered      - ENTERED BY        
SRVC.         COMPUTALOG                     : Scn          - SERVICE COMPANY   
DATE.         18 MAR 83                      : Date         - LOG DATE          
STRT.M        380                            : top_depth    - START DEPTH       
STOP.M        585                            : bot_depth    - STOP DEPTH        
STEP.M        0.25                           : increment    - STEP LENGTH       
~CURVE INFORMATION BLOCK
#MNEM UNIT       ERCB CURVE CODE    CURVE DESCRIPTION
#-----------   ------------------   ----------------------------------
DEPT.M        00 001 00 00         : DEPTH        - DEPTH                       
DPHI.V/V      00 890 00 00         : PHID         - DENSITY POROSITY (SANDSTONE)
NPHI.V/V      00 330 00 00         : PHIN         - NEUTRON POROSITY (SANDSTONE)
GR  .API      00 310 00 00         : GR           - GAMMA RAY                   
CALI.MM       00 280 01 00         : CAL          - CALIPER                     
ILD .OHMM     00 120 00 00         : RESD         - DEEP RESISTIVITY (DIL)      
~PARAMETER INFORMATION       
#MNEM.UNIT           DATA             DESCRIPTION OF MNEMONIC
#---------         -----------     ------------------------------
GL  .M        586.75               : gl           - GROUND LEVEL ELEVATION      
EREF.M        591.4                : kb           - ELEVATION OF DEPTH REFERENCE
DATM.M        586.75               : datum        - DATUM ELEVATION             
TDD .M        1610                 : tdd          - TOTAL DEPTH DRILLER         
RUN .         ONE                  : Run          - RUN NUMBER                  
ENG .         MCEWAN               : Engineer     - RECORDING ENGINEER          
WIT .         BELLMAN              : Witness      - WITNESSED BY                
BASE.         EDM                  : Branch       - HOME BASE OF LOGGING UNIT   
MUD .         GEL                  : Mud_type     - MUD TYPE                    
MATR.         SANDSTONE            : Logunit      - NEUTRON MATRIX              
TMAX.C        48                   : BHT          - MAXIMUM RECORDED TEMPERATURE
BHTD.M        1609                 : BHTDEP       - MAXIMUM RECORDED TEMPERATURE
RMT .C        18.3                 : MDTP         - TEMPERATURE OF MUD          
MUDD.KG/M     1070                 : MWT          - MUD DENSITY                 
NEUT.         1                    : NEUTRON      - NEUTRON TYPE                
RESI.         0                    : RESIST       - RESISTIVITY TYPE            
RM  .OHMM     0.9                  : RM           - RESISTIVITY OF MUD          
RMC .OHMM     1.3                  : RMC          - RESISTIVITY OF MUD CAKE     
RMF .OHMM     0.9                  : RMF          - RESISTIVITY OF MUD FILTRATE 
SUFT.C        0                    : SUFT         - SURFACE TEMPERATURE         
~A  DEPTH     PHID     PHIN       GR      CAL     RESD
# ...
  416.500    0.303    0.361   57.749  223.330    3.636
  416.750    0.295    0.361   53.873  223.839    3.627
  417.000    0.288    0.357   58.047  224.346    3.606
  417.250    0.294    0.356   60.975  224.959    3.589
  417.500    0.289    0.364   62.404  225.885    3.552
  417.750    0.273    0.371   61.149  226.602    3.544
  418.000    0.262    0.380   58.645  226.903    3.665
  418.250    0.240    0.390   58.451  226.995    3.879
  418.500    0.205    0.366   57.820  227.504    4.089
  418.750    0.160    0.328   57.189  227.700    4.221
  419.000    0.186    0.314   57.619  227.585    4.194
  419.250    0.232    0.329   60.296  227.054    4.089
  419.500    0.258    0.371   66.719  226.835    3.949
  419.750    0.266    0.392   68.897  226.408    3.714
  420.000    0.271    0.398   65.645  226.500    3.414
  420.250    0.276    0.406   66.137  226.697    3.241
  420.500    0.286    0.430   65.443  226.686    3.154
  420.750    0.293    0.441   63.814  226.571    3.200
  421.000    0.284    0.430   63.058  226.143    3.316
  421.250    0.256    0.391   61.428  225.715    3.391
  421.500    0.236    0.355   58.051  225.600    3.467
  421.750    0.263    0.385   54.174  225.382    3.614
  422.000    0.301    0.415   54.478  225.162    3.688
  422.250    0.299    0.397   55.596  224.941    3.679
  422.500    0.287    0.372   57.524  225.138    3.587
  422.750    0.273    0.383   58.641  225.438    3.471
  423.000    0.278    0.412   57.199  225.636    3.410
  423.250    0.283    0.423   53.759  225.937    3.357
  423.500    0.281    0.412   54.813  226.029    3.341
  423.750    0.286    0.386   57.366  226.331    3.327
  424.000    0.300    0.359   56.984  226.839    3.306
  424.250    0.308    0.372   52.358  227.140    3.310
  424.500    0.304    0.386   52.600  227.024    3.278
  424.750    0.298    0.395   54.717  226.702    3.257
  425.000    0.289    0.371   54.710  226.169    3.242
  425.250    0.284    0.359   52.019  225.743    3.235
  425.500    0.292    0.368   52.699  225.833    3.251
  425.750    0.306    0.368   51.506  225.615    3.268
  426.000    0.320    0.350   46.256  225.499    3.266
  426.250    0.331    0.356   41.068  225.383    3.240
  426.500    0.330    0.361   39.127  225.269    3.201
  426.750    0.326    0.356   42.303  225.258    3.169
  427.000    0.320    0.345   47.415  225.453    3.137
  427.250    0.307    0.351   46.659  225.444    3.111
  427.500    0.301    0.357   43.094  225.434    3.098
  427.750    0.308    0.350   41.464  225.420    3.073
  428.000    0.318    0.343   44.517  225.410    3.059
  428.250    0.320    0.365   48.629  225.399    3.046
  428.500    0.316    0.389   49.746  225.386    3.038
  428.750    0.305    0.390   48.990  225.481    3.031
  429.000    0.297    0.377   48.672  225.573    3.029
  429.250    0.309    0.369   51.536  225.562    3.028
  429.500    0.318    0.399   51.280  225.550    3.026
  429.750    0.322    0.426   47.528  225.434    3.018
  430.000    0.315    0.418   50.142  225.318    3.028
  430.250    0.310    0.389   52.508  225.206    3.039
  430.500    0.302    0.375   49.880  225.296    3.059
  430.750    0.306    0.388   46.252  225.389    3.189
  431.000    0.256    0.381   47.057  225.380    3.776
  431.250    0.197    0.196   46.301  225.470    4.270
  431.500    0.165    0.160   41.300  225.459    4.961
  431.750    0.142    0.128   37.299  225.240    5.731
  432.000    0.177    0.219   32.860  225.228    6.145
  432.250    0.215    0.325   34.289  224.907    5.857
  432.500    0.295    0.359   38.902  224.688    4.792
  432.750    0.344    0.370   44.575  224.675    4.192
  433.000    0.351    0.356   44.818  224.769    3.673
  433.250    0.346    0.351   43.375  225.071    3.300
  433.500    0.340    0.373   43.805  225.577    3.169
  433.750    0.331    0.379   44.735  225.671    3.131
  434.000    0.319    0.362   45.539  225.868    3.077
  434.250    0.312    0.351   46.095  225.958    3.023
  434.500    0.310    0.363   45.589  225.950    2.997
  434.750    0.309    0.379   46.144  225.625    2.968
  435.000    0.303    0.385   48.197  225.511    2.922
  435.250    0.312    0.372   50.937  225.498    2.886
  435.500    0.330    0.367   45.562  225.383    2.852
  435.750    0.337    0.392   41.871  225.370    2.834
  436.000    0.335    0.392   40.429  225.256    2.822
  436.250    0.327    0.376   42.794  225.035    2.821
  436.500    0.324    0.371   42.850  224.919    2.809
  436.750    0.341    0.376   39.660  224.912    2.811
  437.000    0.334    0.374   37.781  224.691    2.815
  437.250    0.319    0.359   39.646  224.575    2.815
  437.500    0.319    0.349   40.139  224.566    2.823
  437.750    0.325    0.377   39.009  224.659    2.827
  438.000    0.333    0.398   36.693  224.852    2.847
  438.250    0.339    0.414   34.626  224.946    2.840
  438.500    0.340    0.394   37.178  224.832    2.843
  438.750    0.338    0.372   40.230  224.822    2.836
  439.000    0.337    0.360   38.288  224.705    2.824
  439.250    0.351    0.351   37.220  224.277    2.818
  439.500    0.353    0.352   38.774  223.851    2.810
  439.750    0.345    0.363   38.705  223.319    2.815
  440.000    0.335    0.400   36.326  222.994    2.802
  440.250    0.334    0.413   36.882  222.880    2.800
  440.500    0.344    0.395   40.308  222.866    2.799
  440.750    0.347    0.353   40.238  222.855    2.813
  441.000    0.339    0.345   40.169  222.846    2.838
  441.250    0.327    0.370   38.539  222.940    2.897
  441.500    0.326    0.399   36.410  223.135    2.951
  441.750    0.359    0.443   36.466  223.229    3.046
  442.000    0.374    0.448   35.835  223.011    3.138
  442.250    0.312    0.430   44.131  223.103    3.215
  442.500    0.276    0.426   54.298  224.028    3.289
  442.750    0.282    0.430   70.084  225.890    3.324
  443.000    0.325    0.427   76.694  231.080    3.392
  443.250    0.388    0.444   74.190  235.750    3.515
  443.500    0.489    0.499   66.506  236.572    3.719
  443.750    0.488    0.505   58.446  235.832    3.966
  444.000    0.434    0.428   60.001  236.340    4.181
  444.250    0.281    0.351   69.419  242.363    4.308
  444.500    0.275    0.364   71.847  246.306    4.397
  444.750    0.285    0.390   71.341  228.712    4.295
  445.000    0.299    0.391   70.710  228.908    4.093
  445.250    0.299    0.357   70.703  227.961    3.819
  445.500    0.278    0.351   71.320  222.748    3.633
  445.750    0.290    0.366   72.312  219.616    3.536
  446.000    0.303    0.380   71.557  217.210    3.473
  446.250    0.314    0.385   64.746  216.576    3.412
  446.500    0.321    0.370   57.936  216.146    3.352
  446.750    0.326    0.368   53.310  216.239    3.282
  447.000    0.321    0.374   53.926  216.332    3.249
  447.250    0.318    0.383   55.729  216.427    3.210
  447.500    0.321    0.396   57.345  216.725    3.202
  447.750    0.321    0.409   58.150  217.235    3.194
  448.000    0.318    0.415   58.331  217.848    3.210
  448.250    0.312    0.407   58.637  218.044    3.240
  448.500    0.297    0.412   59.066  218.140    3.275
  448.750    0.283    0.417   60.183  218.752    3.316
  449.000    0.262    0.402   62.050  219.678    3.378
  449.250    0.238    0.393   65.726  221.435    3.448
  449.500    0.224    0.409   67.280  222.984    3.539
  449.750    0.225    0.434   66.961  224.013    3.626
  450.000    0.259    0.454   67.078  224.522    3.707
  450.250    0.298    0.396   65.011  225.031    3.755
  450.500    0.305    0.382   62.446  225.227    3.746
  450.750    0.309    0.379   58.569  225.321    3.632
  451.000    0.314    0.393   53.506  225.516    3.540
  451.250    0.321    0.411   51.127  225.401    3.420
  451.500    0.326    0.414   51.808  225.078    3.252
  451.750    0.317    0.412   56.420  225.067    3.099
  452.000    0.294    0.400   58.411  224.848    3.051
  452.250    0.180    0.366   50.726  224.836    3.234
  452.500    0.133    0.202   44.976  224.721    3.617
  452.750    0.095    0.187   42.785  224.397    4.122
