~VERSION INFORMATION
 VERS.                 2.0:   CWLS LOG ASCII STANDARD -VERSION 2.0
 WRAP.                  NO:   ONE LINE PER DEPTH STEP
~WELL INFORMATION BLOCK
#MNEM.UNIT           DATA                    DESCRIPTION OF MNEMONIC
#---------    -------------------            -------------------------------
# Generated from Intellog Unique Number	CX_WELLS/WELL/3164
LOC .         00/03-13-083-10W4/0            : Location     - LOCATION
UWI .         00/03-13-083-10W400            : Uwi          - UNIQUE WELL ID
ENTR.         DW                             : Entered      - ENTERED BY
SRVC.         SCHLUMBERGER                   : Scn          - SERVICE COMPANY
STRT.F        738.189                        : top_depth    - START DEPTH
STOP.F        1573.98                        : bot_depth    - STOP DEPTH
STEP.F        0.82                           : increment    - STEP LENGTH
 NULL. -999.2500:NULL Value
~CURVE INFORMATION BLOCK
#MNEM UNIT       ERCB CURVE CODE    CURVE DESCRIPTION
#-----------   ------------------   ----------------------------------
DEPT.F        00 001 00 00         : DEPTH        - DEPTH
NPHI.V/V      00 330 00 00         : PHIN         - NEUTRON POROSITY (SANDSTONE)
DPHI.V/V      00 890 00 00         : PHID         - DENSITY POROSITY (SANDSTONE)
GR  .API      00 310 00 00         : GR           - GAMMA RAY
ILD .OHMM     00 120 00 00         : RESD         - DEEP RESISTIVITY (DIL)
~PARAMETER INFORMATION
#MNEM.UNIT           DATA             DESCRIPTION OF MNEMONIC
#---------         -----------     ------------------------------
GL  .F        2341.54              : gl           - GROUND LEVEL ELEVATION
EREF.F        2354                 : kb           - ELEVATION OF DEPTH REFERENCE
DATM.F        2354                 : datum        - DATUM ELEVATION
TDD .F        1587.93              : tdd          - TOTAL DEPTH DRILLER
RUN .         ONE                  : Run          - RUN NUMBER
ENG .         BILL                 : Engineer     - RECORDING ENGINEER
WIT .         JIM                  : Witness      - WITNESSED BY
MUD .         GEL                  : Mud_type     - MUD TYPE
MATR.         SANDSTONE            : Logunit      - NEUTRON MATRIX
TMAX.F        69.8                 : BHT          - MAXIMUM RECORDED TEMPERATURE
BHTD.F        1587.93              : BHTDEP       - MAXIMUM RECORDED TEMPERATURE
MATR.         1                    : LOGUNIT      - NEUTRON MATRIX
RMT .F        77                   : MDTP         - TEMPERATURE OF MUD
NEUT.         1                    : NEUTRON      - NEUTRON TYPE
RESI.         0                    : RESIST       - RESISTIVITY TYPE
RMC .OHMM     0.25                 : RMC          - RESISTIVITY OF MUD CAKE
RMF .OHMM     0.25                 : RMF          - RESISTIVITY OF MUD FILTRATE
SUFT.F        59                   : SUFT         - SURFACE TEMPERATURE
~A  DEPTH     PHIN     PHID       GR     RESD
  738.189    0.571    0.287  125.760    5.802
  739.009    0.546    0.281  124.384    5.812
  739.829    0.507    0.293  121.191    5.821
  740.650    0.514    0.303  116.671    5.509
  741.470    0.550    0.289  110.698    5.216
  742.290    0.541    0.271  101.914    5.034
  743.110    0.471    0.255   90.966    4.946
  743.930    0.423    0.156   83.016    4.861
  744.751    0.416    0.139   76.409    4.870
  745.571    0.429    0.152   71.861    4.877
  746.391    0.445    0.200   71.605    4.976
  747.211    0.456    0.278   76.924    4.981
  748.031    0.460    0.274   85.909    4.989
  748.852    0.460    0.272   92.476    4.997
  749.672    0.460    0.271   95.480    5.003
  750.492    0.468    0.268   98.180    5.012
  751.312    0.475    0.268  101.168    4.924
  752.133    0.472    0.268  102.708    4.840
  752.953    0.464    0.269  100.673    4.499
  753.773    0.455    0.270   94.279    4.421
  754.593    0.444    0.267   97.217    4.266
  755.413    0.464    0.264  103.027    4.195
  756.234    0.490    0.260  105.978    4.198
  757.054    0.485    0.257  107.576    4.127
  757.874    0.475    0.262  106.769    4.133
  758.694    0.469    0.269  103.552    4.217
  759.514    0.460    0.269  102.068    4.303
  760.335    0.455    0.264  100.854    4.392
  761.155    0.449    0.264   97.872    4.397
  761.975    0.461    0.273   94.280    4.402
  762.795    0.504    0.281   93.039    4.408
  763.615    0.491    0.283   95.974    4.417
  764.436    0.470    0.279   98.963    4.422
  765.256    0.462    0.274   98.089    4.429
  766.076    0.448    0.271   94.798    4.353
  766.896    0.468    0.271   95.739    4.278
  767.717    0.541    0.271  102.227    4.129
  768.537    0.522    0.273  103.135    4.055
  769.357    0.496    0.278  101.687    4.062
  770.177    0.503    0.283  102.298    3.993
  770.997    0.524    0.291  103.901    3.999
  771.818    0.538    0.296  102.829    4.003
  772.638    0.539    0.285  100.270    3.934
  773.458    0.533    0.273  102.766    3.870
  774.278    0.527    0.276  104.161    3.873
  775.098    0.520    0.285  103.535    3.808
  775.919    0.510    0.290  106.649    3.743
  776.739    0.507    0.288  111.939    3.677
  777.559    0.523    0.283  110.079    3.616
  778.379    0.534    0.277  104.229    3.554
  779.199    0.540    0.278  106.590    3.559
  780.020    0.535    0.281  108.237    3.563
  780.840    0.516    0.284  107.924    3.568
  781.660    0.496    0.287  110.466    3.507
  782.480    0.501    0.287  109.976    3.448
  783.301    0.532    0.283  104.713    3.453
  784.121    0.536    0.279  107.610    3.394
  784.941    0.524    0.278  111.856    3.335
  785.761    0.521    0.278  113.997    3.279
  786.581    0.538    0.275  111.386    3.282
  787.402    0.555    0.277  102.441    3.227
  788.222    0.524    0.286  107.169    3.172
  789.042    0.502    0.298  111.901    3.178
  789.862    0.532    0.301  114.518    3.121
  790.682    0.568    0.296  111.849    3.068
  791.503    0.566    0.291  106.294    3.073
  792.323    0.549    0.287  109.155    3.021
  793.143    0.543    0.285  112.989    2.807
  793.963    0.531    0.283  114.195    2.810
  794.783    0.527    0.278  113.679    2.816
  795.604    0.529    0.273  113.526    2.818
  796.424    0.520    0.273  114.129    2.877
  797.244    0.509    0.282  114.008    2.880
  798.064    0.520    0.292  112.154    2.885
  798.885    0.544    0.296  108.375    2.942
  799.705    0.554    0.292  106.465    3.002
  800.525    0.560    0.286  106.515    3.065
  801.345    0.567    0.276  105.519    3.125
  802.165    0.548    0.268  103.374    3.130
  802.986    0.530    0.279  101.558    3.196
  803.806    0.540    0.288   97.627    3.199
  804.626    0.567    0.284  101.942    3.204
  805.446    0.588    0.276  107.029    3.207
  806.266    0.590    0.273  103.836    3.274
  807.087    0.571    0.279  102.035    3.278
  807.907    0.558    0.288  102.916    3.282
  808.727    0.596    0.292  104.582    3.287
  809.547    0.602    0.295  105.610    3.293
  810.367    0.570    0.294  107.030    3.358
  811.188    0.556    0.290  105.104    3.363
  812.008    0.562    0.294   96.975    3.368
  812.828    0.573    0.308   95.379    3.438
  813.648    0.589    0.315   97.694    3.444
  814.469    0.606    0.307  100.185    3.448
  815.289    0.576    0.295  100.150    3.451
  816.109    0.511    0.288   97.616    3.395
  816.929    0.490    0.279   95.634    3.397
  817.749    0.487    0.274   94.583    3.403
  818.570    0.496    0.270   94.183    3.345
  819.390    0.523    0.282  100.445    3.289
  820.210    0.557    0.300  107.246    3.173
  821.030    0.584    0.310  107.949    3.061
  821.850    0.601    0.318  107.928    3.006
  822.671    0.609    0.319  107.421    2.956
  823.491    0.586    0.342  106.429    2.904
  824.311    0.565    0.248  102.736    2.908
  825.131    0.581    0.139   96.663    2.860
  825.951    0.570    0.168   89.617    2.917
  826.772    0.495    0.241   88.003    2.921
  827.592    0.518    0.300  103.256    3.038
  828.412    0.542    0.318  109.313    3.098
  829.232    0.569    0.315  106.419    3.283
  830.052    0.574    0.296  102.294    3.286
  830.873    0.528    0.267   98.466    3.357
  831.693    0.493    0.263   97.814    3.359
  832.513    0.482    0.264  101.056    3.364
  833.333    0.483    0.259  100.990    3.369
  834.154    0.494    0.257   97.060    3.436
  834.974    0.498    0.269   96.827    3.572
  835.794    0.517    0.283  100.731    3.512
  836.614    0.584    0.282  102.049    3.390
  837.434    0.589    0.275  105.184    3.329
  838.255    0.569    0.271  106.071    3.397
  839.075    0.536    0.265   99.783    3.598
  839.895    0.501    0.259   93.791    3.740
  840.715    0.492    0.256   97.166    3.746
  841.535    0.507    0.254  104.421    3.751
  842.356    0.515    0.252  104.160    3.757
  843.176    0.523    0.250  103.293    3.833
  843.996    0.519    0.259  102.240    3.986
  844.816    0.535    0.265   97.780    4.145
  845.636    0.558    0.262   95.448    4.150
  846.457    0.524    0.267  100.607    4.154
  847.277    0.493    0.263  101.364    4.162
  848.097    0.491    0.259  100.840    4.168
  848.917    0.498    0.263   99.552    4.583
  849.738    0.515    0.267   95.365    5.037
  850.558    0.516    0.265   91.564    5.336
  851.378    0.468    0.257   93.067    5.246
  852.198    0.448    0.248   95.230    5.155
  853.018    0.482    0.253   96.100    4.974
  853.839    0.538    0.278   96.014    5.075
  854.659    0.588    0.231   96.038    6.984
  855.479    0.561    0.186   79.918    8.919
  856.299    0.431    0.295   42.170   10.971
  857.119    0.380    0.324   32.756   13.000
  857.940    0.390    0.330   38.179   14.295
  858.760    0.397    0.341   45.023   11.874
  859.580    0.389    0.305   57.976    9.863
  860.400    0.386    0.254   77.384    8.666
  861.220    0.396    0.271   89.150    8.053
  862.041    0.422    0.265   87.161    8.858
  862.861    0.407    0.244   87.879    9.379
  863.681    0.398    0.245   89.995   10.511
  864.501    0.412    0.266   90.547   10.924
  865.322    0.424    0.286   85.859   12.469
  866.142    0.430    0.301   73.559   14.233
  866.962    0.426    0.319   71.007   17.514
  867.782    0.416    0.349   75.637   19.628
  868.602    0.394    0.388   74.869   20.398
  869.423    0.433    0.460   67.058   21.621
  870.243    0.545    0.476   70.135   21.645
  871.063    0.579    0.354   87.708   21.668
  871.883    0.463    0.334   81.488   22.542
  872.703    0.425    0.339   73.386   22.984
  873.524    0.427    0.338   79.668   23.451
  874.344    0.434    0.334   92.476   24.380
  875.164    0.460    0.336  103.507   24.885
  875.984    0.443    0.355  106.814   24.450
  876.804    0.418    0.339   86.624   20.693
  877.625    0.496    0.310   73.637   20.339
  878.445    0.535    0.301   62.567   21.950
  879.265    0.447    0.311   47.837   24.591
  880.085    0.361    0.325   36.752   26.047
