~VERSION INFORMATION
 VERS.                 2.0:   CWLS LOG ASCII STANDARD -VERSION 2.0
 WRAP.                  NO:   ONE LINE PER DEPTH STEP
~WELL INFORMATION BLOCK
#MNEM.UNIT           DATA                    DESCRIPTION OF MNEMONIC
#---------    -------------------            -------------------------------
# Generated from Intellog Unique Number	CX_WELLS/WELL/2948
WELL.         GULF SYREBY                    : Well_name    - WELL
LOC .         00/06-35-082-09W4/0            : Location     - LOCATION
UWI .         00/06-35-082-09W4/0            : Uwi          - UNIQUE WELL ID
ENTR.         T                              : Entered      - ENTERED BY
SRVC.         SCHLUMBERGER                   : Scn          - SERVICE COMPANY
STRT.F        1150                           : top_depth    - START DEPTH
STOP.F        1629.82                        : bot_depth    - STOP DEPTH
STEP.F        0.82                           : increment    - STEP LENGTH
 NULL. -999.2500:NULL Value
~CURVE INFORMATION BLOCK
#MNEM UNIT       ERCB CURVE CODE    CURVE DESCRIPTION
#-----------   ------------------   ----------------------------------
DEPT.F        00 001 00 00         : DEPTH        - DEPTH
GR  .API      00 310 00 00         : GR           - GAMMA RAY
NPHI.V/V      00 330 00 00         : PHIN         - NEUTRON POROSITY (SANDSTONE)
DPHI.V/V      00 890 00 00         : PHID         - DENSITY POROSITY (SANDSTONE)
ILD .OHMM     00 120 00 00         : RESD         - DEEP RESISTIVITY (OTHER)
~PARAMETER INFORMATION
#MNEM.UNIT           DATA             DESCRIPTION OF MNEMONIC
#---------         -----------     ------------------------------
GL  .F        2380                 : gl           - GROUND LEVEL ELEVATION
EREF.F        2387                 : kb           - ELEVATION OF DEPTH REFERENCE
DATM.F        2387                 : datum        - DATUM ELEVATION
TDD .F        1640                 : tdd          - TOTAL DEPTH DRILLER
RUN .         ONE                  : Run          - RUN NUMBER
ENG .         BILL                 : Engineer     - RECORDING ENGINEER
WIT .         JIM                  : Witness      - WITNESSED BY
MUD .         GEL                  : Mud_type     - MUD TYPE
MATR.         SANDSTONE            : Logunit      - NEUTRON MATRIX
TMAX.F        71.6                 : BHT          - MAXIMUM RECORDED TEMPERATURE
BHTD.F        1640                 : BHTDEP       - MAXIMUM RECORDED TEMPERATURE
MATR.         1                    : LOGUNIT      - NEUTRON MATRIX
RMT .F        77                   : MDTP         - TEMPERATURE OF MUD
NEUT.         1                    : NEUTRON      - NEUTRON TYPE
RESI.         6.29                 : RESIST       - RESISTIVITY TYPE
RMC .OHMM     7.15                 : RMC          - RESISTIVITY OF MUD CAKE
RMF .OHMM     7.15                 : RMF          - RESISTIVITY OF MUD FILTRATE
SUFT.F        32                   : SUFT         - SURFACE TEMPERATURE
~A  DEPTH       GR     PHIN     PHID     RESD
# ...
 1292.720   92.180    0.455    0.249    7.066
 1293.540   96.519    0.446    0.233    7.498
 1294.360  106.437    0.441    0.215    7.405
 1295.180  109.535    0.431    0.225    7.158
 1296.000  112.014    0.427    0.230    6.940
 1296.820  113.253    0.457    0.228    6.833
 1297.640  113.872    0.473    0.220    6.619
 1298.460  113.871    0.455    0.221    6.391
 1299.280  113.250    0.457    0.230    5.644
 1300.100  112.009    0.467    0.234    5.067
 1300.920  111.388    0.471    0.241    4.638
 1301.740  113.866    0.479    0.245    3.947
 1302.560  120.065    0.490    0.251    3.544
 1303.380  125.643    0.507    0.253    3.244
 1304.200  129.362    0.550    0.252    3.139
 1305.020  128.121    0.572    0.251    3.094
 1305.840  125.020    0.582    0.254    3.106
 1306.660  123.779    0.578    0.257    3.119
 1307.480  121.918    0.569    0.255    3.310
 1308.300  119.437    0.557    0.251    3.936
 1309.120  116.336    0.525    0.248    4.246
 1309.940  113.855    0.517    0.246    4.768
 1310.760  112.614    0.506    0.244    5.453
 1311.580  108.273    0.498    0.241    6.005
 1312.400  103.932    0.483    0.236    6.619
 1313.220  103.311    0.485    0.227    7.296
 1314.040  104.550    0.482    0.217    7.454
 1314.860  104.549    0.476    0.222    7.782
 1315.680  105.168    0.466    0.227    8.099
 1316.500  110.127    0.460    0.219    8.454
 1317.320  110.746    0.454    0.234    8.629
 1318.140  111.364    0.451    0.243    9.017
 1318.960  112.603    0.444    0.235    9.203
 1319.780  113.222    0.433    0.224    9.598
 1320.600  111.980    0.422    0.219    9.999
 1321.420  111.360    0.409    0.216   10.427
 1322.240  110.739    0.414    0.213   10.863
 1323.060  111.357    0.435    0.211   11.121
 1323.880  111.977    0.436    0.209   11.363
 1324.700  113.835    0.424    0.209   11.408
 1325.520  114.454    0.424    0.209   11.038
 1326.350  115.073    0.428    0.208    9.920
 1327.170  114.452    0.435    0.207    9.081
 1327.990  114.451    0.439    0.207    8.312
 1328.810  114.450    0.445    0.207    7.477
 1329.630  114.448    0.449    0.208    6.852
 1330.450  115.067    0.452    0.211    6.616
 1331.270  115.686    0.457    0.217    6.774
 1332.090  115.685    0.462    0.228    7.181
 1332.910  111.964    0.470    0.228    8.071
 1333.730  107.624    0.470    0.218    8.888
 1334.550   99.563    0.436    0.210    9.608
 1335.370   91.502    0.409    0.195   10.386
 1336.190   89.641    0.393    0.169   11.251
 1337.010   92.120    0.398    0.199   11.296
 1337.830   98.939    0.411    0.222   11.144
 1338.650  102.657    0.419    0.245   10.761
 1339.470  102.656    0.430    0.244   10.045
 1340.290  103.895    0.430    0.241    9.367
 1341.110  105.134    0.423    0.237    8.726
 1341.930  106.373    0.432    0.235    7.705
 1342.750  106.991    0.440    0.230    7.178
 1343.570  107.610    0.447    0.224    6.945
 1344.390  107.609    0.453    0.217    6.720
 1345.210  107.608    0.450    0.216    7.008
 1346.030  107.607    0.456    0.218    7.583
 1346.850  106.986    0.450    0.224    8.056
 1347.670  103.885    0.411    0.231    8.549
 1348.490  104.504    0.392    0.235    8.583
 1349.310  105.743    0.384    0.236    8.468
 1350.130  108.841    0.392    0.237    8.338
 1350.950  109.460    0.414    0.243    8.363
 1351.770  109.459    0.420    0.246    8.414
 1352.590  102.638    0.428    0.253    8.596
 1353.410   91.478    0.425    0.263    9.132
 1354.230   92.717    0.399    0.269    9.339
 1355.050   95.196    0.405    0.270    9.214
 1355.870   88.995    0.424    0.262    8.443
 1356.690   92.094    0.431    0.258    8.153
 1357.510   99.532    0.425    0.253    7.061
 1358.330   99.531    0.431    0.250    6.339
 1359.150   99.530    0.447    0.245    5.390
 1359.970  100.768    0.466    0.249    4.498
 1360.790  102.007    0.484    0.250    4.521
 1361.610  102.626    0.494    0.243    4.978
 1362.430  102.625    0.465    0.234    6.984
 1363.250  102.624    0.438    0.240    7.412
 1364.070   97.663    0.434    0.233    8.306
 1364.900   94.562    0.454    0.211    9.335
 1365.720   91.461    0.460    0.183    9.726
 1366.540   85.261    0.468    0.179    9.764
 1367.360   82.160    0.475    0.233    9.996
 1368.180   82.778    0.462    0.250   10.234
 1369.000   84.017    0.449    0.255   10.265
 1369.820   83.396    0.441    0.260   10.704
 1370.640   82.775    0.435    0.261   10.737
 1371.460   80.294    0.423    0.252   10.981
 1372.280   79.054    0.414    0.232   11.451
 1373.100   74.093    0.401    0.203   11.711
 1373.920   71.612    0.383    0.189   11.989
 1374.740   75.330    0.343    0.207   11.389
 1375.560   79.049    0.403    0.232   10.620
 1376.380   80.907    0.428    0.246    9.721
 1377.200   83.386    0.428    0.233    9.406
 1378.020   88.345    0.359    0.207    9.262
 1378.840   96.403    0.413    0.214    8.487
 1379.660  103.842    0.436    0.226    7.627
 1380.480  103.840    0.438    0.226    6.728
 1381.300  101.980    0.433    0.222    6.510
 1382.120  100.739    0.455    0.220    6.530
 1382.940  103.217    0.460    0.216    6.685
 1383.760  105.696    0.451    0.216    6.837
 1384.580  106.935    0.460    0.216    7.130
 1385.400  108.793    0.468    0.216    7.284
 1386.220  109.412    0.468    0.215    7.314
 1387.040  110.031    0.445    0.215    7.076
 1387.860  111.890    0.432    0.215    6.372
 1388.680  112.509    0.425    0.215    5.936
 1389.500  114.367    0.419    0.215    5.428
 1390.320  114.986    0.422    0.215    4.706
 1391.140  115.605    0.423    0.216    4.147
 1391.960  113.124    0.425    0.217    3.398
 1392.780  108.783    0.452    0.218    3.054
 1393.600  103.823    0.499    0.227    3.066
 1394.420   98.862    0.530    0.249    3.314
 1395.240   95.761    0.553    0.256    3.583
 1396.060   94.520    0.564    0.253    4.336
 1396.880   93.279    0.535    0.244    4.954
 1397.700   92.038    0.456    0.234    5.667
 1398.520   92.037    0.417    0.222    6.126
 1399.340   92.656    0.417    0.215    6.150
 1400.160   94.514    0.426    0.210    6.062
 1400.980   95.753    0.430    0.206    5.865
 1401.800   94.512    0.426    0.202    5.469
 1402.620   94.511    0.418    0.204    4.830
 1403.440   95.750    0.409    0.211    4.499
 1404.270   98.228    0.398    0.217    4.123
 1405.090  100.707    0.386    0.222    3.989
 1405.910  103.186    0.381    0.237    3.932
 1406.730  105.045    0.411    0.244    3.944
 1407.550  104.424    0.450    0.237    3.963
 1408.370  100.703    0.455    0.228    4.054
 1409.190   98.842    0.453    0.225    4.074
 1410.010  101.321    0.447    0.232    4.094
 1410.830  105.659    0.449    0.237    4.103
 1411.650  111.238    0.462    0.237    4.127
 1412.470  109.997    0.485    0.226    4.068
 1413.290  108.136    0.498    0.225    3.793
 1414.110  110.614    0.476    0.213    3.607
 1414.930  112.473    0.469    0.216    3.548
 1415.750  117.432    0.463    0.223    3.433
 1416.570  119.911    0.482    0.221    3.446
 1417.390  121.769    0.504    0.224    3.464
 1418.210  121.148    0.504    0.226    3.609
 1419.030  119.287    0.478    0.220    3.909
 1419.850  117.426    0.463    0.218    4.308
 1420.670  115.565    0.447    0.221    4.480
 1421.490  114.324    0.445    0.223    4.676
 1422.310  113.703    0.453    0.220    4.695
 1423.130  112.462    0.459    0.215    4.709
 1423.950  112.461    0.452    0.207    4.816
 1424.770  111.840    0.450    0.199    4.845
 1425.590  111.219    0.444    0.186    4.860
 1426.410  109.357    0.445    0.168    4.889
 1427.230  108.117    0.440    0.156    4.899
 1428.050  105.016    0.431    0.129    4.918
 1428.870  103.775    0.421    0.122    5.129
 1429.690  103.774    0.442    0.153    5.246
 1430.510  113.692    0.448    0.200    5.567
 1431.330  117.411    0.460    0.216    6.136
 1432.150  109.350    0.438    0.227    6.883
 1432.970   95.710    0.428    0.233   10.197
 1433.790   88.890    0.411    0.244   12.114
 1434.610   79.589    0.404    0.261   14.100
