~VERSION INFORMATION
 VERS.                 2.0:   CWLS LOG ASCII STANDARD -VERSION 2.0
 WRAP.                  NO:   ONE LINE PER DEPTH STEP
~WELL INFORMATION BLOCK
#MNEM.UNIT           DATA                    DESCRIPTION OF MNEMONIC
#---------    -------------------            -------------------------------
# Generated from Intellog Unique Number	CS_77_79/WELL/853
WELL.         CANADIAN OCCIDENTAL            : Well_name    - WELL
LOC .         00/05-06-077-02W4/0            : Location     - LOCATION
UWI .         00/05-06-077-02W4/0            : Uwi          - UNIQUE WELL ID
ENTR.         SP                             : Entered      - ENTERED BY
SRVC.         SCHLUMBERGER                   : Scn          - SERVICE COMPANY
STRT.M        243.84                         : top_depth    - START DEPTH
STOP.M        527.09                         : bot_depth    - STOP DEPTH
STEP.M        0.25                           : increment    - STEP LENGTH
 NULL. -999.2500:NULL Value
~CURVE INFORMATION BLOCK
#MNEM UNIT       ERCB CURVE CODE    CURVE DESCRIPTION
#-----------   ------------------   ----------------------------------
DEPT.M        00 001 00 00         : DEPTH        - DEPTH
GR  .API      00 310 00 00         : GR           - GAMMA RAY
DPHI.V/V      00 890 00 00         : PHID         - DENSITY POROSITY (SANDSTONE)
NPHI.V/V      00 330 00 00         : PHIN         - NEUTRON POROSITY (SANDSTONE)
ILD .OHMM     00 120 00 00         : RESD         - DEEP RESISTIVITY (DIL)
~PARAMETER INFORMATION
#MNEM.UNIT           DATA             DESCRIPTION OF MNEMONIC
#---------         -----------     ------------------------------
GL  .M        612.648              : gl           - GROUND LEVEL ELEVATION
EREF.M        615.696              : kb           - ELEVATION OF DEPTH REFERENCE
DATM.M        612.648              : datum        - DATUM ELEVATION
TDD .M        536.448              : tdd          - TOTAL DEPTH DRILLER
RUN .         ONE                  : Run          - RUN NUMBER
ENG .         BILL                 : Engineer     - RECORDING ENGINEER
WIT .         JIM                  : Witness      - WITNESSED BY
MUD .         GEL                  : Mud_type     - MUD TYPE
MATR.         SANDSTONE            : Logunit      - NEUTRON MATRIX
TMAX.C        23.8889              : BHT          - MAXIMUM RECORDED TEMPERATURE
BHTD.M        536.448              : BHTDEP       - MAXIMUM RECORDED TEMPERATURE
MATR.         1                    : LOGUNIT      - NEUTRON MATRIX
RMT .C        25                   : MDTP         - TEMPERATURE OF MUD
NEUT.         1                    : NEUTRON      - NEUTRON TYPE
RESI.         0                    : RESIST       - RESISTIVITY TYPE
RMC .OHMM     0.25                 : RMC          - RESISTIVITY OF MUD CAKE
RMF .OHMM     0.25                 : RMF          - RESISTIVITY OF MUD FILTRATE
SUFT.C        15                   : SUFT         - SURFACE TEMPERATURE
~A  DEPTH       GR     PHID     PHIN     RESD
  243.840  111.754    0.250    0.520    3.291
  244.090  110.686    0.255    0.518    3.364
  244.340  111.560    0.230    0.528    3.290
  244.590  111.830    0.223    0.529    3.302
  244.840  110.796    0.216    0.528    3.235
  245.090  110.620    0.218    0.526    3.234
  245.340  109.970    0.236    0.530    3.186
  245.590  111.589    0.232    0.558    3.192
  245.840  111.731    0.227    0.578    3.200
  246.090  110.617    0.247    0.573    3.258
  246.340  111.301    0.235    0.566    3.258
  246.590  110.559    0.238    0.580    3.260
  246.840  109.208    0.225    0.578    3.264
  247.090  107.289    0.218    0.569    3.266
  247.340  110.527    0.237    0.573    3.269
  247.590  110.597    0.248    0.579    3.271
  247.840  108.860    0.249    0.554    3.273
  248.090  105.382    0.243    0.559    3.280
  248.340  103.600    0.242    0.567    3.214
  248.590  104.248    0.244    0.546    3.223
  248.840  104.854    0.246    0.549    3.226
  249.090  103.226    0.245    0.557    3.229
  249.340  104.691    0.242    0.546    3.231
  249.590  104.251    0.247    0.576    3.234
  249.840  102.353    0.235    0.574    3.236
  250.090  101.049    0.249    0.573    3.239
  250.340  100.396    0.263    0.574    3.241
  250.590  101.482    0.261    0.550    3.244
  250.840  104.540    0.247    0.523    3.249
  251.090  106.569    0.263    0.531    3.186
  251.340  107.753    0.249    0.550    3.195
  251.590  108.741    0.260    0.568    3.145
  251.840  109.546    0.267    0.581    3.142
  252.090  107.957    0.267    0.581    3.145
  252.340  104.804    0.246    0.570    3.100
  252.590  104.923    0.256    0.582    3.100
  252.840  105.265    0.263    0.566    3.038
  253.090  104.781    0.262    0.519    3.101
  253.340  105.463    0.242    0.511    3.095
  253.590  107.028    0.231    0.523    3.158
  253.840  109.101    0.229    0.537    3.197
  254.090  109.499    0.236    0.540    3.221
  254.340  111.166    0.227    0.547    3.226
  254.590  110.979    0.211    0.552    3.257
  254.840  110.092    0.217    0.538    3.368
  255.090  111.157    0.208    0.517    3.587
  255.340  112.118    0.219    0.514    3.677
  255.590  113.072    0.232    0.505    3.754
  255.840  113.471    0.222    0.507    3.759
  256.090  114.554    0.211    0.526    3.685
  256.340  114.243    0.218    0.568    3.622
  256.590  113.310    0.207    0.549    3.475
  256.840  111.357    0.221    0.531    3.353
  257.090  108.914    0.239    0.518    3.314
  257.340  108.713    0.256    0.533    3.318
  257.590  110.839    0.243    0.548    3.324
  257.840  110.735    0.220    0.563    3.266
  258.090  108.781    0.215    0.549    3.349
  258.340  103.668    0.235    0.526    3.611
  258.590   97.178    0.231    0.507    4.006
  258.840   86.236    0.214    0.492    4.705
  259.090   79.928    0.186    0.467    5.959
  259.340   63.658    0.195    0.421    7.882
  259.590   50.251    0.202    0.379   11.258
  259.840   42.026    0.176    0.374   14.996
  260.090   38.349    0.203    0.359   17.086
  260.340   32.401    0.242    0.359   17.126
  260.590   28.931    0.228    0.345   18.631
  260.840   32.135    0.202    0.338   20.183
  261.090   33.715    0.194    0.351   21.735
  261.340   32.306    0.168    0.359   19.113
  261.590   36.573    0.173    0.370   15.208
  261.840   46.996    0.240    0.383    9.687
  262.090   56.551    0.234    0.388    7.017
  262.340   64.805    0.221    0.423    5.579
  262.590   75.341    0.209    0.481    6.555
  262.840   81.962    0.193    0.498    8.539
  263.090   64.967    0.176    0.474   10.966
  263.340   60.933    0.238    0.424   14.240
  263.590   68.005    0.288    0.399   18.503
  263.840   69.364    0.297    0.419   21.929
  264.090   69.455    0.313    0.428   23.659
  264.340   73.997    0.317    0.410   20.448
  264.590   83.845    0.318    0.409   16.757
  264.840   89.448    0.300    0.422   14.483
  265.090   89.935    0.287    0.442   11.835
  265.340   79.740    0.267    0.441   12.809
  265.590   70.883    0.261    0.434   13.884
  265.840   64.995    0.261    0.419   13.995
  266.090   73.044    0.274    0.404   13.749
  266.340   80.828    0.284    0.395   13.480
  266.590   78.758    0.269    0.424   13.864
  266.840   71.652    0.254    0.448   13.830
  267.090   66.013    0.272    0.440   12.803
  267.340   67.687    0.284    0.431   12.251
  267.590   76.243    0.277    0.424   13.159
  267.840   83.900    0.254    0.435   12.220
  268.090   89.566    0.227    0.433   12.168
  268.340   83.654    0.229    0.422   12.369
  268.590   83.191    0.239    0.416   12.500
  268.840   78.433    0.238    0.421   12.659
  269.090   76.762    0.245    0.422   12.677
  269.340   78.341    0.266    0.412   12.752
  269.590   80.260    0.249    0.419   12.929
  269.840   81.581    0.260    0.420   12.937
  270.090   81.450    0.258    0.406   12.952
  270.340   79.856    0.258    0.416   12.945
  270.590   77.380    0.242    0.424   13.192
  270.840   73.377    0.247    0.430   13.783
  271.090   69.778    0.252    0.428   14.161
  271.340   69.558    0.267    0.407   14.937
  271.590   70.208    0.280    0.400   15.384
  271.840   67.332    0.267    0.400   16.130
  272.090   64.592    0.260    0.400   16.997
  272.340   61.812    0.273    0.412   17.486
  272.590   58.033    0.283    0.415   18.645
  272.840   57.486    0.303    0.400   18.770
  273.090   63.796    0.317    0.394   17.933
  273.340   81.582    0.296    0.389   15.073
  273.590  100.775    0.283    0.383   13.627
  273.840  101.937    0.254    0.402   11.447
  274.090  101.449    0.233    0.432   10.439
  274.340  102.523    0.225    0.463    9.765
  274.590  104.004    0.220    0.461    9.508
  274.840  105.097    0.234    0.438    9.027
  275.090  106.100    0.235    0.452    8.779
  275.340  108.408    0.223    0.467    8.210
  275.590  112.159    0.234    0.477    7.999
  275.840  113.820    0.220    0.468    7.628
  276.090  114.641    0.218    0.460    7.245
  276.340  112.214    0.229    0.450    7.450
  276.590  108.237    0.214    0.445    8.028
  276.840  101.849    0.172    0.419    8.683
  277.090   94.914    0.131    0.379    9.644
  277.340   91.180    0.152    0.361   11.096
  277.590   84.718    0.150    0.383   11.990
  277.840   75.034    0.162    0.401   13.870
  278.090   69.081    0.198    0.402   15.195
  278.340   67.535    0.232    0.399   15.604
  278.590   62.434    0.261    0.377   15.422
  278.840   62.641    0.258    0.378   15.333
  279.090   67.942    0.248    0.395   13.787
  279.340   78.192    0.251    0.413   12.053
  279.590   89.981    0.223    0.421   10.054
  279.840   96.714    0.195    0.421    8.992
  280.090  104.906    0.169    0.428    8.090
  280.340  111.047    0.181    0.439    7.595
  280.590  121.613    0.188    0.449    7.131
  280.840  125.809    0.156    0.468    6.495
  281.090  127.898    0.138    0.495    5.935
  281.340  128.201    0.137    0.489    5.266
  281.590  127.700    0.180    0.492    4.909
  281.840  126.124    0.202    0.504    4.480
  282.090  129.357    0.188    0.516    4.176
  282.340  132.161    0.183    0.527    3.855
  282.590  136.465    0.195    0.535    3.632
  282.840  138.302    0.211    0.545    3.604
  283.090  137.621    0.214    0.546    3.789
  283.340  132.011    0.217    0.531    4.067
  283.590  121.508    0.221    0.513    4.595
  283.840  112.863    0.222    0.501    5.293
  284.090  105.098    0.188    0.415    6.218
  284.340   96.731    0.135    0.374    6.877
  284.590  100.282    0.076    0.354    7.777
  284.840  106.204    0.041    0.406    8.776
  285.090  103.449    0.132    0.435    9.993
  285.340   93.576    0.231    0.458   10.973
  285.590   84.945    0.276    0.447   12.174
  285.840   80.838    0.297    0.445   13.181
  286.090   79.659    0.267    0.443   14.289
  286.340   77.592    0.257    0.446   15.442
  286.590   76.297    0.261    0.436   15.851
  286.840   78.838    0.254    0.453   15.851
  287.090   79.120    0.250    0.463   15.883
