~VERSION INFORMATION
 VERS.                 2.0:   CWLS LOG ASCII STANDARD -VERSION 2.0
 WRAP.                  NO:   ONE LINE PER DEPTH STEP
~WELL INFORMATION BLOCK
#MNEM.UNIT           DATA                    DESCRIPTION OF MNEMONIC
#---------    -------------------            -------------------------------
# Generated from Intellog Unique Number	CS_77_79/WELL/850
WELL.         CANADIAN WORLDWIDE ENERGY      : Well_name    - WELL
LOC .         00/04-13-077-05W4/0            : Location     - LOCATION
UWI .         00/04-13-077-05W4/0            : Uwi          - UNIQUE WELL ID
ENTR.         SP                             : Entered      - ENTERED BY
SRVC.         SCHLUMBERGER                   : Scn          - SERVICE COMPANY
STRT.M        165                            : top_depth    - START DEPTH
STOP.M        410                            : bot_depth    - STOP DEPTH
STEP.M        0.25                           : increment    - STEP LENGTH
 NULL. -999.2500:NULL Value
~CURVE INFORMATION BLOCK
#MNEM UNIT       ERCB CURVE CODE    CURVE DESCRIPTION
#-----------   ------------------   ----------------------------------
DEPT.M        00 001 00 00         : DEPTH        - DEPTH
ILD .OHMM     00 120 00 00         : RESD         - DEEP RESISTIVITY (DIL)
DPHI.V/V      00 890 00 00         : PHID         - DENSITY POROSITY (LIMESTONE)
NPHI.V/V      00 330 00 00         : PHIN         - NEUTRON POROSITY (LIMESTONE)
GR  .API      00 310 00 00         : GR           - GAMMA RAY
~PARAMETER INFORMATION
#MNEM.UNIT           DATA             DESCRIPTION OF MNEMONIC
#---------         -----------     ------------------------------
GL  .M        570.3                : gl           - GROUND LEVEL ELEVATION
EREF.M        573.3                : kb           - ELEVATION OF DEPTH REFERENCE
DATM.M        570.3                : datum        - DATUM ELEVATION
TDD .M        411.6                : tdd          - TOTAL DEPTH DRILLER
RUN .         ONE                  : Run          - RUN NUMBER
ENG .         BILL                 : Engineer     - RECORDING ENGINEER
WIT .         JIM                  : Witness      - WITNESSED BY
MUD .         GEL                  : Mud_type     - MUD TYPE
MATR.         LIMESTONE            : Logunit      - NEUTRON MATRIX
TMAX.C        20                   : BHT          - MAXIMUM RECORDED TEMPERATURE
BHTD.M        415                  : BHTDEP       - MAXIMUM RECORDED TEMPERATURE
MATR.         1                    : LOGUNIT      - NEUTRON MATRIX
RMT .C        25                   : MDTP         - TEMPERATURE OF MUD
NEUT.         1                    : NEUTRON      - NEUTRON TYPE
RESI.         0                    : RESIST       - RESISTIVITY TYPE
RMC .OHMM     0.25                 : RMC          - RESISTIVITY OF MUD CAKE
RMF .OHMM     0.25                 : RMF          - RESISTIVITY OF MUD FILTRATE
SUFT.C        15                   : SUFT         - SURFACE TEMPERATURE
~A  DEPTH     RESD     PHID     PHIN       GR
# ...
  382.500    4.248    0.319    0.372   49.089
  382.750    4.250    0.323    0.369   48.493
  383.000    4.333    0.330    0.363   49.713
  383.250    4.418    0.316    0.357   52.144
  383.500    4.504    0.293    0.355   54.573
  383.750    4.591    0.279    0.352   63.052
  384.000    4.680    0.267    0.356   70.320
  384.250    4.955    0.249    0.347   76.380
  384.500    5.147    0.214    0.343   79.410
  384.750    5.553    0.213    0.348   74.581
  385.000    5.556    0.219    0.370   66.127
  385.250    5.454    0.251    0.393   63.110
  385.500    5.254    0.282    0.403   59.493
  385.750    4.967    0.301    0.406   51.033
  386.000    4.696    0.314    0.412   43.180
  386.250    4.523    0.326    0.418   37.747
  386.500    4.357    0.333    0.426   43.200
  386.750    4.120    0.327    0.430   51.678
  387.000    4.044    0.327    0.432   52.900
  387.250    3.971    0.332    0.433   45.048
  387.500    3.972    0.347    0.425   39.613
  387.750    4.049    0.352    0.412   34.785
  388.000    4.128    0.356    0.406   34.187
  388.250    4.288    0.337    0.394   54.158
  388.500    4.455    0.298    0.385   72.314
  388.750    4.628    0.261    0.383   83.817
  389.000    5.088    0.199    0.399   94.111
  389.250    5.386    0.173    0.415   98.955
  389.500    5.922    0.153    0.428  109.249
  389.750    6.270    0.156    0.426  117.122
  390.000    6.391    0.162    0.421  120.761
  390.250    6.394    0.156    0.422  119.567
  390.500    6.397    0.150    0.443  118.365
  390.750    6.399    0.158    0.450  117.768
  391.000    6.525    0.174    0.452  117.776
  391.250    6.651    0.179    0.455  118.999
  391.500    6.653    0.152    0.453  119.613
  391.750    6.782    0.136    0.449  119.015
  392.000    7.046    0.129    0.433  112.980
  392.250    7.320    0.124    0.422  106.336
  392.500    7.605    0.134    0.402   96.062
  392.750    8.051    0.146    0.385   91.838
  393.000    8.365    0.152    0.380   92.456
  393.250    8.527    0.153    0.375   94.884
  393.500    8.371    0.147    0.364   97.315
  393.750    8.218    0.135    0.360   97.322
  394.000    7.624    0.123    0.362   93.101
  394.250    6.941    0.163    0.360   90.688
  394.500    6.561    0.190    0.358   84.652
  394.750    5.751    0.241    0.391   76.800
  395.000    5.436    0.288    0.407   74.389
  395.250    5.139    0.312    0.423   81.052
  395.500    4.679    0.305    0.423   85.901
  395.750    4.508    0.307    0.421   85.306
  396.000    4.342    0.320    0.406   85.316
  396.250    4.105    0.326    0.391   92.584
  396.500    3.955    0.331    0.394  101.667
  396.750    3.956    0.333    0.413  107.121
  397.000    4.033    0.317    0.422  105.320
  397.250    4.190    0.311    0.419  101.092
  397.500    4.191    0.304    0.416   87.795
  397.750    4.355    0.301    0.400   76.917
  398.000    4.356    0.308    0.393   66.042
  398.250    4.358    0.318    0.395   62.423
  398.500    4.360    0.324    0.384   68.483
  398.750    4.362    0.317    0.374   76.960
  399.000    4.447    0.299    0.358   81.806
  399.250    4.620    0.281    0.348   73.349
  399.500    4.798    0.265    0.324   68.520
  399.750    4.985    0.250    0.313   64.903
  400.000    5.180    0.227    0.318   66.726
  400.250    5.181    0.205    0.337   70.970
  400.500    4.898    0.237    0.365   57.068
  400.750    4.719    0.307    0.397   43.772
  401.000    4.632    0.331    0.401   40.153
  401.250    4.547    0.332    0.401   45.614
  401.500    4.636    0.332    0.408   49.251
  401.750    5.096    0.332    0.414   52.281
  402.000    5.930    0.324    0.418   59.551
  402.250    6.160    0.312    0.419   63.189
  402.500    6.401    0.091    0.412   65.012
  402.750    6.402    0.136    0.396   65.023
  403.000    5.829    0.280    0.391   48.701
  403.250    5.014    0.312    0.382   41.454
  403.500    4.739    0.323    0.377   40.863
  403.750    4.315    0.319    0.377   40.869
  404.000    4.079    0.313    0.377   44.511
  404.250    4.005    0.295    0.371   46.332
  404.500    3.932    0.288    0.370   42.108
  404.750    3.788    0.308    0.375   34.861
  405.000    3.789    0.329    0.378   31.847
  405.250    3.790    0.333    0.378   32.461
  405.500    3.863    0.317    0.371   33.684
  405.750    3.939    0.290    0.360   33.693
  406.000    4.092    0.275    0.366   33.701
  406.250    4.093    0.296    0.381   33.719
  406.500    4.095    0.319    0.388   34.332
  406.750    3.946    0.333    0.393   34.337
  407.000    3.873    0.334    0.392   36.163
  407.250    3.802    0.335    0.387   37.384
  407.500    3.877    0.339    0.387   37.994
  407.750    3.878    0.334    0.389   38.615
  408.000    3.879    0.325    0.387   38.620
  408.250    3.955    0.317    0.383   38.030
  408.500    3.957    0.323    0.383   37.432
  408.750    4.033    0.329    0.386   37.440
  409.000    4.035    0.334    0.393   39.873
  409.250    4.037    0.339    0.398   41.089
  409.500    4.038    0.336    0.400   42.916
  409.750    4.040    0.327    0.400   44.740
  410.000    4.041    0.322    0.399   40.519
