~VERSION INFORMATION
 VERS.                 2.0:   CWLS LOG ASCII STANDARD -VERSION 2.0
 WRAP.                  NO:   ONE LINE PER DEPTH STEP
~WELL INFORMATION BLOCK
#MNEM.UNIT           DATA                    DESCRIPTION OF MNEMONIC
#---------    -------------------            -------------------------------
# Generated from Intellog Unique Number	CW_79_81/WELL/2452
WELL.         GULF AMOCO HOOLE               : Well_name    - WELL
LOC .         00/06-20-081-24W4/0            : Location     - LOCATION
UWI .         00/06-20-081-24W4/0            : Uwi          - UNIQUE WELL ID
ENTR.         MAX                            : Entered      - ENTERED BY
SRVC.         COMPUTALOG                     : Scn          - SERVICE COMPANY
STRT.M        210                            : top_depth    - START DEPTH
STOP.M        474.75                         : bot_depth    - STOP DEPTH
STEP.M        0.25                           : increment    - STEP LENGTH
 NULL. -999.2500:NULL Value
~CURVE INFORMATION BLOCK
#MNEM UNIT       ERCB CURVE CODE    CURVE DESCRIPTION
#-----------   ------------------   ----------------------------------
DEPT.M        00 001 00 00         : DEPTH        - DEPTH
ILD .OHMM     00 120 00 00         : RESD         - DEEP RESISTIVITY (DIL)
NPHI.V/V      00 330 00 00         : PHIN         - NEUTRON POROSITY (SANDSTONE)
DPHI.V/V      00 890 00 00         : PHID         - DENSITY POROSITY (SANDSTONE)
GR  .API      00 310 00 00         : GR           - GAMMA RAY
CALI.MM       00 280 01 00         : CAL          - CALIPER
~PARAMETER INFORMATION
#MNEM.UNIT           DATA             DESCRIPTION OF MNEMONIC
#---------         -----------     ------------------------------
GL  .M        599.05               : gl           - GROUND LEVEL ELEVATION
EREF.M        603.3                : kb           - ELEVATION OF DEPTH REFERENCE
DATM.M        599.05               : datum        - DATUM ELEVATION
TDD .M        487                  : tdd          - TOTAL DEPTH DRILLER
RUN .         ONE                  : Run          - RUN NUMBER
ENG .         BILL                 : Engineer     - RECORDING ENGINEER
WIT .         JIM                  : Witness      - WITNESSED BY
MUD .         GEL                  : Mud_type     - MUD TYPE
MATR.         SANDSTONE            : Logunit      - NEUTRON MATRIX
TMAX.C        24                   : BHT          - MAXIMUM RECORDED TEMPERATURE
BHTD.M        487                  : BHTDEP       - MAXIMUM RECORDED TEMPERATURE
MATR.         1                    : LOGUNIT      - NEUTRON MATRIX
RMT .C        17.8                 : MDTP         - TEMPERATURE OF MUD
NEUT.         1                    : NEUTRON      - NEUTRON TYPE
RESI.         0                    : RESIST       - RESISTIVITY TYPE
RMC .OHMM     5                    : RMC          - RESISTIVITY OF MUD CAKE
RMF .OHMM     5.8                  : RMF          - RESISTIVITY OF MUD FILTRATE
SUFT.C        -20                  : SUFT         - SURFACE TEMPERATURE
~A  DEPTH     RESD     PHIN     PHID       GR      CAL
# ...
  319.500    9.557    0.401    0.306   53.698  216.484
  319.750    9.559    0.411    0.304   53.950  216.510
  320.000    9.457    0.413    0.304   53.485  216.534
  320.250    9.391    0.412    0.307   52.901  216.557
  320.500    9.428    0.411    0.312   52.496  216.778
  320.750    9.498    0.417    0.319   52.273  217.854
  321.000    9.143    0.429    0.321   52.288  219.127
  321.250    7.868    0.437    0.325   53.259  222.341
  321.500    6.982    0.445    0.332   55.486  223.759
  321.750    6.401    0.453    0.342   58.731  224.379
  322.000    6.004    0.462    0.351   62.215  224.703
  322.250    5.592    0.472    0.351   65.371  224.734
  322.500    5.262    0.483    0.345   69.128  224.761
  322.750    5.034    0.497    0.333   69.617  224.780
  323.000    4.871    0.503    0.325   69.392  224.806
  323.250    4.748    0.503    0.319   70.004  224.832
  323.500    4.680    0.502    0.316   71.872  224.755
  323.750    4.781    0.498    0.316   74.581  224.214
  324.000    5.128    0.490    0.307   76.091  223.405
  324.250    5.519    0.489    0.297   70.843  221.834
  324.500    6.038    0.452    0.289   64.695  219.667
  324.750    6.580    0.423    0.284   58.608  218.096
  325.000    7.065    0.417    0.285   53.898  217.523
  325.250    7.581    0.416    0.293   52.189  217.553
  325.500    8.006    0.415    0.296   51.956  217.575
  325.750    8.308    0.410    0.295   51.731  217.597
  326.000    8.389    0.404    0.295   51.505  217.620
  326.250    8.267    0.398    0.296   51.879  217.643
  326.500    7.999    0.398    0.299   53.090  217.667
  326.750    7.609    0.407    0.305   55.767  217.697
  327.000    7.381    0.408    0.313   59.522  217.726
  327.250    7.114    0.428    0.311   62.407  218.142
  327.500    6.935    0.448    0.314   64.573  218.263
  327.750    6.836    0.464    0.319   66.980  218.288
  328.000    6.800    0.473    0.324   69.507  218.413
  328.250    6.803    0.479    0.327   71.157  218.840
  328.500    6.806    0.479    0.324   72.168  218.863
  328.750    6.858    0.475    0.312   70.032  218.889
  329.000    6.949    0.476    0.304   68.251  219.212
  329.250    7.029    0.477    0.300   66.828  219.633
  329.500    7.083    0.476    0.299   66.183  219.955
  329.750    7.150    0.470    0.294   67.108  219.985
  330.000    7.207    0.462    0.288   66.875  220.008
  330.250    7.210    0.451    0.281   68.563  220.031
  330.500    7.252    0.441    0.279   70.252  220.059
  330.750    7.281    0.436    0.280   70.866  220.084
  331.000    7.269    0.437    0.281   70.521  220.104
  331.250    7.208    0.433    0.276   70.638  220.212
  331.500    7.155    0.429    0.263   71.151  220.657
  331.750    6.896    0.433    0.251   73.317  221.875
  332.000    6.572    0.435    0.242   73.869  222.793
  332.250    6.314    0.451    0.237   74.841  223.615
  332.500    6.190    0.473    0.234   76.829  224.338
  332.750    6.295    0.466    0.228   78.901  224.848
  333.000    6.597    0.454    0.221   78.416  225.285
  333.250    6.846    0.449    0.215   77.951  225.312
  333.500    7.066    0.445    0.213   77.307  225.633
  333.750    7.175    0.440    0.214   76.962  226.057
  334.000    7.124    0.436    0.214   77.695  226.382
  334.250    6.887    0.433    0.208   81.231  226.489
  334.500    6.732    0.429    0.195   84.486  226.929
  334.750    6.635    0.421    0.191   87.130  226.955
  335.000    6.613    0.415    0.188   86.009  226.381
  335.250    6.615    0.419    0.189   84.468  225.206
  335.500    6.617    0.428    0.190   84.003  223.433
  335.750    6.630    0.429    0.184   83.961  220.906
  336.000    6.684    0.425    0.183   82.479  220.102
  336.250    6.785    0.415    0.226   80.103  220.123
  336.500    7.002    0.400    0.255   78.621  220.146
  336.750    7.268    0.381    0.276   76.720  220.170
  337.000    7.531    0.363    0.283   74.701  220.094
  337.250    7.808    0.352    0.257   74.976  219.722
  337.500    8.056    0.373    0.221   77.484  219.752
  337.750    8.360    0.387    0.198   79.412  219.776
  338.000    8.772    0.394    0.164   79.906  219.799
  338.250    9.371    0.394    0.140   78.963  219.822
  338.500   10.291    0.387    0.148   75.387  219.744
  338.750   11.892    0.374    0.214   66.990  219.373
  339.000   12.461    0.364    0.238   68.002  219.396
  339.250   12.010    0.379    0.209   73.519  219.018
  339.500   11.123    0.408    0.192   76.524  219.242
  339.750   10.262    0.430    0.184   78.930  219.466
  340.000    9.667    0.439    0.183   81.098  219.488
  340.250    9.445    0.444    0.190   81.635  219.519
  340.500    9.375    0.445    0.194   80.651  219.544
  340.750    9.378    0.444    0.195   76.838  219.570
  341.000    9.381    0.436    0.195   74.638  220.189
  341.250    9.384    0.427    0.197   74.892  220.610
  341.500    9.369    0.425    0.204   77.119  220.735
  341.750    9.304    0.438    0.214   79.080  221.162
  342.000    9.307    0.445    0.218   76.852  221.184
  342.250    9.310    0.441    0.216   79.975  221.612
  342.500    9.313    0.434    0.212   83.817  222.032
  342.750    9.315    0.434    0.206   85.148  222.852
  343.000    9.301    0.440    0.199   84.027  223.873
  343.250    9.236    0.441    0.199   83.804  224.298
  343.500    9.239    0.434    0.208   83.818  224.320
  343.750    9.242    0.436    0.213   82.397  223.948
  344.000    9.348    0.443    0.214   80.616  223.870
  344.250    9.490    0.446    0.213   80.272  224.092
  344.500    9.617    0.442    0.211   80.764  224.416
  344.750    9.677    0.431    0.212   79.306  224.449
  345.000    9.606    0.422    0.215   80.318  224.468
  345.250    9.259    0.419    0.216   82.246  224.492
  345.500    9.178    0.420    0.216   84.353  223.622
  345.750    9.316    0.424    0.214   84.726  222.450
  346.000    9.684    0.425    0.212   82.707  221.075
  346.250   10.469    0.408    0.212   77.350  218.779
  346.500   11.055    0.385    0.218   69.639  217.140
  346.750   12.072    0.374    0.230   66.304  215.168
  347.000   12.980    0.363    0.255   64.226  213.201
  347.250   14.024    0.351    0.280   63.162  211.632
  347.500   15.206    0.341    0.298   62.577  210.658
  347.750   16.146    0.336    0.306   61.487  210.286
  348.000   16.788    0.314    0.319   60.756  210.313
  348.250   16.917    0.302    0.327   61.486  210.733
  348.500   16.116    0.298    0.316   61.859  210.559
  348.750   14.848    0.306    0.290   62.591  209.986
  349.000   13.581    0.324    0.257   64.400  209.311
  349.250   12.385    0.351    0.231   68.655  208.938
  349.500   11.306    0.372    0.235   71.910  208.963
  349.750   10.816    0.386    0.241   72.403  208.987
  350.000   10.546    0.396    0.254   70.974  207.199
  350.250   10.369    0.403    0.263   70.413  206.596
  350.500   10.255    0.406    0.262   70.947  208.177
  350.750   10.284    0.416    0.255   70.434  211.356
  351.000   10.440    0.426    0.247   71.423  213.415
  351.250   10.439    0.427    0.242   74.268  214.206
  351.500    9.929    0.417    0.231   74.802  214.701
  351.750    9.298    0.420    0.222   73.973  214.900
  352.000    8.727    0.435    0.219   73.322  215.000
  352.250    8.198    0.443    0.224   75.674  215.643
  352.500    8.013    0.425    0.230   79.132  216.879
  352.750    8.129    0.420    0.234   77.473  214.905
  353.000    8.336    0.429    0.226   75.992  214.412
  353.250    8.427    0.437    0.227   74.926  214.215
  353.500    8.350    0.437    0.240   74.749  213.822
  353.750    8.215    0.423    0.250   76.764  213.428
  354.000    8.152    0.423    0.237   79.729  213.429
  354.250    8.330    0.432    0.250   79.966  213.430
  354.500    8.239    0.444    0.264   78.070  213.431
  354.750    7.819    0.455    0.269   74.159  213.630
  355.000    7.317    0.464    0.266   69.597  214.322
  355.250    7.086    0.468    0.265   66.693  216.398
  355.500    6.978    0.455    0.275   65.212  218.869
  355.750    6.977    0.443    0.271   68.057  219.660
