~VERSION INFORMATION
 VERS.                 2.0:   CWLS LOG ASCII STANDARD -VERSION 2.0
 WRAP.                  NO:   ONE LINE PER DEPTH STEP
~WELL INFORMATION BLOCK
#MNEM.UNIT           DATA                    DESCRIPTION OF MNEMONIC
#---------    -------------------            -------------------------------
# Generated from Intellog Unique Number	CS_73_76/WELL/2912
WELL.         BRALORNE OIL TOWER             : Well_name    - WELL
LOC .         00/07-32-076-15W4/0            : Location     - LOCATION
UWI .         00/07-32-076-15W4/0            : Uwi          - UNIQUE WELL ID
ENTR.         SP                             : Entered      - ENTERED BY
SRVC.         SCHLUMBERGER                   : Scn          - SERVICE COMPANY
STRT.M        305                            : top_depth    - START DEPTH
STOP.M        545                            : bot_depth    - STOP DEPTH
STEP.M        0.25                           : increment    - STEP LENGTH
 NULL. -999.2500:NULL Value
~CURVE INFORMATION BLOCK
#MNEM UNIT       ERCB CURVE CODE    CURVE DESCRIPTION
#-----------   ------------------   ----------------------------------
DEPT.M        00 001 00 00         : DEPTH        - DEPTH
DPHI.V/V      00 890 00 00         : PHID         - DENSITY POROSITY (LIMESTONE)
NPHI.V/V      00 330 00 00         : PHIN         - NEUTRON POROSITY (LIMESTONE)
GR  .API      00 310 00 00         : GR           - GAMMA RAY
ILD .OHMM     00 120 00 00         : RESD         - DEEP RESISTIVITY (DIL)
~PARAMETER INFORMATION
#MNEM.UNIT           DATA             DESCRIPTION OF MNEMONIC
#---------         -----------     ------------------------------
GL  .M        679.7                : gl           - GROUND LEVEL ELEVATION
EREF.M        684                  : kb           - ELEVATION OF DEPTH REFERENCE
DATM.M        679.7                : datum        - DATUM ELEVATION
TDD .M        557                  : tdd          - TOTAL DEPTH DRILLER
RUN .         ONE                  : Run          - RUN NUMBER
ENG .         BILL                 : Engineer     - RECORDING ENGINEER
WIT .         JIM                  : Witness      - WITNESSED BY
MUD .         GEL                  : Mud_type     - MUD TYPE
MATR.         LIMESTONE            : Logunit      - NEUTRON MATRIX
TMAX.C        21                   : BHT          - MAXIMUM RECORDED TEMPERATURE
BHTD.M        557                  : BHTDEP       - MAXIMUM RECORDED TEMPERATURE
MATR.         1                    : LOGUNIT      - NEUTRON MATRIX
RMT .C        25                   : MDTP         - TEMPERATURE OF MUD
NEUT.         1                    : NEUTRON      - NEUTRON TYPE
RESI.         0                    : RESIST       - RESISTIVITY TYPE
RMC .OHMM     0.25                 : RMC          - RESISTIVITY OF MUD CAKE
RMF .OHMM     0.25                 : RMF          - RESISTIVITY OF MUD FILTRATE
SUFT.C        15                   : SUFT         - SURFACE TEMPERATURE
~A  DEPTH     PHID     PHIN       GR     RESD
# ...
  522.500    0.301    0.371   59.819    7.942
  522.750    0.310    0.371   61.638    7.653
  523.000    0.317    0.381   61.635    7.374
  523.250    0.306    0.395   63.452    7.375
  523.500    0.299    0.390   65.271    7.516
  523.750    0.304    0.380   68.304    7.659
  524.000    0.295    0.362   70.123    7.953
  524.250    0.282    0.354   74.370    7.954
  524.500    0.270    0.365   76.189    7.808
  524.750    0.260    0.377   81.043    7.665
  525.000    0.250    0.362   84.077    7.667
  525.250    0.233    0.357   87.717    7.813
  525.500    0.243    0.378   87.107    8.112
  525.750    0.240    0.393   88.317    8.743
  526.000    0.225    0.373   93.173    9.078
  526.250    0.209    0.353  101.671    9.425
  526.500    0.181    0.340  108.956    9.785
  526.750    0.155    0.339  117.454   10.546
  527.000    0.142    0.356  122.916   11.366
  527.250    0.119    0.364  127.164   12.250
  527.500    0.112    0.329  120.480   12.718
  527.750    0.138    0.309  109.546   13.454
  528.000    0.184    0.298  100.433   13.710
  528.250    0.216    0.362   97.393   13.713
  528.500    0.228    0.375   92.532   13.213
  528.750    0.255    0.376   86.456   12.264
  529.000    0.276    0.370   84.631   11.174
  529.250    0.258    0.353   84.020   10.767
  529.500    0.241    0.343   84.016   10.375
  529.750    0.237    0.343   83.407   10.185
  530.000    0.227    0.364   91.297   10.187
  530.250    0.219    0.365   99.795   10.189
  530.500    0.200    0.350  107.080   10.002
  530.750    0.169    0.340  116.792    9.819
  531.000    0.137    0.365  122.255    9.639
  531.250    0.158    0.406  124.074    9.641
  531.500    0.165    0.402  119.818    9.466
  531.750    0.133    0.391  117.387    9.646
  532.000    0.110    0.389  112.525    9.830
  532.250    0.127    0.374  110.093    9.831
  532.500    0.176    0.363  113.126    9.833
  532.750    0.160    0.357  115.552   10.210
  533.000    0.138    0.351  120.406   10.404
  533.250    0.159    0.364  118.581   10.602
  533.500    0.169    0.352  115.542   10.804
  533.750    0.163    0.350  111.287   11.429
  534.000    0.158    0.350  109.463   12.318
  534.250    0.141    0.342  115.532   12.553
  534.500    0.143    0.329  122.208   12.556
  534.750    0.156    0.334  124.634   12.557
  535.000    0.160    0.359  128.882   12.328
  535.250    0.151    0.379  127.663   12.331
  535.500    0.156    0.386  123.410   12.104
  535.750    0.151    0.367  122.192   11.664
  536.000    0.140    0.362  125.225   11.030
  536.250    0.157    0.384  122.792   10.432
  536.500    0.163    0.394  119.146    9.866
  536.750    0.142    0.399  118.535    9.867
  537.000    0.137    0.403  121.568   10.055
  537.250    0.145    0.412  122.779   10.638
  537.500    0.153    0.407  114.274   11.252
  537.750    0.159    0.390  104.554   11.903
  538.000    0.151    0.389   92.405   12.828
  538.250    0.131    0.400   82.079   13.319
  538.500    0.128    0.399   69.322   15.182
  538.750    0.112    0.378   54.744   18.998
  539.000    0.037    0.350   39.559   29.744
  539.250    0.000    0.261   23.767   42.417
  539.500    0.000    0.071   19.513   77.109
  539.750    0.000    0.156   17.080   91.237
  540.000    0.000    0.189   16.470  107.959
  540.250    0.020    0.221   15.858  100.204
  540.500    0.044    0.254   15.855   87.946
  540.750    0.040    0.261   15.852   75.761
  541.000    0.033    0.258   15.847   65.263
  541.250    0.068    0.249   15.846   57.280
  541.500    0.078    0.265   15.842   50.272
  541.750    0.079    0.268   16.445   41.719
  542.000    0.093    0.265   16.443   36.614
  542.250    0.113    0.261   16.439   33.358
  542.500    0.127    0.267   16.436   30.964
  542.750    0.135    0.268   16.432   28.741
  543.000    0.121    0.276   16.429   24.760
  543.250    0.115    0.285   16.425   22.557
  543.500    0.127    0.271   16.421   18.374
  543.750    0.149    0.284   16.419   17.703
  544.000    0.174    0.329   16.416   15.251
  544.250    0.202    0.380   16.413   15.253
  544.500    0.208    0.416   16.409   15.837
  544.750    0.183    0.422   16.406   16.443
  545.000    0.169    0.402   16.403   18.395
