~VERSION INFORMATION
 VERS.                 2.0:   CWLS LOG ASCII STANDARD -VERSION 2.0
 WRAP.                  NO:   ONE LINE PER DEPTH STEP
~WELL INFORMATION BLOCK
#MNEM.UNIT           DATA                    DESCRIPTION OF MNEMONIC
#---------    -------------------            -------------------------------
# Generated from Intellog Unique Number	CS_67_68/WELL/2164
WELL.         TOTAL ATMORE                   : Well_name    - WELL
LOC .         00/03-34-067-16W4/0            : Location     - LOCATION
UWI .         00/03-34-067-16W4/0            : Uwi          - UNIQUE WELL ID
ENTR.         SP                             : Entered      - ENTERED BY
SRVC.         SCHLUMBERGER                   : Scn          - SERVICE COMPANY
STRT.M        300                            : top_depth    - START DEPTH
STOP.M        462                            : bot_depth    - STOP DEPTH
STEP.M        0.25                           : increment    - STEP LENGTH
 NULL. -999.2500:NULL Value
~CURVE INFORMATION BLOCK
#MNEM UNIT       ERCB CURVE CODE    CURVE DESCRIPTION
#-----------   ------------------   ----------------------------------
DEPT.M        00 001 00 00         : DEPTH        - DEPTH
ILD .OHMM     00 120 00 00         : RESD         - DEEP RESISTIVITY (DIL)
DPHI.V/V      00 890 00 00         : PHID         - DENSITY POROSITY (LIMESTONE)
NPHI.V/V      00 330 00 00         : PHIN         - NEUTRON POROSITY (LIMESTONE)
GR  .API      00 310 00 00         : GR           - GAMMA RAY
CALI.MM       00 280 01 00         : CAL          - CALIPER
~PARAMETER INFORMATION
#MNEM.UNIT           DATA             DESCRIPTION OF MNEMONIC
#---------         -----------     ------------------------------
GL  .M        549.7                : gl           - GROUND LEVEL ELEVATION
EREF.M        553                  : kb           - ELEVATION OF DEPTH REFERENCE
DATM.M        553                  : datum        - DATUM ELEVATION
TDD .M        510                  : tdd          - TOTAL DEPTH DRILLER
RUN .         ONE                  : Run          - RUN NUMBER
ENG .         BILL                 : Engineer     - RECORDING ENGINEER
WIT .         JIM                  : Witness      - WITNESSED BY
MUD .         GEL                  : Mud_type     - MUD TYPE
MATR.         LIMESTONE            : Logunit      - NEUTRON MATRIX
TMAX.C        32                   : BHT          - MAXIMUM RECORDED TEMPERATURE
BHTD.M        509                  : BHTDEP       - MAXIMUM RECORDED TEMPERATURE
MATR.         1                    : LOGUNIT      - NEUTRON MATRIX
RMT .C        25                   : MDTP         - TEMPERATURE OF MUD
NEUT.         1                    : NEUTRON      - NEUTRON TYPE
RESI.         0                    : RESIST       - RESISTIVITY TYPE
RMC .OHMM     0.25                 : RMC          - RESISTIVITY OF MUD CAKE
RMF .OHMM     0.25                 : RMF          - RESISTIVITY OF MUD FILTRATE
SUFT.C        15                   : SUFT         - SURFACE TEMPERATURE
~A  DEPTH     RESD     PHID     PHIN       GR      CAL
# ...
  373.000    2.379    0.288    0.453   74.574  162.937
  373.250    2.257    0.283    0.440   70.946  162.999
  373.500    2.166    0.279    0.446   70.315  163.372
  373.750    2.086    0.279    0.460   70.414  163.534
  374.000    2.043    0.276    0.466   65.447  163.505
  374.250    2.013    0.270    0.447   64.023  163.780
  374.500    2.024    0.276    0.432   65.769  164.034
  374.750    2.062    0.282    0.427   64.283  163.798
  375.000    2.153    0.278    0.438   70.059  164.267
  375.250    2.232    0.258    0.441   76.199  165.553
  375.500    2.343    0.241    0.433   83.807  168.257
  375.750    2.442    0.230    0.474   87.137  173.002
  376.000    2.498    0.222    0.512   90.534  179.070
  376.250    2.503    0.242    0.535   96.063  183.705
  376.500    2.484    0.254    0.546   96.651  178.483
  376.750    2.410    0.267    0.554   83.570  173.872
  377.000    2.265    0.277    0.526   75.004  170.272
  377.250    2.133    0.289    0.461   69.676  166.679
  377.500    2.074    0.302    0.443   68.924  165.211
  377.750    2.054    0.281    0.435   73.535  164.471
  378.000    2.086    0.263    0.436   73.696  163.916
  378.250    2.194    0.251    0.442   70.926  163.475
  378.500    2.326    0.244    0.448   76.822  163.447
  378.750    2.493    0.253    0.459   81.682  163.505
  379.000    2.683    0.269    0.469   75.804  163.462
  379.250    2.947    0.285    0.459   71.939  163.425
  379.500    3.136    0.295    0.454   71.306  163.288
  379.750    3.330    0.296    0.422   70.241  163.451
  380.000    3.543    0.298    0.404   67.535  163.731
  380.250    3.707    0.298    0.401   64.158  163.789
  380.500    3.330    0.292    0.426   62.730  163.956
  380.750    2.817    0.295    0.446   65.885  163.722
  381.000    2.493    0.288    0.456   68.299  163.878
  381.250    2.304    0.285    0.447   70.293  163.636
  381.500    2.165    0.282    0.439   70.695  163.904
  381.750    2.153    0.285    0.433   71.042  163.679
  382.000    2.287    0.289    0.447   70.895  163.522
  382.250    2.502    0.280    0.461   69.349  163.490
  382.500    2.822    0.259    0.453   67.556  163.863
  382.750    3.177    0.228    0.439   65.947  164.024
  383.000    3.936    0.115    0.307   62.508  164.085
  383.250    4.904    0.043    0.207   58.341  164.660
  383.500    6.526    0.016    0.193   54.471  164.728
  383.750    7.861    0.003    0.188   52.187  165.093
  384.000    8.933    0.000    0.182   55.398  165.158
  384.250    9.685    0.000    0.177   53.791  164.920
  384.500    9.924    0.000    0.173   50.534  164.578
  384.750    9.522    0.000    0.176   48.440  164.336
  385.000    7.599    0.000    0.183   46.590  164.403
  385.250    5.963    0.000    0.182   44.735  164.367
  385.500    4.813    0.000    0.179   49.166  164.636
  385.750    4.389    0.021    0.215   58.112  164.604
  386.000    3.921    0.054    0.271   67.122  164.967
  386.250    3.563    0.107    0.316   75.581  164.926
  386.500    3.470    0.167    0.349   80.197  164.987
  386.750    3.305    0.201    0.376   82.066  164.757
  387.000    3.159    0.219    0.399   84.553  164.714
  387.250    3.171    0.220    0.403   87.333  164.878
  387.500    3.386    0.193    0.411   88.344  164.948
  387.750    3.543    0.180    0.427   86.125  164.807
  388.000    3.805    0.171    0.436   84.699  164.867
  388.250    4.141    0.166    0.428   86.270  164.726
  388.500    4.414    0.169    0.424   87.949  164.793
  388.750    4.661    0.172    0.414   84.695  164.958
  389.000    4.714    0.175    0.400   81.074  165.229
  389.250    4.776    0.183    0.417   79.587  165.594
  389.500    4.714    0.189    0.431   81.391  165.354
  389.750    4.583    0.194    0.440   84.300  165.523
  390.000    4.414    0.195    0.442   87.634  165.289
  390.250    4.283    0.193    0.441   87.854  165.242
  390.500    4.187    0.189    0.439   88.269  165.307
  390.750    4.164    0.184    0.438   88.846  164.864
  391.000    4.180    0.180    0.440   89.925  164.528
  391.250    4.179    0.177    0.449   91.308  164.482
  391.500    4.195    0.179    0.452   90.915  164.242
  391.750    4.211    0.183    0.443   89.367  164.210
  392.000    4.219    0.187    0.437   90.871  164.890
  392.250    4.219    0.179    0.430   93.840  165.761
  392.500    4.179    0.172    0.431   93.083  167.047
  392.750    4.148    0.167    0.448   90.680  168.332
  393.000    4.109    0.165    0.454   91.941  169.205
  393.250    4.010    0.169    0.445   91.614  169.783
  393.500    3.987    0.176    0.441   91.409  170.151
  393.750    3.884    0.183    0.445   93.277  170.121
  394.000    3.833    0.190    0.456   95.394  169.973
  394.250    3.699    0.183    0.469   97.382  169.429
  394.500    3.685    0.177    0.483   96.568  169.084
  394.750    3.657    0.177    0.496   95.079  168.959
  395.000    3.609    0.191    0.504   95.483  168.717
  395.250    3.609    0.198    0.431   96.439  168.682
  395.500    3.630    0.199    0.419   96.720  168.125
  395.750    3.783    0.172    0.410   96.699  167.483
  396.000    3.818    0.155    0.408   93.258  167.037
  396.250    3.942    0.140    0.412   88.903  166.793
  396.500    4.025    0.128    0.392   84.793  166.755
  396.750    3.972    0.122    0.370   81.657  166.826
  397.000    3.826    0.136    0.358   90.181  166.885
  397.250    3.754    0.157    0.434   94.977  166.743
  397.500    3.754    0.171    0.464   93.064  166.509
  397.750    3.776    0.170    0.451   90.480  166.463
  398.000    3.833    0.169    0.416   89.175  166.326
  398.250    3.935    0.167    0.402   91.779  166.899
  398.500    3.987    0.178    0.401   97.855  167.074
  398.750    3.994    0.183    0.407   95.100  166.627
  399.000    3.942    0.176    0.418   92.870  166.490
  399.250    3.869    0.173    0.415   89.916  166.554
  399.500    3.775    0.168    0.400   87.147  165.602
  399.750    3.629    0.173    0.402   90.726  165.253
  400.000    3.469    0.177    0.423   94.980  164.910
  400.250    3.316    0.183    0.444   96.539  164.573
  400.500    3.230    0.195    0.464   97.556  164.835
  400.750    3.176    0.207    0.482   93.993  165.306
  401.000    3.176    0.221    0.465   90.370  165.470
  401.250    3.224    0.231    0.456   88.093  165.131
  401.500    3.266    0.219    0.447   89.535  164.484
  401.750    3.304    0.212    0.461   89.388  163.532
  402.000    3.347    0.204    0.459   88.144  162.475
  402.250    3.372    0.198    0.470   85.137  161.825
  402.500    3.392    0.194    0.479   83.830  161.385
  402.750    3.398    0.194    0.464   86.125  160.743
  403.000    3.372    0.202    0.453   87.509  159.891
  403.250    3.303    0.214    0.448   87.728  158.931
  403.500    3.199    0.232    0.442   86.363  158.296
  403.750    3.111    0.248    0.432   82.622  158.359
  404.000    2.968    0.243    0.432   78.265  158.309
  404.250    2.758    0.247    0.410   74.460  158.477
  404.500    2.515    0.271    0.382   71.566  158.747
  404.750    2.329    0.291    0.368   67.278  159.221
  405.000    2.144    0.317    0.357   64.322  159.486
  405.250    1.937    0.351    0.420   61.129  159.757
  405.500    1.883    0.318    0.433   59.090  159.822
  405.750    1.865    0.310    0.442   57.237  160.198
  406.000    1.883    0.309    0.447   58.620  160.454
  406.250    2.000    0.307    0.457   63.973  160.736
  406.500    2.277    0.293    0.467   65.407  161.100
  406.750    2.568    0.235    0.450   61.303  161.263
  407.000    2.890    0.130    0.310   57.923  161.933
  407.250    3.029    0.122    0.286   55.399  162.411
  407.500    3.151    0.179    0.344   53.910  162.673
  407.750    3.007    0.237    0.399   52.482  163.043
  408.000    2.404    0.268    0.423   50.203  163.306
  408.250    2.053    0.286    0.424   49.327  163.581
  408.500    1.810    0.305    0.409   51.743  163.440
  408.750    1.740    0.300    0.399   52.026  163.604
  409.000    1.708    0.296    0.402   50.783  163.674
  409.250    1.688    0.294    0.407   50.764  163.636
