~VERSION INFORMATION
 VERS.                 2.0:   CWLS LOG ASCII STANDARD -VERSION 2.0
 WRAP.                  NO:   ONE LINE PER DEPTH STEP
~WELL INFORMATION BLOCK
#MNEM.UNIT           DATA                    DESCRIPTION OF MNEMONIC
#---------    -------------------            -------------------------------
# Generated from Intellog Unique Number	CW_70_72/WELL/928
NULL.         -999.25                        : NULL_VALUE
WELL.         SUNDANCE MCMORAN SMITH 07-30   : Well_name    - WELL              
LOC .         07-30-072-24W4                 : Location     - LOCATION          
UWI .         00/07-30-072-24W4/0            : Uwi          - UNIQUE WELL ID    
ENTR.         JAYE                           : Entered      - ENTERED BY        
SRVC.         SCHLUMBERGER                   : Scn          - SERVICE COMPANY   
DATE.         17 JAN 75                      : Date         - LOG DATE          
STRT.M        411.48                         : top_depth    - START DEPTH       
STOP.M        624.73                         : bot_depth    - STOP DEPTH        
STEP.M        0.25                           : increment    - STEP LENGTH       
~CURVE INFORMATION BLOCK
#MNEM UNIT       ERCB CURVE CODE    CURVE DESCRIPTION
#-----------   ------------------   ----------------------------------
DEPT.M        00 001 00 00         : DEPTH        - DEPTH                       
DPHI.V/V      00 890 00 00         : PHID         - DENSITY POROSITY (SANDSTONE)
NPHI.V/V      00 330 00 00         : PHIN         - NEUTRON POROSITY (SANDSTONE)
GR  .API      00 310 00 00         : GR           - GAMMA RAY                   
CALI.MM       00 280 01 00         : CAL          - CALIPER                     
ILD .OHMM     00 120 00 00         : RESD         - DEEP RESISTIVITY (DIL)      
~PARAMETER INFORMATION       
#MNEM.UNIT           DATA             DESCRIPTION OF MNEMONIC
#---------         -----------     ------------------------------
GL  .M        633.984              : gl           - GROUND LEVEL ELEVATION      
EREF.M        642.518              : kb           - ELEVATION OF DEPTH REFERENCE
DATM.M        633.984              : datum        - DATUM ELEVATION             
TDD .M        624.84               : tdd          - TOTAL DEPTH DRILLER         
RUN .         ONE                  : Run          - RUN NUMBER                  
ENG .         JENSEN               : Engineer     - RECORDING ENGINEER          
WIT .         COPLAND/RUDD         : Witness      - WITNESSED BY                
BASE.         EDM                  : Branch       - HOME BASE OF LOGGING UNIT   
MUD .         GEL CHEM             : Mud_type     - MUD TYPE                    
MATR.         SANDSTONE            : Logunit      - NEUTRON MATRIX              
TMAX.C        25.5556              : BHT          - MAXIMUM RECORDED TEMPERATURE
BHTD.M        624.84               : BHTDEP       - MAXIMUM RECORDED TEMPERATURE
RMT .C        15.5556              : MDTP         - TEMPERATURE OF MUD          
MUDD.KG/M     1104                 : MWT          - MUD DENSITY                 
NEUT.         1                    : NEUTRON      - NEUTRON TYPE                
RESI.         0                    : RESIST       - RESISTIVITY TYPE            
RM  .OHMM     7.26                 : RM           - RESISTIVITY OF MUD          
RMC .OHMM     0                    : RMC          - RESISTIVITY OF MUD CAKE     
RMF .OHMM     8.24                 : RMF          - RESISTIVITY OF MUD FILTRATE 
SUFT.C        0                    : SUFT         - SURFACE TEMPERATURE         
~A  DEPTH     PHID     PHIN       GR      CAL     RESD
# ...
  557.480    0.178    0.321   81.906  183.913   17.663
  557.730    0.164    0.319   80.570  183.953   16.440
  557.980    0.156    0.323   81.340  183.991   15.472
  558.230    0.127    0.326   83.775  184.027   13.931
  558.480    0.066    0.301   87.818  183.647   12.613
  558.730    0.006    0.229   80.730  182.962   11.128
  558.980   -0.007    0.273   70.302  182.266    9.964
  559.230    0.063    0.303   75.647  181.995    9.517
  559.480    0.097    0.333   81.919  182.036    9.242
  559.730    0.131    0.354   86.089  182.082    9.158
  559.980    0.105    0.363   88.833  182.222    9.160
  560.230    0.076    0.345   82.918  182.478    9.144
  560.480    0.079    0.348   81.585  182.731    8.863
  560.730    0.130    0.366   87.297  182.872    7.893
  560.980    0.108    0.340   87.878  182.921    5.998
  561.230    0.112    0.359   86.980  182.854    4.483
  561.480    0.153    0.365   87.433  182.996    3.289
  561.730    0.166    0.363   88.138  182.722    2.570
  561.980    0.160    0.361   88.224  182.454    1.851
  562.230    0.153    0.349   90.352  182.499    1.214
  562.480    0.106    0.333   86.789  182.537    0.952
  562.730    0.076    0.304   84.154  182.579    0.894
  562.980    0.093    0.301   80.777  182.517    0.898
  563.230    0.138    0.333   82.782  182.451    0.943
  563.480    0.120    0.319   85.032  182.704    1.102
  563.730    0.065    0.291   81.965  182.642    1.578
  563.980    0.040    0.285   81.622  182.580    4.392
  564.230    0.131    0.314   84.179  182.419    7.042
  564.480    0.127    0.334   86.862  182.139    8.268
  564.730    0.138    0.338   87.878  182.077    9.185
  564.980    0.132    0.347   89.571  182.115    9.872
  565.230    0.135    0.338   91.328  182.259   10.473
  565.480    0.137    0.328   89.620  182.520   10.572
  565.730    0.126    0.315   85.811  182.667   10.457
  565.980    0.106    0.314   86.024  182.699   10.080
  566.230    0.093    0.317   87.469  182.739    9.627
  566.480    0.086    0.318   89.534  182.574    9.144
  566.730    0.075    0.318   91.787  182.409    8.912
  566.980    0.061    0.321   94.285  182.236    8.799
  567.230    0.078    0.320   95.544  181.873    8.899
  567.480    0.096    0.311   95.137  181.799    9.183
  567.730    0.109    0.289   87.988  182.059    9.494
  567.980    0.119    0.291   84.610  182.624    9.744
  568.230    0.129    0.317   85.873  183.079    9.764
  568.480    0.140    0.308   86.825  183.534    9.411
  568.730    0.147    0.315   90.125  184.421    8.107
  568.980    0.139    0.320   91.079  184.770    6.511
  569.230    0.149    0.325   91.845  185.649    4.840
  569.480    0.157    0.335   94.096  186.632    3.887
  569.730    0.136    0.413   96.844  189.717    3.373
  569.980    0.164    0.478   98.908  192.685    2.976
  570.230    0.176    0.458   99.921  186.757    2.806
  570.480    0.140    0.440   98.524  185.661    2.827
  570.730    0.139    0.437  100.158  186.318    3.067
  570.980    0.160    0.446  102.779  188.244    3.363
  571.230    0.176    0.457  104.969  189.438    3.785
  571.480    0.167    0.466  109.323  186.451    4.128
  571.730    0.128    0.447  113.366  185.124    4.741
  571.980    0.096    0.402  107.394  183.813    5.161
  572.230    0.097    0.347  102.037  183.320    5.486
  572.480    0.097    0.335   95.816  183.154    5.578
  572.730    0.080    0.340   92.065  183.404    5.569
  572.980    0.111    0.348   94.750  183.766    5.570
  573.230    0.139    0.361   99.722  183.910    5.591
  573.480    0.098    0.367  101.664  183.845    5.802
  573.730    0.101    0.356  100.021  184.306    6.167
  573.980    0.094    0.361   96.086  184.141    6.664
  574.230    0.059    0.340   91.656  183.976    7.149
  574.480    0.028    0.310   85.619  183.698    7.323
  574.730   -0.008    0.293   77.047  183.422    7.059
  574.980    0.062    0.314   80.107  182.837    6.868
  575.230    0.089    0.375   84.827  183.199    6.844
  575.480    0.107    0.370   89.182  182.713    6.832
  575.730    0.120    0.368   86.732  182.028    6.833
  575.980    0.129    0.362   83.478  181.331    6.872
  576.230    0.141    0.358   82.391  181.054    6.949
  576.480    0.155    0.364   84.460  181.411    7.145
  576.730    0.125    0.357   87.263  181.976    7.469
  576.980    0.117    0.347   90.197  182.332    8.117
  577.230    0.142    0.285   85.395  184.364    9.495
  577.480    0.166    0.242   75.771  184.614   14.194
  577.730    0.201    0.220   64.172  178.792   21.493
  577.980    0.242    0.204   58.070  176.319   28.448
  578.230    0.282    0.191   45.975  176.047   35.042
  578.480    0.312    0.178   46.245  176.093   36.972
  578.730    0.323    0.190   43.363  176.653   33.228
  578.980    0.308    0.270   38.318  177.229   29.644
  579.230    0.299    0.290   34.444  177.591   26.740
  579.480    0.288    0.308   31.870  177.515   23.376
  579.730    0.271    0.325   31.528  177.978   20.625
  579.980    0.283    0.332   31.610  179.485   17.474
  580.230    0.288    0.330   31.760  180.471   15.361
  580.480    0.279    0.323   31.665  181.242   13.780
  580.730    0.271    0.323   31.875  181.806   12.362
  580.980    0.277    0.321   31.833  182.583   10.947
  581.230    0.275    0.318   31.797  182.942    9.748
  581.480    0.268    0.314   31.759  183.293    8.681
  581.730    0.265    0.318   32.154  183.860    7.773
  581.980    0.260    0.309   32.677  183.795    7.011
  582.230    0.254    0.298   33.626  182.997    6.118
  582.480    0.247    0.306   35.818  180.212    5.408
  582.730    0.248    0.313   37.698  178.161    4.905
  582.980    0.252    0.303   37.227  177.049    4.312
  583.230    0.246    0.303   36.383  176.252    3.805
  583.480    0.248    0.317   35.113  175.877    3.438
  583.730    0.265    0.319   34.085  175.923    3.327
  583.980    0.275    0.313   33.427  175.959    3.303
  584.230    0.271    0.310   33.081  175.794    3.328
  584.480    0.266    0.313   33.725  175.833    3.371
  584.730    0.262    0.315   34.985  175.874    3.441
  584.980    0.259    0.321   36.185  176.126    3.531
  585.230    0.259    0.320   36.518  175.961    3.644
  585.480    0.257    0.317   37.103  175.690    3.754
  585.730    0.255    0.310   37.619  175.725    3.881
  585.980    0.249    0.306   38.021  175.562    4.043
  586.230    0.243    0.301   38.536  175.497    4.164
  586.480    0.242    0.306   39.800  175.748    4.305
  586.730    0.236    0.308   40.811  175.788    4.418
  586.980    0.220    0.307   42.505  175.727    4.510
  587.230    0.230    0.303   43.832  175.457    4.628
  587.480    0.217    0.298   45.153  175.399    4.759
  587.730    0.200    0.304   46.413  175.431    4.920
  587.980    0.187    0.302   47.984  175.474    5.249
  588.230    0.205    0.297   49.433  175.516    5.641
  588.480    0.204    0.299   50.821  175.980    6.141
  588.730    0.205    0.302   51.954  176.018    6.822
  588.980    0.208    0.293   53.773  175.958    7.510
  589.230    0.191    0.289   56.149  175.682    7.793
  589.480    0.177    0.276   58.276  175.203    8.057
  589.730    0.154    0.276   60.404  174.928    7.597
  589.980    0.184    0.284   59.498  174.770    6.967
  590.230    0.183    0.293   58.224  174.702    6.593
  590.480    0.178    0.300   59.054  174.742    6.438
  590.730    0.193    0.308   60.315  174.888    6.415
  590.980    0.183    0.314   62.752  175.144    6.369
  591.230    0.174    0.316   63.890  175.390    6.465
  591.480    0.154    0.314   65.524  175.741    6.635
  591.730    0.155    0.304   65.980  176.729    6.961
  591.980    0.146    0.294   66.994  178.027    7.426
  592.230    0.133    0.294   68.626  178.903    8.011
  592.480    0.146    0.290   71.189  179.789    8.625
  592.730    0.158    0.283   75.355  180.138    8.950
  592.980    0.144    0.293   79.710  180.494    8.985
  593.230    0.131    0.293   83.939  181.173    8.970
  593.480    0.127    0.287   87.366  181.415    8.807
  593.730    0.123    0.295   89.122  181.459    8.743
