~VERSION INFORMATION
 VERS.                 2.0:   CWLS LOG ASCII STANDARD -VERSION 2.0
 WRAP.                  NO:   ONE LINE PER DEPTH STEP
~WELL INFORMATION BLOCK
#MNEM.UNIT           DATA                    DESCRIPTION OF MNEMONIC
#---------    -------------------            -------------------------------
# Generated from Intellog Unique Number	CW_82_90/WELL/3415
WELL.         CDN SUP SIMON                  : Well_name    - WELL
LOC .         00/03-34-088-20W4/0            : Location     - LOCATION
UWI .         00/03-34-088-20W4/0            : Uwi          - UNIQUE WELL ID
ENTR.         MAX                            : Entered      - ENTERED BY
SRVC.         SCHLUMBERGER                   : Scn          - SERVICE COMPANY
STRT.M        60.96                          : top_depth    - START DEPTH
STOP.M        237.71                         : bot_depth    - STOP DEPTH
STEP.M        0.25                           : increment    - STEP LENGTH
 NULL. -999.2500:NULL Value
~CURVE INFORMATION BLOCK
#MNEM UNIT       ERCB CURVE CODE    CURVE DESCRIPTION
#-----------   ------------------   ----------------------------------
DEPT.M        00 001 00 00         : DEPTH        - DEPTH
GR  .API      00 310 00 00         : GR           - GAMMA RAY
CALI.MM       00 280 01 00         : CAL          - CALIPER
DPHI.V/V      00 890 00 00         : PHID         - DENSITY POROSITY (SANDSTONE)
NPHI.V/V      00 330 00 00         : PHIN         - NEUTRON POROSITY (SANDSTONE)
ILD .OHMM     00 120 00 00         : RESD         - DEEP RESISTIVITY (DIL)
~PARAMETER INFORMATION
#MNEM.UNIT           DATA             DESCRIPTION OF MNEMONIC
#---------         -----------     ------------------------------
GL  .M        517.55               : gl           - GROUND LEVEL ELEVATION
EREF.M        521.513              : kb           - ELEVATION OF DEPTH REFERENCE
DATM.M        517.55               : datum        - DATUM ELEVATION
TDD .M        259.08               : tdd          - TOTAL DEPTH DRILLER
RUN .         ONE                  : Run          - RUN NUMBER
ENG .         BILL                 : Engineer     - RECORDING ENGINEER
WIT .         JIM                  : Witness      - WITNESSED BY
MUD .         GEL                  : Mud_type     - MUD TYPE
MATR.         SANDSTONE            : Logunit      - NEUTRON MATRIX
TMAX.C        24.4444              : BHT          - MAXIMUM RECORDED TEMPERATURE
BHTD.M        259.08               : BHTDEP       - MAXIMUM RECORDED TEMPERATURE
MATR.         1                    : LOGUNIT      - NEUTRON MATRIX
RMT .C        20                   : MDTP         - TEMPERATURE OF MUD
NEUT.         1                    : NEUTRON      - NEUTRON TYPE
RESI.         0                    : RESIST       - RESISTIVITY TYPE
RMC .OHMM     4.3                  : RMC          - RESISTIVITY OF MUD CAKE
RMF .OHMM     4.67                 : RMF          - RESISTIVITY OF MUD FILTRATE
SUFT.C        -20.5556             : SUFT         - SURFACE TEMPERATURE
~A  DEPTH       GR      CAL     PHID     PHIN     RESD
# ...
   97.460   84.772  239.116    0.246    0.499    9.438
   97.710   81.536  250.102    0.241    0.518    9.530
   97.960   79.185  247.617    0.248    0.519    9.537
   98.210   77.423  241.640    0.230    0.496    9.545
   98.460   76.839  245.640    0.205    0.480    9.814
   98.710   76.550  253.631    0.169    0.496   10.182
   98.960   76.555  255.636    0.300    0.521   10.955
   99.210   76.266  255.146    0.358    0.524   11.784
   99.460   74.504  230.711    0.352    0.486   13.026
   99.710   69.796  221.242    0.308    0.471   13.886
   99.960   65.676  221.250    0.278    0.460   14.022
  100.210   64.799  223.257    0.251    0.468   13.908
  100.460   65.394  222.267    0.235    0.477   13.546
  100.710   67.166  221.777    0.244    0.496   12.727
  100.960   73.949  220.790    0.287    0.502   11.956
  101.210   73.659  220.798    0.290    0.514   11.030
  101.460   74.254  220.310    0.312    0.525   10.552
  101.710   79.267  220.319    0.309    0.513   10.095
  101.960   83.398  220.327    0.302    0.514    9.831
  102.210   85.760  220.338    0.289    0.498    9.406
  102.460   86.355  220.844    0.278    0.490    9.161
  102.710   85.478  220.857    0.269    0.482    9.086
  102.960   85.188  220.364    0.274    0.487    9.175
  103.210   84.604  220.376    0.265    0.491    9.349
  103.460   84.020  220.383    0.251    0.495    9.790
  103.710   80.491  220.892    0.253    0.500   10.156
  103.960   78.140  221.902    0.265    0.488   10.541
  104.210   75.493  222.407    0.231    0.480   10.836
  104.460   72.257  224.411    0.202    0.467   11.554
  104.710   64.308  227.414    0.210    0.457   12.427
  104.960   50.172  231.913    0.286    0.443   14.113
  105.210   39.572  235.416    0.290    0.431   15.883
  105.460   38.399  232.931    0.295    0.416   18.533
  105.710   38.698  246.410    0.321    0.418   22.019
  105.960   36.937  253.902    0.356    0.424   27.367
  106.210   35.174  263.390    0.358    0.437   30.253
  106.460   35.770  264.398    0.356    0.431   30.827
  106.710   37.248  262.912    0.350    0.434   30.849
  106.960   39.905  262.421    0.345    0.441   30.595
  107.210   41.679  262.431    0.343    0.445   30.069
  107.460   41.095  263.437    0.345    0.449   30.367
  107.710   40.511  263.948    0.348    0.431   30.668
  107.960   41.990  263.457    0.354    0.422   30.972
  108.210   44.647  265.461    0.362    0.415   30.995
  108.460   47.009  269.960    0.372    0.410   31.015
  108.710   48.193  276.953    0.363    0.408   30.767
  108.960   47.608  263.493    0.355    0.411   30.508
  109.210   46.730  269.988    0.346    0.417   29.990
  109.460   47.620  278.977    0.342    0.422   30.012
  109.710   48.215  288.966    0.351    0.428   31.993
  109.960   48.220  280.492    0.335    0.435   35.042
  110.210   46.458  248.073    0.311    0.438   40.522
  110.460   45.285  229.626    0.292    0.394   46.433
  110.710   45.290  228.137    0.262    0.322   51.329
  110.960   47.653  228.147    0.194    0.235   53.256
  111.210   50.016  230.650    0.101    0.210   51.405
  111.460   50.610  233.655    0.165    0.275   41.048
  111.710   51.500  236.159    0.222    0.375   36.204
  111.960   53.273  237.662    0.295    0.415   31.926
  112.210   53.868  238.671    0.365    0.436   28.674
  112.460   52.990  239.677    0.363    0.433   28.185
  112.710   52.700  242.180    0.358    0.430   28.200
  112.960   51.527  244.685    0.347    0.434   28.480
  113.210   50.059  247.189    0.350    0.442   28.503
  113.460   48.297  249.694    0.347    0.447   28.527
  113.710   47.420  253.195    0.362    0.446   28.551
  113.960   46.836  256.196    0.361    0.442   28.828
  114.210   47.431  260.198    0.370    0.427   28.855
  114.460   47.141  263.698    0.362    0.432   28.871
  114.710   46.558  268.698    0.362    0.440   28.638
  114.960   47.448  273.197    0.375    0.450   28.938
  115.210   49.220  277.198    0.380    0.458   29.206
  115.460   50.404  280.698    0.372    0.455   28.962
  115.710   50.409  283.201    0.375    0.453   28.983
  115.960   48.647  286.705    0.375    0.462   28.491
  116.210   48.064  289.707    0.364    0.474   28.004
  116.460   48.069  292.710    0.355    0.469   27.776
  116.710   48.075  294.215    0.374    0.462   27.541
  116.960   47.491  295.223    0.385    0.454   27.567
  117.210   46.907  296.729    0.366    0.452   27.339
  117.460   47.502  301.227    0.364    0.461   27.111
  117.710   48.391  308.721    0.363    0.468   27.139
  117.960   48.986  297.255    0.377    0.476   26.910
  118.210   49.286  287.286    0.371    0.471   26.692
  118.460   49.881  285.800    0.359    0.467   26.472
  118.710   51.066  287.307    0.345    0.465   26.253
  118.960   51.955  294.298    0.333    0.465   26.273
  119.210   51.664  304.785    0.322    0.462   26.058
  119.460   49.904  281.845    0.313    0.455   25.611
  119.710   48.435  283.351    0.388    0.453   25.176
  119.960   47.263  281.365    0.391    0.455   24.963
  120.210   48.153  282.371    0.375    0.468   24.760
  120.460   48.157  291.861    0.369    0.484   24.560
  120.710   48.163  292.867    0.362    0.481   24.357
  120.960   49.053  286.890    0.355    0.468   24.156
  121.210   50.531  278.917    0.376    0.462   23.954
  121.460   52.894  274.436    0.373    0.465   23.761
  121.710   54.077  269.457    0.361    0.479   23.563
  121.960   54.967  263.979    0.353    0.497   23.162
  122.210   55.266  257.003    0.363    0.526   22.969
  122.460   56.157  249.031    0.362    0.531   22.575
  122.710   57.930  242.055    0.356    0.505   21.792
  122.960   59.702  237.075    0.348    0.483   19.746
  123.210   64.422  233.096    0.344    0.470   16.496
  123.460   73.560  231.607    0.336    0.469   12.255
  123.710   82.994  230.620    0.316    0.470    9.271
  123.960   90.364  230.630    0.298    0.472    8.030
  124.210   96.852  230.637    0.274    0.475    6.769
  124.460  102.160  230.147    0.222    0.479    5.309
  124.710  107.175  230.156    0.189    0.487    4.682
  124.960  112.483  229.669    0.166    0.499    4.359
  125.210  116.908  229.676    0.227    0.504    4.284
  125.460  121.333  229.189    0.243    0.507    4.250
  125.710  121.339  229.196    0.243    0.511    4.252
  125.960  120.165  229.705    0.246    0.517    4.256
  126.210  117.814  230.213    0.267    0.533    4.259
  126.460  114.873  229.725    0.262    0.531    4.301
  126.710  111.639  229.732    0.248    0.521    4.344
  126.960  111.350  230.241    0.236    0.537    4.347
  127.210  113.123  230.749    0.228    0.542    4.391
  127.460  113.422  230.761    0.231    0.531    4.393
  127.710  112.544  230.769    0.237    0.520    4.436
  127.960  113.139  230.778    0.243    0.504    4.521
  128.210  114.618  230.788    0.247    0.498    4.525
  128.460  116.097  230.795    0.251    0.503    4.447
  128.710  117.869  230.805    0.257    0.518    4.331
  128.960  119.937  230.317    0.263    0.531    4.181
  129.210  120.238  230.324    0.261    0.533    4.109
  129.460  119.064  229.835    0.258    0.529    4.113
  129.710  118.776  229.847    0.253    0.528    4.116
  129.960  118.486  230.352    0.248    0.543    4.119
  130.210  118.196  230.362    0.245    0.554    4.123
  130.460  117.613  230.870    0.245    0.557    4.126
  130.710  117.029  230.381    0.247    0.549    4.128
  130.960  114.972  230.390    0.252    0.544    4.132
  131.210  113.505  230.400    0.256    0.550    4.135
  131.460  113.216  230.409    0.259    0.541    4.139
  131.710  113.517  230.420    0.261    0.534    4.142
  131.960  112.048  230.429    0.263    0.532    4.220
  132.210  107.929  229.939    0.266    0.529    4.301
  132.460  105.872  229.449    0.261    0.528    4.343
  132.710  105.878  229.957    0.253    0.531    4.385
  132.960  100.874  229.467    0.248    0.533    4.469
  133.210   97.346  229.477    0.250    0.533    4.596
  133.460   96.172  228.987    0.255    0.529    4.725
  133.710   95.000  229.995    0.260    0.523    4.903
