~VERSION INFORMATION
 VERS.                 2.0:   CWLS LOG ASCII STANDARD -VERSION 2.0
 WRAP.                  NO:   ONE LINE PER DEPTH STEP
~WELL INFORMATION BLOCK
#MNEM.UNIT           DATA                    DESCRIPTION OF MNEMONIC
#---------    -------------------            -------------------------------
# Generated from Intellog Unique Number	CS_77_79/WELL/2969
WELL.         MESA PET                       : Well_name    - WELL
LOC .         00/06-31-078-10W4/0            : Location     - LOCATION
UWI .         00/06-31-078-10W4/0            : Uwi          - UNIQUE WELL ID
ENTR.         TIM                            : Entered      - ENTERED BY
SRVC.         SCHLUMBERGER                   : Scn          - SERVICE COMPANY
STRT.F        840                            : top_depth    - START DEPTH
STOP.F        1569.99                        : bot_depth    - STOP DEPTH
STEP.F        0.82                           : increment    - STEP LENGTH
 NULL. -999.2500:NULL Value
~CURVE INFORMATION BLOCK
#MNEM UNIT       ERCB CURVE CODE    CURVE DESCRIPTION
#-----------   ------------------   ----------------------------------
DEPT.F        00 001 00 00         : DEPTH        - DEPTH
GR  .API      00 310 00 00         : GR           - GAMMA RAY
NPHI.V/V      00 330 00 00         : PHIN         - NEUTRON POROSITY (SANDSTONE)
DPHI.V/V      00 890 00 00         : PHID         - DENSITY POROSITY (SANDSTONE)
ILD .OHMM     00 120 00 00         : RESD         - DEEP RESISTIVITY (DIL)
~PARAMETER INFORMATION
#MNEM.UNIT           DATA             DESCRIPTION OF MNEMONIC
#---------         -----------     ------------------------------
GL  .F        2128                 : gl           - GROUND LEVEL ELEVATION
EREF.F        2143                 : kb           - ELEVATION OF DEPTH REFERENCE
DATM.F        2143                 : datum        - DATUM ELEVATION
TDD .F        1610                 : tdd          - TOTAL DEPTH DRILLER
RUN .         ONE                  : Run          - RUN NUMBER
ENG .         BILL                 : Engineer     - RECORDING ENGINEER
WIT .         JIM                  : Witness      - WITNESSED BY
MUD .         GEL                  : Mud_type     - MUD TYPE
MATR.         SANDSTONE            : Logunit      - NEUTRON MATRIX
TMAX.F        71                   : BHT          - MAXIMUM RECORDED TEMPERATURE
BHTD.F        1610                 : BHTDEP       - MAXIMUM RECORDED TEMPERATURE
MATR.         1                    : LOGUNIT      - NEUTRON MATRIX
RMT .F        57                   : MDTP         - TEMPERATURE OF MUD
NEUT.         1                    : NEUTRON      - NEUTRON TYPE
RESI.         4.9                  : RESIST       - RESISTIVITY TYPE
RMC .OHMM     4.27                 : RMC          - RESISTIVITY OF MUD CAKE
RMF .OHMM     4.27                 : RMF          - RESISTIVITY OF MUD FILTRATE
SUFT.F        59                   : SUFT         - SURFACE TEMPERATURE
~A  DEPTH       GR     PHIN     PHID     RESD
# ...
 1410.870  109.769    0.383    0.191   13.261
 1411.690  112.677    0.392    0.187   11.846
 1412.510  113.824    0.399    0.184   10.783
 1413.330  112.622    0.407    0.179    9.999
 1414.150  110.231    0.408    0.175    9.621
 1414.970  106.681    0.403    0.177    9.602
 1415.790   99.614    0.396    0.187    9.947
 1416.610   73.742    0.385    0.209   10.693
 1417.430   64.907    0.376    0.233   12.380
 1418.250   67.815    0.322    0.248   15.427
 1419.070   71.898    0.334    0.270   18.188
 1419.890   73.618    0.381    0.273   18.842
 1420.710   73.591    0.374    0.266   18.812
 1421.530   73.563    0.367    0.262   18.438
 1422.350   74.116    0.353    0.256   17.727
 1423.170   74.088    0.353    0.229   17.056
 1423.990   74.074    0.360    0.222   16.104
 1424.810   74.620    0.360    0.214   15.502
 1425.630   75.774    0.358    0.203   14.106
 1426.450   80.444    0.360    0.189   13.572
 1427.270   86.288    0.372    0.185   13.303
 1428.090   85.079    0.395    0.189   13.038
 1428.910   84.471    0.402    0.190   13.260
 1429.730   82.682    0.395    0.190   13.239
 1430.550   79.124    0.381    0.191   13.212
 1431.370   82.613    0.381    0.196   13.185
 1432.190   84.941    0.386    0.205   13.170
 1433.010   81.383    0.392    0.201   13.148
 1433.830   76.665    0.393    0.189   13.127
 1434.650   68.997    0.393    0.193   13.111
 1435.470   63.685    0.374    0.200   13.334
 1436.290   58.372    0.370    0.210   14.316
 1437.110   54.821    0.362    0.236   14.843
 1437.930   54.787    0.350    0.260   15.956
 1438.750   67.678    0.350    0.248   17.790
 1439.570   72.935    0.366    0.226   19.487
 1440.390   74.082    0.373    0.213   21.727
 1441.210   74.634    0.385    0.217   22.097
 1442.030   75.788    0.385    0.240   20.855
 1442.850   79.270    0.386    0.240   19.708
 1443.670   80.430    0.390    0.234   18.275
 1444.490   84.506    0.393    0.228   16.636
 1445.310   86.834    0.395    0.220   15.420
 1446.140   92.071    0.402    0.213   15.408
 1446.960   94.406    0.412    0.208   15.095
 1447.780   95.553    0.426    0.211   15.071
 1448.600   89.066    0.433    0.214   16.188
 1449.420   84.341    0.439    0.216   16.469
 1450.240   79.021    0.426    0.221   17.069
 1451.060   76.058    0.400    0.225   18.348
 1451.880   73.681    0.394    0.224   20.465
 1452.700   68.956    0.404    0.218   22.400
 1453.520   65.398    0.409    0.226   23.215
 1454.340   66.545    0.403    0.246   24.021
 1455.160   68.279    0.395    0.258   23.992
 1455.980   67.657    0.394    0.256   23.944
 1456.800   66.448    0.400    0.247   23.915
 1457.620   65.253    0.404    0.243   23.430
 1458.440   64.051    0.402    0.241   23.402
 1459.260   63.437    0.393    0.249   23.373
 1460.080   63.982    0.395    0.252   23.752
 1460.900   63.962    0.396    0.242   24.146
 1461.720   64.521    0.401    0.227   24.127
 1462.540   65.661    0.405    0.231   24.088
 1463.360   66.815    0.403    0.235   23.168
 1464.180   68.542    0.398    0.229   21.884
 1465.000   71.457    0.394    0.223   20.663
 1465.820   76.714    0.392    0.217   20.260
 1466.640   79.616    0.396    0.210   19.494
 1467.460   67.844    0.400    0.205   18.749
 1468.280   65.468    0.404    0.213   18.727
 1469.100   67.195    0.396    0.217   18.674
 1469.920   70.103    0.396    0.222   19.007
 1470.740   73.599    0.409    0.229   20.423
 1471.560   77.101    0.407    0.234   21.157
 1472.380   78.248    0.401    0.225   21.132
 1473.200   75.858    0.395    0.217   19.945
 1474.020   75.243    0.387    0.212   19.556
 1474.840   74.621    0.396    0.206   18.817
 1475.660   74.608    0.418    0.208   18.442
 1476.480   76.342    0.429    0.209   18.398
 1477.300   80.418    0.420    0.209   18.376
 1478.120   80.970    0.414    0.209   18.681
 1478.940   79.782    0.405    0.209   18.666
 1479.760   76.224    0.396    0.217   18.280
 1480.580   73.254    0.402    0.228   18.258
 1481.400   71.465    0.398    0.232   17.888
 1482.220   71.437    0.387    0.228   17.532
 1483.040   72.591    0.389    0.226   17.504
 1483.860   74.311    0.395    0.220   17.483
 1484.690   74.864    0.396    0.215   17.448
 1485.510   74.843    0.396    0.212   17.094
 1486.330   74.235    0.394    0.209   17.067
 1487.150   73.613    0.393    0.208   17.674
 1487.970   72.418    0.394    0.207   18.324
 1488.790   67.092    0.394    0.207   20.064
 1489.610   61.780    0.389    0.208   24.096
 1490.430   57.648    0.383    0.214   28.937
 1491.250   53.511    0.385    0.242   34.101
 1492.070   47.604    0.389    0.247   38.052
 1492.890   44.053    0.392    0.266   43.234
 1493.710   41.090    0.399    0.291   48.223
 1494.530   36.952    0.406    0.295   56.830
 1495.350   35.156    0.412    0.291   64.595
 1496.170   34.534    0.411    0.293   70.731
 1496.990   35.100    0.411    0.302   77.418
 1497.810   36.827    0.414    0.311   84.737
 1498.630   37.387    0.416    0.315   86.213
 1499.450   38.541    0.421    0.310   89.242
 1500.270   40.261    0.420    0.302   90.796
 1501.090   42.575    0.410    0.301   92.340
 1501.910   43.729    0.406    0.303   93.948
 1502.730   45.470    0.408    0.306   95.545
 1503.550   48.371    0.407    0.299   97.170
 1504.370   50.699    0.399    0.281   95.238
 1505.190   54.782    0.393    0.282   73.391
 1506.010   59.452    0.389    0.280   56.577
 1506.830   75.866    0.376    0.275   29.040
 1507.650  101.088    0.356    0.266   23.654
 1508.470  118.676    0.353    0.240   22.750
 1509.290  118.649    0.360    0.223   21.898
 1510.110  111.575    0.370    0.216   20.685
 1510.930  107.437    0.380    0.211   19.530
 1511.750  110.338    0.380    0.208   18.448
 1512.570  110.304    0.376    0.196   17.743
 1513.390  107.934    0.382    0.183   17.072
 1514.210  108.494    0.394    0.189   16.733
 1515.030  113.164    0.402    0.220   16.733
 1515.850  119.595    0.407    0.229   17.944
 1516.670  118.980    0.398    0.208   17.594
 1517.490  116.590    0.379    0.199   17.251
 1518.310  117.737    0.396    0.206   16.908
 1519.130  119.471    0.391    0.211   16.269
 1519.950  116.501    0.384    0.206   15.648
 1520.770  106.497    0.375    0.191   15.336
 1521.590  106.497    0.382    0.192   15.312
 1522.410  104.093    0.404    0.192   16.152
 1523.230   92.895    0.422    0.190   16.733
 1524.060   90.533    0.431    0.198   17.987
 1524.880   82.865    0.434    0.221   24.142
 1525.700   71.680    0.432    0.246   27.941
 1526.520   66.361    0.426    0.266   30.035
 1527.340   72.212    0.406    0.275   31.695
 1528.160   72.765    0.393    0.275   32.835
 1528.980   70.962    0.399    0.251   31.015
 1529.800   70.948    0.402    0.238   24.799
 1530.620   75.031    0.405    0.238   21.757
 1531.440   82.050    0.398    0.235   18.731
 1532.260   91.417    0.385    0.212   16.132
 1533.080   92.557    0.398    0.191   14.411
 1533.900   89.006    0.420    0.198   14.124
 1534.720   84.861    0.423    0.222   15.754
 1535.540   82.492    0.410    0.228   18.927
 1536.360   83.051    0.410    0.237   28.898
 1537.180   87.134    0.423    0.252   32.220
 1538.000   91.210    0.424    0.267   33.379
 1538.820   91.770    0.417    0.266   32.104
 1539.640   90.568    0.402    0.266   30.890
 1540.460   89.366    0.396    0.263   30.828
 1541.280   88.157    0.396    0.257   30.791
 1542.100   86.368    0.396    0.246   30.753
 1542.920   83.991    0.396    0.238   31.264
 1543.740   81.608    0.396    0.235   32.401
 1544.560   79.231    0.396    0.255   33.539
 1545.380   78.624    0.396    0.262   35.393
 1546.200   78.002    0.397    0.269   37.365
 1547.020   76.800    0.397    0.278   40.165
 1547.840   72.655    0.395    0.287   41.593
 1548.660   70.285    0.393    0.283   43.089
 1549.480   67.322    0.406    0.268   46.318
 1550.300   63.771    0.408    0.268   50.738
 1551.120   60.807    0.408    0.265   57.648
 1551.940   57.837    0.403    0.266   56.502
 1552.760   57.222    0.396    0.276   52.394
