~VERSION INFORMATION
 VERS.                 2.0:   CWLS LOG ASCII STANDARD -VERSION 2.0
 WRAP.                  NO:   ONE LINE PER DEPTH STEP
~WELL INFORMATION BLOCK
#MNEM.UNIT           DATA                    DESCRIPTION OF MNEMONIC
#---------    -------------------            -------------------------------
# Generated from Intellog Unique Number	CC_80_83/WELL/2301
NULL.         -999.25                        : NULL_VALUE
WELL.         PARA ET AL GRANOR              : Well_name    - WELL
LOC .         07-25-083-18W4                 : Location     - LOCATION          
UWI .         00/07-25-083-18W400            : Uwi          - UNIQUE WELL ID    
ENTR.         DW                             : Entered      - ENTERED BY        
SRVC.         COMPUTALOG                     : Scn          - SERVICE COMPANY   
DATE.         18 JAN 82                      : Date         - LOG DATE
STRT.M        95                             : top_depth    - START DEPTH       
STOP.M        290                            : bot_depth    - STOP DEPTH        
STEP.M        0.3                            : increment    - STEP LENGTH       
~CURVE INFORMATION BLOCK
#MNEM UNIT       ERCB CURVE CODE    CURVE DESCRIPTION
#-----------   ------------------   ----------------------------------
DEPT.M        00 001 00 00         : DEPTH        - DEPTH                       
DPHI.V/V      00 890 00 00         : PHID         - DENSITY POROSITY (LIMESTONE)
NPHI.V/V      00 330 00 00         : PHIN         - NEUTRON POROSITY (LIMESTONE)
GR  .API      00 310 00 00         : GR           - GAMMA RAY                   
ILD .OHMM     00 120 00 00         : RESD         - DEEP RESISTIVITY (DIL)      
~PARAMETER INFORMATION       
#MNEM.UNIT           DATA             DESCRIPTION OF MNEMONIC
#---------         -----------     ------------------------------
GL  .M        543.08               : gl           - GROUND LEVEL ELEVATION      
EREF.M        546.68               : kb           - ELEVATION OF DEPTH REFERENCE
DATM.M        546.68               : datum        - DATUM ELEVATION             
TDD .M        298                  : tdd          - TOTAL DEPTH DRILLER         
RUN .         ONE                  : Run          - RUN NUMBER                  
ENG .         BILL                 : Engineer     - RECORDING ENGINEER          
WIT .         JIM                  : Witness      - WITNESSED BY                
MUD .         GEL                  : Mud_type     - MUD TYPE                    
MATR.         LIMESTONE            : Logunit      - NEUTRON MATRIX              
TMAX.C        20                   : BHT          - MAXIMUM RECORDED TEMPERATURE
BHTD.M        298                  : BHTDEP       - MAXIMUM RECORDED TEMPERATURE
MATR.         1                    : LOGUNIT      - NEUTRON MATRIX              
RMT .C        25                   : MDTP         - TEMPERATURE OF MUD          
NEUT.         1                    : NEUTRON      - NEUTRON TYPE                
RESI.         0                    : RESIST       - RESISTIVITY TYPE            
RMC .OHMM     0.25                 : RMC          - RESISTIVITY OF MUD CAKE     
RMF .OHMM     0.25                 : RMF          - RESISTIVITY OF MUD FILTRATE 
SUFT.C        15                   : SUFT         - SURFACE TEMPERATURE         
~A  DEPTH     PHID     PHIN       GR     RESD
# ...
  251.602    0.182    0.425   99.663    7.963
  251.902    0.199    0.389   92.362    8.125
  252.202    0.215    0.334   87.500    8.282
  252.502    0.207    0.341   94.215    9.282
  252.802    0.236    0.366   89.353    9.829
  253.102    0.240    0.419   82.053   10.021
  253.402    0.245    0.437   82.067    9.845
  253.702    0.248    0.397   81.469    9.490
  254.002    0.243    0.370   75.996    9.152
  254.302    0.233    0.404   85.151    8.990
  254.602    0.226    0.447   77.241    8.996
  254.902    0.240    0.444   76.035    9.173
  255.202    0.253    0.422   74.217    9.356
  255.502    0.241    0.439   70.576   10.102
  255.802    0.215    0.447   70.587   10.495
  256.102    0.161    0.434   73.646   10.904
  256.402    0.228    0.395   69.394   11.548
  256.702    0.227    0.374   66.362   11.775
  257.002    0.176    0.378   70.636   11.790
  257.302    0.171    0.373   71.263   11.579
  257.602    0.227    0.402   76.753   11.373
  257.902    0.234    0.413   80.427   11.389
  258.202    0.234    0.410   78.606   11.834
  258.502    0.227    0.421   74.962   11.840
  258.802    0.205    0.389   74.367   11.201
  259.102    0.118    0.363   76.205   10.400
  259.401    0.103    0.359   77.436   10.216
  259.701    0.121    0.389   82.933   11.663
  260.001    0.199    0.390   83.557   11.896
  260.301    0.191    0.423   81.129    9.870
  260.601    0.183    0.393   75.049    9.160
  260.901    0.179    0.384   80.545    8.353
  261.201    0.184    0.384   89.088    8.206
  261.501    0.199    0.417   89.101    8.208
  261.801    0.207    0.412   86.677    8.370
  262.101    0.200    0.398   83.641    8.224
  262.401    0.189    0.414   85.482    8.076
  262.701    0.189    0.417   82.447    7.934
  263.001    0.202    0.424   80.022    7.792
  263.301    0.211    0.448   83.081    7.951
  263.601    0.196    0.446   80.046    8.261
  263.901    0.149    0.429   72.747    8.426
  264.201    0.141    0.407   76.416    8.593
  264.501    0.171    0.381   86.177    8.441
  264.801    0.196    0.396   91.064    8.138
  265.101    0.197    0.403  100.219    7.697
  265.401    0.186    0.426  102.667    6.884
  265.701    0.169    0.413   94.758    6.272
  266.001    0.131    0.391  100.255    5.715
  266.301    0.149    0.430   99.656    5.017
  266.601    0.176    0.441   95.407    4.836
  266.901    0.188    0.419  101.510    4.839
  267.201    0.193    0.409  102.740    5.030
  267.501    0.176    0.428   97.879    5.325
  267.801    0.142    0.485  101.548    6.554
  268.101    0.126    0.409   91.809    8.065
  268.401    0.053    0.260   70.494   13.155
  268.701    0.028    0.252   67.459   18.120
  269.001    0.074    0.314   68.692   19.555
  269.301    0.167    0.385   88.811   17.489
  269.601    0.173    0.390  100.403   15.344
  269.901    0.167    0.363   91.883   13.982
  270.201    0.163    0.391   87.020   13.229
  270.501    0.149    0.429   94.346   13.245
  270.801    0.141    0.461   93.139   13.504
  271.101    0.193    0.427   83.402   16.011
  271.401    0.232    0.397   66.351   17.932
  271.701    0.261    0.366   47.477   20.089
  272.001    0.258    0.379   44.440   24.265
  272.301    0.252    0.395   42.016   28.762
  272.601    0.248    0.407   42.029   31.037
  272.901    0.249    0.411   43.258   31.650
  273.201    0.255    0.384   45.099   30.512
  273.501    0.259    0.361   48.766   28.327
  273.801    0.256    0.361   53.657   24.401
  274.101    0.254    0.357   52.447   19.493
  274.401    0.257    0.353   51.241   15.576
  274.701    0.246    0.374   57.956   13.665
  275.001    0.245    0.418   62.233   10.518
  275.301    0.240    0.412   65.295    9.406
  275.601    0.227    0.384   70.181    8.730
  275.901    0.189    0.400   80.553    8.107
  276.201    0.146    0.444   90.923    7.386
  276.501    0.153    0.430   90.936    6.243
  276.801    0.172    0.415   87.292    5.583
  277.101    0.183    0.381   89.132    4.992
  277.401    0.184    0.398   99.504    4.301
  277.701    0.190    0.447   98.299    4.067
  278.001    0.196    0.481   95.262    3.778
  278.301    0.197    0.533  102.587    3.710
  278.601    0.179    0.446   87.975    3.856
  278.901    0.147    0.389   80.066    4.319
  279.201    0.128    0.393   84.344    4.931
  279.501    0.169    0.459   91.058    5.124
  279.801    0.187    0.426   98.992    5.034
  280.101    0.195    0.397  109.973    4.022
  280.401    0.206    0.435  110.595    3.596
  280.701    0.210    0.457  102.077    3.467
  281.001    0.141    0.426   91.730    3.603
  281.301    0.137    0.375   78.945    5.250
  281.601    0.172    0.364   72.864    8.248
  281.901    0.204    0.388   79.579   10.738
  282.201    0.173    0.378   99.700   11.373
  282.501    0.170    0.370   86.916   11.171
  282.801    0.204    0.411   70.476   11.609
  283.101    0.237    0.439   60.129   13.506
  283.401    0.247    0.460   54.656   17.255
  283.701    0.285    0.444   52.233   23.325
  284.000    0.273    0.416   58.949   28.176
  284.300    0.243    0.353   71.757   23.370
  284.600    0.220    0.287   83.955   13.565
  284.900    0.197    0.342   91.890    7.584
  285.200    0.182    0.449   88.856    6.656
  285.500    0.177    0.455   84.605    6.538
  285.800    0.177    0.318   87.051    9.530
  286.100    0.183    0.324   82.798   12.880
  286.400    0.210    0.374   77.326   18.081
  286.700    0.233    0.367   74.901   22.675
  287.000    0.226    0.318   78.571   24.930
  287.300    0.213    0.335   75.539   25.427
  287.600    0.222    0.421   76.157   24.058
  287.900    0.213    0.451   81.045   22.757
  288.200    0.190    0.378   90.806   20.741
  288.500    0.166    0.413   97.523   19.616
  288.800    0.135    0.407   96.927   16.588
  289.100    0.117    0.398   95.109   15.687
  289.400    0.093    0.384   78.060   15.122
  289.700    0.099    0.354   68.322   17.925
  290.000    0.210    0.294   64.679   22.477
