~VERSION INFORMATION
 VERS.                 2.0:   CWLS LOG ASCII STANDARD -VERSION 2.0
 WRAP.                  NO:   ONE LINE PER DEPTH STEP
~WELL INFORMATION BLOCK
#MNEM.UNIT           DATA                    DESCRIPTION OF MNEMONIC
#---------    -------------------            -------------------------------
# Generated from Intellog Unique Number	CS_69_70/WELL/843
WELL.         GOLDEN EAGLE OIL & GAS         : Well_name    - WELL
LOC .         00/07-24-069-17W4/0            : Location     - LOCATION
UWI .         00/07-24-069-17W4/0            : Uwi          - UNIQUE WELL ID
ENTR.         SP                             : Entered      - ENTERED BY
SRVC.         SCHLUMBERGER                   : Scn          - SERVICE COMPANY
STRT.M        275                            : top_depth    - START DEPTH
STOP.M        445                            : bot_depth    - STOP DEPTH
STEP.M        0.25                           : increment    - STEP LENGTH
 NULL. -999.2500:NULL Value
~CURVE INFORMATION BLOCK
#MNEM UNIT       ERCB CURVE CODE    CURVE DESCRIPTION
#-----------   ------------------   ----------------------------------
DEPT.M        00 001 00 00         : DEPTH        - DEPTH
GR  .API      00 310 00 00         : GR           - GAMMA RAY
NPHI.V/V      00 330 00 00         : PHIN         - NEUTRON POROSITY (LIMESTONE)
DPHI.V/V      00 890 00 00         : PHID         - DENSITY POROSITY (LIMESTONE)
ILD .OHMM     00 120 00 00         : RESD         - DEEP RESISTIVITY (DIL)
~PARAMETER INFORMATION
#MNEM.UNIT           DATA             DESCRIPTION OF MNEMONIC
#---------         -----------     ------------------------------
GL  .M        550.5                : gl           - GROUND LEVEL ELEVATION
EREF.M        553.4                : kb           - ELEVATION OF DEPTH REFERENCE
DATM.M        550.5                : datum        - DATUM ELEVATION
TDD .M        480                  : tdd          - TOTAL DEPTH DRILLER
RUN .         ONE                  : Run          - RUN NUMBER
ENG .         BILL                 : Engineer     - RECORDING ENGINEER
WIT .         JIM                  : Witness      - WITNESSED BY
MUD .         GEL                  : Mud_type     - MUD TYPE
MATR.         LIMESTONE            : Logunit      - NEUTRON MATRIX
TMAX.C        22.2                 : BHT          - MAXIMUM RECORDED TEMPERATURE
BHTD.M        480                  : BHTDEP       - MAXIMUM RECORDED TEMPERATURE
MATR.         1                    : LOGUNIT      - NEUTRON MATRIX
RMT .C        25                   : MDTP         - TEMPERATURE OF MUD
NEUT.         1                    : NEUTRON      - NEUTRON TYPE
RESI.         0                    : RESIST       - RESISTIVITY TYPE
RMC .OHMM     0.25                 : RMC          - RESISTIVITY OF MUD CAKE
RMF .OHMM     0.25                 : RMF          - RESISTIVITY OF MUD FILTRATE
SUFT.C        15                   : SUFT         - SURFACE TEMPERATURE
~A  DEPTH       GR     PHIN     PHID     RESD
# ...
  362.000   69.000    0.390    0.211    3.983
  362.250   68.823    0.329    0.142    4.191
  362.500   73.614    0.348    0.181    4.552
  362.750   74.601    0.419    0.224    5.019
  363.000   58.717    0.446    0.260    5.778
  363.250   49.397    0.304    0.049    6.752
  363.500   44.311    0.216    0.008    8.863
  363.750   44.133    0.183   -0.009   10.338
  364.000   47.574    0.178   -0.011    9.224
  364.250   53.837    0.178   -0.010    7.437
  364.500   63.536    0.205   -0.001    6.308
  364.750   71.948    0.278    0.026    5.431
  365.000   77.536    0.317    0.104    4.589
  365.250   82.327    0.351    0.151    4.125
  365.500   82.885    0.400    0.178    3.989
  365.750   82.462    0.421    0.186    4.074
  366.000   81.669    0.419    0.192    4.167
  366.250   82.534    0.411    0.190    4.279
  366.500   85.485    0.408    0.190    4.394
  366.750   86.901    0.421    0.192    4.486
  367.000   85.006    0.424    0.191    4.471
  367.250   85.011    0.415    0.191    4.438
  367.500   90.171    0.413    0.194    4.406
  367.750   89.195    0.423    0.199    4.391
  368.000   86.072    0.436    0.207    4.351
  368.250   84.973    0.447    0.214    4.295
  368.500   84.979    0.433    0.217    4.240
  368.750   83.083    0.421    0.210    4.233
  369.000   87.077    0.416    0.196    4.250
  369.250   91.807    0.436    0.187    4.299
  369.500   93.161    0.431    0.184    4.341
  369.750   90.224    0.431    0.191    4.334
  370.000   87.222    0.445    0.193    4.327
  370.250   81.645    0.428    0.192    4.328
  370.500   86.620    0.420    0.189    4.329
  370.750   90.737    0.413    0.186    4.314
  371.000   92.582    0.434    0.184    4.275
  371.250   90.503    0.462    0.185    4.244
  371.500   91.367    0.452    0.187    4.221
  371.750   91.986    0.433    0.191    4.206
  372.000   91.379    0.430    0.197    4.176
  372.250   88.010    0.423    0.202    4.162
  372.500   83.538    0.416    0.212    4.147
  372.750   79.371    0.425    0.219    4.117
  373.000   77.904    0.441    0.217    4.079
  373.250   79.813    0.438    0.215    3.952
  373.500   80.431    0.434    0.228    3.822
  373.750   77.431    0.432    0.234    3.676
  374.000   75.228    0.431    0.232    3.508
  374.250   76.891    0.416    0.230    3.418
  374.500   77.387    0.416    0.226    3.324
  374.750   77.699    0.434    0.226    3.239
  375.000   76.785    0.450    0.244    3.138
  375.250   73.723    0.442    0.261    3.012
  375.500   72.440    0.439    0.274    2.811
  375.750   79.134    0.451    0.261    2.584
  376.000   84.477    0.443    0.255    2.412
  376.250   89.268    0.439    0.252    2.116
  376.500   93.323    0.479    0.254    1.846
  376.750   94.740    0.515    0.257    1.675
  377.000   93.518    0.539    0.267    1.613
  377.250   90.886    0.549    0.281    1.698
  377.500   91.505    0.544    0.271    1.875
  377.750   89.364    0.523    0.253    2.284
  378.000   91.578    0.494    0.263    2.807
  378.250   94.714    0.479    0.235    3.214
  378.500   96.621    0.468    0.201    3.517
  378.750   91.350    0.460    0.180    3.652
  379.000   87.368    0.456    0.202    3.751
  379.250   84.368    0.452    0.218    3.751
  379.500   87.012    0.439    0.232    3.717
  379.750   88.183    0.429    0.240    3.629
  380.000   89.171    0.424    0.230    3.549
  380.250   89.237    0.426    0.221    3.490
  380.500   88.139    0.425    0.221    3.439
  380.750   85.997    0.419    0.221    3.414
  381.000   84.040    0.416    0.210    3.339
  381.250   82.450    0.430    0.198    3.260
  381.500   80.616    0.444    0.200    3.146
  381.750   77.186    0.451    0.227    3.043
  382.000   73.020    0.434    0.278    2.959
  382.250   68.977    0.417    0.282    2.916
  382.500   65.608    0.441    0.286    2.916
  382.750   63.466    0.485    0.282    2.934
  383.000   66.049    0.499    0.287    2.984
  383.250   70.411    0.480    0.306    3.158
  383.500   72.748    0.472    0.319    3.588
  383.750   68.889    0.480    0.201    4.562
  384.000   60.366    0.310    0.085    6.044
  384.250   51.231    0.219    0.034    8.128
  384.500   45.040    0.148   -0.003   10.373
  384.750   47.930    0.178   -0.002    8.209
  385.000   51.864    0.273    0.128    6.095
  385.250   54.385    0.325    0.211    4.734
  385.500   55.309    0.383    0.306    3.882
  385.750   56.051    0.439    0.321    3.336
  386.000   54.155    0.425    0.330    2.921
  386.250   52.749    0.418    0.324    2.491
  386.500   51.712    0.410    0.318    2.194
  386.750   52.147    0.403    0.319    2.024
  387.000   52.767    0.399    0.325    1.969
  387.250   51.239    0.404    0.329    1.926
  387.500   49.711    0.407    0.325    1.894
  387.750   51.066    0.410    0.327    1.859
  388.000   52.115    0.411    0.327    1.835
  388.250   49.483    0.415    0.316    1.832
  388.500   48.752    0.413    0.317    1.843
  388.750   49.555    0.401    0.321    1.861
  389.000   50.788    0.401    0.325    1.897
  389.250   53.187    0.415    0.329    1.915
  389.500   54.113    0.425    0.330    1.930
  389.750   51.910    0.421    0.326    1.938
  390.000   51.855    0.410    0.321    1.945
  390.250   52.596    0.405    0.318    1.949
  390.500   53.215    0.405    0.314    1.965
  390.750   53.037    0.412    0.313    1.969
  391.000   52.859    0.419    0.317    1.977
  391.250   54.153    0.423    0.318    1.985
  391.500   52.196    0.431    0.317    2.000
  391.750   54.901    0.438    0.320    2.031
  392.000   59.385    0.449    0.325    2.054
  392.250   64.054    0.463    0.323    2.074
  392.500   66.697    0.448    0.312    2.090
  392.750   68.237    0.437    0.305    2.106
  393.000   69.101    0.437    0.308    2.119
  393.250   70.886    0.437    0.310    2.139
  393.500   71.752    0.429    0.295    2.255
  393.750   71.511    0.429    0.286    2.473
  394.000   68.450    0.448    0.286    2.696
  394.250   66.063    0.402    0.234    2.923
  394.500   64.167    0.325    0.178    3.104
  394.750   66.136    0.307    0.150    3.248
  395.000   71.356    0.333    0.175    3.347
  395.250   75.718    0.354    0.199    3.437
  395.500   78.240    0.396    0.220    3.490
  395.750   81.313    0.415    0.210    3.544
  396.000   82.790    0.408    0.199    3.578
  396.250   83.225    0.406    0.193    3.619
  396.500   79.918    0.404    0.201    3.640
  396.750   76.059    0.407    0.203    3.731
  397.000   74.225    0.415    0.196    3.948
  397.250   73.187    0.410    0.192    4.077
  397.500   78.532    0.406    0.201    4.101
  397.750   82.708    0.402    0.205    3.929
  398.000   87.867    0.406    0.202    3.806
  398.250   91.125    0.410    0.194    3.822
  398.500   90.763    0.418    0.189    3.932
  398.750   89.050    0.404    0.190    3.999
  399.000   88.197    0.398    0.195    4.256
  399.250   85.504    0.417    0.195    4.419
  399.500   78.210    0.434    0.188    4.495
  399.750   75.453    0.447    0.172    4.283
  400.000   71.962    0.424    0.159    3.923
  400.250   75.343    0.408    0.164    3.396
  400.500   80.379    0.418    0.196    2.957
  400.750   86.826    0.446    0.215    2.629
  401.000   95.912    0.462    0.222    2.561
  401.250  101.869    0.482    0.237    2.444
  401.500  104.206    0.508    0.242    2.377
  401.750  103.784    0.529    0.234    2.414
  402.000  102.868    0.527    0.229    2.507
  402.250  100.175    0.541    0.224    2.540
  402.500   97.972    0.534    0.234    2.517
  402.750   95.707    0.519    0.242    2.480
  403.000   93.811    0.507    0.233    2.449
  403.250   95.781    0.504    0.222    2.435
  403.500   98.547    0.510    0.212    2.450
  403.750  101.865    0.525    0.205    2.492
  404.000  104.816    0.528    0.200    2.540
  404.250  101.999    0.517    0.205    2.628
  404.500   99.184    0.487    0.202    2.765
  404.750   97.902    0.442    0.196    2.844
  405.000   97.417    0.431    0.195    2.970
  405.250   97.237    0.436    0.200    3.196
