~VERSION INFORMATION
 VERS.                 2.0:   CWLS LOG ASCII STANDARD -VERSION 2.0
 WRAP.                  NO:   ONE LINE PER DEPTH STEP
~WELL INFORMATION BLOCK
#MNEM.UNIT           DATA                    DESCRIPTION OF MNEMONIC
#---------    -------------------            -------------------------------
# Generated from Intellog Unique Number	CW_73_75/WELL/2725
WELL.         CANTERRA MARTEN H 04-25        : Well_name    - WELL
LOC .         00/04-25-073-25W4/0            : Location     - LOCATION
UWI .         00/04-25-073-25W4/0            : Uwi          - UNIQUE WELL ID
ENTR.         JAYE                           : Entered      - ENTERED BY
SRVC.         WESTERN ATLAS                  : Scn          - SERVICE COMPANY
DATE.         21 JAN 86                      : Date         - LOG DATE
STRT.M        385                            : top_depth    - START DEPTH
STOP.M        615                            : bot_depth    - STOP DEPTH
STEP.M        0.25                           : increment    - STEP LENGTH
 NULL. -999.2500:NULL Value
~CURVE INFORMATION BLOCK
#MNEM UNIT       ERCB CURVE CODE    CURVE DESCRIPTION
#-----------   ------------------   ----------------------------------
DEPT.M        00 001 00 00         : DEPTH        - DEPTH
RHOB.KG/M3    00 350 00 00         : DENS         - BULK DENSITY
DPHI.V/V      00 890 00 00         : PHID         - DENSITY POROSITY (SANDSTONE)
ILD .OHMM     00 120 00 00         : RESD         - DEEP RESISTIVITY (DLL)
CALI.MM       00 280 01 00         : CAL          - CALIPER
GR  .API      00 310 00 00         : GR           - GAMMA RAY
NPHI.V/V      00 330 00 00         : PHIN         - NEUTRON POROSITY (SANDSTONE)
~PARAMETER INFORMATION
#MNEM.UNIT           DATA             DESCRIPTION OF MNEMONIC
#---------         -----------     ------------------------------
GL  .M        637.6                : gl           - GROUND LEVEL ELEVATION
EREF.M        641                  : kb           - ELEVATION OF DEPTH REFERENCE
DATM.M        637.6                : datum        - DATUM ELEVATION
TDD .M        617                  : tdd          - TOTAL DEPTH DRILLER
RUN .         ONE                  : Run          - RUN NUMBER
ENG .         MASHON               : Engineer     - RECORDING ENGINEER
WIT .         HUDSON/REID          : Witness      - WITNESSED BY
BASE.         EDM                  : Branch       - HOME BASE OF LOGGING UNIT
MUD .         GEL CHEM             : Mud_type     - MUD TYPE
MATR.         SANDSTONE            : Logunit      - NEUTRON MATRIX
TMAX.C        42                   : BHT          - MAXIMUM RECORDED TEMPERATURE
BHTD.M        617                  : BHTDEP       - MAXIMUM RECORDED TEMPERATURE
RMT .C        22                   : MDTP         - TEMPERATURE OF MUD
MUDD.KG/M     1130                 : MWT          - MUD DENSITY
NEUT.         0                    : NEUTRON      - NEUTRON TYPE
RESI.         1                    : RESIST       - RESISTIVITY TYPE
RM  .OHMM     2.3                  : RM           - RESISTIVITY OF MUD
RMC .OHMM     3.5                  : RMC          - RESISTIVITY OF MUD CAKE
RMF .OHMM     3.2                  : RMF          - RESISTIVITY OF MUD FILTRATE
SUFT.C        0                    : SUFT         - SURFACE TEMPERATURE
~A  DEPTH     DENS     PHID     RESD      CAL       GR     PHIN
# ...
  478.750 2194.480    0.276    4.180  165.920   80.396    0.427
  479.000 2202.820    0.271    4.125  165.942   76.941    0.380
  479.250 2209.080    0.267    4.108  165.760   78.257    0.353
  479.500 2253.370    0.240    4.090  165.577   84.160    0.381
  479.750 2294.960    0.215    4.081  166.319   94.402    0.386
  480.000 2284.390    0.222    4.027  166.864   94.788    0.367
  480.250 2235.590    0.251    3.885  166.990   91.643    0.382
  480.500 2191.790    0.278    3.777  166.599   94.446    0.401
  480.750 2186.420    0.281    3.685  163.008   94.337    0.435
  481.000 2180.210    0.285    3.603  160.761   81.706    0.410
  481.250 2170.690    0.290    3.561  160.891   74.097    0.396
  481.500 2161.370    0.296    3.513  161.532   79.320    0.408
  481.750 2144.570    0.306    3.499  162.283   82.867    0.406
  482.000 2135.660    0.312    3.504  162.719   84.121    0.403
  482.250 2143.180    0.307    3.509  162.640   81.780    0.390
  482.500 2146.110    0.305    3.507  162.665   85.080    0.396
  482.750 2133.470    0.313    3.480  162.894   75.300    0.400
  483.000 2137.860    0.310    3.465  163.540   70.543    0.410
  483.250 2141.010    0.308    3.464  164.286   72.107    0.399
  483.500 2131.480    0.314    3.469  165.758   73.051    0.388
  483.750 2137.960    0.310    3.441  166.919   74.306    0.415
  484.000 2126.980    0.317    3.402  167.047   79.279    0.397
  484.250 2127.420    0.317    3.363  166.141   81.340    0.412
  484.500 2143.040    0.307    3.318  165.030   74.040    0.416
  484.750 2147.850    0.304    3.329  165.571   72.506    0.401
  485.000 2153.490    0.301    3.346  165.078   76.363    0.433
  485.250 2166.610    0.293    3.413  164.276   78.175    0.410
  485.500 2167.260    0.293    3.607  163.683   73.789    0.397
  485.750 2152.540    0.301    3.897  163.603   70.953    0.391
  486.000 2166.490    0.293    4.282  163.628   71.154    0.371
  486.250 2206.410    0.269    4.793  163.343   68.068    0.353
  486.500 2266.080    0.233    5.296  163.579   66.161    0.336
  486.750 2316.590    0.202    5.939  163.702   66.920    0.313
  487.000 2329.930    0.194    6.747  164.035   69.228    0.299
  487.250 2342.630    0.186    7.077  164.481   68.561    0.291
  487.500 2330.820    0.193    7.300  164.502   60.952    0.294
  487.750 2283.270    0.222    7.630  164.420   56.875    0.300
  488.000 2305.320    0.209    8.847  164.138   64.514    0.317
  488.250 2315.530    0.203   10.258  163.848   60.686    0.241
  488.500 2439.400    0.128   11.982  164.082   51.216    0.238
  488.750 2558.270    0.056   13.587  164.207   49.805    0.217
  489.000 2601.520    0.029   14.520  164.645   53.664    0.196
  489.250 2612.150    0.023   14.220  165.395   56.654    0.160
  489.500 2609.690    0.024   12.669  165.524   59.767    0.177
  489.750 2533.880    0.070   10.499  165.339   52.716    0.194
  490.000 2486.540    0.099    8.798  164.948   57.627    0.228
  490.250 2471.610    0.108    7.333  164.355   61.238    0.249
  490.500 2329.110    0.194    6.111  163.552   61.067    0.278
  490.750 2270.340    0.230    5.285  162.647   65.171    0.309
  491.000 2230.270    0.254    4.691  162.154   62.149    0.336
  491.250 2200.800    0.272    4.337  161.972   65.388    0.360
  491.500 2179.220    0.285    4.078  162.102   69.803    0.342
  491.750 2167.410    0.292    3.964  162.332   68.702    0.370
  492.000 2158.710    0.298    3.933  162.355   66.424    0.378
  492.250 2167.260    0.293    3.953  161.967   68.980    0.376
  492.500 2177.890    0.286    4.040  161.887   75.069    0.386
  492.750 2188.930    0.279    4.160  161.810   72.852    0.376
  493.000 2202.470    0.271    4.364  161.835   62.020    0.381
  493.250 2203.950    0.270    4.603  162.479   66.560    0.368
  493.500 2205.020    0.270    4.802  165.085   68.867    0.359
  493.750 2212.740    0.265    4.963  164.904   68.695    0.369
  494.000 2225.450    0.257    5.157  164.722   67.967    0.387
  494.250 2240.020    0.248    5.450  164.747   72.941    0.398
  494.500 2260.410    0.236    5.654  164.667   70.599    0.361
  494.750 2273.120    0.228    5.854  164.693   77.991    0.335
  495.000 2283.540    0.222    5.917  164.509   74.100    0.323
  495.250 2292.710    0.217    5.903  164.533   67.296    0.347
  495.500 2254.720    0.240    5.612  165.385   69.667    0.325
  495.750 2228.150    0.256    5.355  166.649   73.340    0.330
  496.000 2207.410    0.268    5.063  163.678   78.622    0.388
  496.250 2248.580    0.243    4.895  162.464   86.819    0.373
  496.500 2280.190    0.224    4.758  161.765   94.769    0.362
  496.750 2298.510    0.213    4.694  161.583   91.497    0.352
  497.000 2308.300    0.207    4.701  160.989   88.041    0.369
  497.250 2313.530    0.204    4.734  160.498   96.051    0.386
  497.500 2309.820    0.206    4.856  160.314   99.413    0.366
  497.750 2299.040    0.213    4.955  160.856  103.086    0.369
  498.000 2306.760    0.208    5.045  162.429  104.217    0.372
  498.250 2321.130    0.199    5.108  166.276  101.193    0.366
  498.500 2331.340    0.193    5.173  166.402  106.476    0.374
  498.750 2327.010    0.196    5.219  166.324  104.570    0.391
  499.000 2304.810    0.209    5.314  167.074  105.453    0.401
  499.250 2322.080    0.199    5.431  168.442  107.949    0.390
  499.500 2333.120    0.192    5.500  169.187  111.432    0.393
  499.750 2321.110    0.199    5.569  169.319  105.621    0.400
  500.000 2330.700    0.194    5.639  169.338  100.862    0.387
  500.250 2335.920    0.190    5.679  169.156  103.047    0.402
  500.500 2325.560    0.197    5.697  169.181  108.577    0.402
  500.750 2310.840    0.206    5.695  169.207  109.398    0.388
  501.000 2323.750    0.198    5.650  168.200  107.802    0.370
  501.250 2335.420    0.191    5.679  167.189  102.610    0.385
  501.500 2331.500    0.193    5.730  164.944  109.194    0.407
  501.750 2310.340    0.206    5.856  163.932  114.168    0.414
  502.000 2276.920    0.226    6.030  162.923  101.352    0.368
  502.250 2264.690    0.234    6.337  162.433  104.032    0.383
  502.500 2328.920    0.195    6.721  162.044   96.050    0.413
  502.750 2365.310    0.173    6.819  161.859   86.271    0.382
  503.000 2341.450    0.187    6.653  162.298   94.035    0.361
  503.250 2313.220    0.204    6.337  162.532   94.978    0.397
  503.500 2325.720    0.197    5.958  163.276   99.086    0.392
  503.750 2327.000    0.196    5.591  164.644  103.191    0.371
  504.000 2340.740    0.187    5.326  166.116  103.639    0.356
  504.250 2365.500    0.172    5.303  167.071  105.204    0.378
  504.500 2341.840    0.187    5.331  168.025  107.326    0.368
  504.750 2361.820    0.175    5.418  168.877  105.914    0.358
  505.000 2376.190    0.166    5.538  168.591  100.847    0.367
  505.250 2365.000    0.173    5.670  168.617  105.634    0.365
  505.500 2353.600    0.180    5.763  165.539  101.248    0.368
  505.750 2342.000    0.187    5.825  163.704  109.941    0.356
  506.000 2330.400    0.194    5.876  163.316  113.241    0.378
  506.250 2339.770    0.188    5.939  163.547  104.887    0.394
  506.500 2356.640    0.178    5.937  163.784  107.507    0.381
  506.750 2335.470    0.191    5.901  164.215  112.107    0.397
  507.000 2315.760    0.203    5.866  164.759  117.266    0.382
  507.250 2344.050    0.185    5.929  164.578  104.947    0.376
  507.500 2353.230    0.180    6.196  163.875   98.576    0.416
  507.750 2359.070    0.176    6.524  163.283  101.132    0.375
  508.000 2364.710    0.173    6.754  163.513   98.048    0.353
  508.250 2373.680    0.167    6.865  164.156  104.261    0.372
  508.500 2348.160    0.183    6.991  164.388  108.057    0.352
  508.750 2353.590    0.180    7.079  164.724  104.662    0.359
  509.000 2371.480    0.169    7.089  165.365   98.478    0.392
  509.250 2359.050    0.176    7.033  166.736   91.923    0.400
  509.500 2320.430    0.200    6.875  167.687   97.020    0.398
  509.750 2322.130    0.199    6.634  168.333   99.019    0.386
