~VERSION INFORMATION
 VERS.                 2.0:   CWLS LOG ASCII STANDARD -VERSION 2.0
 WRAP.                  NO:   ONE LINE PER DEPTH STEP
~WELL INFORMATION BLOCK
#MNEM.UNIT           DATA                    DESCRIPTION OF MNEMONIC
#---------    -------------------            -------------------------------
# Generated from Intellog Unique Number	CS_77_79/WELL/852
WELL.         CWWE LEISMER                   : Well_name    - WELL
LOC .         00/05-04-078-05W4/0            : Location     - LOCATION
UWI .         00/05-04-078-05W4/0            : Uwi          - UNIQUE WELL ID
ENTR.         JHS                            : Entered      - ENTERED BY
SRVC.         SCHLUMBERGER                   : Scn          - SERVICE COMPANY
STRT.M        165                            : top_depth    - START DEPTH
STOP.M        420                            : bot_depth    - STOP DEPTH
STEP.M        0.25                           : increment    - STEP LENGTH
 NULL. -999.2500:NULL Value
~CURVE INFORMATION BLOCK
#MNEM UNIT       ERCB CURVE CODE    CURVE DESCRIPTION
#-----------   ------------------   ----------------------------------
DEPT.M        00 001 00 00         : DEPTH        - DEPTH
DPHI.V/V      00 890 00 00         : PHID         - DENSITY POROSITY (LIMESTONE)
NPHI.V/V      00 330 00 00         : PHIN         - NEUTRON POROSITY (LIMESTONE)
GR  .API      00 310 00 00         : GR           - GAMMA RAY
ILD .OHMM     00 120 00 00         : RESD         - DEEP RESISTIVITY (DIL)
RHOB.KG/M3    00 350 00 00         : DENS         - BULK DENSITY
~PARAMETER INFORMATION
#MNEM.UNIT           DATA             DESCRIPTION OF MNEMONIC
#---------         -----------     ------------------------------
GL  .M        585.9                : gl           - GROUND LEVEL ELEVATION
EREF.M        589.8                : kb           - ELEVATION OF DEPTH REFERENCE
DATM.M        589.8                : datum        - DATUM ELEVATION
TDD .M        430                  : tdd          - TOTAL DEPTH DRILLER
RUN .         ONE                  : Run          - RUN NUMBER
ENG .         BILL                 : Engineer     - RECORDING ENGINEER
WIT .         JIM                  : Witness      - WITNESSED BY
MUD .         GEL                  : Mud_type     - MUD TYPE
MATR.         LIMESTONE            : Logunit      - NEUTRON MATRIX
TMAX.C        19                   : BHT          - MAXIMUM RECORDED TEMPERATURE
BHTD.M        430                  : BHTDEP       - MAXIMUM RECORDED TEMPERATURE
MATR.         1                    : LOGUNIT      - NEUTRON MATRIX
RMT .C        25                   : MDTP         - TEMPERATURE OF MUD
NEUT.         1                    : NEUTRON      - NEUTRON TYPE
RESI.         0                    : RESIST       - RESISTIVITY TYPE
RMC .OHMM     0.25                 : RMC          - RESISTIVITY OF MUD CAKE
RMF .OHMM     0.25                 : RMF          - RESISTIVITY OF MUD FILTRATE
SUFT.C        15                   : SUFT         - SURFACE TEMPERATURE
~A  DEPTH     PHID     PHIN       GR     RESD     DENS
# ...
  238.000    0.292    0.381   75.212   12.717    0.000
  238.250    0.270    0.400   80.155   12.014    0.000
  238.500    0.241    0.400   83.248   12.014    0.000
  238.750    0.234    0.387   86.959   12.717    0.000
  239.000    0.240    0.395   80.843   13.462    0.000
  239.250    0.266    0.403   73.485   14.802    0.000
  239.500    0.299    0.397   65.521   15.970    0.000
  239.750    0.328    0.415   64.309   17.229    0.000
  240.000    0.349    0.440   61.877   18.944    0.000
  240.250    0.362    0.461   58.825   19.677    0.000
  240.500    0.367    0.455   56.389   20.054    0.000
  240.750    0.368    0.442   54.568   20.438    0.000
  241.000    0.362    0.433   58.283   20.438    0.000
  241.250    0.355    0.430   60.151   20.054    0.000
  241.500    0.350    0.445   57.097   20.438    0.000
  241.750    0.349    0.447   55.279   20.438    0.000
  242.000    0.352    0.425   57.763   20.438    0.000
  242.250    0.358    0.431   57.784   20.438    0.000
  242.500    0.358    0.462   55.969   20.830    0.000
  242.750    0.349    0.441   57.225   20.438    0.000
  243.000    0.337    0.422   56.632   20.438    0.000
  243.250    0.339    0.425   54.192   20.830    0.000
  243.500    0.358    0.426   53.600   20.438    0.000
  243.750    0.360    0.410   57.315   20.054    0.000
  244.000    0.349    0.422   59.190   19.307    0.000
  244.250    0.339    0.459   60.434   18.588    0.000
  244.500    0.325    0.483   65.376   18.238    0.000
  244.750    0.312    0.481   63.560   17.896    0.000
  245.000    0.296    0.449   61.123   18.238    0.000
  245.250    0.293    0.433   63.605   18.944    0.000
  245.500    0.305    0.433   66.709   19.307    0.000
  245.750    0.330    0.444   65.499   20.054    0.000
  246.000    0.350    0.467   63.677   20.054    0.000
  246.250    0.351    0.480   63.701   20.054    0.000
  246.500    0.342    0.449   61.272   20.438    0.000
  246.750    0.335    0.424   58.829   20.438    0.000
  247.000    0.332    0.409   57.010   20.438    0.000
  247.250    0.338    0.433   55.196   20.438    0.000
  247.500    0.345    0.473   54.598   20.438    0.000
  247.750    0.353    0.463   57.084   20.438    0.000
  248.000    0.354    0.439   57.718   20.438    0.000
  248.250    0.352    0.429   56.520   20.438    0.000
  248.500    0.351    0.441   57.152   20.054    0.000
  248.750    0.353    0.450   58.404   20.054    0.000
  249.000    0.358    0.457   59.046   20.054    0.000
  249.250    0.353    0.453   58.463   20.054    0.000
  249.500    0.343    0.430   57.867   20.054    0.000
  249.750    0.347    0.426   57.888   20.054    0.000
  250.000    0.360    0.431   54.842   20.054    0.000
  250.250    0.366    0.438   53.630   18.944    0.000
  250.500    0.369    0.437   53.662   16.905    0.000
  250.750    0.365    0.443   55.525   14.251    0.000
  251.000    0.337    0.447   70.303   11.788    0.000
  251.250    0.304    0.438   80.162    9.387    0.000
  251.500    0.288    0.442   87.561    8.537    0.000
  251.750    0.287    0.461   86.973    8.537    0.000
  252.000    0.281    0.474   77.160    8.868    0.000
  252.250    0.289    0.450   69.196   10.127    0.000
  252.500    0.297    0.423   69.830   11.135    0.000
  252.750    0.292    0.407   77.232   11.788    0.000
  253.000    0.282    0.392   84.018   11.788    0.000
  253.250    0.273    0.463   88.347   11.135    0.000
  253.500    0.264    0.462   92.058   10.721    0.000
  253.750    0.260    0.451   90.240    9.937    0.000
  254.000    0.260    0.458   84.111    9.567    0.000
  254.250    0.265    0.453   83.524    9.387    0.000
  254.500    0.267    0.445   82.318    9.037    0.000
  254.750    0.260    0.450   79.265    8.701    0.000
  255.000    0.247    0.471   81.748    8.377    0.000
  255.250    0.235    0.466   92.221    8.219    0.000
  255.500    0.232    0.465   96.549    8.219    0.000
  255.750    0.233    0.457   95.354    8.219    0.000
  256.000    0.239    0.441   92.300    8.219    0.000
  256.250    0.238    0.433   91.087    8.219    0.000
  256.500    0.231    0.455   92.963    8.377    0.000
  256.750    0.230    0.463   92.371    8.537    0.000
  257.000    0.231    0.439   92.393    8.537    0.000
  257.250    0.234    0.433   96.719    8.537    0.000
  257.500    0.234    0.428   98.585    8.537    0.000
  257.750    0.234    0.428   97.385    8.537    0.000
  258.000    0.232    0.429   95.558    8.377    0.000
  258.250    0.229    0.425   93.124    8.219    0.000
  258.500    0.224    0.423   91.919    7.913    0.000
  258.750    0.220    0.425   92.556    7.764    0.000
  259.000    0.217    0.438   92.586    7.475    0.000
  259.250    0.219    0.442   91.993    7.475    0.000
  259.500    0.216    0.436   95.703    7.475    0.000
  259.750    0.211    0.431  100.643    7.475    0.000
  260.000    0.216    0.434  104.360    7.475    0.000
  260.250    0.223    0.447  103.768    7.475    0.000
  260.500    0.222    0.446  102.560    7.475    0.000
  260.750    0.217    0.426   99.516    7.475    0.000
  261.000    0.214    0.419   96.464    7.475    0.000
  261.250    0.214    0.437   94.638    7.618    0.000
  261.500    0.219    0.463   92.204    7.618    0.000
  261.750    0.219    0.458   95.916    7.618    0.000
  262.000    0.214    0.439  101.473    7.618    0.000
  262.250    0.214    0.433   97.195    7.618    0.000
  262.500    0.214    0.432   98.448    7.475    0.000
  262.750    0.214    0.432  103.394    7.197    0.000
  263.000    0.210    0.434  103.413    6.929    0.000
  263.250    0.214    0.437  100.982    6.302    0.000
  263.500    0.223    0.442  102.237    5.841    0.000
  263.750    0.228    0.472  102.257    5.518    0.000
  264.000    0.249    0.506   97.974    4.924    0.000
  264.250    0.245    0.521  102.302    4.564    0.000
  264.500    0.232    0.519  107.864    4.151    0.000
  264.750    0.227    0.513  105.426    3.996    0.000
  265.000    0.226    0.509  102.991    3.847    0.000
  265.250    0.226    0.528  104.858    3.847    0.000
  265.500    0.247    0.545  106.110    3.996    0.000
  265.750    0.258    0.529  103.678    4.478    0.000
  266.000    0.269    0.525   96.938    5.312    0.000
  266.250    0.283    0.535   86.510    6.183    0.000
  266.500    0.301    0.505   76.085    7.475    0.000
  266.750    0.306    0.464   74.263    8.377    0.000
  267.000    0.300    0.445   79.212    8.868    0.000
  267.250    0.285    0.432   79.848    8.537    0.000
  267.500    0.270    0.430   80.484    7.475    0.000
  267.750    0.254    0.467   89.115    6.183    0.000
  268.000    0.239    0.482   95.286    5.841    0.000
  268.250    0.243    0.465   93.466    5.212    0.000
  268.500    0.259    0.479   89.801    5.018    0.000
  268.750    0.267    0.509   93.516    5.018    0.000
  269.000    0.262    0.496   96.609    5.018    0.000
  269.250    0.250    0.483   97.865    5.212    0.000
  269.500    0.240    0.497   95.428    5.312    0.000
  269.750    0.235    0.484   92.998    5.414    0.000
  270.000    0.240    0.476   93.014    5.414    0.000
  270.250    0.248    0.484   92.424    5.414    0.000
  270.500    0.253    0.500   90.609    5.312    0.000
  270.750    0.256    0.496   89.402    5.018    0.000
  271.000    0.248    0.487   87.578    4.831    0.000
  271.250    0.247    0.482   90.678    4.651    0.000
  271.500    0.259    0.485   92.549    4.651    0.000
  271.750    0.288    0.519   93.186    4.740    0.000
  272.000    0.321    0.462   89.523    5.212    0.000
  272.250    0.357    0.427   79.096    6.183    0.000
  272.500    0.387    0.406   71.124    7.062    0.000
  272.750    0.374    0.410   63.155    8.219    0.000
  273.000    0.364    0.440   57.031    9.567    0.000
  273.250    0.364    0.451   54.596   10.721    0.000
  273.500    0.369    0.466   56.468   11.135    0.000
  273.750    0.375    0.483   59.567   11.135    0.000
  274.000    0.376    0.484   61.434   11.135    0.000
  274.250    0.371    0.474   60.234   11.135    0.000
