~VERSION INFORMATION
 VERS.                 2.0:   CWLS LOG ASCII STANDARD -VERSION 2.0
 WRAP.                  NO:   ONE LINE PER DEPTH STEP
~WELL INFORMATION BLOCK
#MNEM.UNIT           DATA                    DESCRIPTION OF MNEMONIC
#---------    -------------------            -------------------------------
# Generated from Intellog Unique Number	CS_77_79/WELL/856
WELL.         CANADIAN WORLDWIDE ENERGY      : Well_name    - WELL
LOC .         00/05-19-077-04W4/0            : Location     - LOCATION
UWI .         00/05-19-077-04W4/0            : Uwi          - UNIQUE WELL ID
ENTR.         SP                             : Entered      - ENTERED BY
SRVC.         SCHLUMBERGER                   : Scn          - SERVICE COMPANY
STRT.M        150                            : top_depth    - START DEPTH
STOP.M        405                            : bot_depth    - STOP DEPTH
STEP.M        0.25                           : increment    - STEP LENGTH
 NULL. -999.2500:NULL Value
~CURVE INFORMATION BLOCK
#MNEM UNIT       ERCB CURVE CODE    CURVE DESCRIPTION
#-----------   ------------------   ----------------------------------
DEPT.M        00 001 00 00         : DEPTH        - DEPTH
ILD .OHMM     00 120 00 00         : RESD         - DEEP RESISTIVITY (DIL)
DPHI.V/V      00 890 00 00         : PHID         - DENSITY POROSITY (LIMESTONE)
NPHI.V/V      00 330 00 00         : PHIN         - NEUTRON POROSITY (LIMESTONE)
GR  .API      00 310 00 00         : GR           - GAMMA RAY
~PARAMETER INFORMATION
#MNEM.UNIT           DATA             DESCRIPTION OF MNEMONIC
#---------         -----------     ------------------------------
GL  .M        563.2                : gl           - GROUND LEVEL ELEVATION
EREF.M        566.2                : kb           - ELEVATION OF DEPTH REFERENCE
DATM.M        563.2                : datum        - DATUM ELEVATION
TDD .M        405.5                : tdd          - TOTAL DEPTH DRILLER
RUN .         ONE                  : Run          - RUN NUMBER
ENG .         BILL                 : Engineer     - RECORDING ENGINEER
WIT .         JIM                  : Witness      - WITNESSED BY
MUD .         GEL                  : Mud_type     - MUD TYPE
MATR.         LIMESTONE            : Logunit      - NEUTRON MATRIX
TMAX.C        24                   : BHT          - MAXIMUM RECORDED TEMPERATURE
BHTD.M        405.5                : BHTDEP       - MAXIMUM RECORDED TEMPERATURE
MATR.         1                    : LOGUNIT      - NEUTRON MATRIX
RMT .C        25                   : MDTP         - TEMPERATURE OF MUD
NEUT.         1                    : NEUTRON      - NEUTRON TYPE
RESI.         0                    : RESIST       - RESISTIVITY TYPE
RMC .OHMM     0.25                 : RMC          - RESISTIVITY OF MUD CAKE
RMF .OHMM     0.25                 : RMF          - RESISTIVITY OF MUD FILTRATE
SUFT.C        15                   : SUFT         - SURFACE TEMPERATURE
~A  DEPTH     RESD     PHID     PHIN       GR
  150.000    3.500    0.249    0.483  104.944
  150.250    3.373    0.247    0.492  106.200
  150.500    3.312    0.255    0.503  106.226
  150.750    3.316    0.261    0.491  103.168
  151.000    3.319    0.268    0.483  105.669
  151.250    3.321    0.268    0.522  108.788
  151.500    3.324    0.259    0.551  107.581
  151.750    3.327    0.256    0.549  105.752
  152.000    3.329    0.254    0.523  107.637
  152.250    3.332    0.265    0.466  107.660
  152.500    3.273    0.277    0.451  107.075
  152.750    3.275    0.283    0.439  104.022
  153.000    3.343    0.282    0.458  102.811
  153.250    3.282    0.268    0.513  105.320
  153.500    3.284    0.274    0.526  105.951
  153.750    3.225    0.284    0.520  104.749
  154.000    3.168    0.274    0.526  102.310
  154.250    3.170    0.268    0.530  102.351
  154.500    3.234    0.262    0.531  102.377
  154.750    3.236    0.259    0.516  102.392
  155.000    3.178    0.263    0.511  102.423
  155.250    3.181    0.272    0.518  103.066
  155.500    3.183    0.280    0.526  104.329
  155.750    3.127    0.284    0.538   96.955
  156.000    3.130    0.288    0.544   94.510
  156.250    3.132    0.276    0.528  100.096
  156.500    3.196    0.280    0.519   97.663
  156.750    3.323    0.269    0.481   95.836
  157.000    3.262    0.258    0.489   95.245
  157.250    3.391    0.246    0.494   96.508
  157.500    3.527    0.243    0.493  102.091
  157.750    3.596    0.241    0.504  103.350
  158.000    3.669    0.240    0.523  104.623
  158.250    3.671    0.239    0.528  103.420
  158.500    3.674    0.234    0.510  101.586
  158.750    3.677    0.236    0.499  104.708
  159.000    3.752    0.250    0.516  105.973
  159.250    3.755    0.240    0.520  107.230
  159.500    3.687    0.241    0.479  106.637
  159.750    3.692    0.252    0.474   99.259
  160.000    3.765    0.251    0.478  102.998
  160.250    3.768    0.247    0.481  103.640
  160.500    3.843    0.237    0.480  102.429
  160.750    4.150    0.241    0.476  101.842
  161.000    5.627    0.248    0.470  100.640
  161.250    7.072    0.241    0.440   98.815
  161.500    9.774    0.182    0.395   88.967
  161.750   12.758    0.157    0.351   73.563
  162.000   15.735    0.177    0.330   31.615
  162.250   17.646    0.207    0.289   23.622
  162.500   13.803    0.254    0.310   25.504
  162.750    9.450    0.292    0.339   36.023
  163.000    6.350    0.284    0.374   63.833
  163.250    5.062    0.244    0.432   77.437
  163.500    4.437    0.244    0.447   97.835
  163.750    4.039    0.246    0.456  108.358
  164.000    3.965    0.237    0.467  102.215
  164.250    4.122    0.231    0.484  101.623
  164.500    4.712    0.234    0.462  103.504
  164.750    5.701    0.266    0.427   91.810
  165.000    7.166    0.341    0.403   73.930
  165.250   12.202    0.376    0.390   49.272
  165.500   16.233    0.352    0.396   42.511
  165.750   20.402    0.333    0.401   45.634
  166.000   24.688    0.332    0.391   46.886
  166.250   26.158    0.321    0.373   41.376
  166.500   25.210    0.317    0.347   40.160
  166.750   23.843    0.320    0.361   43.276
  167.000   23.409    0.330    0.369   48.241
  167.250   22.991    0.337    0.381   53.819
  167.500   22.582    0.337    0.374   53.846
  167.750   22.592    0.335    0.385   55.114
  168.000   22.620    0.331    0.389   55.142
  168.250   22.210    0.326    0.378   57.639
  168.500   22.228    0.323    0.398   59.523
  168.750   21.829    0.322    0.404   57.700
  169.000   20.642    0.326    0.409   55.872
  169.250   19.516    0.326    0.397   58.372
  169.500   18.452    0.290    0.389   64.574
  169.750   17.117    0.260    0.397   70.776
  170.000   16.809    0.218    0.404   76.976
  170.250   17.149    0.214    0.395   81.942
  170.500   17.828    0.224    0.385   85.053
  170.750   18.184    0.248    0.382   88.168
  171.000   18.908    0.267    0.400   92.516
  171.250   18.919    0.272    0.414   98.102
  171.500   18.579    0.268    0.438   98.131
  171.750   18.246    0.273    0.424   97.542
  172.000   17.924    0.272    0.415   93.873
  172.250   17.942    0.252    0.404   96.377
  172.500   17.619    0.226    0.400   98.861
  172.750   17.631    0.221    0.398  101.357
  173.000   17.317    0.228    0.394   97.690
  173.250   17.659    0.242    0.377   95.248
  173.500   18.717    0.233    0.359   96.505
  173.750   19.086    0.223    0.356   99.621
  174.000   21.006    0.224    0.370  101.501
  174.250   22.686    0.260    0.379  101.528
  174.500   23.134    0.301    0.388   90.447
  174.750   23.600    0.328    0.394   60.847
  175.000   23.626    0.333    0.381   52.238
  175.250   23.198    0.337    0.373   49.184
  175.500   21.117    0.334    0.359   48.591
  175.750   19.219    0.319    0.349   49.237
  176.000   15.032    0.291    0.345   52.972
  176.250   12.211    0.267    0.364   62.872
  176.500   10.499    0.252    0.411   90.684
  176.750    9.201    0.241    0.443   98.123
  177.000    8.866    0.236    0.465  104.316
  177.250    8.544    0.232    0.474  111.130
  177.500    8.394    0.230    0.466  109.927
  177.750    8.399    0.230    0.455  107.492
  178.000    9.245    0.226    0.451  105.662
  178.250    9.791    0.219    0.451  103.842
  178.500   11.195    0.219    0.440  102.020
  178.750   12.794    0.229    0.426   89.082
  179.000   17.348    0.286    0.421   67.508
  179.250   22.220    0.312    0.410   55.190
  179.500   24.924    0.317    0.392   53.373
  179.750   25.914    0.312    0.358   54.632
  180.000   25.936    0.305    0.352   57.130
  180.250   24.519    0.302    0.367   62.095
  180.500   22.748    0.300    0.380   78.787
  180.750   21.923    0.303    0.399   94.256
  181.000   21.524    0.309    0.410  104.150
  181.250   21.544    0.314    0.415   98.018
  181.500   20.758    0.322    0.370   88.782
  181.750   17.517    0.317    0.358   70.903
  182.000   15.065    0.294    0.359   59.826
  182.250   12.954    0.253    0.393   59.850
  182.500   11.137    0.195    0.417   80.251
  182.750    9.222    0.158    0.422   98.796
  183.000    8.392    0.133    0.429  108.082
  183.250    7.497    0.143    0.449  108.116
  183.500    7.089    0.154    0.471  111.846
  183.750    6.577    0.118    0.486  111.260
  184.000    6.219    0.127    0.479  106.347
  184.250    5.990    0.138    0.501  105.759
  184.500    5.558    0.156    0.514  110.117
  184.750    5.255    0.178    0.517  111.985
  185.000    4.968    0.191    0.508  116.339
  185.250    4.698    0.194    0.519  119.450
  185.500    4.360    0.194    0.535  121.948
  185.750    4.280    0.189    0.574  121.991
  186.000    4.203    0.189    0.560  122.007
  186.250    4.050    0.219    0.523  122.035
  186.500    4.630    0.257    0.503  121.455
  186.750    6.044    0.273    0.488  120.241
  187.000    7.313    0.294    0.483  111.009
  187.250    9.730    0.324    0.480   67.835
  187.500   12.701    0.334    0.472   60.452
  187.750   19.299    0.333    0.427   52.456
  188.000   23.801    0.348    0.398   45.077
  188.250   26.696    0.351    0.382   41.399
  188.500   29.380    0.344    0.375   44.519
  188.750   31.727    0.340    0.372   48.877
  189.000   32.364    0.336    0.377   51.362
  189.250   32.394    0.336    0.386   52.637
  189.500   32.411    0.337    0.396   51.419
  189.750   33.076    0.337    0.393   49.596
  190.000   33.736    0.336    0.393   47.777
  190.250   34.408    0.335    0.392   49.660
  190.500   34.437    0.335    0.385   52.768
  190.750   35.127    0.333    0.377   51.571
  191.000   35.151    0.325    0.382   53.447
  191.250   35.180    0.322    0.394   62.121
  191.500   35.220    0.327    0.405   67.701
  191.750   35.249    0.331    0.407   68.344
  192.000   35.278    0.333    0.399   72.693
  192.250   35.982    0.329    0.390   75.191
  192.500   35.337    0.325    0.394   65.966
  192.750   34.712    0.314    0.386   58.586
  193.000   34.087    0.308    0.384   51.819
  193.250   32.229    0.304    0.380   54.328
