~VERSION INFORMATION
 VERS.                 2.0:   CWLS LOG ASCII STANDARD -VERSION 2.0
 WRAP.                  NO:   ONE LINE PER DEPTH STEP
~WELL INFORMATION BLOCK
#MNEM.UNIT           DATA                    DESCRIPTION OF MNEMONIC
#---------    -------------------            -------------------------------
# Generated from Intellog Unique Number	CS_69_70/WELL/689
WELL.         AEC PRIMROSE                   : Well_name    - WELL
LOC .         00/05-04-069-04W4/0            : Location     - LOCATION
UWI .         00/05-04-069-04W4/0            : Uwi          - UNIQUE WELL ID
ENTR.         SP                             : Entered      - ENTERED BY
SRVC.         SCHLUMBERGER                   : Scn          - SERVICE COMPANY
STRT.M        350                            : top_depth    - START DEPTH
STOP.M        615                            : bot_depth    - STOP DEPTH
STEP.M        0.25                           : increment    - STEP LENGTH
 NULL. -999.2500:NULL Value
~CURVE INFORMATION BLOCK
#MNEM UNIT       ERCB CURVE CODE    CURVE DESCRIPTION
#-----------   ------------------   ----------------------------------
DEPT.M        00 001 00 00         : DEPTH        - DEPTH
ILD .OHMM     00 120 00 00         : RESD         - DEEP RESISTIVITY (DIL)
DPHI.V/V      00 890 00 00         : PHID         - DENSITY POROSITY (LIMESTONE)
NPHI.V/V      00 330 00 00         : PHIN         - NEUTRON POROSITY (LIMESTONE)
GR  .API      00 310 00 00         : GR           - GAMMA RAY
~PARAMETER INFORMATION
#MNEM.UNIT           DATA             DESCRIPTION OF MNEMONIC
#---------         -----------     ------------------------------
GL  .M        724.4                : gl           - GROUND LEVEL ELEVATION
EREF.M        728.1                : kb           - ELEVATION OF DEPTH REFERENCE
DATM.M        724.4                : datum        - DATUM ELEVATION
TDD .M        625                  : tdd          - TOTAL DEPTH DRILLER
RUN .         ONE                  : Run          - RUN NUMBER
ENG .         BILL                 : Engineer     - RECORDING ENGINEER
WIT .         JIM                  : Witness      - WITNESSED BY
MUD .         GEL                  : Mud_type     - MUD TYPE
MATR.         LIMESTONE            : Logunit      - NEUTRON MATRIX
TMAX.C        23                   : BHT          - MAXIMUM RECORDED TEMPERATURE
BHTD.M        625                  : BHTDEP       - MAXIMUM RECORDED TEMPERATURE
MATR.         1                    : LOGUNIT      - NEUTRON MATRIX
RMT .C        25                   : MDTP         - TEMPERATURE OF MUD
NEUT.         1                    : NEUTRON      - NEUTRON TYPE
RESI.         0                    : RESIST       - RESISTIVITY TYPE
RMC .OHMM     0.25                 : RMC          - RESISTIVITY OF MUD CAKE
RMF .OHMM     0.25                 : RMF          - RESISTIVITY OF MUD FILTRATE
SUFT.C        15                   : SUFT         - SURFACE TEMPERATURE
~A  DEPTH     RESD     PHID     PHIN       GR
# ...
  393.500    8.072    0.319    0.406   39.773
  393.750    7.890    0.324    0.429   41.426
  394.000    7.785    0.325    0.443   42.774
  394.250    7.784    0.317    0.436   42.902
  394.500    7.812    0.308    0.436   43.517
  394.750    7.898    0.294    0.436   59.615
  395.000    7.987    0.284    0.428   73.641
  395.250    8.015    0.278    0.421   80.719
  395.500    7.984    0.279    0.417   84.443
  395.750    7.982    0.268    0.413   87.131
  396.000    7.980    0.261    0.410   88.722
  396.250    7.979    0.256    0.405   89.826
  396.500    7.962    0.255    0.403   86.724
  396.750    7.975    0.254    0.404   81.427
  397.000    8.004    0.289    0.412   74.668
  397.250    8.047    0.299    0.418   71.017
  397.500    8.077    0.284    0.399   77.303
  397.750    8.151    0.259    0.381   81.636
  398.000    8.211    0.247    0.380   86.093
  398.250    8.272    0.241    0.383   89.085
  398.500    8.332    0.235    0.387   89.518
  398.750    8.362    0.226    0.400   87.696
  399.000    8.329    0.211    0.409   86.058
  399.250    8.249    0.189    0.406   83.809
  399.500    8.139    0.233    0.400   77.537
  399.750    8.016    0.286    0.393   73.399
  400.000    7.850    0.298    0.385   68.651
  400.250    7.732    0.301    0.422   65.244
  400.500    7.586    0.293    0.417   69.944
  400.750    7.414    0.286    0.408   73.607
  401.000    7.344    0.277    0.401   69.043
  401.250    7.246    0.281    0.393   64.112
  401.500    7.190    0.294    0.401   60.583
  401.750    7.175    0.288    0.415   65.101
  402.000    7.188    0.279    0.406   69.070
  402.250    7.240    0.272    0.398   71.513
  402.500    7.294    0.266    0.393   71.946
  402.750    7.361    0.259    0.391   67.808
  403.000    7.388    0.285    0.411   61.171
  403.250    7.414    0.304    0.410   55.326
  403.500    7.412    0.300    0.400   52.833
  403.750    7.410    0.298    0.411   52.230
  404.000    7.381    0.322    0.422   48.458
  404.250    7.365    0.332    0.407   43.953
  404.500    7.323    0.329    0.394   51.335
  404.750    7.280    0.328    0.383   55.730
  405.000    7.183    0.334    0.380   52.140
  405.250    7.115    0.343    0.379   42.944
  405.500    7.020    0.332    0.381   43.986
  405.750    6.927    0.306    0.407   76.907
  406.000    6.899    0.272    0.430   89.591
  406.250    7.003    0.257    0.450   91.975
  406.500    7.408    0.254    0.461   90.214
  406.750    7.691    0.252    0.459   89.915
  407.000    7.762    0.244    0.461   94.676
  407.250    7.688    0.242    0.471   97.730
  407.500    7.543    0.250    0.480   97.737
  407.750    7.387    0.254    0.490   97.805
  408.000    7.248    0.257    0.486   99.275
  408.250    7.084    0.243    0.468   99.280
  408.500    6.938    0.229    0.456   98.677
  408.750    6.858    0.230    0.468  102.341
  409.000    6.844    0.265    0.478  105.335
  409.250    6.855    0.281    0.481  106.194
  409.500    6.919    0.277    0.480  100.715
  409.750    7.075    0.276    0.475   96.271
  410.000    7.141    0.276    0.443   96.095
  410.250    7.234    0.280    0.436   97.383
  410.500    7.370    0.285    0.442   98.669
  410.750    7.481    0.283    0.444   99.894
  411.000    7.578    0.281    0.444  100.632
  411.250    7.634    0.274    0.458  101.248
  411.500    7.590    0.268    0.462  100.340
  411.750    7.588    0.274    0.444   94.617
  412.000    7.487    0.279    0.441   91.027
  412.250    7.374    0.283    0.451   94.813
  412.500    7.221    0.285    0.452   97.440
  412.750    7.032    0.284    0.444   96.776
  413.000    6.745    0.278    0.465   93.431
  413.250    6.531    0.276    0.479   95.448
  413.500    6.313    0.263    0.484   94.602
  413.750    6.229    0.253    0.484   90.159
  414.000    6.181    0.277    0.492   86.812
  414.250    6.179    0.293    0.481   83.954
  414.500    6.331    0.295    0.474   84.692
  414.750    6.536    0.281    0.469   84.577
  415.000    6.798    0.273    0.458   83.486
  415.250    6.965    0.275    0.465   81.359
  415.500    7.204    0.273    0.477   77.526
  415.750    7.549    0.184    0.393   69.487
  416.000    7.837    0.139    0.340   61.508
  416.250    8.030    0.232    0.331   56.212
  416.500    7.998    0.279    0.389   62.496
  416.750    7.967    0.327    0.416   65.733
  417.000    7.787    0.351    0.426   65.191
  417.250    7.483    0.363    0.436   63.857
  417.500    7.219    0.355    0.426   63.436
  417.750    7.070    0.347    0.440   62.895
  418.000    6.949    0.342    0.455   61.743
  418.250    6.883    0.339    0.465   62.542
  418.500    6.894    0.338    0.457   64.072
  418.750    6.906    0.344    0.451   58.410
  419.000    6.904    0.349    0.446   55.186
  419.250    6.903    0.347    0.450   59.033
  419.500    6.889    0.345    0.461   63.671
  419.750    6.849    0.345    0.453   68.432
  420.000    6.822    0.343    0.453   73.680
  420.250    6.756    0.335    0.460   77.405
  420.500    6.717    0.324    0.456   76.741
  420.750    6.678    0.306    0.445   77.174
  421.000    6.626    0.305    0.450   79.254
  421.250    6.613    0.309    0.459   81.394
  421.500    6.636    0.308    0.443   83.960
  421.750    6.672    0.309    0.435   84.393
  422.000    6.709    0.316    0.432   81.961
  422.250    6.733    0.325    0.449   79.712
  422.500    6.744    0.332    0.462   78.317
  422.750    6.730    0.331    0.471   77.896
  423.000    6.729    0.324    0.462   74.794
  423.250    6.740    0.320    0.453   78.824
  423.500    6.701    0.319    0.459   81.757
  423.750    6.662    0.325    0.469   81.153
  424.000    6.623    0.332    0.466   80.063
  424.250    6.597    0.339    0.465   79.886
  424.500    6.595    0.334    0.471   77.394
  424.750    6.606    0.328    0.465   72.463
  425.000    6.593    0.335    0.463   68.934
  425.250    6.566    0.343    0.477   66.502
  425.500    6.577    0.349    0.495   64.924
  425.750    6.601    0.352    0.480   64.504
  426.000    6.587    0.355    0.472   64.389
  426.250    6.573    0.355    0.469   64.273
  426.500    6.523    0.354    0.467   64.585
  426.750    6.460    0.347    0.454   64.896
  427.000    6.362    0.333    0.447   65.146
  427.250    6.290    0.316    0.471   64.116
  427.500    6.171    0.177    0.489   59.734
  427.750    6.055    0.084    0.340   51.329
  428.000    5.986    0.062    0.250   46.033
  428.250    6.501    0.143    0.246   47.320
  428.500    7.236    0.340    0.340   50.862
  428.750    7.626    0.357    0.413   52.818
  429.000    7.316    0.365    0.444   51.484
  429.250    6.758    0.369    0.452   49.966
  429.500    6.434    0.359    0.442   50.582
  429.750    6.148    0.342    0.442   51.443
  430.000    6.055    0.332    0.444   51.754
  430.250    6.043    0.336    0.449   52.430
  430.500    6.064    0.326    0.427   51.462
  430.750    6.178    0.314    0.397   52.626
  431.000    6.294    0.303    0.386   55.132
  431.250    6.340    0.299    0.397   59.649
  431.500    6.387    0.296    0.413   64.409
  431.750    6.398    0.296    0.425   69.475
  432.000    6.385    0.301    0.428   73.931
  432.250    6.347    0.292    0.424   76.863
  432.500    6.275    0.277    0.424   77.235
  432.750    6.203    0.264    0.445   77.669
  433.000    6.086    0.256    0.454   80.967
  433.250    5.994    0.252    0.457   82.801
  433.500    5.948    0.258    0.451   82.382
  433.750    5.891    0.264    0.447   80.682
  434.000    5.823    0.269    0.449   77.152
  434.250    5.757    0.272    0.450   72.771
  434.500    5.670    0.267    0.456   73.204
  434.750    5.573    0.261    0.466   76.380
  435.000    5.520    0.266    0.451   77.300
  435.250    5.571    0.255    0.441   75.418
  435.500    5.612    0.246    0.434   72.193
  435.750    5.632    0.280    0.461   65.617
  436.000    5.663    0.333    0.461   59.467
  436.250    5.704    0.353    0.446   54.780
  436.500    5.682    0.359    0.436   53.629
  436.750    5.681    0.363    0.439   55.830
