~VERSION INFORMATION
 VERS.                 2.0:   CWLS LOG ASCII STANDARD -VERSION 2.0
 WRAP.                  NO:   ONE LINE PER DEPTH STEP
~WELL INFORMATION BLOCK
#MNEM.UNIT           DATA                    DESCRIPTION OF MNEMONIC
#---------    -------------------            -------------------------------
# Generated from Intellog Unique Number	CN_94_101/WELL/2610
WELL.         PARAMOUNT RESOURCES LTD.       : Well_name    - WELL
LOC .         00/08-16-094-18W4/0            : Location     - LOCATION
UWI .         00/08-16-094-18W400            : Uwi          - UNIQUE WELL ID
ENTR.         JOETTE                         : Entered      - ENTERED BY
SRVC.         COMPUTALOG                     : Scn          - SERVICE COMPANY
DATE.         06/18/92                       : Date         - LOG DATE
STRT.M        90                             : top_depth    - START DEPTH
STOP.M        268                            : bot_depth    - STOP DEPTH
STEP.M        0.25                           : increment    - STEP LENGTH
 NULL. -999.2500:NULL Value
~CURVE INFORMATION BLOCK
#MNEM UNIT       ERCB CURVE CODE    CURVE DESCRIPTION
#-----------   ------------------   ----------------------------------
DEPT.M        00 001 00 00         : DEPTH        - DEPTH
CALI.MM       00 280 01 00         : CAL          - CALIPER
GR  .API      00 310 00 00         : GR           - GAMMA RAY
NPHI.V/V      00 330 00 00         : PHIN         - NEUTRON POROSITY (SANDSTONE)
DPHI.V/V      00 890 00 00         : PHID         - DENSITY POROSITY (SANDSTONE)
ILD .OHMM     00 120 00 00         : RESD         - DEEP RESISTIVITY (DIL)
~PARAMETER INFORMATION
#MNEM.UNIT           DATA             DESCRIPTION OF MNEMONIC
#---------         -----------     ------------------------------
GL  .M        537.5                : gl           - GROUND LEVEL ELEVATION
EREF.M        541.3                : kb           - ELEVATION OF DEPTH REFERENCE
DATM.M        541.3                : datum        - DATUM ELEVATION
TDD .M        269                  : tdd          - TOTAL DEPTH DRILLER
RUN .         ONE                  : Run          - RUN NUMBER
ENG .         JO                   : Engineer     - RECORDING ENGINEER
WIT .         TIM                  : Witness      - WITNESSED BY
MUD .         GEL                  : Mud_type     - MUD TYPE
MATR.         SANDSTONE            : Logunit      - NEUTRON MATRIX
TMAX.C        26                   : BHT          - MAXIMUM RECORDED TEMPERATURE
BHTD.M        269                  : BHTDEP       - MAXIMUM RECORDED TEMPERATURE
RMT .C        14.4                 : MDTP         - TEMPERATURE OF MUD
MUDD.KG/M     1080                 : MWT          - MUD DENSITY
NEUT.         1                    : NEUTRON      - NEUTRON TYPE
RESI.         0                    : RESIST       - RESISTIVITY TYPE
RM  .OHMM     3                    : RM           - RESISTIVITY OF MUD
RMC .OHMM     3                    : RMC          - RESISTIVITY OF MUD CAKE
RMF .OHMM     3                    : RMF          - RESISTIVITY OF MUD FILTRATE
SUFT.C        4                    : SUFT         - SURFACE TEMPERATURE
~A  DEPTH      CAL       GR     PHIN     PHID     RESD
# ...
  163.000  165.773  100.067    0.479    0.294    3.672
  163.250  163.904   97.131    0.474    0.294    4.115
  163.500  161.983   92.996    0.452    0.287    4.438
  163.750  158.141   89.460    0.438    0.282    5.160
  164.000  158.219   85.325    0.449    0.304    6.115
  164.250  158.323   81.774    0.459    0.305    6.847
  164.500  158.427   78.838    0.454    0.280    7.816
  164.750  158.505   76.502    0.435    0.208    8.433
  165.000  159.661   72.982    0.397    0.156    9.106
  165.250  159.713   73.044    0.395    0.117    9.115
  165.500  162.841   76.705    0.419    0.244    9.128
  165.750  163.918   81.564    0.435    0.257    8.483
  166.000  167.073   87.023    0.435    0.269    7.738
  166.250  167.151   87.686    0.428    0.273    7.465
  166.500  168.254   86.564    0.416    0.275    7.618
  166.750  168.358   87.226    0.401    0.277    7.767
  167.000  167.463   87.888    0.389    0.271    8.074
  167.250  166.593   89.750    0.443    0.261    7.789
  167.500  164.724   98.207    0.464    0.259    7.107
  167.750  163.777  100.668    0.479    0.262    6.727
  168.000  160.883   91.736    0.476    0.273    6.254
  168.250  156.989   85.186    0.443    0.300    6.035
  168.500  154.121   77.453    0.430    0.332    6.155
  168.750  154.251   72.734    0.453    0.316    6.769
  169.000  154.303   72.812    0.482    0.306    7.166
  169.250  155.406   72.843    0.475    0.315    7.587
  169.500  156.535   70.507    0.467    0.327    8.035
  169.750  157.639   67.571    0.452    0.324    8.510
  170.000  158.768   64.635    0.441    0.268    9.015
  170.250  159.846   62.914    0.437    0.251    9.548
  170.500  160.949   64.776    0.441    0.234    9.925
  170.750  162.026   67.821    0.452    0.205    9.942
  171.000  164.155   71.481    0.454    0.295    9.588
  171.250  165.233   78.755    0.488    0.301    6.248
  171.500  166.336   83.015    0.500    0.298    5.490
  171.750  167.465   89.089    0.498    0.266    4.647
  172.000  167.569   91.550    0.493    0.243    4.162
  172.250  166.700   91.597    0.495    0.255    4.167
  172.500  166.778   92.259    0.506    0.251    4.333
  172.750  166.960   94.136    0.497    0.247    4.588
  173.000  166.986   94.798    0.484    0.253    4.861
  173.250  168.115   94.276    0.481    0.264    5.050
  173.500  168.219   94.355    0.477    0.258    5.350
  173.750  167.324   94.985    0.470    0.248    5.772
  174.000  168.427   96.847    0.467    0.248    6.000
  174.250  169.505   98.724    0.500    0.254    6.122
  174.500  168.609   96.972    0.519    0.222    6.365
  174.750  165.715   84.441    0.468    0.187    6.617
  175.000  162.847   73.094    0.442    0.185    7.008
  175.250  161.951   70.159    0.369    0.293    7.564
  175.500  162.029   75.618    0.408    0.305    7.860
  175.750  162.133   85.290    0.439    0.303    8.173
  176.000  163.237   84.769    0.444    0.291    8.333
  176.250  163.341   83.032    0.445    0.259    8.661
  176.500  162.445   81.895    0.438    0.236    9.006
  176.750  159.551   83.772    0.457    0.229    9.362
  177.000  158.681   85.018    0.474    0.235    9.915
  177.250  158.759   87.479    0.468    0.256   10.501
  177.500  159.889   88.126    0.456    0.255   11.552
  177.750  160.966   86.389    0.437    0.255   11.999
  178.000  162.096   78.656    0.414    0.250   12.477
  178.250  162.200   70.323    0.371    0.213   12.495
  178.500  158.306   63.174    0.346    0.108   11.393
  178.750  154.412   60.854    0.378    0.201   10.011
  179.000  153.517   63.299    0.412    0.231    9.311
  179.250  154.646   70.573    0.412    0.265    9.145
  179.500  155.750   76.632    0.403    0.277    9.164
  179.750  158.852   80.892    0.407    0.287    9.170
  180.000  160.929   78.571    0.432    0.284    9.016
  180.250  162.032   79.233    0.432    0.273    8.701
  180.500  163.135   82.893    0.420    0.262    8.391
  180.750  166.238   85.370    0.404    0.262    7.942
  181.000  164.343   84.833    0.420    0.271    7.115
  181.250  160.475   85.510    0.433    0.266    6.735
  181.500  157.581   86.141    0.427    0.270    6.375
  181.750  155.686   86.819    0.428    0.277    5.926
  182.000  156.789   86.282    0.463    0.275    5.823
  182.250  158.892   86.928    0.474    0.273    5.515
  182.500  160.995   92.987    0.483    0.277    5.124
  182.750  162.098   95.479    0.491    0.284    4.504
  183.000  162.202   92.543    0.505    0.296    4.263
  183.250  163.306   90.176    0.519    0.301    4.113
  183.500  165.409   84.242    0.508    0.296    4.693
  183.750  165.539   76.509    0.493    0.287    7.091
  184.000  163.644   68.775    0.473    0.291    7.790
  184.250  160.749   67.670    0.461    0.308    9.057
  184.500  157.881   68.900    0.445    0.328   10.732
  184.750  155.934   73.192    0.441    0.322   12.247
  185.000  154.065   74.422    0.445    0.309   11.815
  185.250  153.170   76.883    0.438    0.261   10.777
  185.500  153.274   78.744    0.426    0.248    9.470
  185.750  155.377   82.420    0.425    0.253    8.325
  186.000  157.506   87.879    0.438    0.260    7.453
  186.250  158.557   94.538    0.455    0.272    7.185
  186.500  158.661   95.200    0.465    0.278    6.435
  186.750  158.765   86.883    0.449    0.281    6.091
  187.000  157.896   83.947    0.445    0.271    5.767
  187.250  156.974   83.410    0.463    0.268    6.112
  187.500  156.105   84.072    0.463    0.274    6.717
  187.750  156.183   84.734    0.460    0.282    7.386
  188.000  156.339   84.796    0.464    0.288    7.820
  188.250  156.417   80.645    0.455    0.252    8.927
  188.500  156.521   72.912    0.438    0.210    9.814
  188.750  156.625   65.763    0.440    0.162   10.785
  189.000  156.729   60.429    0.310    0.139   12.079
  189.250  156.833   58.093    0.267    0.121   13.534
  189.500  156.937   71.963    0.364    0.107   12.345
  189.750  159.039   84.018    0.423    0.159   11.053
  190.000  161.142   93.091    0.427    0.233    8.365
  190.250  162.272   96.751    0.426    0.248    7.918
  190.500  163.375   93.231    0.427    0.265    7.091
  190.750  162.506   90.280    0.430    0.282    6.231
  191.000  161.558   87.344    0.436    0.291    5.791
  191.250  159.663   87.406    0.450    0.254    5.587
  191.500  158.768   89.268    0.459    0.240    5.389
  191.750  158.872   91.729    0.455    0.242    5.103
  192.000  161.001   91.191    0.445    0.238    4.923
  192.250  162.104   88.855    0.447    0.228    4.492
  192.500  162.208   93.115    0.468    0.233    4.330
  192.750  161.313  101.588    0.528    0.231    4.180
  193.000  160.443  105.264    0.546    0.211    4.263
  193.250  160.495  101.113    0.537    0.187    4.430
  193.500  161.625   92.181    0.413    0.141    5.248
  193.750  161.729   86.231    0.389    0.109    6.219
  194.000  160.833   79.713    0.394    0.084    7.096
  194.250  157.939   75.562    0.341    0.047    7.954
  194.500  153.098   63.016    0.376    0.051    8.112
  194.750  153.150   56.483    0.415    0.061    8.123
  195.000  155.252   78.748    0.435    0.147    8.132
  195.250  159.380   93.817    0.451    0.215    8.143
  195.500  162.456   93.895    0.443    0.230    8.786
  195.750  165.559   96.356    0.416    0.235    9.845
  196.000  165.689  100.001    0.398    0.236   10.230
  196.250  164.793  104.876    0.402    0.238   11.046
  196.500  162.924  104.339    0.406    0.239   11.053
  196.750  161.977  100.203    0.402    0.239   11.277
  197.000  161.081   94.869    0.401    0.234   11.951
  197.250  160.186   94.316    0.404    0.238   12.657
  197.500  159.291   93.195    0.403    0.239   12.918
  197.750  159.395   90.843    0.387    0.229   12.688
  198.000  160.524   89.706    0.373    0.232   11.153
  198.250  161.601   91.583    0.411    0.232   10.170
  198.500  163.756   92.845    0.436    0.221    9.448
  198.750  168.883   94.106    0.435    0.221    8.621
  199.000  169.935   96.567    0.430    0.227    8.473
  199.250  171.038   99.028    0.438    0.230    8.488
