~VERSION INFORMATION
 VERS.                 2.0:   CWLS LOG ASCII STANDARD -VERSION 2.0
 WRAP.                  NO:   ONE LINE PER DEPTH STEP
~WELL INFORMATION BLOCK
#MNEM.UNIT           DATA                    DESCRIPTION OF MNEMONIC
#---------    -------------------            -------------------------------
# Generated from Intellog Unique Number	CW_82_90/WELL/591
WELL.         07-11-082-20W4                 : Well_name    - WELL
LOC .         00/07-11-082-20W4/0            : Location     - LOCATION
UWI .         00/07-11-082-20W4/0            : Uwi          - UNIQUE WELL ID
ENTR.         JAYE                           : Entered      - ENTERED BY
SRVC.         SCHLUMBERGER                   : Scn          - SERVICE COMPANY
DATE.         07 FEB 77                      : Date         - LOG DATE
STRT.M        182.88                         : top_depth    - START DEPTH
STOP.M        373.13                         : bot_depth    - STOP DEPTH
STEP.M        0.25                           : increment    - STEP LENGTH
 NULL. -999.2500:NULL Value
~CURVE INFORMATION BLOCK
#MNEM UNIT       ERCB CURVE CODE    CURVE DESCRIPTION
#-----------   ------------------   ----------------------------------
DEPT.M        00 001 00 00         : DEPTH        - DEPTH
CALI.MM       00 280 01 00         : CAL          - CALIPER
GR  .API      00 310 00 00         : GR           - GAMMA RAY
NPHI.V/V      00 330 00 00         : PHIN         - NEUTRON POROSITY (SANDSTONE)
DPHI.V/V      00 890 00 00         : PHID         - DENSITY POROSITY (SANDSTONE)
ILD .OHMM     00 120 00 00         : RESD         - DEEP RESISTIVITY (DIL)
~PARAMETER INFORMATION
#MNEM.UNIT           DATA             DESCRIPTION OF MNEMONIC
#---------         -----------     ------------------------------
GL  .M        572.719              : gl           - GROUND LEVEL ELEVATION
EREF.M        581.863              : kb           - ELEVATION OF DEPTH REFERENCE
DATM.M        572.719              : datum        - DATUM ELEVATION
TDD .M        384.048              : tdd          - TOTAL DEPTH DRILLER
RUN .         ONE                  : Run          - RUN NUMBER
ENG .         CERANTOIA            : Engineer     - RECORDING ENGINEER
WIT .         GRAHAM               : Witness      - WITNESSED BY
BASE.         EDMONTON             : Branch       - HOME BASE OF LOGGING UNIT
MUD .         GEL CHEM             : Mud_type     - MUD TYPE
MATR.         SANDSTONE            : Logunit      - NEUTRON MATRIX
TMAX.C        24.4444              : BHT          - MAXIMUM RECORDED TEMPERATURE
BHTD.M        375.514              : BHTDEP       - MAXIMUM RECORDED TEMPERATURE
RMT .C        24.4444              : MDTP         - TEMPERATURE OF MUD
MUDD.KG/M     0                    : MWT          - MUD DENSITY
NEUT.         1                    : NEUTRON      - NEUTRON TYPE
RESI.         0                    : RESIST       - RESISTIVITY TYPE
RM  .OHMM     5                    : RM           - RESISTIVITY OF MUD
RMC .OHMM     5                    : RMC          - RESISTIVITY OF MUD CAKE
RMF .OHMM     5                    : RMF          - RESISTIVITY OF MUD FILTRATE
SUFT.C        4                    : SUFT         - SURFACE TEMPERATURE
~A  DEPTH      CAL       GR     PHIN     PHID     RESD
# ...
  328.880  153.432  107.125    0.479    0.201    8.669
  329.130  153.379  108.055    0.481    0.206    8.367
  329.380  153.214  108.915    0.465    0.198    8.286
  329.630  153.275  109.983    0.471    0.189    8.071
  329.880  153.555  108.234    0.492    0.190    7.891
  330.130  153.869  105.021    0.510    0.190    7.743
  330.380  154.156  108.092    0.503    0.181    7.611
  330.630  154.318  112.121    0.466    0.159    7.564
  330.880  154.048  110.846    0.459    0.198    7.697
  331.130  154.092  103.787    0.476    0.200    7.833
  331.380  154.035  100.441    0.474    0.198    7.927
  331.630  154.677   97.514    0.469    0.188    7.922
  331.880  155.094   98.794    0.465    0.190    7.843
  332.130  155.960  106.541    0.492    0.165    7.682
  332.380  156.719  113.329    0.494    0.134    7.321
  332.630  155.738  115.504    0.487    0.230    7.196
  332.880  156.498  110.365    0.473    0.228    7.217
  333.130  163.398  104.002    0.513    0.240    7.225
  333.380  177.854  102.448    0.533    0.274    7.154
  333.630  175.018  101.310    0.504    0.281    6.945
  333.880  149.888  102.238    0.440    0.252    6.926
  334.130  152.270  107.512    0.426    0.205    7.203
  334.380  155.807  112.641    0.469    0.271    7.466
  334.630  153.315  109.024    0.477    0.319    7.808
  334.880  156.742  102.995    0.508    0.310    8.003
  335.130  163.535   99.722    0.466    0.279    7.996
  335.380  135.617   98.311    0.432    0.265    7.691
  335.630  134.640   96.967    0.418    0.257    7.506
  335.880  140.497   95.901    0.396    0.209    7.486
  336.130  143.695   91.799    0.412    0.215    8.224
  336.380  142.488   87.149    0.410    0.221    9.317
  336.630  141.490   79.742    0.393    0.232   10.197
  336.880  140.631   72.682    0.392    0.226   10.821
  337.130  140.687   65.551    0.381    0.185   11.907
  337.380  141.558   65.312    0.344    0.155   12.868
  337.630  142.439   67.553    0.306    0.079   14.187
  337.880  142.959   67.516    0.294    0.060   15.898
  338.130  143.833   68.169    0.291    0.063   17.783
  338.380  144.359   72.199    0.316    0.069   19.570
  338.630  144.188   78.781    0.372    0.104   20.059
  338.880  142.855   78.333    0.397    0.166   19.222
  339.130  141.524   74.925    0.399    0.182   17.506
  339.380  141.925   68.548    0.362    0.154   15.513
  339.630  144.776   63.144    0.340    0.130   13.522
  339.880  146.924   58.772    0.322    0.085   12.769
  340.130  146.758   56.187    0.308    0.091   12.761
  340.380  145.767   52.702    0.286    0.082   13.515
  340.630  145.264   46.883    0.267    0.066   14.633
  340.880  144.960   49.682    0.249    0.045   17.162
  341.130  144.689   54.464    0.248    0.039   19.622
  341.380  144.501   60.558    0.256    0.038   22.273
  341.630  144.449   69.552    0.277    0.142   22.500
  341.880  147.290   82.058    0.428    0.192   19.017
  342.130  153.045   88.293    0.441    0.221   15.582
  342.380  152.299   89.366    0.449    0.209   13.217
  342.630  148.167   88.914    0.450    0.226   11.417
  342.880  137.083   89.500    0.450    0.188   10.511
  343.130  143.068   91.948    0.449    0.184   10.183
  343.380  148.586   92.741    0.444    0.199   10.120
  343.630  150.855   91.542    0.439    0.182    9.804
  343.880  151.728   89.503    0.425    0.177    9.886
  344.130  151.443   85.816    0.414    0.183   10.096
  344.380  150.697   85.436    0.402    0.178   10.368
  344.630  150.522   83.685    0.393    0.162   10.646
  344.880  150.826   85.513    0.429    0.163   10.717
  345.130  151.466   84.508    0.426    0.183   10.769
  345.380  152.202   83.657    0.421    0.183   10.547
  345.630  152.726   84.169    0.429    0.173   10.636
  345.880  153.837   85.441    0.438    0.199   10.378
  346.130  154.255   84.787    0.440    0.210    9.573
  346.380  154.306   86.680    0.434    0.200    9.273
  346.630  153.913   86.165    0.428    0.182    9.452
  346.880  153.740   82.894    0.410    0.171    9.743
  347.130  153.807   84.652    0.403    0.173   10.022
  347.380  154.201   89.229    0.438    0.183   10.052
  347.630  154.724   92.098    0.439    0.199    9.901
  347.880  155.252   91.095    0.443    0.205    9.182
  348.130  156.357   91.682    0.450    0.172    8.608
  348.380  156.998   92.817    0.440    0.179    8.294
  348.630  157.877   95.192    0.445    0.162    8.050
  348.880  159.557   99.224    0.438    0.172    7.912
  349.130  160.549   99.468    0.428    0.186    8.008
  349.380  160.144   98.060    0.441    0.190    8.150
  349.630  159.618   96.984    0.455    0.196    8.233
  349.880  158.643   98.539    0.468    0.187    8.272
  350.130  158.691   98.365    0.472    0.202    8.221
  350.380  158.999  100.120    0.455    0.213    8.008
  350.630  165.083  105.324    0.445    0.196    7.872
  350.880  168.862  105.156    0.492    0.180    7.599
  351.130  169.855  102.298    0.478    0.229    7.097
  351.380  167.352  103.773    0.491    0.229    6.827
  351.630  170.900  108.221    0.531    0.235    6.577
  351.880  173.169  108.463    0.538    0.239    6.501
  352.130  160.453  106.499    0.513    0.265    6.520
  352.380  168.645  107.496    0.475    0.243    6.586
  352.630  178.338  105.396    0.476    0.223    6.654
  352.880  160.635   95.921    0.448    0.286    6.845
  353.130  150.717   84.793    0.433    0.158    6.966
  353.380  148.914   85.937    0.382    0.088    7.487
  353.630  149.333   90.925    0.358    0.065    8.405
  353.880  149.386   98.609    0.381    0.090    9.947
  354.130  148.867  103.329    0.407    0.177   11.478
  354.380  148.124  107.019    0.402    0.194   13.269
  354.630  147.832  108.846    0.407    0.175   16.767
  354.880  147.657  106.121    0.407    0.162   16.782
  355.130  147.028   98.307    0.395    0.140   16.262
  355.380  146.846   95.029    0.362    0.124   16.129
  355.630  147.029   95.209    0.366    0.126   16.326
  355.880  148.498   93.858    0.426    0.168   16.614
  356.130  149.353   91.549    0.429    0.190   16.938
  356.380  150.342   90.693    0.408    0.202   17.205
  356.630  144.825   78.943    0.377    0.194   17.508
  356.880  143.149   64.988    0.369    0.201   17.683
  357.130  142.404   50.828    0.365    0.237   17.702
  357.380  141.886   40.048    0.358    0.249   17.918
  357.630  141.476   36.360    0.342    0.272   19.013
  357.880  141.416   35.157    0.334    0.274   20.434
  358.130  141.590   32.640    0.373    0.270   23.362
  358.380  142.814   33.025    0.384    0.281   26.663
  358.630  145.200   33.892    0.396    0.275   29.666
  358.880  144.576   35.090    0.405    0.256   33.241
  359.130  144.624   35.534    0.409    0.247   33.882
  359.380  144.568   35.504    0.417    0.257   34.106
  359.630  145.438   36.164    0.421    0.256   34.269
  359.880  145.729   34.951    0.417    0.263   34.062
  360.130  148.360   36.234    0.424    0.273   33.545
  360.380  148.061   37.435    0.421    0.280   32.375
  360.630  147.187   38.913    0.413    0.282   31.424
  360.880  148.062   44.600    0.410    0.255   30.388
  361.130  150.000   52.282    0.409    0.263   29.070
  361.380  150.627   58.795    0.409    0.270   27.205
  361.630  152.084   62.554    0.419    0.256   25.693
  361.880  153.419   66.029    0.425    0.244   24.134
  362.130  153.709   73.573    0.414    0.238   22.341
  362.380  151.335   81.051    0.410    0.229   19.474
  362.630  152.548   91.903    0.410    0.218   13.819
  362.880  160.277   99.244    0.438    0.204   11.744
  363.130  171.016   99.834    0.435    0.214   10.107
  363.380  182.219   98.830    0.433    0.217    8.604
  363.630  178.449   98.242    0.441    0.224    7.709
  363.880  181.183  100.005    0.468    0.220    6.719
  364.130  183.683  102.377    0.487    0.221    6.075
  364.380  167.142  105.032    0.495    0.221    5.267
  364.630  165.688  103.551    0.488    0.196    4.744
  364.880  165.517  100.070    0.477    0.113    4.688
  365.130  144.450   95.557    0.415    0.087    5.020
