~VERSION INFORMATION
 VERS.                 2.0:   CWLS LOG ASCII STANDARD -VERSION 2.0
 WRAP.                  NO:   ONE LINE PER DEPTH STEP
~WELL INFORMATION BLOCK
#MNEM.UNIT           DATA                    DESCRIPTION OF MNEMONIC
#---------    -------------------            -------------------------------
# Generated from Intellog Unique Number	CX_WELLS/WELL/3016
WELL.         TRITON ET AL DIVIDE            : Well_name    - WELL
LOC .         00/06-22-082-12W4/0            : Location     - LOCATION
UWI .         00/06-22-082-12W400            : Uwi          - UNIQUE WELL ID
ENTR.         T                              : Entered      - ENTERED BY
SRVC.         SCHLUMBERGER                   : Scn          - SERVICE COMPANY
DATE.         03/04/92                       : Date         - LOG DATE
STRT.M        295                            : top_depth    - START DEPTH
STOP.M        515                            : bot_depth    - STOP DEPTH
STEP.M        0.25                           : increment    - STEP LENGTH
 NULL. -999.2500:NULL Value
~CURVE INFORMATION BLOCK
#MNEM UNIT       ERCB CURVE CODE    CURVE DESCRIPTION
#-----------   ------------------   ----------------------------------
DEPT.M        00 001 00 00         : DEPTH        - DEPTH
GR  .API      00 310 00 00         : GR           - GAMMA RAY
NPHI.V/V      00 330 00 00         : PHIN         - NEUTRON POROSITY (SANDSTONE)
DPHI.V/V      00 890 00 00         : PHID         - DENSITY POROSITY (SANDSTONE)
ILD .OHMM     00 120 00 00         : RESD         - DEEP RESISTIVITY (OTHER)
~PARAMETER INFORMATION
#MNEM.UNIT           DATA             DESCRIPTION OF MNEMONIC
#---------         -----------     ------------------------------
GL  .M        740.69               : gl           - GROUND LEVEL ELEVATION
EREF.M        744.42               : kb           - ELEVATION OF DEPTH REFERENCE
DATM.M        744.42               : datum        - DATUM ELEVATION
TDD .M        526                  : tdd          - TOTAL DEPTH DRILLER
RUN .         ONE                  : Run          - RUN NUMBER
ENG .         JO                   : Engineer     - RECORDING ENGINEER
WIT .         TIM                  : Witness      - WITNESSED BY
MUD .         GEL                  : Mud_type     - MUD TYPE
MATR.         SANDSTONE            : Logunit      - NEUTRON MATRIX
TMAX.C        24                   : BHT          - MAXIMUM RECORDED TEMPERATURE
BHTD.M        526                  : BHTDEP       - MAXIMUM RECORDED TEMPERATURE
RMT .C        24                   : MDTP         - TEMPERATURE OF MUD
MUDD.KG/M     1                    : MWT          - MUD DENSITY
NEUT.         1                    : NEUTRON      - NEUTRON TYPE
RESI.         2.65                 : RESIST       - RESISTIVITY TYPE
RM  .OHMM     2.65                 : RM           - RESISTIVITY OF MUD
RMC .OHMM     1.52                 : RMC          - RESISTIVITY OF MUD CAKE
RMF .OHMM     2.86                 : RMF          - RESISTIVITY OF MUD FILTRATE
SUFT.C        4                    : SUFT         - SURFACE TEMPERATURE
~A  DEPTH       GR     PHIN     PHID     RESD
# ...
  425.500  102.181    0.437    0.238    8.136
  425.750  106.331    0.446    0.233    7.969
  426.000  105.719    0.452    0.230    7.804
  426.250  105.687    0.458    0.227    7.962
  426.500  107.461    0.458    0.223    8.125
  426.750  109.827    0.453    0.221    8.637
  427.000  111.004    0.426    0.221    9.563
  427.250  112.773    0.418    0.221    9.960
  427.500  114.542    0.398    0.212   10.373
  427.750  114.521    0.380    0.159   11.486
  428.000  101.367    0.370    0.068   12.718
  428.250   91.201    0.352    0.052   13.248
  428.500   86.406    0.323    0.100   13.516
  428.750   81.606    0.347    0.146   12.967
  429.000   88.154    0.371    0.192   12.703
  429.250   92.901    0.376    0.201   12.188
  429.500   95.267    0.401    0.204   11.697
  429.750   96.444    0.408    0.205   11.455
  430.000   97.617    0.420    0.205   11.220
  430.250   98.192    0.440    0.204   10.988
  430.500   99.359    0.463    0.203   10.764
  430.750   99.940    0.467    0.204   10.541
  431.000  101.112    0.441    0.205   10.539
  431.250  105.262    0.432    0.206   10.535
  431.500  106.440    0.428    0.211   10.529
  431.750  105.225    0.434    0.214   10.966
  432.000  102.817    0.436    0.218   11.897
  432.250   97.425    0.405    0.227   12.647
  432.500   93.222    0.398    0.251   13.172
  432.750   91.410    0.389    0.257   13.999
  433.000   89.594    0.392    0.266   14.283
  433.250   92.561    0.400    0.261   14.280
  433.500   96.717    0.406    0.234   13.987
  433.750   96.094    0.408    0.231   13.698
  434.000   94.885    0.410    0.231   13.416
  434.250   94.863    0.431    0.228   13.412
  434.500   96.036    0.433    0.222   13.136
  434.750   95.407    0.437    0.228   13.132
  435.000   94.794    0.443    0.236   13.127
  435.250   94.778    0.441    0.242   13.122
  435.500   95.349    0.431    0.244   13.119
  435.750   95.327    0.426    0.217   13.113
  436.000   92.328    0.425    0.195   12.843
  436.250   88.710    0.425    0.215   12.839
  436.500   88.103    0.426    0.221   12.836
  436.750   87.485    0.425    0.230   12.571
  437.000   86.867    0.419    0.232   12.568
  437.250   86.846    0.416    0.236   12.309
  437.500   86.825    0.415    0.236   12.054
  437.750   87.395    0.413    0.232   11.807
  438.000   87.379    0.411    0.229   11.800
  438.250   87.960    0.407    0.225   11.559
  438.500   89.132    0.406    0.219   11.557
  438.750   90.294    0.409    0.217   11.318
  439.000   91.466    0.411    0.215   11.314
  439.250   90.848    0.418    0.217   11.312
  439.500   87.252    0.424    0.218   11.308
  439.750   83.650    0.435    0.183   11.304
  440.000   78.855    0.439    0.199   11.299
  440.250   75.248    0.432    0.220   11.296
  440.500   77.017    0.429    0.241   11.292
  440.750   80.582    0.427    0.244   11.058
  441.000   85.334    0.427    0.247   10.831
  441.250   90.678    0.427    0.250   10.609
  441.500   90.065    0.430    0.252    9.974
  441.750   87.055    0.434    0.253    9.571
  442.000   84.647    0.442    0.251    9.184
  442.250   84.631    0.447    0.250    8.813
  442.500   84.600    0.462    0.245    8.285
  442.750   85.180    0.491    0.243    7.950
  443.000   85.756    0.507    0.239    7.629
  443.250   88.116    0.531    0.237    7.472
  443.500   89.890    0.571    0.233    7.170
  443.750   91.659    0.554    0.226    7.022
  444.000   93.428    0.509    0.219    6.877
  444.250   94.004    0.479    0.206    6.876
  444.500  101.148    0.464    0.210    7.613
  444.750  103.514    0.449    0.220    8.606
  445.000   87.371    0.423    0.227    9.928
  445.250   83.775    0.397    0.218   11.931
  445.500   76.593    0.361    0.161   13.764
  445.750   69.411    0.335    0.001   15.879
  446.000   60.439    0.299    0.027   16.536
  446.250   63.998    0.228    0.074   16.196
  446.500   69.944    0.301    0.127   15.542
  446.750   77.083    0.377    0.212   14.314
  447.000   84.819    0.403    0.228   12.918
  447.250   90.168    0.429    0.213   11.899
  447.500   92.534    0.440    0.201   11.416
  447.750   92.513    0.441    0.202   11.414
  448.000   90.100    0.441    0.198   11.644
  448.250   90.078    0.440    0.187   11.641
  448.500   90.659    0.440    0.183   11.638
  448.750   91.826    0.441    0.190   11.635
  449.000   92.401    0.443    0.198   11.163
  449.250   92.977    0.443    0.199   10.935
  449.500   93.558    0.441    0.176   10.279
  449.750   94.719    0.439    0.168   10.068
  450.000   95.305    0.437    0.168    9.660
  450.250   96.472    0.432    0.191    9.271
  450.500   97.053    0.422    0.197    8.539
  450.750   98.811    0.411    0.194    7.550
  451.000   99.989    0.416    0.199    6.814
  451.250  103.553    0.424    0.208    6.024
  451.500  110.692    0.450    0.209    5.664
  451.750  110.671    0.484    0.213    5.435
  452.000   95.727    0.497    0.219    5.545
  452.250   91.523    0.513    0.228    5.775
  452.500   89.121    0.465    0.244    6.265
  452.750   85.519    0.433    0.249    6.660
  453.000   78.934    0.419    0.213    7.683
  453.250   75.924    0.419    0.214    8.001
  453.500   75.903    0.420    0.213    8.164
  453.750   75.290    0.419    0.212    7.995
  454.000   75.269    0.422    0.215    7.832
  454.250   77.629    0.446    0.219    7.670
  454.500   81.188    0.451    0.220    7.361
  454.750   84.747    0.473    0.220    6.920
  455.000   90.102    0.477    0.221    6.374
  455.250   93.661    0.484    0.224    5.871
  455.500   91.253    0.488    0.225    5.407
  455.750   89.441    0.480    0.225    5.518
  456.000   87.625    0.458    0.224    5.630
  456.250   87.609    0.434    0.222    5.745
  456.500   88.179    0.424    0.219    5.861
  456.750   88.152    0.421    0.214    6.104
  457.000   88.728    0.445    0.208    6.102
  457.250   89.303    0.450    0.178    6.100
  457.500   92.266    0.473    0.184    5.975
  457.750   98.217    0.496    0.207    5.616
  458.000  101.179    0.516    0.222    5.501
  458.250  102.937    0.526    0.218    5.388
  458.500  102.927    0.490    0.209    5.277
  458.750   99.922    0.469    0.207    5.275
  459.000   93.934    0.467    0.207    5.382
  459.250   92.117    0.472    0.177    5.380
  459.500   99.262    0.479    0.156    5.490
  459.750  108.782    0.493    0.148    5.602
  460.000  103.993    0.499    0.148    5.715
  460.250   96.811    0.481    0.196    5.715
  460.500  108.127    0.483    0.200    5.829
  460.750  114.068    0.492    0.205    5.710
  461.000  114.047    0.500    0.210    5.708
  461.250  112.230    0.494    0.214    5.706
  461.500  111.623    0.484    0.205    5.822
  461.750  109.209    0.476    0.187    5.940
  462.000  107.403    0.462    0.186    6.314
  462.250   93.652    0.445    0.186    6.992
  462.500   85.874    0.427    0.191   10.103
  462.750   79.289    0.413    0.200   11.896
  463.000   76.881    0.405    0.209   12.387
  463.250   81.037    0.403    0.215   12.383
  463.500   86.386    0.399    0.221   11.883
  463.750   88.149    0.397    0.226   11.639
  464.000   86.343    0.397    0.226   11.635
  464.250   84.532    0.398    0.217   11.871
  464.500   84.511    0.396    0.211   12.112
  464.750   82.699    0.395    0.177   12.614
  465.000   77.308    0.392    0.155   12.870
  465.250   73.706    0.387    0.184   13.963
  465.500   76.663    0.374    0.210   14.543
  465.750   81.421    0.370    0.217   15.458
  466.000   92.141    0.375    0.217   15.452
  466.250   96.291    0.378    0.218   15.448
  466.500   98.651    0.381    0.218   15.762
  466.750   99.834    0.383    0.218   16.083
  467.000  101.592    0.385    0.216   16.409
  467.250  102.178    0.385    0.215   17.442
  467.500  102.754    0.385    0.213   18.922
  467.750  103.324    0.385    0.213   20.529
  468.000  103.900    0.385    0.212   21.381
  468.250  105.077    0.385    0.212   24.663
  468.500  109.233    0.385    0.212   26.760
  468.750  112.195    0.385    0.215   30.871
