~VERSION INFORMATION
 VERS.                 2.0:   CWLS LOG ASCII STANDARD -VERSION 2.0
 WRAP.                  NO:   ONE LINE PER DEPTH STEP
~WELL INFORMATION BLOCK
#MNEM.UNIT           DATA                    DESCRIPTION OF MNEMONIC
#---------    -------------------            -------------------------------
# Generated from Intellog Unique Number	CW_70_72/WELL/3017
NULL.         -999.25                        : NULL_VALUE
WELL.         MESA SULPETRO CALL 07-30       : Well_name    - WELL              
LOC .         07-30-070-22W4                 : Location     - LOCATION          
UWI .         00/07-30-070-22W4/0            : Uwi          - UNIQUE WELL ID    
ENTR.         jj                             : Entered      - ENTERED BY        
SRVC.         SCHLUMBERGER                   : Scn          - SERVICE COMPANY   
DATE.         14 JAN 78                      : Date         - LOG DATE          
STRT.M        411.48                         : top_depth    - START DEPTH       
STOP.M        636.98                         : bot_depth    - STOP DEPTH        
STEP.M        0.25                           : increment    - STEP LENGTH       
~CURVE INFORMATION BLOCK
#MNEM UNIT       ERCB CURVE CODE    CURVE DESCRIPTION
#-----------   ------------------   ----------------------------------
DEPT.M        00 001 00 00         : DEPTH        - DEPTH                       
ILD .OHMM     00 120 00 00         : RESD         - DEEP RESISTIVITY (DIL)      
CALI.MM       00 280 01 00         : CAL          - CALIPER                     
GR  .API      00 310 00 00         : GR           - GAMMA RAY                   
NPHI.V/V      00 330 00 00         : PHIN         - NEUTRON POROSITY (SANDSTONE)
DPHI.V/V      00 890 00 00         : PHID         - DENSITY POROSITY (SANDSTONE)
~PARAMETER INFORMATION       
#MNEM.UNIT           DATA             DESCRIPTION OF MNEMONIC
#---------         -----------     ------------------------------
GL  .M        659.282              : gl           - GROUND LEVEL ELEVATION      
EREF.M        662.33               : kb           - ELEVATION OF DEPTH REFERENCE
DATM.M        659.282              : datum        - DATUM ELEVATION             
TDD .M        652.882              : tdd          - TOTAL DEPTH DRILLER         
RUN .         ONE                  : Run          - RUN NUMBER                  
ENG .         RUMSEY               : Engineer     - RECORDING ENGINEER          
WIT .         STRANDBERG           : Witness      - WITNESSED BY                
BASE.         EDM                  : Branch       - HOME BASE OF LOGGING UNIT   
MUD .         GEL CHEM             : Mud_type     - MUD TYPE                    
MATR.         SANDSTONE            : Logunit      - NEUTRON MATRIX              
TMAX.C        25                   : BHT          - MAXIMUM RECORDED TEMPERATURE
BHTD.M        652.882              : BHTDEP       - MAXIMUM RECORDED TEMPERATURE
RMT .C        15.5556              : MDTP         - TEMPERATURE OF MUD          
MUDD.KG/M     1008                 : MWT          - MUD DENSITY                 
NEUT.         1                    : NEUTRON      - NEUTRON TYPE                
RESI.         0                    : RESIST       - RESISTIVITY TYPE            
RM  .OHMM     2.88                 : RM           - RESISTIVITY OF MUD          
RMC .OHMM     2.5                  : RMC          - RESISTIVITY OF MUD CAKE     
RMF .OHMM     3.34                 : RMF          - RESISTIVITY OF MUD FILTRATE 
SUFT.C        -17.7778             : SUFT         - SURFACE TEMPERATURE         
~A  DEPTH     RESD      CAL       GR     PHIN     PHID
# ...
  520.980    4.570  153.739   80.508    0.432    0.168
  521.230    4.575  153.865   80.211    0.428    0.159
  521.480    4.571  154.104   80.289    0.423    0.154
  521.730    4.532  154.345   81.368    0.427    0.160
  521.980    4.502  155.114   85.147    0.436    0.177
  522.230    4.440  156.201   86.105    0.418    0.193
  522.480    4.304  156.333   85.428    0.423    0.202
  522.730    4.133  156.045   83.439    0.434    0.191
  522.980    3.794  156.279   81.885    0.439    0.177
  523.230    3.425  156.837   80.523    0.439    0.165
  523.480    3.022  158.774   79.282    0.444    0.155
  523.730    2.578  161.455   77.481    0.459    0.177
  523.980    2.741  162.649   75.237    0.459    0.230
  524.230    2.997  159.598   70.048    0.453    0.273
  524.480    3.532  155.058   64.544    0.447    0.299
  524.730    4.307  152.853   59.040    0.439    0.284
  524.980    5.173  152.773   55.356    0.419    0.234
  525.230    5.635  153.009   52.674    0.321    0.197
  525.480    6.643  153.565   51.310    0.288    0.161
  525.730    6.686  154.447   54.963    0.276    0.135
  525.980    6.433  154.787   54.730    0.268    0.129
  526.230    5.973  154.605   54.996    0.263    0.103
  526.480    5.301  154.207   56.141    0.259    0.103
  526.730    4.582  153.806   58.162    0.258    0.121
  526.980    3.830  153.087   60.057    0.272    0.138
  527.230    3.317  152.050   61.515    0.302    0.181
  527.480    2.999  150.164   61.655    0.346    0.232
  527.730    2.865  146.900   62.862    0.385    0.265
  527.980    2.819  145.546   65.010    0.413    0.300
  528.230    2.774  147.482   66.656    0.448    0.301
  528.480    2.756  151.968   67.676    0.481    0.301
  528.730    2.780  154.016   68.383    0.499    0.314
  528.980    2.808  154.151   68.397    0.512    0.307
  529.230    2.870  154.073   67.471    0.476    0.290
  529.480    2.927  154.408   64.601    0.461    0.270
  529.730    2.996  154.757   61.607    0.452    0.265
  529.980    3.161  155.103   58.110    0.450    0.283
  530.230    3.366  154.911   59.066    0.468    0.295
  530.480    3.531  154.513   64.225    0.485    0.263
  530.730    3.734  150.400   68.504    0.469    0.230
  530.980    3.836  149.576   71.593    0.438    0.233
  531.230    3.949  150.345   74.868    0.435    0.214
  531.480    4.051  153.131   77.458    0.447    0.186
  531.730    4.055  158.361   79.291    0.468    0.206
  531.980    4.027  158.175   81.627    0.460    0.222
  532.230    4.002  155.443   80.009    0.456    0.237
  532.480    3.991  153.660   78.207    0.467    0.246
  532.730    3.964  151.885   78.035    0.469    0.239
  532.980    3.857  151.484   77.735    0.465    0.237
  533.230    3.663  151.828   78.945    0.465    0.212
  533.480    3.401  154.197   81.530    0.484    0.243
  533.730    3.157  155.916   85.434    0.463    0.246
  533.980    2.638  158.070   88.835    0.466    0.235
  534.230    2.422  160.427   89.979    0.493    0.241
  534.480    2.480  165.557   89.871    0.526    0.239
  534.730    2.727  169.930   88.003    0.526    0.220
  534.980    3.049  176.860   87.267    0.538    0.241
  535.230    3.410  187.186   89.602    0.555    0.276
  535.480    3.742  202.506   92.439    0.541    0.225
  535.730    4.123  192.547   94.462    0.475    0.196
  535.980    4.399  179.618   98.490    0.442    0.173
  536.230    4.676  166.582   94.304    0.433    0.167
  536.480    4.805  161.086   91.686    0.436    0.163
  536.730    4.865  160.160   93.457    0.446    0.149
  536.980    4.860  160.184   96.170    0.447    0.155
  537.230    4.864  160.538   97.127    0.442    0.153
  537.480    4.860  160.981   94.444    0.436    0.161
  537.730    4.836  161.439   90.135    0.438    0.183
  537.980    4.787  161.886   93.158    0.464    0.168
  538.230    4.792  162.547   98.566    0.475    0.156
  538.480    4.878  163.000   98.268    0.484    0.161
  538.730    4.974  163.662   93.706    0.488    0.173
  538.980    5.055  164.323   88.017    0.467    0.173
  539.230    5.108  165.199   84.205    0.425    0.166
  539.480    5.065  163.422   81.274    0.414    0.175
  539.730    4.994  160.047   78.028    0.377    0.165
  539.980    4.905  155.297   81.116    0.396    0.141
  540.230    4.738  151.498   83.263    0.401    0.177
  540.480    4.619  146.852   84.534    0.400    0.147
  540.730    4.545  141.355   87.685    0.419    0.163
  540.980    4.516  144.460   90.459    0.431    0.192
  541.230    4.537  152.452   87.777    0.444    0.202
  541.480    4.559  158.213   83.466    0.456    0.172
  541.730    4.580  160.579   81.725    0.448    0.149
  541.980    4.592  159.436   85.942    0.420    0.167
  542.230    4.614  154.681   89.406    0.423    0.182
  542.480    4.618  152.794   92.119    0.439    0.195
  542.730    4.606  155.586   93.451    0.456    0.194
  542.980    4.575  157.733   91.837    0.460    0.173
  543.230    4.536  158.609   88.967    0.449    0.165
  543.480    4.481  157.785   90.737    0.427    0.167
  543.730    4.477  155.161   90.566    0.417    0.165
  543.980    4.514  154.012   88.573    0.417    0.173
  544.230    4.562  152.977   87.961    0.425    0.198
  544.480    4.617  152.585   89.359    0.433    0.186
  544.730    4.648  152.717   89.498    0.439    0.175
  544.980    4.654  153.373   88.323    0.431    0.163
  545.230    4.630  154.780   87.837    0.416    0.142
  545.480    4.583  158.734   88.858    0.405    0.149
  545.730    4.519  163.224   89.374    0.418    0.162
  545.980    4.430  160.492   90.141    0.434    0.192
  546.230    4.352  156.797   89.967    0.421    0.183
  546.480    4.259  153.746   88.040    0.404    0.177
  546.730    4.168  153.144   84.918    0.403    0.177
  546.980    4.117  153.378   83.052    0.414    0.170
  547.230    4.082  153.827   80.998    0.425    0.169
  547.480    4.196  155.022   79.886    0.435    0.177
  547.730    4.468  155.787   82.283    0.446    0.187
  547.980    5.065  157.196   81.422    0.459    0.195
  548.230    5.241  158.074   77.988    0.443    0.190
  548.480    5.396  158.412   73.111    0.420    0.171
  548.730    4.400  158.013   68.988    0.406    0.161
  548.980    4.032  156.133   69.191    0.398    0.166
  549.230    3.828  153.821   78.426    0.439    0.221
  549.480    3.983  151.404   83.960    0.471    0.232
  549.730    5.120  148.561   90.872    0.451    0.205
  549.980    7.240  145.616   94.527    0.443    0.189
  550.230    7.719  145.641   85.825    0.386    0.165
  550.480    7.047  150.557   65.959    0.310    0.121
  550.730    6.541  152.487   56.692    0.310    0.108
  550.980    6.005  154.002   60.536    0.333    0.140
  551.230    5.492  153.285   63.374    0.348    0.177
  551.480    5.175  151.829   63.198    0.388    0.166
  551.730    4.968  151.429   64.532    0.366    0.178
  551.980    4.833  151.563   66.867    0.371    0.156
  552.230    4.808  151.794   71.399    0.393    0.158
  552.480    4.883  152.247   75.176    0.400    0.182
  552.730    5.034  153.120   79.020    0.390    0.208
  552.980    5.141  154.319   79.911    0.383    0.185
  553.230    5.086  155.404   78.044    0.379    0.182
  553.480    4.874  157.660   79.442    0.378    0.173
  553.730    4.636  158.965   81.775    0.379    0.162
  553.980    4.468  157.183   83.546    0.380    0.167
  554.230    4.445  155.401   82.435    0.383    0.159
  554.480    4.625  154.793   83.515    0.392    0.150
  554.730    4.986  156.940   86.731    0.406    0.149
  554.980    5.188  161.957   90.130    0.422    0.156
  555.230    5.269  165.701   94.474    0.435    0.174
  555.480    5.203  162.859   89.472    0.415    0.170
  555.730    4.912  158.002   79.704    0.392    0.166
  555.980    4.458  157.178   83.670    0.399    0.179
  556.230    4.025  157.312   87.511    0.414    0.148
  556.480    3.757  157.445   85.709    0.415    0.107
  556.730    3.521  159.275   87.670    0.423    0.139
  556.980    3.324  163.652   90.568    0.447    0.172
  557.230    3.433  170.582   93.848    0.491    0.189
