~VERSION INFORMATION
 VERS.                 2.0:   CWLS LOG ASCII STANDARD -VERSION 2.0
 WRAP.                  NO:   ONE LINE PER DEPTH STEP
~WELL INFORMATION BLOCK
#MNEM.UNIT           DATA                    DESCRIPTION OF MNEMONIC
#---------    -------------------            -------------------------------
# Generated from Intellog Unique Number	CW_79_81/WELL/2456
WELL.         GULF WABASCA                   : Well_name    - WELL
LOC .         00/06-34-081-21W4/0            : Location     - LOCATION
UWI .         00/06-34-081-21W4/0            : Uwi          - UNIQUE WELL ID
ENTR.         MAX                            : Entered      - ENTERED BY
SRVC.         SCHLUMBERGER                   : Scn          - SERVICE COMPANY
STRT.M        204.216                        : top_depth    - START DEPTH
STOP.M        441.716                        : bot_depth    - STOP DEPTH
STEP.M        0.25                           : increment    - STEP LENGTH
 NULL. -999.2500:NULL Value
~CURVE INFORMATION BLOCK
#MNEM UNIT       ERCB CURVE CODE    CURVE DESCRIPTION
#-----------   ------------------   ----------------------------------
DEPT.M        00 001 00 00         : DEPTH        - DEPTH
ILD .OHMM     00 120 00 00         : RESD         - DEEP RESISTIVITY (DIL)
NPHI.V/V      00 330 00 00         : PHIN         - NEUTRON POROSITY (SANDSTONE)
DPHI.V/V      00 890 00 00         : PHID         - DENSITY POROSITY (SANDSTONE)
GR  .API      00 310 00 00         : GR           - GAMMA RAY
CALI.MM       00 280 01 00         : CAL          - CALIPER
~PARAMETER INFORMATION
#MNEM.UNIT           DATA             DESCRIPTION OF MNEMONIC
#---------         -----------     ------------------------------
GL  .M        627.492              : gl           - GROUND LEVEL ELEVATION
EREF.M        630.997              : kb           - ELEVATION OF DEPTH REFERENCE
DATM.M        627.492              : datum        - DATUM ELEVATION
TDD .M        440.436              : tdd          - TOTAL DEPTH DRILLER
RUN .         ONE                  : Run          - RUN NUMBER
ENG .         BILL                 : Engineer     - RECORDING ENGINEER
WIT .         JIM                  : Witness      - WITNESSED BY
MUD .         GEL                  : Mud_type     - MUD TYPE
MATR.         SANDSTONE            : Logunit      - NEUTRON MATRIX
TMAX.C        23.8889              : BHT          - MAXIMUM RECORDED TEMPERATURE
BHTD.M        440.436              : BHTDEP       - MAXIMUM RECORDED TEMPERATURE
MATR.         1                    : LOGUNIT      - NEUTRON MATRIX
RMT .C        16.6667              : MDTP         - TEMPERATURE OF MUD
NEUT.         1                    : NEUTRON      - NEUTRON TYPE
RESI.         0                    : RESIST       - RESISTIVITY TYPE
RMC .OHMM     5.1                  : RMC          - RESISTIVITY OF MUD CAKE
RMF .OHMM     5.24                 : RMF          - RESISTIVITY OF MUD FILTRATE
SUFT.C        -20.5556             : SUFT         - SURFACE TEMPERATURE
~A  DEPTH     RESD     PHIN     PHID       GR      CAL
# ...
  313.716   10.798    0.494    0.374   72.831  156.504
  313.966   10.641    0.485    0.367   72.641  156.166
  314.216   10.605    0.483    0.368   72.455  156.144
  314.466   10.608    0.480    0.371   72.625  156.427
  314.716   10.591    0.477    0.370   73.389  157.114
  314.966   10.515    0.486    0.364   74.988  158.604
  315.216   10.517    0.491    0.366   75.544  159.546
  315.466   10.519    0.486    0.367   76.308  159.630
  315.716   10.463    0.482    0.363   77.071  159.404
  315.966   10.349    0.476    0.360   76.519  158.669
  316.216   10.219    0.467    0.363   74.652  157.530
  316.466   10.131    0.461    0.373   72.540  156.334
  316.716   10.056    0.489    0.378   71.339  156.017
  316.966   10.057    0.490    0.373   73.066  155.688
  317.216   10.004    0.486    0.372   74.793  155.352
  317.466    9.932    0.484    0.373   74.007  155.225
  317.716    9.880    0.483    0.374   71.304  155.208
  317.966    9.867    0.481    0.372   70.500  154.903
  318.216    9.793    0.478    0.367   71.046  154.982
  318.466    9.795    0.474    0.363   73.017  155.075
  318.716    9.797    0.478    0.360   74.266  154.851
  318.966    9.800    0.482    0.361   75.154  154.728
  319.216    9.802    0.482    0.364   75.983  154.812
  319.466    9.819    0.479    0.362   77.149  154.915
  319.716    9.897    0.474    0.364   77.939  155.003
  319.966    9.900    0.480    0.371   77.035  155.087
  320.216    9.902    0.483    0.371   75.410  155.165
  320.466    9.904    0.483    0.370   74.260  155.245
  320.716    9.906    0.482    0.366   74.364  155.330
  320.966    9.908    0.485    0.360   76.046  155.432
  321.216    9.911    0.492    0.357   75.849  155.520
  321.466    9.767    0.490    0.356   75.185  155.604
  321.716    9.626    0.491    0.356   74.690  155.385
  321.966    9.557    0.492    0.360   74.375  155.262
  322.216    9.577    0.492    0.365   74.127  155.237
  322.466    9.665    0.491    0.364   73.415  154.928
  322.716    9.742    0.491    0.362   71.975  155.034
  322.966    9.672    0.486    0.362   71.301  155.101
  323.216    9.497    0.478    0.361   71.526  155.181
  323.466    9.360    0.475    0.361   72.891  155.262
  323.716    9.310    0.478    0.360   74.796  155.340
  323.966    9.298    0.483    0.359   76.060  155.442
  324.216    9.229    0.494    0.356   77.364  155.530
  324.466    9.163    0.494    0.352   77.649  155.606
  324.716    9.199    0.494    0.348   78.296  155.695
  324.966    9.235    0.495    0.348   78.226  155.783
  325.216    9.185    0.497    0.350   77.498  155.866
  325.466    8.987    0.493    0.351   77.566  156.045
  325.716    8.989    0.485    0.352   78.855  156.565
  325.966    8.990    0.482    0.350   79.384  156.632
  326.216    9.092    0.487    0.343   78.480  156.415
  326.466    9.230    0.494    0.338   77.332  156.296
  326.716    9.352    0.496    0.337   76.779  156.377
  326.966    9.409    0.490    0.344   77.668  156.485
  327.216    9.340    0.490    0.353   79.466  156.564
  327.466    9.204    0.487    0.349   81.198  156.640
  327.716    8.919    0.482    0.344   82.559  157.027
  327.966    8.532    0.477    0.336   83.684  157.513
  328.216    7.943    0.474    0.328   84.755  157.897
  328.466    6.601    0.483    0.325   87.255  158.091
  328.716    5.082    0.503    0.328   93.546  158.592
  328.966    4.274    0.490    0.306  100.302  160.299
  329.216    4.043    0.479    0.288  103.470  163.527
  329.466    4.087    0.488    0.288  103.161  165.433
  329.716    4.304    0.517    0.299  100.692  165.308
  329.966    4.833    0.541    0.292   98.247  164.516
  330.216    6.122    0.545    0.286   96.552  164.191
  330.466    6.781    0.552    0.297   91.562  162.239
  330.716    7.636    0.544    0.304   89.094  160.293
  330.966    8.690    0.511    0.304   88.904  158.755
  331.216    9.956    0.472    0.301   90.333  158.028
  331.466   11.741    0.468    0.303   91.664  158.954
  331.716   13.199    0.466    0.306   88.461  161.138
  331.966   13.898    0.474    0.322   82.758  160.411
  332.216   14.086    0.480    0.331   81.009  159.088
  332.466   13.511    0.481    0.335   80.700  158.159
  332.716   12.337    0.475    0.333   80.630  157.924
  332.966   10.681    0.465    0.317   81.431  157.935
  333.216    9.389    0.467    0.309   83.988  157.609
  333.466    9.049    0.463    0.299   88.100  158.910
  333.716    8.672    0.460    0.289   95.993  161.429
  333.966    8.519    0.465    0.275  103.111  162.532
  334.216    8.599    0.476    0.260  106.759  161.602
  334.466    8.743    0.484    0.256  105.999  159.635
  334.716    8.813    0.478    0.255  105.547  157.619
  334.966    8.815    0.465    0.255  104.399  159.740
  335.216    8.724    0.455    0.258  101.383  159.692
  335.466    8.634    0.453    0.262  100.995  160.719
  335.716    8.571    0.458    0.263  103.679  162.942
  335.966    8.496    0.462    0.261  105.677  163.348
  336.216    8.432    0.463    0.256  104.933  163.349
  336.466    8.432    0.459    0.263  104.933  163.754
  336.716    8.387    0.456    0.261  106.723  165.068
  336.966    8.356    0.455    0.260  108.154  165.675
  337.216    8.357    0.457    0.264  108.155  165.676
  337.466    8.357    0.467    0.264  106.229  166.553
  337.716    8.357    0.477    0.256  103.746  164.872
  337.966    8.418    0.489    0.267  103.269  162.450
  338.216    8.388    0.491    0.266  103.329  161.846
  338.466    8.358    0.495    0.262  103.330  162.049
  338.716    8.358    0.498    0.257  103.212  162.051
  338.966    8.358    0.482    0.252  103.551  160.588
  339.216    8.358    0.465    0.255  104.048  159.328
  339.466    8.358    0.481    0.266  105.003  160.137
  339.716    8.313    0.495    0.267  106.852  157.312
  339.966    8.162    0.498    0.261  109.952  158.322
  340.216    7.943    0.493    0.253  112.577  163.775
  340.466    7.760    0.499    0.249  110.362  167.580
  340.716    7.701    0.521    0.251  107.631  168.422
  340.966    7.929    0.510    0.260  103.816  164.386
  341.216    8.384    0.500    0.277   96.782  159.743
  341.466    8.828    0.488    0.293   91.417  157.725
  341.716    9.075    0.473    0.300   90.046  158.534
  341.966    9.019    0.448    0.286   92.630  159.343
  342.216    8.751    0.437    0.285   93.625  159.345
  342.466    8.624    0.458    0.295   92.195  157.327
  342.716    8.546    0.475    0.298   89.871  155.309
  342.966    8.546    0.483    0.292   88.083  153.292
  343.216    8.609    0.477    0.280   88.262  151.779
  343.466    8.762    0.446    0.276   92.039  151.864
  343.716    9.244    0.448    0.279   93.034  152.286
  343.966    9.724    0.444    0.276   90.650  151.884
  344.216   10.015    0.443    0.276   89.339  151.482
  344.466   10.015    0.444    0.274   89.936  151.281
  344.716    9.707    0.449    0.271   92.202  151.282
  344.966    8.927    0.466    0.273   94.628  151.368
  345.216    7.919    0.487    0.268   93.635  151.790
  345.466    6.827    0.488    0.250   95.067  154.214
  345.716    5.997    0.472    0.242   99.538  156.033
  345.966    5.382    0.465    0.259  103.713  156.438
  346.216    4.994    0.470    0.290  106.277  155.531
  346.466    4.894    0.471    0.294  108.395  154.489
  346.716    4.931    0.483    0.312  110.631  155.332
  346.966    5.377    0.505    0.328  115.401  156.141
  347.216    6.019    0.522    0.325  120.708  155.739
  347.466    6.814    0.525    0.313  127.745  154.125
  347.716    7.619    0.522    0.302  129.651  152.107
  347.966    8.416    0.543    0.298  107.703  151.217
  348.216   10.130    0.549    0.303   88.578  150.798
  348.466   10.429    0.513    0.302   84.524  150.799
  348.716   10.277    0.477    0.309   84.406  151.406
  348.966    9.908    0.468    0.314   84.883  152.821
  349.216    9.262    0.481    0.314   85.302  154.841
  349.466    8.053    0.472    0.308   88.880  156.862
  349.716    7.639    0.478    0.298   94.842  156.863
  349.966    7.418    0.481    0.299   96.751  157.269
