~VERSION INFORMATION
 VERS.                 2.0:   CWLS LOG ASCII STANDARD -VERSION 2.0
 WRAP.                  NO:   ONE LINE PER DEPTH STEP
~WELL INFORMATION BLOCK
#MNEM.UNIT           DATA                    DESCRIPTION OF MNEMONIC
#---------    -------------------            -------------------------------
# Generated from Intellog Unique Number	CW_70_72/WELL/3014
NULL.         -999.25                        : NULL_VALUE
WELL.         DEKALB ET AL MITSUE 06-35      : Well_name    - WELL              
LOC .         06-35-070-03W5                : Location     - LOCATION          
UWI .         00/06-35-070-03W5/0            : Uwi          - UNIQUE WELL ID    
ENTR.         JAYE                           : Entered      - ENTERED BY        
SRVC.         SCHLUMBERGER                   : Scn          - SERVICE COMPANY   
DATE.         10 FEB 80                      : Date         - LOG DATE          
STRT.M        460                            : top_depth    - START DEPTH       
STOP.M        680                            : bot_depth    - STOP DEPTH        
STEP.M        0.25                           : increment    - STEP LENGTH       
~CURVE INFORMATION BLOCK
#MNEM UNIT       ERCB CURVE CODE    CURVE DESCRIPTION
#-----------   ------------------   ----------------------------------
DEPT.M        00 001 00 00         : DEPTH        - DEPTH                       
ILD .OHMM     00 120 00 00         : RESD         - DEEP RESISTIVITY (DIL)      
CALI.MM       00 280 01 00         : CAL          - CALIPER                     
GR  .API      00 310 00 00         : GR           - GAMMA RAY                   
NPHI.V/V      00 330 00 00         : PHIN         - NEUTRON POROSITY (SANDSTONE)
DPHI.V/V      00 890 00 00         : PHID         - DENSITY POROSITY (SANDSTONE)
~PARAMETER INFORMATION       
#MNEM.UNIT           DATA             DESCRIPTION OF MNEMONIC
#---------         -----------     ------------------------------
GL  .M        617.4                : gl           - GROUND LEVEL ELEVATION      
EREF.M        620.6                : kb           - ELEVATION OF DEPTH REFERENCE
DATM.M        617.4                : datum        - DATUM ELEVATION             
TDD .M        685                  : tdd          - TOTAL DEPTH DRILLER         
RUN .         ONE                  : Run          - RUN NUMBER                  
ENG .         COOK                 : Engineer     - RECORDING ENGINEER          
WIT .         LOWTHER              : Witness      - WITNESSED BY                
BASE.         RD                   : Branch       - HOME BASE OF LOGGING UNIT   
MUD .         GEL CHEM             : Mud_type     - MUD TYPE                    
MATR.         SANDSTONE            : Logunit      - NEUTRON MATRIX              
TMAX.C        31                   : BHT          - MAXIMUM RECORDED TEMPERATURE
BHTD.M        686                  : BHTDEP       - MAXIMUM RECORDED TEMPERATURE
RMT .C        10                   : MDTP         - TEMPERATURE OF MUD          
MUDD.KG/M     1120                 : MWT          - MUD DENSITY                 
NEUT.         1                    : NEUTRON      - NEUTRON TYPE                
RESI.         0                    : RESIST       - RESISTIVITY TYPE            
RM  .OHMM     4.39                 : RM           - RESISTIVITY OF MUD          
RMC .OHMM     0.25                 : RMC          - RESISTIVITY OF MUD CAKE     
RMF .OHMM     2.49                 : RMF          - RESISTIVITY OF MUD FILTRATE 
SUFT.C        0                    : SUFT         - SURFACE TEMPERATURE         
~A  DEPTH     RESD      CAL       GR     PHIN     PHID
# ...
  642.500    7.456  169.119   93.346    0.293    0.093
  642.750    7.015  169.144   95.346    0.306    0.088
  643.000    6.514  169.066  101.317    0.320    0.077
  643.250    5.994  169.190  109.333    0.332    0.078
  643.500    5.525  169.525  113.318    0.356    0.108
  643.750    4.843  169.647  111.470    0.370    0.128
  644.000    4.309  170.086  106.334    0.384    0.139
  644.250    3.538  170.938  101.509    0.404    0.149
  644.500    2.778  172.615   95.879    0.426    0.176
  644.750    2.078  176.669   93.659    0.473    0.230
  645.000    1.811  180.313   99.753    0.562    0.231
  645.250    1.660  177.130  102.934    0.490    0.176
  645.500    1.680  172.397  105.924    0.463    0.153
  645.750    1.832  170.873  110.528    0.453    0.142
  646.000    1.964  170.898  107.316    0.460    0.138
  646.250    2.086  174.433   99.886    0.468    0.170
  646.500    2.288  175.700   94.937    0.491    0.180
  646.750    2.508  170.244   89.246    0.519    0.134
  647.000    2.969  165.512   83.923    0.370    0.041
  647.250    3.430  162.748   75.810    0.331    0.005
  647.500    4.326  161.835   84.572    0.302   -0.001
  647.750    5.345  161.030   99.725    0.322    0.063
  648.000    5.927  161.366   97.443    0.344    0.084
  648.250    5.987  162.323   93.299    0.383    0.079
  648.500    5.675  162.967   93.747    0.369    0.089
  648.750    5.471  163.298   94.817    0.368    0.086
  649.000    5.568  163.531   88.069    0.359    0.070
  649.250    5.697  163.452   90.813    0.352    0.059
  649.500    5.853  163.475   97.278    0.348    0.078
  649.750    5.878  163.500  101.264    0.338    0.098
  650.000    5.872  163.209  103.640    0.350    0.110
  650.250    5.843  163.231  104.144    0.359    0.095
  650.500    5.847  162.740  103.228    0.353    0.089
  650.750    5.840  162.969   93.627    0.334    0.087
  651.000    5.976  163.097   97.054    0.310    0.089
  651.250    6.360  163.228   95.019    0.320    0.087
  651.500    7.053  163.142   83.433    0.334    0.057
  651.750    7.491  163.068   80.966    0.273    0.004
  652.000    8.033  162.472   96.429    0.256    0.035
  652.250    7.657  161.979  104.568    0.303    0.082
  652.500    7.059  161.790  109.421    0.334    0.111
  652.750    6.604  161.510  105.837    0.368    0.106
  653.000    6.180  161.635   91.336    0.335    0.066
  653.250    6.184  161.862   84.525    0.286    0.015
  653.500    6.375  161.990   84.416    0.270    0.023
  653.750    6.500  161.911   90.696    0.298    0.049
  654.000    6.372  161.622   99.830    0.352    0.078
  654.250    6.052  161.334  107.039    0.391    0.092
  654.500    5.496  161.568  107.301    0.409    0.080
  654.750    4.845  161.794   96.956    0.352    0.081
  655.000    5.312  161.921   94.860    0.344    0.082
  655.250    5.990  161.531   94.626    0.343    0.078
  655.500    6.581  161.451   90.732    0.338    0.071
  655.750    7.083  161.480   86.155    0.315    0.068
  656.000    7.329  161.499   92.746    0.309    0.086
  656.250    7.670  161.630   99.709    0.322    0.091
  656.500    7.834  161.760  105.306    0.331    0.035
  656.750    7.898  161.880  109.726    0.318    0.001
  657.000    7.758  161.698  112.655    0.316    0.029
  657.250    7.451  161.309  115.957    0.324    0.061
  657.500    7.129  160.301  123.415    0.339    0.083
  657.750    6.684  159.906  112.883    0.353    0.081
  658.000    6.360  158.904  108.864    0.354    0.084
  658.250    6.062  158.411  108.445    0.350    0.094
  658.500    5.715  158.021  109.389    0.365    0.112
  658.750    5.448  158.042  112.071    0.383    0.121
  659.000    5.155  157.758  119.653    0.398    0.107
  659.250    4.859  157.466  107.880    0.375    0.086
  659.500    4.307  156.662   74.147    0.357    0.145
  659.750    3.854  155.859   51.021    0.362    0.228
  660.000    3.441  155.264   37.884    0.366    0.259
  660.250    2.863  155.078   34.548    0.351    0.261
  660.500    2.505  154.792   34.438    0.338    0.251
  660.750    2.300  154.609   34.701    0.326    0.241
  661.000    2.097  154.630   37.199    0.334    0.237
  661.250    1.977  154.653   39.382    0.350    0.248
  661.500    1.913  154.162   41.693    0.343    0.252
  661.750    1.893  154.086   41.582    0.345    0.248
  662.000    1.922  153.902   40.046    0.352    0.241
  662.250    1.975  153.928   39.314    0.351    0.246
  662.500    2.191  153.635   41.499    0.336    0.249
  662.750    2.163  153.249   41.824    0.326    0.241
  663.000    2.209  153.072   39.917    0.334    0.231
  663.250    2.329  153.297   41.293    0.346    0.221
  663.500    2.465  153.216   43.605    0.342    0.216
  663.750    2.527  152.720   44.549    0.325    0.232
  664.000    2.548  152.333   43.821    0.317    0.238
  664.250    2.569  152.355   45.074    0.330    0.238
  664.500    2.556  152.482   48.251    0.342    0.234
  664.750    2.534  152.712   51.863    0.351    0.226
  665.000    2.603  153.047   53.368    0.342    0.218
  665.250    2.664  153.172   53.939    0.329    0.213
  665.500    2.716  153.817   57.242    0.318    0.207
  665.750    2.869  154.666   60.605    0.326    0.193
  666.000    3.099  156.966   59.750    0.338    0.192
  666.250    3.317  158.436   59.331    0.342    0.193
  666.500    3.503  159.704   61.393    0.356    0.146
  666.750    3.806  160.243   60.848    0.342    0.101
  667.000    4.244  160.375   55.092    0.321    0.079
  667.250    4.741  160.613   61.187    0.313    0.085
  667.500    5.141  160.421   65.853    0.312    0.120
  667.750    5.212  160.335   66.302    0.320    0.144
  668.000    4.850  160.048   65.077    0.314    0.156
  668.250    4.736  159.863   65.899    0.330    0.173
  668.500    4.731  159.271   66.964    0.337    0.191
  668.750    4.578  158.880   68.284    0.330    0.180
  669.000    4.521  159.008   69.226    0.318    0.166
  669.250    4.584  158.723   70.790    0.314    0.165
  669.500    4.683  158.744   73.844    0.321    0.165
  669.750    4.837  158.764   76.527    0.325    0.156
  670.000    5.071  158.584   76.790    0.324    0.151
  670.250    5.248  158.506   76.927    0.328    0.147
  670.500    5.432  158.628   75.516    0.314    0.145
  670.750    5.578  158.549   73.668    0.310    0.141
  671.000    5.751  158.575   71.822    0.319    0.133
  671.250    5.820  158.397   71.402    0.321    0.126
  671.500    5.912  158.415   73.280    0.312    0.123
  671.750    6.061  158.229   74.903    0.297    0.120
  672.000    6.285  158.254   72.685    0.284    0.129
  672.250    6.479  157.975   69.040    0.282    0.123
  672.500    6.755  157.685   64.213    0.289    0.112
  672.750    7.109  157.602   62.617    0.288    0.097
  673.000    7.454  157.211   64.801    0.295    0.125
  673.250    7.431  155.994   70.025    0.310    0.150
  673.500    7.232  154.264   66.690    0.325    0.165
  673.750    7.089  153.663   65.960    0.308    0.159
  674.000    6.872  153.169   69.447    0.300    0.151
  674.250    6.725  153.298   71.758    0.304    0.169
  674.500    6.568  154.046   74.811    0.316    0.190
  674.750    6.403  155.104   67.008    0.324    0.161
  675.000    6.504  156.675   56.538    0.244    0.027
  675.250    6.743  158.562   45.200    0.208    0.012
  675.500    7.632  158.695   42.236    0.178    0.008
  675.750    8.785  158.714   43.553    0.182    0.010
  676.000    9.905  158.125   46.111    0.187    0.019
  676.250   10.524  158.142   53.446    0.191    0.013
  676.500   10.710  157.853   56.065    0.195    0.006
  676.750   10.697  157.258   53.474    0.197   -0.000
  677.000   10.824  156.765   49.641    0.191    0.009
  677.250   10.912  155.963   49.470    0.195    0.023
  677.500   11.001  155.884   50.910    0.199    0.037
  677.750   10.929  155.902   53.779    0.200    0.031
  678.000   10.834  156.028   51.931    0.198    0.027
  678.250   10.700  156.157   50.395    0.200    0.021
  678.500   10.687  156.697   54.442    0.204    0.011
  678.750   10.596  156.830   57.122    0.207    0.015
