~VERSION INFORMATION
 VERS.                 2.0:   CWLS LOG ASCII STANDARD -VERSION 2.0
 WRAP.                  NO:   ONE LINE PER DEPTH STEP
~WELL INFORMATION BLOCK
#MNEM.UNIT           DATA                    DESCRIPTION OF MNEMONIC
#---------    -------------------            -------------------------------
# Generated from Intellog Unique Number	CW_79_81/WELL/2455
WELL.         06-29-080-24W4                 : Well_name    - WELL
LOC .         00/06-29-080-24W4/0            : Location     - LOCATION
UWI .         00/06-29-080-24W4/0            : Uwi          - UNIQUE WELL ID
ENTR.         MAX                            : Entered      - ENTERED BY
SRVC.         WESTERN ATLAS                  : Scn          - SERVICE COMPANY
STRT.M        198.12                         : top_depth    - START DEPTH
STOP.M        426.37                         : bot_depth    - STOP DEPTH
STEP.M        0.25                           : increment    - STEP LENGTH
 NULL. -999.2500:NULL Value
~CURVE INFORMATION BLOCK
#MNEM UNIT       ERCB CURVE CODE    CURVE DESCRIPTION
#-----------   ------------------   ----------------------------------
DEPT.M        00 001 00 00         : DEPTH        - DEPTH
ILD .OHMM     00 120 00 00         : RESD         - DEEP RESISTIVITY (DIL)
NPHI.V/V      00 330 00 00         : PHIN         - NEUTRON POROSITY (SANDSTONE)
DPHI.V/V      00 890 00 00         : PHID         - DENSITY POROSITY (SANDSTONE)
GR  .API      00 310 00 00         : GR           - GAMMA RAY
CALI.MM       00 280 01 00         : CAL          - CALIPER
~PARAMETER INFORMATION
#MNEM.UNIT           DATA             DESCRIPTION OF MNEMONIC
#---------         -----------     ------------------------------
GL  .M        546.811              : gl           - GROUND LEVEL ELEVATION
EREF.M        552.907              : kb           - ELEVATION OF DEPTH REFERENCE
DATM.M        546.811              : datum        - DATUM ELEVATION
TDD .M        426.72               : tdd          - TOTAL DEPTH DRILLER
RUN .         ONE                  : Run          - RUN NUMBER
ENG .         BILL                 : Engineer     - RECORDING ENGINEER
WIT .         JIM                  : Witness      - WITNESSED BY
MUD .         GEL                  : Mud_type     - MUD TYPE
MATR.         SANDSTONE            : Logunit      - NEUTRON MATRIX
TMAX.C        26.6667              : BHT          - MAXIMUM RECORDED TEMPERATURE
BHTD.M        426.72               : BHTDEP       - MAXIMUM RECORDED TEMPERATURE
MATR.         1                    : LOGUNIT      - NEUTRON MATRIX
RMT .C        16.6667              : MDTP         - TEMPERATURE OF MUD
NEUT.         1                    : NEUTRON      - NEUTRON TYPE
RESI.         0                    : RESIST       - RESISTIVITY TYPE
RMC .OHMM     1                    : RMC          - RESISTIVITY OF MUD CAKE
RMF .OHMM     1.2                  : RMF          - RESISTIVITY OF MUD FILTRATE
SUFT.C        -20.5556             : SUFT         - SURFACE TEMPERATURE
~A  DEPTH     RESD     PHIN     PHID       GR      CAL
# ...
  344.120    7.117    0.376    0.118   78.942  259.538
  344.370    7.308    0.383    0.102   80.751  265.016
  344.620    7.492    0.384    0.108   82.442  271.297
  344.870    7.533    0.385    0.146   86.159  278.444
  345.120    7.427    0.382    0.143   89.161  279.753
  345.370    7.379    0.369    0.135   90.853  277.391
  345.620    7.494    0.373    0.145   92.900  275.334
  345.870    7.749    0.383    0.157   90.793  273.178
  346.120    8.161    0.383    0.163   86.074  270.919
  346.370    8.925    0.354    0.156   85.803  268.462
  346.620    9.644    0.344    0.115   83.110  266.002
  346.870    9.794    0.339    0.103   81.718  264.449
  347.120    9.573    0.347    0.128   83.349  266.510
  347.370    9.412    0.357    0.150   86.584  271.182
  347.620    9.571    0.363    0.143   88.872  275.951
  347.870   10.389    0.366    0.079   85.744  276.140
  348.120   11.224    0.344    0.043   81.811  272.842
  348.370   13.800    0.336    0.032   76.620  268.475
  348.620   15.539    0.343    0.050   77.480  269.528
  348.870   16.153    0.354    0.078   80.002  275.207
  349.120   15.904    0.362    0.100   81.519  282.397
  349.370   15.030    0.366    0.101   81.726  285.674
  349.620   14.055    0.374    0.102   84.976  285.726
  349.870   12.593    0.388    0.120   85.952  284.163
  350.120   11.356    0.381    0.144   85.682  281.401
  350.370   10.584    0.372    0.151   87.016  276.828
  350.620   10.160    0.371    0.141   90.430  270.141
  350.870    9.748    0.371    0.132   93.733  260.016
  351.120    9.468    0.380    0.110   92.280  253.367
  351.370    9.270    0.395    0.117   91.357  245.372
  351.620    9.078    0.396    0.125   90.792  239.491
  351.870    8.924    0.401    0.133   90.467  235.925
  352.120    8.838    0.405    0.140   90.202  235.174
  352.370    8.853    0.384    0.141   89.712  238.886
  352.620    8.855    0.379    0.139   89.501  243.121
  352.870    8.927    0.374    0.139   90.000  243.176
  353.120    9.001    0.367    0.133   90.683  242.018
  353.370    9.076    0.369    0.128   90.475  240.859
  353.620    9.136    0.378    0.125   89.613  244.832
  353.870    9.133    0.389    0.120   90.294  262.915
  354.120    9.071    0.392    0.133   93.537  262.538
  354.370    9.081    0.393    0.132   92.626  263.799
  354.620    9.091    0.391    0.112   92.594  264.756
  354.870    9.069    0.382    0.113   93.096  265.615
  355.120    9.030    0.373    0.135   93.838  266.381
  355.370    9.022    0.379    0.132   94.635  266.942
  355.620    8.962    0.402    0.126   94.913  267.387
  355.870    8.969    0.395    0.119   93.516  267.428
  356.120    8.979    0.391    0.079   91.232  268.078
  356.370    8.988    0.391    0.063   91.617  268.734
  356.620    8.948    0.393    0.088   94.673  268.989
  356.870    8.723    0.395    0.133   96.996  268.648
  357.120    8.535    0.390    0.138   97.766  268.700
  357.370    8.420    0.387    0.132   98.748  268.745
  357.620    8.535    0.382    0.133   96.523  267.890
  357.870    8.732    0.377    0.134   93.228  266.535
  358.120    8.935    0.377    0.132   90.584  265.181
  358.370    9.185    0.383    0.129   90.352  264.349
  358.620    9.406    0.379    0.129   92.609  263.988
  358.870    9.415    0.379    0.133   92.167  264.440
  359.120    9.169    0.370    0.134   92.254  264.286
  359.370    8.816    0.365    0.131   94.064  264.336
  359.620    8.462    0.373    0.123   97.182  264.792
  359.870    8.170    0.397    0.108   99.244  265.255
  360.120    8.179    0.413    0.099   97.547  265.307
  360.370    8.187    0.415    0.092   96.152  264.950
  360.620    8.149    0.405    0.078   94.757  264.902
  360.870    7.949    0.387    0.086   95.261  264.952
  361.120    7.647    0.374    0.113   97.605  265.101
  361.370    7.390    0.384    0.123   99.528  265.820
  361.620    7.178    0.388    0.120   98.322  267.128
  361.870    6.977    0.384    0.115   96.452  269.585
  362.120    6.895    0.370    0.108   95.653  272.654
  362.370    7.026    0.362    0.104   96.041  274.717
  362.620    7.361    0.364    0.103   96.962  275.268
  362.870    7.894    0.374    0.102   96.102  275.258
  363.120    8.663    0.375    0.100   91.681  276.990
  363.370    9.658    0.368    0.087   87.437  278.247
  363.620   11.393    0.349    0.073   86.220  279.805
  363.870   13.874    0.344    0.116   87.439  281.061
  364.120   16.602    0.355    0.194   88.956  282.217
  364.370   17.946    0.358    0.199   85.950  284.959
  364.620   18.237    0.359    0.168   80.296  288.366
  364.870   18.392    0.363    0.113   76.995  291.231
  365.120   18.645    0.369    0.087   71.562  293.790
  365.370   19.210    0.373    0.096   68.980  296.052
  365.620   20.057    0.371    0.128   70.850  297.512
  365.870   20.887    0.360    0.142   76.386  296.246
  366.120   21.230    0.366    0.145   81.367  291.703
  366.370   20.792    0.369    0.110   83.534  291.345
  366.620   20.248    0.360    0.091   84.632  291.591
  366.870   19.538    0.354    0.097   85.136  292.043
  367.120   18.866    0.355    0.118   84.929  292.500
  367.370   18.507    0.354    0.118   82.564  293.130
  367.620   17.962    0.359    0.094   78.882  294.019
  367.870   17.962    0.364    0.080   81.048  294.075
  368.120   17.305    0.363    0.067   83.930  293.520
  368.370   16.654    0.368    0.077   85.623  293.369
  368.620   16.342    0.376    0.114   85.351  293.822
  368.870   16.651    0.378    0.165   82.894  294.360
  369.120   17.582    0.381    0.181   79.957  294.836
  369.370   18.916    0.361    0.169   71.200  295.690
  369.620   20.573    0.327    0.152   66.717  296.544
  369.870   22.246    0.295    0.134   66.629  296.994
  370.120   23.580    0.276    0.114   69.924  297.141
  370.370   24.274    0.288    0.084   75.014  297.773
  370.620   24.115    0.309    0.054   77.775  298.674
  370.870   22.424    0.315    0.035   80.413  299.925
  371.120   19.692    0.322    0.016   83.410  300.875
  371.370   16.688    0.329    0.035   86.050  301.927
  371.620   14.243    0.338    0.089   88.334  303.085
  371.870   12.475    0.361    0.130   91.381  303.955
  372.120   11.076    0.362    0.126   93.393  304.013
  372.370   10.073    0.361    0.127   93.895  304.862
  372.620    9.536    0.361    0.129   92.974  305.715
  372.870    9.240    0.359    0.129   92.171  307.572
  373.120    8.998    0.357    0.130   92.733  310.333
  373.370    8.502    0.361    0.138   96.311  312.394
  373.620    7.952    0.361    0.137   99.807  310.358
  373.870    7.451    0.356    0.131  102.929  309.196
  374.120    7.101    0.358    0.128  102.840  309.844
  374.370    6.930    0.364    0.125   99.898  310.696
  374.620    6.948    0.369    0.114   95.413  311.148
  374.870    7.217    0.366    0.085   91.803  311.779
  375.120    7.504    0.356    0.067   92.569  312.669
  375.370    8.076    0.360    0.107   93.314  313.121
  375.620    8.418    0.369    0.131   94.769  314.180
  375.870    8.552    0.377    0.131   95.513  314.836
  376.120    8.561    0.384    0.113   95.662  315.087
  376.370    8.571    0.387    0.095   96.635  316.034
  376.620    8.579    0.379    0.089   95.430  316.500
  376.870    8.588    0.382    0.087   93.794  316.952
  377.120    8.643    0.381    0.087   93.763  317.107
  377.370    8.714    0.376    0.093   95.218  317.160
  377.620    8.786    0.372    0.104   95.902  317.109
  377.870    8.860    0.387    0.110   90.737  316.599
  378.120    8.870    0.396    0.102   87.305  315.809
  378.370    8.687    0.380    0.096   92.079  315.869
  378.620    8.507    0.379    0.092   96.503  315.613
  378.870    8.361    0.378    0.086   96.296  314.854
  379.120    8.263    0.371    0.076   92.051  313.298
  379.370    8.192    0.362    0.059   89.783  310.296
  379.620    8.070    0.370    0.037   92.535  309.087
  379.870    8.019    0.370    0.030   95.416  310.750
  380.120    8.188    0.361    0.027   96.155  310.597
  380.370    8.469    0.350    0.062   96.542  309.039
