~VERSION INFORMATION
 VERS.                 2.0:   CWLS LOG ASCII STANDARD -VERSION 2.0
 WRAP.                  NO:   ONE LINE PER DEPTH STEP
~WELL INFORMATION BLOCK
#MNEM.UNIT           DATA                    DESCRIPTION OF MNEMONIC
#---------    -------------------            -------------------------------
# Generated from Intellog Unique Number	CW_82_90/WELL/528
WELL.         06-19-083-22W4                 : Well_name    - WELL
LOC .         00/06-19-083-22W4/0            : Location     - LOCATION
UWI .         00/06-19-083-22W4/0            : Uwi          - UNIQUE WELL ID
ENTR.         JAYE                           : Entered      - ENTERED BY
SRVC.         SCHLUMBERGER                   : Scn          - SERVICE COMPANY
DATE.         11 FEB 86                      : Date         - LOG DATE
STRT.M        220                            : top_depth    - START DEPTH
STOP.M        435                            : bot_depth    - STOP DEPTH
STEP.M        0.25                           : increment    - STEP LENGTH
 NULL. -999.2500:NULL Value
~CURVE INFORMATION BLOCK
#MNEM UNIT       ERCB CURVE CODE    CURVE DESCRIPTION
#-----------   ------------------   ----------------------------------
DEPT.M        00 001 00 00         : DEPTH        - DEPTH
CALI.MM       00 280 01 00         : CAL          - CALIPER
GR  .API      00 310 00 00         : GR           - GAMMA RAY
NPHI.V/V      00 330 00 00         : PHIN         - NEUTRON POROSITY (SANDSTONE)
DPHI.V/V      00 890 00 00         : PHID         - DENSITY POROSITY (SANDSTONE)
ILD .OHMM     00 120 00 00         : RESD         - DEEP RESISTIVITY (DIL)
~PARAMETER INFORMATION
#MNEM.UNIT           DATA             DESCRIPTION OF MNEMONIC
#---------         -----------     ------------------------------
GL  .M        606.8                : gl           - GROUND LEVEL ELEVATION
EREF.M        610.4                : kb           - ELEVATION OF DEPTH REFERENCE
DATM.M        606.8                : datum        - DATUM ELEVATION
TDD .M        435                  : tdd          - TOTAL DEPTH DRILLER
RUN .         ONE                  : Run          - RUN NUMBER
ENG .         LAROSE               : Engineer     - RECORDING ENGINEER
WIT .         BLOTT                : Witness      - WITNESSED BY
BASE.         EDMONTON             : Branch       - HOME BASE OF LOGGING UNIT
MUD .         GEL CHEM             : Mud_type     - MUD TYPE
MATR.         SANDSTONE            : Logunit      - NEUTRON MATRIX
TMAX.C        46                   : BHT          - MAXIMUM RECORDED TEMPERATURE
BHTD.M        435                  : BHTDEP       - MAXIMUM RECORDED TEMPERATURE
RMT .C        18                   : MDTP         - TEMPERATURE OF MUD
MUDD.KG/M     1100                 : MWT          - MUD DENSITY
NEUT.         1                    : NEUTRON      - NEUTRON TYPE
RESI.         0                    : RESIST       - RESISTIVITY TYPE
RM  .OHMM     6.69                 : RM           - RESISTIVITY OF MUD
RMC .OHMM     0                    : RMC          - RESISTIVITY OF MUD CAKE
RMF .OHMM     8.7                  : RMF          - RESISTIVITY OF MUD FILTRATE
SUFT.C        0                    : SUFT         - SURFACE TEMPERATURE
~A  DEPTH      CAL       GR     PHIN     PHID     RESD
  220.000  265.934   83.937    0.682    0.288    2.396
  220.250  268.629   84.990    0.678    0.279    2.518
  220.500  269.445   85.541    0.547    0.274    2.602
  220.750  269.013   85.970    0.532    0.280    2.669
  221.000  267.537   85.398    0.519    0.291    2.698
  221.250  265.124   83.075    0.516    0.296    2.772
  221.500  262.504   81.753    0.542    0.291    2.897
  221.750  258.843   79.368    0.549    0.280    2.956
  222.000  255.180   78.171    0.517    0.273    2.974
  222.250  254.747   81.786    0.522    0.243    3.039
  222.500  256.917   87.400    0.543    0.253    3.042
  222.750  258.673   89.578    0.568    0.274    3.039
  223.000  257.303   88.069    0.544    0.284    3.042
  223.250  250.722   87.745    0.524    0.274    2.976
  223.500  253.933   86.048    0.548    0.254    2.852
  223.750  257.250   78.663    0.532    0.268    2.618
  224.000  260.253   70.842    0.517    0.281    2.595
  224.250  263.260   64.394    0.537    0.281    2.733
  224.500  266.992   61.009    0.559    0.277    3.199
  224.750  265.727   59.871    0.572    0.289    3.830
  225.000  262.588   57.550    0.540    0.283    4.508
  225.250  256.632   52.043    0.480    0.289    5.733
  225.500  248.804   46.907    0.459    0.287    6.735
  225.750  251.181   49.585    0.445    0.266    6.540
  226.000  253.037   51.636    0.421    0.235    7.386
  226.250  253.025   50.502    0.410    0.255   10.282
  226.500  253.007   48.618    0.402    0.256   14.476
  226.750  252.781   47.483    0.406    0.253   18.759
  227.000  251.205   46.345    0.470    0.289   24.265
  227.250  249.206   45.150    0.473    0.324   27.503
  227.500  247.419   43.516    0.467    0.342   29.801
  227.750  246.781   41.068    0.448    0.353   30.115
  228.000  245.928   41.119    0.447    0.356   30.187
  228.250  245.394   41.923    0.448    0.349   31.143
  228.500  244.856   42.663    0.438    0.346   32.305
  228.750  244.003   41.090    0.425    0.346   33.765
  229.000  243.356   44.643    0.426    0.341   34.700
  229.250  243.452   48.197    0.453    0.342   35.465
  229.500  243.222   47.871    0.455    0.345   35.691
  229.750  242.993   46.925    0.444    0.348   35.250
  230.000  243.400   45.791    0.433    0.355   34.820
  230.250  244.735   44.281    0.452    0.363   35.654
  230.500  246.387   42.459    0.465    0.365   36.634
  230.750  248.353   38.887    0.469    0.356   37.930
  231.000  250.105   36.940    0.440    0.347   40.555
  231.250  250.716   38.180    0.426    0.346   43.125
  231.500  251.427   39.543    0.458    0.353   45.407
  231.750  251.427   39.285    0.460    0.363   47.998
  232.000  252.012   40.399    0.458    0.370   50.845
  232.250  252.312   44.140    0.448    0.368   52.641
  232.500  252.614   44.881    0.451    0.362   54.818
  232.750  252.697   43.183    0.461    0.343   56.328
  233.000  251.956   39.735    0.460    0.298   58.325
  233.250  248.397   38.224    0.451    0.289   61.541
  233.500  245.359   38.716    0.455    0.321   65.055
  233.750  248.365   40.454    0.470    0.342   66.613
  234.000  251.264   42.758    0.476    0.364   73.529
  234.250  252.079   43.561    0.460    0.361   94.210
  234.500  253.939   41.051    0.464    0.364  116.467
  234.750  254.548   39.604    0.457    0.364  112.901
  235.000  254.844   39.407    0.446    0.358  116.883
  235.250  253.472   38.833    0.444    0.348  140.197
  235.500  252.000   40.387    0.470    0.356  153.092
  235.750  250.938   42.689    0.475    0.370  155.222
  236.000  252.068   42.930    0.471    0.386  149.332
  236.250  254.553   41.981    0.453    0.384  143.122
  236.500  256.621   41.908    0.447    0.377  136.894
  236.750  258.376   42.463    0.451    0.370  131.443
  237.000  259.501   41.389    0.453    0.366  129.358
  237.250  259.381   38.568    0.461    0.364  128.982
  237.500  259.368   41.182    0.472    0.358  130.799
  237.750  259.350   42.421    0.502    0.368  130.419
  238.000  259.018   41.348    0.510    0.381  129.565
  238.250  259.837   39.466    0.495    0.383  127.498
  238.500  259.615   38.392    0.471    0.378  123.356
  238.750  259.175   38.818    0.467    0.373  117.993
  239.000  259.580   39.248    0.446    0.373  111.399
  239.250  259.357   39.238    0.440    0.375  103.585
  239.500  258.711   39.790    0.473    0.376   92.589
  239.750  258.699   40.156    0.468    0.375   73.072
  240.000  258.782   40.021    0.465    0.362   66.184
  240.250  259.184   39.075    0.467    0.340   65.742
  240.500  259.584   38.815    0.491    0.316   67.183
  240.750  259.360   39.179    0.489    0.302   66.388
  241.000  259.758   39.606    0.464    0.362   65.917
  241.250  260.263   40.220    0.441    0.380   61.646
  241.500  260.563   41.337    0.464    0.369   53.870
  241.750  260.546   42.701    0.453    0.356   47.163
  242.000  260.110   42.818    0.450    0.339   39.092
  242.250  260.409   42.494    0.459    0.290   33.085
  242.500  260.492   43.484    0.480    0.353   29.963
  242.750  260.376   46.225    0.490    0.379   27.708
  243.000  259.213   50.840    0.486    0.379   26.554
  243.250  259.299   52.642    0.466    0.383   25.164
  243.500  259.699   54.570    0.441    0.385   23.357
  243.750  260.306   56.436    0.440    0.383   20.293
  244.000  260.292   57.800    0.420    0.376   16.108
  244.250  259.651   54.416    0.437    0.373   12.405
  244.500  259.425   52.217    0.468    0.375    9.717
  244.750  259.826   54.520    0.508    0.374    8.524
  245.000  259.910   59.073    0.536    0.364    7.676
  245.250  259.793   66.001    0.520    0.311    6.734
  245.500  259.150   71.180    0.461    0.314    5.862
  245.750  258.822   84.981    0.463    0.329    5.083
  246.000  258.286   82.160    0.479    0.345    4.096
  246.250  255.766   87.025    0.498    0.338    3.599
  246.500  254.921   89.388    0.501    0.323    3.569
  246.750  254.375   90.440    0.495    0.297    3.620
  247.000  253.843   91.931    0.494    0.268    3.651
  247.250  252.684   92.795    0.502    0.269    3.667
  247.500  252.771   91.850    0.495    0.278    3.691
  247.750  252.651   90.213    0.516    0.276    3.730
  248.000  251.174   91.706    0.547    0.271    3.833
  248.250  248.970   84.758    0.521    0.269    3.962
  248.500  246.247   77.686    0.514    0.275    4.148
  248.750  238.207   70.050    0.513    0.284    4.435
  249.000  232.985   67.603    0.516    0.281    4.778
  249.250  225.885   67.093    0.510    0.285    5.012
  249.500  223.576   66.270    0.498    0.291    5.481
  249.750  222.619   64.261    0.488    0.291    6.167
  250.000  222.082   57.752    0.474    0.285    6.757
  250.250  222.069   50.241    0.462    0.270    7.630
  250.500  222.258   47.419    0.453    0.247    8.697
  250.750  221.932   50.847    0.431    0.245   10.199
  251.000  222.853   50.587    0.422    0.296   14.416
  251.250  227.836   48.326    0.497    0.399   19.914
  251.500  233.443   49.253    0.664    0.476   22.788
  251.750  239.362   51.557    0.729    0.568   24.875
  252.000  243.204   54.484    0.764    0.417   26.150
  252.250  247.562   52.538    0.728    0.393   27.489
  252.500  250.459   47.902    0.496    0.389   28.622
  252.750  250.965   46.517    0.473    0.376   29.521
  253.000  251.778   46.570    0.434    0.355   30.460
  253.250  252.284   48.372    0.439    0.352   30.884
  253.500  253.098   50.611    0.438    0.358   31.751
  253.750  254.122   52.102    0.441    0.369   32.135
  254.000  254.320   52.030    0.443    0.377   32.463
  254.250  255.030   50.458    0.446    0.377   32.493
  254.500  255.225   51.136    0.445    0.367   32.278
  254.750  255.934   53.064    0.429    0.355   31.762
  255.000  256.543   52.990    0.420    0.350   31.368
  255.250  256.633   48.481    0.422    0.345   30.986
  255.500  255.577   46.909    0.435    0.345   30.728
  255.750  254.307   48.584    0.450    0.346   30.460
  256.000  253.253   50.639    0.448    0.348   30.033
  256.250  251.881   53.066    0.424    0.353   29.721
