~VERSION INFORMATION
 VERS.                 2.0:   CWLS LOG ASCII STANDARD -VERSION 2.0
 WRAP.                  NO:   ONE LINE PER DEPTH STEP
~WELL INFORMATION BLOCK
#MNEM.UNIT           DATA                    DESCRIPTION OF MNEMONIC
#---------    -------------------            -------------------------------
# Generated from Intellog Unique Number	CX_WELLS/WELL/3000
WELL.         BRENDA ET AL DIVIDE            : Well_name    - WELL
LOC .         00/03-18-082-12W4/0            : Location     - LOCATION
UWI .         00/03-18-082-12W400            : Uwi          - UNIQUE WELL ID
ENTR.         T                              : Entered      - ENTERED BY
SRVC.         SCHLUMBERGER                   : Scn          - SERVICE COMPANY
STRT.M        225                            : top_depth    - START DEPTH
STOP.M        465                            : bot_depth    - STOP DEPTH
STEP.M        0.25                           : increment    - STEP LENGTH
 NULL. -999.2500:NULL Value
~CURVE INFORMATION BLOCK
#MNEM UNIT       ERCB CURVE CODE    CURVE DESCRIPTION
#-----------   ------------------   ----------------------------------
DEPT.M        00 001 00 00         : DEPTH        - DEPTH
GR  .API      00 310 00 00         : GR           - GAMMA RAY
NPHI.V/V      00 330 00 00         : PHIN         - NEUTRON POROSITY (SANDSTONE)
DPHI.V/V      00 890 00 00         : PHID         - DENSITY POROSITY (SANDSTONE)
ILD .OHMM     00 120 00 00         : RESD         - DEEP RESISTIVITY (OTHER)
~PARAMETER INFORMATION
#MNEM.UNIT           DATA             DESCRIPTION OF MNEMONIC
#---------         -----------     ------------------------------
GL  .M        677.8                : gl           - GROUND LEVEL ELEVATION
EREF.M        681.2                : kb           - ELEVATION OF DEPTH REFERENCE
DATM.M        681.2                : datum        - DATUM ELEVATION
TDD .M        474                  : tdd          - TOTAL DEPTH DRILLER
RUN .         ONE                  : Run          - RUN NUMBER
ENG .         BILL                 : Engineer     - RECORDING ENGINEER
WIT .         JIM                  : Witness      - WITNESSED BY
MUD .         GEL                  : Mud_type     - MUD TYPE
MATR.         SANDSTONE            : Logunit      - NEUTRON MATRIX
TMAX.C        21.1111              : BHT          - MAXIMUM RECORDED TEMPERATURE
BHTD.M        474                  : BHTDEP       - MAXIMUM RECORDED TEMPERATURE
MATR.         1                    : LOGUNIT      - NEUTRON MATRIX
RMT .C        22                   : MDTP         - TEMPERATURE OF MUD
NEUT.         1                    : NEUTRON      - NEUTRON TYPE
RESI.         3.8                  : RESIST       - RESISTIVITY TYPE
RMC .OHMM     4.68                 : RMC          - RESISTIVITY OF MUD CAKE
RMF .OHMM     4.68                 : RMF          - RESISTIVITY OF MUD FILTRATE
SUFT.C        4                    : SUFT         - SURFACE TEMPERATURE
~A  DEPTH       GR     PHIN     PHID     RESD
# ...
  268.500  120.356    0.505    0.222    5.121
  268.750  121.542    0.510    0.228    6.416
  269.000  122.727    0.511    0.235    7.740
  269.250  120.949    0.494    0.241    9.695
  269.500  114.427    0.464    0.251   11.920
  269.750  107.905    0.422    0.267   13.346
  270.000  100.198    0.411    0.292   14.124
  270.250   96.047    0.412    0.320   14.130
  270.500   96.640    0.414    0.316   13.619
  270.750   96.640    0.400    0.292   12.645
  271.000   92.490    0.406    0.280   12.185
  271.250   87.747    0.422    0.277   11.103
  271.500   82.411    0.426    0.288    9.930
  271.750   88.340    0.400    0.306    9.218
  272.000   98.419    0.409    0.302    8.243
  272.250  109.091    0.418    0.252    8.405
  272.500  115.020    0.432    0.218    8.894
  272.750  119.763    0.445    0.218    9.773
  273.000  115.020    0.427    0.244   10.738
  273.250  111.462    0.411    0.251   11.581
  273.500  111.462    0.416    0.261   12.254
  273.750  110.277    0.412    0.268   12.731
  274.000  103.755    0.405    0.271   13.222
  274.250  100.198    0.404    0.273   13.229
  274.500   95.454    0.405    0.274   13.486
  274.750   90.119    0.404    0.275   13.496
  275.000   88.933    0.410    0.277   13.505
  275.250   85.376    0.418    0.281   13.262
  275.500   79.447    0.426    0.282   13.267
  275.750   69.960    0.423    0.277   13.030
  276.000   68.775    0.411    0.265   12.794
  276.250   70.553    0.401    0.254   12.564
  276.500   70.553    0.399    0.246   12.572
  276.750   70.553    0.411    0.285   12.344
  277.000   71.146    0.422    0.287   12.122
  277.250   72.332    0.424    0.298   12.132
  277.500   72.925    0.427    0.297   11.914
  277.750   73.518    0.428    0.294   11.922
  278.000   74.111    0.434    0.287   11.925
  278.250   75.296    0.419    0.282   11.935
  278.500   76.482    0.409    0.274   11.719
  278.750   77.668    0.413    0.263   11.723
  279.000   81.818    0.421    0.274   11.300
  279.250   86.561    0.427    0.272   10.492
  279.500   90.119    0.407    0.260    9.922
  279.750   96.047    0.403    0.252    9.041
  280.000  105.534    0.427    0.245    7.645
  280.250  110.277    0.439    0.236    6.965
  280.500  113.834    0.439    0.228    6.000
  280.750  116.206    0.436    0.221    5.892
  281.000  117.984    0.439    0.213    6.121
  281.250  117.984    0.448    0.209    6.725
  281.500  116.798    0.458    0.204    7.670
  281.750  113.241    0.472    0.204    8.914
  282.000  110.277    0.477    0.231   10.168
  282.250  104.941    0.463    0.269   10.968
  282.500   98.419    0.452    0.280   11.180
  282.750   96.047    0.449    0.281   11.398
  283.000   94.862    0.449    0.278   11.402
  283.250   93.676    0.475    0.272   10.992
  283.500   92.490    0.480    0.264   10.594
  283.750   90.119    0.474    0.253   10.018
  284.000   90.712    0.461    0.247    9.301
  284.250   94.862    0.453    0.245    8.964
  284.500  101.976    0.440    0.268    9.668
  284.750  103.755    0.433    0.269   10.623
  285.000  101.976    0.439    0.271   11.242
  285.250  100.198    0.446    0.282   12.124
  285.500   99.012    0.440    0.290   13.074
  285.750   99.605    0.433    0.294   13.835
  286.000  101.383    0.435    0.290   14.642
  286.250   99.012    0.439    0.287   14.650
  286.500   94.862    0.437    0.283   14.662
  286.750   81.818    0.428    0.281   14.670
  287.000   66.403    0.402    0.276   14.956
  287.250   59.288    0.381    0.296   15.247
  287.500   53.953    0.370    0.308   15.541
  287.750   50.395    0.358    0.334   15.844
  288.000   48.617    0.369    0.359   16.152
  288.250   48.024    0.395    0.353   17.099
  288.500   47.431    0.398    0.334   17.104
  288.750   47.431    0.400    0.342   17.768
  289.000   48.024    0.401    0.353   17.783
  289.250   48.617    0.401    0.352   18.124
  289.500   49.209    0.402    0.343   18.477
  289.750   49.209    0.405    0.342   18.836
  290.000   49.802    0.406    0.337   18.846
  290.250   50.988    0.402    0.334   19.579
  290.500   50.988    0.401    0.332   19.590
  290.750   51.581    0.402    0.337   19.971
  291.000   51.581    0.408    0.332   20.365
  291.250   51.581    0.403    0.331   20.373
  291.500   50.988    0.391    0.337   20.382
  291.750   50.395    0.393    0.337   20.396
  292.000   50.395    0.399    0.341   20.404
  292.250   50.395    0.402    0.354   20.418
  292.500   50.988    0.411    0.364   20.427
  292.750   50.988    0.418    0.371   20.824
  293.000   50.988    0.426    0.367   20.836
  293.250   50.988    0.429    0.366   20.850
  293.500   50.988    0.428    0.366   20.861
  293.750   49.802    0.428    0.366   20.879
  294.000   49.802    0.424    0.366   20.497
  294.250   49.209    0.412    0.366   20.511
  294.500   49.209    0.402    0.366   20.139
  294.750   49.209    0.411    0.367   20.156
  295.000   49.802    0.426    0.368   19.788
  295.250   49.802    0.436    0.375   19.434
  295.500   49.209    0.434    0.385   19.084
  295.750   48.617    0.429    0.387   18.743
  296.000   48.617    0.425    0.378   18.065
  296.250   49.802    0.431    0.374   17.742
  296.500   51.581    0.431    0.374   17.749
  296.750   53.360    0.437    0.374   17.759
  297.000   53.360    0.446    0.376   17.771
  297.250   49.802    0.458    0.376   17.776
  297.500   47.431    0.449    0.374   18.122
  297.750   46.838    0.424    0.370   18.480
  298.000   47.431    0.442    0.368   18.485
  298.250   48.024    0.471    0.370   17.818
  298.500   49.209    0.478    0.374   17.832
  298.750   49.802    0.486    0.382   18.174
  299.000   49.802    0.435    0.370   18.528
  299.250   49.802    0.441    0.350   18.889
  299.500   49.802    0.464    0.349   19.623
  299.750   49.802    0.465    0.347   20.004
  300.000   48.617    0.439    0.348   20.013
  300.250   47.431    0.433    0.348   20.402
  300.500   46.838    0.424    0.348   20.416
  300.750   46.245    0.425    0.347   20.816
  301.000   46.245    0.439    0.350   20.831
  301.250   45.652    0.450    0.356   20.839
  301.500   45.059    0.444    0.354   21.242
  301.750   44.466    0.437    0.343   21.256
  302.000   44.466    0.430    0.336   21.265
  302.250   44.466    0.429    0.335   21.682
  302.500   45.059    0.424    0.335   21.694
  302.750   45.652    0.424    0.335   22.116
  303.000   45.652    0.432    0.335   22.128
  303.250   45.652    0.433    0.338   22.143
  303.500   46.245    0.432    0.341   22.571
  303.750   46.245    0.430    0.345   22.590
  304.000   46.838    0.427    0.348   22.599
  304.250   46.838    0.430    0.349   22.195
  304.500   47.431    0.432    0.351   21.793
  304.750   47.431    0.436    0.354   21.006
  305.000   47.431    0.436    0.356   20.623
  305.250   47.431    0.437    0.360   19.513
  305.500   47.431    0.439    0.362   19.161
  305.750   48.024    0.442    0.365   18.816
  306.000   48.024    0.443    0.368   18.478
  306.250   48.024    0.441    0.368   18.485
  306.500   48.617    0.438    0.369   18.152
  306.750   49.209    0.438    0.369   18.163
  307.000   50.395    0.437    0.371   18.175
  307.250   50.988    0.431    0.371   18.185
  307.500   52.174    0.427    0.371   18.198
  307.750   53.360    0.437    0.366   17.867
  308.000   53.953    0.450    0.356   17.880
  308.250   53.953    0.459    0.360   17.558
  308.500   53.360    0.450    0.355   17.565
  308.750   52.767    0.446    0.342   17.254
  309.000   52.767    0.443    0.348   17.259
  309.250   52.767    0.438    0.344   16.948
  309.500   53.360    0.432    0.337   16.959
  309.750   54.545    0.428    0.338   16.652
  310.000   55.138    0.424    0.345   16.354
  310.250   55.731    0.437    0.340   16.368
  310.500   55.731    0.446    0.343   16.375
  310.750   55.731    0.450    0.351   16.386
  311.000   55.731    0.456    0.352   16.393
  311.250   55.731    0.456    0.352   16.400
  311.500   56.324    0.446    0.352   16.411
  311.750   56.324    0.442    0.352   16.418
