~VERSION INFORMATION
 VERS.                 2.0:   CWLS LOG ASCII STANDARD -VERSION 2.0
 WRAP.                  NO:   ONE LINE PER DEPTH STEP
~WELL INFORMATION BLOCK
#MNEM.UNIT           DATA                    DESCRIPTION OF MNEMONIC
#---------    -------------------            -------------------------------
# Generated from Intellog Unique Number	CS_73_76/WELL/4140
WELL.         J M HJBER CURPORATION          : Well_name    - WELL
LOC .         00/06-03-074-18W4/0            : Location     - LOCATION
UWI .         00/06-03-074-18W4/0            : Uwi          - UNIQUE WELL ID
ENTR.         T                              : Entered      - ENTERED BY
SRVC.         SCHLUMBERGER                   : Scn          - SERVICE COMPANY
STRT.M        274.32                         : top_depth    - START DEPTH
STOP.M        493.82                         : bot_depth    - STOP DEPTH
STEP.M        0.25                           : increment    - STEP LENGTH
 NULL. -999.2500:NULL Value
~CURVE INFORMATION BLOCK
#MNEM UNIT       ERCB CURVE CODE    CURVE DESCRIPTION
#-----------   ------------------   ----------------------------------
DEPT.M        00 001 00 00         : DEPTH        - DEPTH
DELT.US/F     00 520 00 00         : DELT         - SONIC TRAVEL TIME
ILD .OHMM     00 120 00 00         : RESD         - DEEP RESISTIVITY (DIL)
GR  .API      00 310 00 00         : GR           - GAMMA RAY
~PARAMETER INFORMATION
#MNEM.UNIT           DATA             DESCRIPTION OF MNEMONIC
#---------         -----------     ------------------------------
GL  .M        591.16               : gl           - GROUND LEVEL ELEVATION
EREF.M        594.208              : kb           - ELEVATION OF DEPTH REFERENCE
DATM.M        594.208              : datum        - DATUM ELEVATION
TDD .M        505.968              : tdd          - TOTAL DEPTH DRILLER
RUN .         ONE                  : Run          - RUN NUMBER
ENG .         BILL                 : Engineer     - RECORDING ENGINEER
WIT .         JIM                  : Witness      - WITNESSED BY
MUD .         GEL                  : Mud_type     - MUD TYPE
MATR.         SANDSTONE            : Logunit      - NEUTRON MATRIX
TMAX.C        16.6667              : BHT          - MAXIMUM RECORDED TEMPERATURE
BHTD.M        505.968              : BHTDEP       - MAXIMUM RECORDED TEMPERATURE
MATR.         1                    : LOGUNIT      - NEUTRON MATRIX
RMT .C        16.6667              : MDTP         - TEMPERATURE OF MUD
NEUT.         1                    : NEUTRON      - NEUTRON TYPE
RESI.         0                    : RESIST       - RESISTIVITY TYPE
RMC .OHMM     3.28                 : RMC          - RESISTIVITY OF MUD CAKE
RMF .OHMM     2.85                 : RMF          - RESISTIVITY OF MUD FILTRATE
SUFT.C        15                   : SUFT         - SURFACE TEMPERATURE
~A  DEPTH     DELT     RESD       GR
  274.320  438.000    3.250   90.204
  274.570  437.346    3.249   92.676
  274.820  439.356    3.439   92.041
  275.070  441.366    3.503   90.162
  275.320  442.710    3.855   87.665
  275.570  428.067    4.410   83.297
  275.820  386.110    5.449   78.930
  276.070  356.144    6.113   73.319
  276.320  372.810    6.729   68.329
  276.570  388.810    7.265   65.828
  276.820  412.803    7.993   73.900
  277.070  409.484    8.300   77.623
  277.320  404.167    8.457   81.339
  277.570  396.185    8.612   82.571
  277.820  390.867    8.770   78.829
  278.070  387.548    8.764   73.840
  278.320  387.563    8.756   66.981
  278.570  392.235    8.746   61.991
  278.820  396.909    8.738   60.112
  279.070  400.252    8.730   61.966
  279.320  402.928    8.722   62.579
  279.570  404.272    8.547   60.075
  279.820  406.286    8.376   58.821
  280.070  406.963    8.210   56.942
  280.320  408.308    8.042   56.307
  280.570  410.984    8.036   60.649
  280.820  412.994    7.877   65.613
  281.070  411.007    7.719   71.196
  281.320  410.359    7.416   73.675
  281.570  410.365    7.271   79.261
  281.820  409.053    6.989   81.115
  282.070  408.393    6.718   83.588
  282.320  407.075    6.457   85.441
  282.570  408.413    6.206   87.914
  282.820  414.420    5.850   90.393
  283.070  425.091    5.624   92.243
  283.320  429.766    5.512   92.859
  283.570  418.452    5.505   92.846
  283.820  409.138    5.608   92.209
  284.070  402.488    5.822   89.707
  284.320  397.840    5.933   87.210
  284.570  396.519    6.529   87.194
  284.820  395.867    7.185   91.536
  285.070  395.210    8.060   94.012
  285.320  394.556    8.533   95.246
  285.570  393.901    9.034   99.588
  285.820  393.910    9.204   88.997
  286.070  393.256    9.556   88.362
  286.320  392.601   10.722   88.353
  286.570  391.281   11.802   78.387
  286.820  391.292   14.869   70.906
  287.070  395.301   18.375   56.585
  287.320  402.641   17.654   43.508
  287.570  408.651   16.973   45.984
  287.820  411.990   16.006   57.169
  288.070  402.010   14.240   72.084
  288.320  396.695   12.669   74.566
  288.570  398.036   11.491   75.175
  288.820  400.715   10.224   75.784
  289.070  401.393    8.415   76.394
  289.320  405.399    7.784   77.622
  289.570  415.403    6.923   80.098
  289.820  424.741    6.280   82.577
  290.070  422.088    5.809   93.140
  290.320  418.103    5.168   99.970
  290.570  426.109    4.779   99.335
  290.820  438.778    4.419   99.323
  291.070  454.777    4.166  107.397
  291.320  457.454    3.928  108.626
  291.570  462.134    3.776  109.232
  291.820  463.475    3.628  109.848
  292.070  465.486    3.556  111.698
  292.320  466.164    3.484  114.177
  292.570  464.177    3.481  114.787
  292.820  462.193    3.547  112.905
  293.070  461.533    3.827  115.384
  293.320  460.881    4.053  119.726
  293.570  457.559    4.727  121.579
  293.820  449.577    5.512  121.567
  294.070  433.601    6.552  115.955
  294.320  417.625    6.803  109.099
  294.570  405.645    6.797   99.752
  294.820  406.323    6.793   99.736
  295.070  407.670    6.786  101.590
  295.320  410.347    6.778  104.066
  295.570  413.689    6.905  105.301
  295.820  417.032    7.456  100.311
  296.070  421.040   10.149   92.833
  296.320  422.382   10.954   85.978
  296.570  415.732   12.772   77.878
  296.820  409.082   14.333   72.266
  297.070  405.763   17.373   69.143
  297.320  408.439   20.260   66.642
  297.570  411.116   22.731   62.894
  297.820  413.795   25.015   59.774
  298.070  413.809   25.971   56.029
  298.320  412.483   24.969   54.769
  298.570  410.499   24.000   55.381
  298.820  411.177   22.189   57.851
  299.070  414.520   20.515   58.467
  299.320  415.195   19.346   60.942
  299.570  408.545   17.894   64.037
  299.820  400.562   16.230   64.646
  300.070  397.243   15.009   67.747
  300.320  401.921   13.098   72.712
  300.570  399.934   11.653   77.050
  300.820  397.279   10.166   78.904
  301.070  397.956    9.221   80.758
  301.320  401.299    8.198   83.856
  301.570  406.643    8.038   86.957
  301.820  407.990    7.726   91.921
  302.070  402.669    7.426   93.149
  302.320  400.020    7.138   95.625
  302.570  400.697    7.133   98.104
  302.820  400.712    6.990  103.068
  303.070  401.387    6.984  109.276
  303.320  402.731    6.977  108.641
  303.570  402.074    6.968  106.140
  303.820  397.422    7.101  101.148
  304.070  392.771    7.094   98.028
  304.320  386.790    7.226   93.038
  304.570  384.134    7.219   86.805
  304.820  382.147    7.211   81.815
  305.070  380.161    7.487   78.067
  305.320  379.509    7.484   83.656
  305.570  380.187    7.055   91.731
  305.820  382.861    6.274   98.558
  306.070  388.868    6.032  102.903
  306.320  404.867    7.312  104.135
  306.570  420.867    7.167   99.146
  306.820  430.205    7.022   91.046
  307.070  424.887    7.017   79.835
  307.320  414.907    7.009   71.736
  307.570  422.912    7.003   81.054
  307.820  416.263    7.134   79.175
  308.070  408.947    7.552   76.674
  308.320  400.964    7.840   76.040
  308.570  394.317    7.990   77.271
  308.820  397.657    8.133   80.363
  309.070  401.002    8.290   81.597
  309.320  399.682    8.282   81.588
  309.570  395.694    8.436   82.197
  309.820  389.047    8.424   84.045
  310.070  386.391    8.421   83.413
  310.320  389.067    8.246   83.404
  310.570  393.742    7.930   82.769
  310.820  397.085    7.473   83.378
  311.070  399.098    7.468   83.985
  311.320  393.111    7.753   83.350
  311.570  385.129    7.901   83.341
  311.820  366.488    8.365   82.706
  312.070  355.175    8.854   81.446
  312.320  345.860    9.372   80.811
  312.570  363.192    9.737   80.176
  312.820  379.858    9.916   79.541
  313.070  407.849    9.715   78.907
  313.320  421.184    9.525   78.272
  313.570  405.208    9.151   77.015
  313.820  403.890    8.972   76.377
  314.070  403.236    8.959   75.121
  314.320  402.581    8.955   72.620
  314.570  400.594    9.298   70.122
  314.820  397.275    9.473   62.022
  315.070  395.955    9.833   47.701
  315.320  393.968   10.018   43.956
  315.570  395.312   10.403   41.452
  315.820  397.985   10.803   40.195
  316.070  403.993   11.002   40.182
  316.320  408.667   10.996   40.792
  316.570  414.009   10.986   40.779
  316.820  418.683   10.974   40.766
  317.070  419.361   10.752   42.617
  317.320  419.373   10.539   43.855
  317.570  419.385   10.527   45.086
  317.820  419.399   10.522   46.937
  318.070  419.411   10.715   48.165
  318.320  419.423   10.914   48.156
  318.570  418.771   11.117   47.521
  318.820  418.111   11.107   45.020
  319.070  415.464   11.313   43.144
  319.320  413.474   11.300   44.373
  319.570  412.151   11.295   45.604
  319.820  410.164   11.505   46.214
  320.070  409.510   10.845   45.579
  320.320  406.866   10.627   45.569
  320.570  404.873   10.617   44.935
  320.820  403.549   10.405   46.166
  321.070  400.230   10.395   46.154
  321.320  398.910   10.388   46.141
  321.570  403.590   10.376   44.262
  321.820  407.596   10.567   43.005
  322.070  412.271   10.559   49.832
  322.320  416.946   10.758   52.311
  322.570  419.625   10.746   52.299
  322.820  420.306   10.736   51.039
  323.070  420.978   10.724   50.401
  323.320  422.994   10.308   50.394
  323.570  424.335    9.718   51.004
  323.820  425.676    9.341   50.988
  324.070  428.353    9.513   50.975
  324.320  425.700    9.881   50.337
  324.570  333.778   10.461   49.706
  324.820  301.148   10.653   49.693
  325.070  275.182   10.444   49.684
  325.320  294.510   10.235   50.287
  325.570  317.171    9.838   50.903
  325.820  334.503    9.456   52.131
  326.070  421.119    8.913   52.118
  326.320  429.125    8.737   49.621
  326.570  433.133    8.396   48.986
  326.820  437.145    8.226   52.706
  327.070  438.486    8.065   51.449
  327.320  441.162    8.055   47.701
  327.570  439.842    8.201   50.176
  327.820  429.861    8.360   53.277
  328.070  427.874    8.681   57.616
  328.320  441.209    8.840   60.095
