~VERSION INFORMATION
 VERS.                 2.0:   CWLS LOG ASCII STANDARD -VERSION 2.0
 WRAP.                  NO:   ONE LINE PER DEPTH STEP
~WELL INFORMATION BLOCK
#MNEM.UNIT           DATA                    DESCRIPTION OF MNEMONIC
#---------    -------------------            -------------------------------
# Generated from Intellog Unique Number	CW_76_78/WELL/2572
WELL.         BAYSEL WILLOW R                : Well_name    - WELL
LOC .         00/07-10-078-03W5/0            : Location     - LOCATION
UWI .         00/07-10-078-03W5/0            : Uwi          - UNIQUE WELL ID
ENTR.         MAX                            : Entered      - ENTERED BY
SRVC.         SCHLUMBERGER                   : Scn          - SERVICE COMPANY
STRT.M        365.76                         : top_depth    - START DEPTH
STOP.M        640.01                         : bot_depth    - STOP DEPTH
STEP.M        0.25                           : increment    - STEP LENGTH
 NULL. -999.2500:NULL Value
~CURVE INFORMATION BLOCK
#MNEM UNIT       ERCB CURVE CODE    CURVE DESCRIPTION
#-----------   ------------------   ----------------------------------
DEPT.M        00 001 00 00         : DEPTH        - DEPTH
ILD .OHMM     00 120 00 00         : RESD         - DEEP RESISTIVITY (DIL)
NPHI.V/V      00 330 00 00         : PHIN         - NEUTRON POROSITY (SANDSTONE)
DPHI.V/V      00 890 00 00         : PHID         - DENSITY POROSITY (SANDSTONE)
CALI.MM       00 280 01 00         : CAL          - CALIPER
GR  .API      00 310 00 00         : GR           - GAMMA RAY
~PARAMETER INFORMATION
#MNEM.UNIT           DATA             DESCRIPTION OF MNEMONIC
#---------         -----------     ------------------------------
GL  .M        660.197              : gl           - GROUND LEVEL ELEVATION
EREF.M        664.403              : kb           - ELEVATION OF DEPTH REFERENCE
DATM.M        660.197              : datum        - DATUM ELEVATION
TDD .M        658.063              : tdd          - TOTAL DEPTH DRILLER
RUN .         ONE                  : Run          - RUN NUMBER
ENG .         BILL                 : Engineer     - RECORDING ENGINEER
WIT .         JIM                  : Witness      - WITNESSED BY
MUD .         GEL                  : Mud_type     - MUD TYPE
MATR.         SANDSTONE            : Logunit      - NEUTRON MATRIX
TMAX.C        26.6667              : BHT          - MAXIMUM RECORDED TEMPERATURE
BHTD.M        658.063              : BHTDEP       - MAXIMUM RECORDED TEMPERATURE
RMT .C        15                   : MDTP         - TEMPERATURE OF MUD
MUDD.KG/M     9300                 : MWT          - MUD DENSITY
NEUT.         1                    : NEUTRON      - NEUTRON TYPE
RESI.         0                    : RESIST       - RESISTIVITY TYPE
RM  .OHMM     0.25                 : RM           - RESISTIVITY OF MUD
RMC .OHMM     0.25                 : RMC          - RESISTIVITY OF MUD CAKE
RMF .OHMM     3.74                 : RMF          - RESISTIVITY OF MUD FILTRATE
SUFT.C        -15                  : SUFT         - SURFACE TEMPERATURE
~A  DEPTH     RESD     PHIN     PHID      CAL       GR
# ...
  475.260    5.329    0.479    0.196  171.017   99.093
  475.510    5.319    0.483    0.187  171.485   97.206
  475.760    5.170    0.482    0.197  170.897   95.306
  476.010    5.165    0.499    0.196  170.310   95.888
  476.260    5.160    0.499    0.194  171.827   95.859
  476.510    5.201    0.487    0.202  172.820   97.680
  476.760    5.291    0.482    0.217  171.183   98.262
  477.010    5.333    0.470    0.214  170.603   95.755
  477.260    5.375    0.452    0.205  170.015   93.856
  477.510    5.418    0.453    0.221  167.854   95.685
  477.760    5.462    0.461    0.216  168.847   96.886
  478.010    5.455    0.472    0.202  171.399   95.296
  478.260    5.455    0.480    0.229  170.818   93.719
  478.510    5.443    0.488    0.239  167.098   91.513
  478.760    5.539    0.479    0.266  163.357   91.782
  479.010    5.539    0.467    0.245  161.727   94.544
  479.260    5.575    0.477    0.216  161.664   95.746
  479.510    5.828    0.480    0.214  162.649   94.470
  479.760    5.929    0.477    0.250  163.125   91.339
  480.010    6.032    0.474    0.272  162.537   87.276
  480.260    6.079    0.465    0.274  161.425   82.898
  480.510    6.079    0.459    0.266  160.844   81.003
  480.760    6.063    0.464    0.260  160.264   78.178
  481.010    6.116    0.464    0.268  160.194   75.362
  481.260    6.165    0.461    0.267  160.669   73.780
  481.510    6.154    0.460    0.264  160.585   77.463
  481.760    6.208    0.465    0.266  161.067   81.452
  482.010    6.258    0.466    0.266  161.528   81.729
  482.260    6.251    0.465    0.252  161.465   83.546
  482.510    6.302    0.465    0.235  161.402   84.446
  482.760    6.294    0.465    0.247  161.870   83.781
  483.010    6.231    0.469    0.245  162.331   84.066
  483.260    6.058    0.487    0.230  162.268   87.431
  483.510    5.783    0.488    0.239  163.268   92.047
  483.760    5.572    0.479    0.227  163.729   97.585
  484.010    5.417    0.475    0.208  164.197   97.857
  484.260    5.362    0.475    0.237  164.658   94.108
  484.510    5.352    0.478    0.223  165.651   94.694
  484.760    5.398    0.486    0.199  166.119   98.369
  485.010    5.491    0.493    0.193  167.112   98.026
  485.260    5.491    0.497    0.185  169.664   97.059
  485.510    5.630    0.481    0.219  172.761   94.858
  485.760    6.158    0.473    0.231  169.552   90.489
  486.010    6.614    0.472    0.235  167.922   87.974
  486.260    7.041    0.452    0.254  167.335   86.075
  486.510    7.493    0.436    0.242  167.271   83.878
  486.760    7.975    0.405    0.225  167.215   82.601
  487.010    8.335    0.316    0.203  167.676   80.396
  487.260    8.403    0.265    0.168  169.194   78.501
  487.510    7.737    0.284    0.127  171.214   80.639
  487.760    7.320    0.396    0.147  169.585   83.695
  488.010    6.678    0.466    0.204  165.864   84.277
  488.260    6.319    0.474    0.265  162.130   85.487
  488.510    5.979    0.474    0.268  161.025   87.304
  488.760    5.603    0.498    0.256  160.955   88.509
  489.010    5.499    0.500    0.241  161.423   87.853
  489.260    5.492    0.479    0.235  162.940   88.439
  489.510    5.637    0.468    0.237  164.457   90.268
  489.760    6.054    0.465    0.245  165.443   88.984
  490.010    6.504    0.458    0.261  166.436   89.578
  490.260    7.309    0.425    0.214  167.414   87.678
  490.510    8.751    0.392    0.187  167.890   83.619
  490.760   10.962    0.308    0.152  168.351   74.605
  491.010   13.246    0.262    0.114  168.819   69.612
  491.260   15.156    0.234    0.037  170.854   66.478
  491.510   17.502    0.220    0.041  172.371   65.515
  491.760   21.533    0.214    0.028  172.308   63.921
  492.010   21.511    0.208    0.029  171.720   65.131
  492.260   14.293    0.268    0.042  170.615   66.952
  492.510   13.525    0.316    0.071  170.559   68.777
  492.760   11.170    0.332    0.113  169.971   71.531
  493.010    8.657    0.397    0.159  167.810   77.998
  493.260    7.900    0.430    0.190  166.698   81.371
  493.510    6.407    0.463    0.223  165.069   85.360
  493.760    6.407    0.476    0.235  163.439   88.424
  494.010    5.528    0.474    0.236  162.844   90.558
  494.260    5.233    0.478    0.236  162.788   92.384
  494.510    5.233    0.489    0.231  163.774   92.656
  494.760    4.989    0.485    0.223  163.193   92.309
  495.010    4.808    0.482    0.233  161.550   92.585
  495.260    4.716    0.486    0.232  163.591   92.552
  495.510    4.711    0.484    0.223  167.199   92.201
  495.760    4.707    0.483    0.211  169.255   91.862
  496.010    4.700    0.481    0.202  169.709   92.436
  496.260    4.696    0.474    0.209  171.750   94.889
  496.510    4.692    0.471    0.208  174.834   97.019
  496.760    4.728    0.472    0.206  175.309   96.359
  497.010    4.724    0.484    0.208  174.707   98.180
  497.260    4.848    0.505    0.218  174.651  100.318
  497.510    5.022    0.500    0.223  174.602  103.073
  497.760    5.249    0.486    0.227  175.070  101.478
  498.010    5.488    0.482    0.213  174.483   99.587
  498.260    5.894    0.479    0.204  168.644   98.939
  498.510    6.388    0.464    0.204  166.490   97.976
  498.760    6.439    0.464    0.194  166.951   98.554
  499.010    5.929    0.462    0.176  171.083   99.764
  499.260    5.408    0.482    0.175  174.705  100.656
  499.510    5.164    0.484    0.177  177.271  103.096
  499.760    5.065    0.473    0.160  176.684  105.846
  500.010    5.014    0.477    0.164  176.620  107.056
  500.260    4.965    0.479    0.171  176.550  108.571
  500.510    4.956    0.475    0.159  176.508  110.392
  500.760    4.909    0.473    0.150  176.438  108.497
  501.010    4.904    0.471    0.166  176.913  105.057
  501.260    4.899    0.454    0.158  177.367  105.949
  501.510    4.893    0.447    0.178  177.318  105.602
  501.760    4.800    0.449    0.169  177.248  105.254
  502.010    4.795    0.465    0.170  177.192  106.464
  502.260    4.791    0.461    0.185  178.184  109.524
  502.510    4.829    0.453    0.170  178.639  109.487
  502.760    4.780    0.458    0.170  178.582  108.520
  503.010    5.152    0.467    0.164  179.135  108.681
  503.260    5.053    0.483    0.150  179.588  112.655
  503.510    5.002    0.484    0.150  179.541  108.925
  503.760    5.002    0.482    0.167  179.994  106.118
  504.010    4.945    0.480    0.183  180.468  105.470
  504.260    4.986    0.475    0.200  180.413  100.205
  504.510    5.163    0.458    0.220  180.359   93.084
  504.760    5.396    0.441    0.234  177.678   89.969
  505.010    5.743    0.447    0.252  173.466   88.402
  505.260    6.280    0.474    0.267  164.543   84.060
  505.510    6.994    0.481    0.257  162.925   83.400
  505.760    7.929    0.478    0.264  162.864   83.060
  506.010    8.065    0.485    0.254  162.803   82.109
  506.260    8.056    0.485    0.244  163.269   81.765
  506.510    7.758    0.483    0.249  163.208   82.348
  506.760    7.674    0.476    0.263  163.160   83.243
  507.010    7.534    0.479    0.256  163.627   85.358
  507.260    7.325    0.478    0.252  163.559   88.400
  507.510    7.054    0.472    0.234  163.505   91.143
  507.760    6.921    0.466    0.219  163.457   94.497
  508.010    6.789    0.459    0.192  164.438   98.463
  508.260    6.659    0.457    0.169  168.026  101.821
  508.510    6.298    0.451    0.185  170.585  104.556
  508.760    6.013    0.452    0.188  173.123  106.370
  509.010    5.741    0.457    0.185  174.626  108.485
  509.260    5.430    0.468    0.174  176.135  109.688
  509.510    5.231    0.472    0.175  178.166  109.660
  509.760    5.224    0.471    0.194  178.118  106.238
  510.010    5.224    0.458    0.192  176.487   98.202
  510.260    5.305    0.445    0.185  172.776   90.162
  510.510    5.648    0.409    0.171  167.509   87.355
  510.760    6.523    0.316    0.118  164.855   84.860
  511.010    9.883    0.226    0.084  163.758   79.282
  511.260   13.432    0.167    0.059  165.254   78.942
  511.510   18.421    0.152   -0.012  167.813   79.526
