~VERSION INFORMATION
 VERS.                 2.0:   CWLS LOG ASCII STANDARD -VERSION 2.0
 WRAP.                  NO:   ONE LINE PER DEPTH STEP
~WELL INFORMATION BLOCK
#MNEM.UNIT           DATA                    DESCRIPTION OF MNEMONIC
#---------    -------------------            -------------------------------
# Generated from Intellog Unique Number	CW_79_81/WELL/2491
WELL.         14-17-081-24W4                 : Well_name    - WELL
LOC .         00/14-17-081-24W4/0            : Location     - LOCATION
UWI .         00/14-17-081-24W4/0            : Uwi          - UNIQUE WELL ID
ENTR.         MAX                            : Entered      - ENTERED BY
SRVC.         WESTERN ATLAS                  : Scn          - SERVICE COMPANY
STRT.M        215                            : top_depth    - START DEPTH
STOP.M        459.75                         : bot_depth    - STOP DEPTH
STEP.M        0.25                           : increment    - STEP LENGTH
 NULL. -999.2500:NULL Value
~CURVE INFORMATION BLOCK
#MNEM UNIT       ERCB CURVE CODE    CURVE DESCRIPTION
#-----------   ------------------   ----------------------------------
DEPT.M        00 001 00 00         : DEPTH        - DEPTH
ILD .OHMM     00 120 00 00         : RESD         - DEEP RESISTIVITY (DIL)
NPHI.V/V      00 330 00 00         : PHIN         - NEUTRON POROSITY (SANDSTONE)
DPHI.V/V      00 890 00 00         : PHID         - DENSITY POROSITY (SANDSTONE)
GR  .API      00 310 00 00         : GR           - GAMMA RAY
CALI.MM       00 280 01 00         : CAL          - CALIPER
~PARAMETER INFORMATION
#MNEM.UNIT           DATA             DESCRIPTION OF MNEMONIC
#---------         -----------     ------------------------------
GL  .M        602.08               : gl           - GROUND LEVEL ELEVATION
EREF.M        605.78               : kb           - ELEVATION OF DEPTH REFERENCE
DATM.M        602.08               : datum        - DATUM ELEVATION
TDD .M        462                  : tdd          - TOTAL DEPTH DRILLER
RUN .         ONE                  : Run          - RUN NUMBER
ENG .         BILL                 : Engineer     - RECORDING ENGINEER
WIT .         JIM                  : Witness      - WITNESSED BY
MUD .         GEL                  : Mud_type     - MUD TYPE
MATR.         SANDSTONE            : Logunit      - NEUTRON MATRIX
TMAX.C        22                   : BHT          - MAXIMUM RECORDED TEMPERATURE
BHTD.M        462                  : BHTDEP       - MAXIMUM RECORDED TEMPERATURE
MATR.         1                    : LOGUNIT      - NEUTRON MATRIX
RMT .C        13                   : MDTP         - TEMPERATURE OF MUD
NEUT.         1                    : NEUTRON      - NEUTRON TYPE
RESI.         0                    : RESIST       - RESISTIVITY TYPE
RMC .OHMM     4.2                  : RMC          - RESISTIVITY OF MUD CAKE
RMF .OHMM     2.5                  : RMF          - RESISTIVITY OF MUD FILTRATE
SUFT.C        -20                  : SUFT         - SURFACE TEMPERATURE
~A  DEPTH     RESD     PHIN     PHID       GR      CAL
# ...
  288.000    5.082    0.429    0.295   77.107  225.575
  288.250    8.094    0.420    0.374   69.309  225.521
  288.500   10.548    0.386    0.359   69.809  225.138
  288.750   14.536    0.317    0.282   69.587  223.609
  289.000   18.382    0.282    0.217   59.769  221.499
  289.250   21.521    0.281    0.199   51.756  219.000
  289.500   23.886    0.311    0.238   50.317  216.696
  289.750   25.331    0.362    0.318   53.542  215.477
  290.000   25.329    0.357    0.333   53.313  215.101
  290.250   24.776    0.328    0.298   51.695  215.119
  290.500   23.835    0.307    0.259   46.240  215.144
  290.750   22.292    0.304    0.241   41.599  214.585
  291.000   20.510    0.316    0.250   42.078  213.634
  291.250   18.746    0.327    0.263   51.685  213.435
  291.500   17.252    0.313    0.259   51.941  214.267
  291.750   15.322    0.336    0.254   52.186  216.228
  292.000   13.936    0.370    0.312   53.829  216.443
  292.250   12.315    0.387    0.351   55.588  215.886
  292.500   10.860    0.380    0.349   57.114  215.427
  292.750   10.216    0.361    0.339   59.377  215.999
  293.000   10.061    0.354    0.328   61.329  216.828
  293.250    9.698    0.365    0.314   62.740  217.631
  293.500    9.663    0.376    0.302   63.802  218.137
  293.750   10.013    0.391    0.303   64.280  218.351
  294.000   10.546    0.403    0.313   64.583  218.372
  294.250   10.623    0.393    0.319   65.763  218.235
  294.500   10.621    0.392    0.320   65.778  217.453
  294.750   10.620    0.387    0.317   65.092  217.090
  295.000   10.503    0.381    0.317   65.279  217.013
  295.250   10.350    0.384    0.317   64.828  216.841
  295.500   10.218    0.395    0.314   63.679  216.576
  295.750   10.143    0.403    0.303   63.130  216.601
  296.000   10.142    0.405    0.304   62.661  216.624
  296.250   10.067    0.402    0.311   63.605  216.642
  296.500   10.048    0.396    0.317   64.550  216.667
  296.750   10.047    0.388    0.320   64.680  216.884
  297.000   10.046    0.379    0.320   64.054  217.293
  297.250   10.030    0.373    0.314   63.602  217.710
  297.500    9.953    0.364    0.311   63.616  217.728
  297.750    9.952    0.365    0.313   63.861  217.753
  298.000    9.951    0.368    0.313   65.678  217.776
  298.250    9.950    0.370    0.313   66.390  217.799
  298.500    9.985    0.372    0.313   65.705  217.820
  298.750   10.162    0.380    0.315   65.624  217.843
  299.000   10.317    0.389    0.313   65.153  217.869
  299.250   10.392    0.394    0.316   64.467  217.891
  299.500   10.410    0.404    0.319   64.480  217.912
  299.750   10.447    0.392    0.321   65.076  217.934
  300.000   10.504    0.368    0.321   65.380  217.959
  300.250   10.534    0.380    0.326   63.768  217.985
  300.500   10.695    0.399    0.326   63.783  218.006
  300.750   10.851    0.404    0.320   65.657  218.027
  301.000   11.010    0.399    0.332   65.089  218.343
  301.250   11.050    0.394    0.342   65.684  218.753
  301.500   10.968    0.393    0.344   67.558  219.063
  301.750   10.871    0.396    0.345   67.098  219.013
  302.000   10.787    0.400    0.344   65.900  218.634
  302.250   10.708    0.395    0.342   66.613  219.042
  302.500   10.629    0.387    0.341   68.022  219.158
  302.750   10.550    0.384    0.341   69.082  218.596
  303.000   10.473    0.387    0.340   68.457  217.457
  303.250   10.380    0.386    0.343   64.857  216.163
  303.500   10.300    0.384    0.342   66.569  215.379
  303.750   10.450    0.387    0.335   66.579  215.784
  304.000   10.893    0.385    0.336   65.195  217.357
  304.250   11.743    0.379    0.335   63.580  218.543
  304.500   13.162    0.365    0.335   62.546  219.438
  304.750   15.805    0.323    0.349   62.224  221.390
  305.000   18.299    0.241    0.384   60.542  219.389
  305.250   19.530    0.233    0.373   60.092  217.089
  305.500   18.572    0.266    0.373   60.511  216.236
  305.750   16.546    0.320    0.370   61.220  216.259
  306.000   14.326    0.372    0.360   61.873  216.769
  306.250   11.906    0.390    0.347   62.500  217.571
  306.500   10.478    0.383    0.332   63.241  217.590
  306.750    9.733    0.380    0.334   66.280  218.000
  307.000    9.250    0.380    0.335   69.494  218.120
  307.250    9.151    0.377    0.333   70.089  218.141
  307.500    9.419    0.368    0.330   67.892  218.065
  307.750   10.033    0.342    0.326   64.717  217.707
  308.000   10.665    0.322    0.312   61.580  217.730
  308.250   11.630    0.303    0.226   60.197  218.918
  308.500   12.622    0.278    0.146   59.862  220.683
  308.750   13.724    0.250    0.106   59.642  222.255
  309.000   14.835    0.223    0.094   58.783  223.052
  309.250   15.131    0.210    0.058   56.656  222.609
  309.500   13.516    0.239    0.059   56.429  222.228
  309.750   10.069    0.290    0.176   60.162  218.375
  310.000    8.749    0.353    0.239   64.423  215.101
  310.250    8.176    0.385    0.292   66.298  214.347
  310.500    7.912    0.379    0.340   65.788  216.307
  310.750    7.740    0.371    0.344   65.657  219.275
  311.000    7.740    0.397    0.337   64.944  218.493
  311.250    7.795    0.393    0.329   64.959  218.899
  311.500    7.852    0.397    0.327   65.846  219.019
  311.750    7.909    0.403    0.328   66.440  219.042
  312.000    7.966    0.408    0.330   66.452  219.356
  312.250    8.048    0.411    0.330   66.177  220.548
  312.500    8.171    0.407    0.329   64.738  220.567
  312.750    8.230    0.398    0.327   65.913  220.592
  313.000    8.289    0.393    0.326   65.695  220.324
  313.250    8.410    0.389    0.328   64.429  219.957
  313.500    8.565    0.387    0.330   62.465  219.687
  313.750    8.653    0.384    0.332   60.347  219.712
  314.000    8.785    0.372    0.334   61.332  219.738
  314.250    8.913    0.368    0.332   60.412  219.758
  314.500    8.945    0.370    0.330   60.541  219.780
  314.750    8.912    0.372    0.330   61.952  219.996
  315.000    8.830    0.371    0.332   63.654  220.310
  315.250    8.675    0.369    0.330   63.386  220.417
  315.500    8.543    0.370    0.325   63.158  220.842
  315.750    8.480    0.380    0.317   65.731  221.255
  316.000    8.603    0.385    0.313   65.513  221.376
  316.250    8.919    0.387    0.315   63.315  221.204
  316.500    9.322    0.390    0.325   61.000  220.835
  316.750    9.409    0.396    0.343   61.435  220.394
  317.000    8.856    0.397    0.342   61.204  220.016
  317.250    7.181    0.395    0.331   65.173  220.424
  317.500    6.744    0.392    0.296   71.062  220.541
  317.750    6.695    0.387    0.277   73.053  220.756
  318.000    6.804    0.380    0.283   69.985  221.167
  318.250    7.184    0.378    0.306   65.398  221.744
  318.500    7.578    0.388    0.329   65.653  222.577
  318.750    7.915    0.396    0.342   67.759  222.602
  319.000    8.092    0.395    0.337   70.040  222.623
  319.250    8.061    0.388    0.337   69.122  222.645
  319.500    7.735    0.379    0.344   66.111  222.667
  319.750    6.896    0.370    0.334   67.126  222.691
  320.000    6.253    0.373    0.303   69.806  222.715
  320.250    5.553    0.389    0.290   73.077  222.737
  320.500    5.080    0.409    0.282   77.222  222.469
  320.750    4.849    0.427    0.284   80.027  222.297
  321.000    4.805    0.438    0.292   81.611  222.320
  321.250    4.890    0.428    0.292   84.275  222.266
  321.500    5.159    0.406    0.278   83.560  221.883
  321.750    5.506    0.392    0.263   81.480  221.910
  322.000    5.847    0.373    0.257   80.969  222.221
  322.250    6.089    0.373    0.256   82.843  222.629
  322.500    6.133    0.387    0.256   85.475  222.942
  322.750    5.830    0.385    0.250   84.988  222.969
  323.000    5.446    0.373    0.243   85.970  222.990
  323.250    5.526    0.376    0.242   89.473  223.402
  323.500    5.852    0.384    0.243   92.977  224.106
  323.750    6.403    0.386    0.242   92.757  224.515
  324.000    7.149    0.383    0.239   87.477  224.437
  324.250    8.117    0.381    0.242   76.780  224.076
