~VERSION INFORMATION
 VERS.                 2.0:   CWLS LOG ASCII STANDARD -VERSION 2.0
 WRAP.                  NO:   ONE LINE PER DEPTH STEP
~WELL INFORMATION BLOCK
#MNEM.UNIT           DATA                    DESCRIPTION OF MNEMONIC
#---------    -------------------            -------------------------------
# Generated from Intellog Unique Number	CS_77_79/WELL/1001
WELL.         PCI PCEJ CHARD                 : Well_name    - WELL
LOC .         00/11-28-079-06W4/0            : Location     - LOCATION
UWI .         00/11-28-079-06W4/0            : Uwi          - UNIQUE WELL ID
ENTR.         JHS                            : Entered      - ENTERED BY
SRVC.         SCHLUMBERGER                   : Scn          - SERVICE COMPANY
STRT.M        70                             : top_depth    - START DEPTH
STOP.M        335                            : bot_depth    - STOP DEPTH
STEP.M        0.25                           : increment    - STEP LENGTH
 NULL. -999.2500:NULL Value
~CURVE INFORMATION BLOCK
#MNEM UNIT       ERCB CURVE CODE    CURVE DESCRIPTION
#-----------   ------------------   ----------------------------------
DEPT.M        00 001 00 00         : DEPTH        - DEPTH
DPHI.V/V      00 890 00 00         : PHID         - DENSITY POROSITY (LIMESTONE)
NPHI.V/V      00 330 00 00         : PHIN         - NEUTRON POROSITY (LIMESTONE)
GR  .API      00 310 00 00         : GR           - GAMMA RAY
ILD .OHMM     00 120 00 00         : RESD         - DEEP RESISTIVITY (DIL)
RHOB.KG/M3    00 350 00 00         : DENS         - BULK DENSITY
~PARAMETER INFORMATION
#MNEM.UNIT           DATA             DESCRIPTION OF MNEMONIC
#---------         -----------     ------------------------------
GL  .M        513.8                : gl           - GROUND LEVEL ELEVATION
EREF.M        516.9                : kb           - ELEVATION OF DEPTH REFERENCE
DATM.M        516.9                : datum        - DATUM ELEVATION
TDD .M        341                  : tdd          - TOTAL DEPTH DRILLER
RUN .         ONE                  : Run          - RUN NUMBER
ENG .         BILL                 : Engineer     - RECORDING ENGINEER
WIT .         JIM                  : Witness      - WITNESSED BY
MUD .         GEL                  : Mud_type     - MUD TYPE
MATR.         LIMESTONE            : Logunit      - NEUTRON MATRIX
TMAX.C        18                   : BHT          - MAXIMUM RECORDED TEMPERATURE
BHTD.M        341                  : BHTDEP       - MAXIMUM RECORDED TEMPERATURE
MATR.         1                    : LOGUNIT      - NEUTRON MATRIX
RMT .C        25                   : MDTP         - TEMPERATURE OF MUD
NEUT.         1                    : NEUTRON      - NEUTRON TYPE
RESI.         0                    : RESIST       - RESISTIVITY TYPE
RMC .OHMM     0.25                 : RMC          - RESISTIVITY OF MUD CAKE
RMF .OHMM     0.25                 : RMF          - RESISTIVITY OF MUD FILTRATE
SUFT.C        15                   : SUFT         - SURFACE TEMPERATURE
~A  DEPTH     PHID     PHIN       GR     RESD     DENS
# ...
  252.500    0.416    0.098   50.130   54.166 1998.530
  252.750    0.437    0.063   50.140   57.322 1962.980
  253.000    0.438    0.050   52.593   67.915 1960.920
  253.250    0.425    0.076   47.727   83.552 1983.990
  253.500    0.417    0.102   47.130   93.557 1996.610
  253.750    0.406    0.121   55.070   90.114 2015.490
  254.000    0.401    0.128   57.521   79.003 2023.910
  254.250    0.410    0.129   54.485   66.706 2009.290
  254.500    0.427    0.128   55.107   61.876 1980.020
  254.750    0.440    0.120   61.217   59.602 1957.030
  255.000    0.448    0.108   61.232   58.498 1944.520
  255.250    0.448    0.102   61.243   54.264 1944.550
  255.500    0.443    0.111   63.695   45.816 1952.970
  255.750    0.427    0.133   66.149   40.166 1980.230
  256.000    0.412    0.150   67.378   34.559 2005.410
  256.250    0.413    0.155   67.392   33.286 2003.350
  256.500    0.421    0.152   66.794   31.464 1990.830
  256.750    0.425    0.156   65.585   29.742 1982.510
  257.000    0.419    0.173   66.817   27.075 1993.020
  257.250    0.395    0.204   71.709   23.293 2034.930
  257.500    0.356    0.277   74.770   18.940 2101.980
  257.750    0.316    0.300   83.930   14.017 2169.030
  258.000    0.297    0.336   99.185   11.185 2202.580
  258.250    0.269    0.406  110.783    9.623 2250.780
  258.500    0.238    0.426  115.676    8.927 2303.170
  258.750    0.259    0.434  105.931    9.098 2267.620
  259.000    0.322    0.317   90.699    9.628 2158.780
  259.250    0.349    0.297   79.126   10.580 2112.760
  259.500    0.346    0.303   69.991   11.626 2119.080
  259.750    0.324    0.321   63.905   13.018 2156.810
  260.000    0.306    0.256   55.381   17.268 2186.170
  260.250    0.308    0.159   41.369   21.647 2184.120
  260.500    0.430    0.107   34.676   27.653 1974.770
  260.750    0.434    0.085   35.296   33.385 1968.530
  261.000    0.421    0.123   39.576   38.093 1989.510
  261.250    0.348    0.200   45.687   39.562 2115.190
  261.500    0.296    0.266   49.969   25.186 2203.170
  261.750    0.276    0.282   56.689   16.649 2238.820
  262.000    0.271    0.269   70.116   13.285 2247.240
  262.250    0.263    0.284   81.715   10.601 2259.840
  262.500    0.268    0.345   85.997    8.950 2251.510
  262.750    0.272    0.378   89.668    7.996 2245.270
  263.000    0.262    0.386   97.606    7.702 2262.070
  263.250    0.207    0.422  106.156    7.703 2356.340
  263.500    0.192    0.439  112.265    8.152 2381.510
  263.750    0.181    0.428  115.328    8.627 2400.400
  264.000    0.179    0.398  111.681    8.959 2404.620
  264.250    0.188    0.374   99.499    9.482 2387.920
  264.500    0.197    0.357   94.025    9.483 2373.310
  264.750    0.199    0.351   93.426    9.665 2369.160
  265.000    0.210    0.363   94.051    9.666 2350.350
  265.250    0.210    0.393   92.231    9.668 2350.400
  265.500    0.199    0.400   89.194    9.670 2369.300
  265.750    0.197    0.391   87.377    9.671 2373.510
  266.000    0.198    0.366   86.782    9.673 2371.470
  266.250    0.207    0.355   86.795    9.675 2356.850
  266.500    0.204    0.366   88.024    9.677 2361.080
  266.750    0.198    0.364   89.870    9.678 2371.590
  267.000    0.199    0.348   90.489    9.498 2369.550
  267.250    0.211    0.350   85.013    9.323 2348.650
  267.500    0.225    0.351   77.710    9.151 2325.650
  267.750    0.236    0.344   75.284    8.650 2306.860
  268.000    0.239    0.336   74.684    8.332 2300.610
  268.250    0.248    0.346   72.260    8.177 2286.000
  268.500    0.276    0.351   69.832    7.731 2237.880
  268.750    0.274    0.348   68.624    7.731 2242.120
  269.000    0.267    0.345   69.857    7.589 2252.620
  269.250    0.278    0.345   75.356    7.589 2233.830
  269.500    0.277    0.346   78.419    7.591 2235.960
  269.750    0.278    0.347   79.041    7.450 2233.910
  270.000    0.288    0.341   77.835    7.452 2217.200
  270.250    0.276    0.331   80.286    7.314 2238.190
  270.500    0.264    0.326   84.567    7.045 2259.160
  270.750    0.264    0.336   82.141    6.786 2259.210
  271.000    0.299    0.347   76.665    6.661 2198.530
  271.250    0.311    0.360   73.627    6.416 2177.630
  271.500    0.308    0.336   82.786    6.416 2183.960
  271.750    0.317    0.325   80.970    6.180 2167.240
  272.000    0.332    0.328   66.958    5.953 2142.160
  272.250    0.341    0.338   62.701    5.843 2127.560
  272.500    0.337    0.339   79.179    5.844 2133.870
  272.750    0.320    0.331   90.776    5.845 2163.230
  273.000    0.306    0.330   96.279    5.737 2186.310
  273.250    0.306    0.338   76.777    5.526 2186.350
  273.500    0.326    0.342   67.033    5.223 2152.890
  273.750    0.339    0.338   64.606    5.127 2129.910
  274.000    0.339    0.343   62.178    4.846 2129.950
  274.250    0.344    0.353   67.070    4.757 2121.610
  274.500    0.350    0.367   67.692    4.669 2111.180
  274.750    0.345    0.376   61.606    4.669 2119.600
  275.000    0.332    0.391   59.179    4.670 2142.680
  275.250    0.317    0.392   59.802    4.760 2167.850
  275.500    0.322    0.389   65.912    4.851 2159.520
  275.750    0.334    0.376   75.683    5.038 2138.620
  276.000    0.312    0.365   92.158    5.536 2176.350
  276.250    0.267    0.355  105.586    5.858 2253.870
  276.500    0.236    0.355  106.211    5.859 2306.260
  276.750    0.232    0.415   92.806    5.972 2312.590
  277.000    0.269    0.401   67.207    5.752 2249.810
  277.250    0.292    0.374   56.854    5.540 2210.070
  277.500    0.302    0.378   50.159    5.140 2193.360
  277.750    0.319    0.380   44.073    4.951 2164.090
  278.000    0.333    0.366   40.428    4.859 2141.100
  278.250    0.338    0.364   41.049    4.769 2132.770
  278.500    0.330    0.361   61.184    4.860 2145.390
  278.750    0.315    0.350   76.442    5.241 2170.540
  279.000    0.289    0.339   86.820    5.760 2216.650
  279.250    0.240    0.335   89.885    6.449 2300.450
  279.500    0.225    0.353   86.847    6.573 2325.620
  279.750    0.241    0.359   80.150    6.574 2298.440
  280.000    0.238    0.363   69.186    6.452 2302.670
  280.250    0.239    0.366   55.786    6.100 2300.620
  280.500    0.299    0.373   48.480    5.766 2198.070
  280.750    0.301    0.378   42.396    5.450 2196.010
  281.000    0.294    0.387   35.701    5.151 2206.530
  281.250    0.320    0.396   32.663    4.869 2162.590
  281.500    0.345    0.396   35.115    4.780 2120.760
  281.750    0.330    0.368   41.223    4.691 2145.930
  282.000    0.302    0.340   47.945    4.692 2194.130
  282.250    0.298    0.356   41.252    4.782 2200.460
  282.500    0.315    0.390   36.384    4.783 2171.180
  282.750    0.354    0.393   36.395    4.783 2104.230
  283.000    0.291    0.368   58.360    4.968 2213.150
  283.250    0.257    0.343   73.009    5.159 2269.730
  283.500    0.245    0.399   68.754    5.460 2290.710
  283.750    0.264    0.404   58.398    5.359 2259.340
  284.000    0.289    0.388   49.265    5.162 2215.410
  284.250    0.308    0.413   49.276    4.972 2184.050
  284.500    0.298    0.382   62.096    4.789 2200.840
  284.750    0.279    0.350   70.035    4.790 2232.290
  285.000    0.270    0.399   67.609    4.790 2249.090
  285.250    0.290    0.413   60.912    4.791 2213.530
  285.500    0.312    0.393   54.826    4.792 2175.890
  285.750    0.322    0.387   51.180    4.704 2159.180
  286.000    0.333    0.365   44.485    4.617 2140.380
  286.250    0.333    0.347   56.695    4.617 2140.420
  286.500    0.306    0.353   64.633    4.706 2186.530
  286.750    0.295    0.398   59.159    4.707 2205.420
  287.000    0.326    0.403   50.634    4.534 2153.110
  287.250    0.312    0.411   45.158    4.449 2176.190
  287.500    0.316    0.419   41.512    4.206 2169.950
  287.750    0.333    0.386   38.475    4.128 2140.690
  288.000    0.345    0.378   36.658    4.052 2119.790
  288.250    0.351    0.375   37.891    3.977 2109.350
  288.500    0.341    0.374   34.853    3.978 2126.150
  288.750    0.343    0.385   31.207    3.979 2124.100
