~VERSION INFORMATION
 VERS.                 2.0:   CWLS LOG ASCII STANDARD -VERSION 2.0
 WRAP.                  NO:   ONE LINE PER DEPTH STEP
~WELL INFORMATION BLOCK
#MNEM.UNIT           DATA                    DESCRIPTION OF MNEMONIC
#---------    -------------------            -------------------------------
# Generated from Intellog Unique Number	CW_76_78/WELL/1030
WELL.         PCP MARTIN HILLS 11-33         : Well_name    - WELL
LOC .         00/11-33-076-04W5/0            : Location     - LOCATION
UWI .         00/11-33-076-04W5/0            : Uwi          - UNIQUE WELL ID
ENTR.         JAYE                           : Entered      - ENTERED BY
SRVC.         SCHLUMBERGER                   : Scn          - SERVICE COMPANY
DATE.         11 FEB 74                      : Date         - LOG DATE
STRT.M        426.72                         : top_depth    - START DEPTH
STOP.M        670.47                         : bot_depth    - STOP DEPTH
STEP.M        0.25                           : increment    - STEP LENGTH
 NULL. -999.2500:NULL Value
~CURVE INFORMATION BLOCK
#MNEM UNIT       ERCB CURVE CODE    CURVE DESCRIPTION
#-----------   ------------------   ----------------------------------
DEPT.M        00 001 00 00         : DEPTH        - DEPTH
ILD .OHMM     00 120 00 00         : RESD         - DEEP RESISTIVITY (DIL)
NPHI.V/V      00 330 00 00         : PHIN         - NEUTRON POROSITY (SANDSTONE)
DPHI.V/V      00 890 00 00         : PHID         - DENSITY POROSITY (SANDSTONE)
GR  .API      00 310 00 00         : GR           - GAMMA RAY
CALI.MM       00 280 01 00         : CAL          - CALIPER
~PARAMETER INFORMATION
#MNEM.UNIT           DATA             DESCRIPTION OF MNEMONIC
#---------         -----------     ------------------------------
GL  .M        741.578              : gl           - GROUND LEVEL ELEVATION
EREF.M        745.541              : kb           - ELEVATION OF DEPTH REFERENCE
DATM.M        741.578              : datum        - DATUM ELEVATION
TDD .M        684.276              : tdd          - TOTAL DEPTH DRILLER
RUN .         ONE                  : Run          - RUN NUMBER
MATR.         SANDSTONE            : Logunit      - NEUTRON MATRIX
TMAX.C        26.6667              : BHT          - MAXIMUM RECORDED TEMPERATURE
BHTD.M        684.276              : BHTDEP       - MAXIMUM RECORDED TEMPERATURE
RMT .C        16.6667              : MDTP         - TEMPERATURE OF MUD
MUDD.KG/M     0                    : MWT          - MUD DENSITY
NEUT.         1                    : NEUTRON      - NEUTRON TYPE
RESI.         0                    : RESIST       - RESISTIVITY TYPE
RM  .OHMM     5.95                 : RM           - RESISTIVITY OF MUD
RMC .OHMM     0                    : RMC          - RESISTIVITY OF MUD CAKE
RMF .OHMM     4.61                 : RMF          - RESISTIVITY OF MUD FILTRATE
SUFT.C        -17.7778             : SUFT         - SURFACE TEMPERATURE
~A  DEPTH     RESD     PHIN     PHID       GR      CAL
# ...
  499.720    5.319    0.411    0.336   42.230  204.958
  499.970    5.503    0.421    0.340   47.918  206.661
  500.220    5.652    0.417    0.351   47.613  205.088
  500.470    5.804    0.412    0.344   45.185  203.408
  500.720    5.984    0.409    0.330   42.384  202.047
  500.970    6.100    0.421    0.317   40.394  201.003
  501.220    6.116    0.427    0.313   40.276  200.804
  501.470    6.145    0.416    0.313   41.657  201.344
  501.720    6.241    0.412    0.311   43.662  202.519
  501.970    6.422    0.422    0.340   45.291  203.696
  502.220    6.669    0.409    0.333   46.236  204.130
  502.470    6.937    0.403    0.319   46.679  204.037
  502.720    7.433    0.415    0.312   46.687  203.519
  502.970    8.127    0.425    0.304   46.257  203.002
  503.220    8.533    0.430    0.315   45.577  202.486
  503.470    8.732    0.432    0.325   44.710  201.760
  503.720    8.692    0.430    0.332   44.281  201.347
  503.970    8.605    0.426    0.339   43.976  200.939
  504.220    8.547    0.420    0.315   43.857  201.161
  504.470    8.461    0.406    0.300   42.242  202.336
  504.720    8.468    0.392    0.096   39.378  203.086
  504.970    8.664    0.373    0.044   36.077  204.262
  505.220    9.200    0.227    0.020   32.276  204.698
  505.470    9.623    0.135   -0.004   31.597  205.027
  505.720   10.142    0.119   -0.017   33.664  205.040
  505.970   10.263    0.167   -0.013   37.166  204.734
  506.220   10.084    0.210    0.013   40.669  204.428
  506.470    9.782    0.346    0.285   41.862  204.123
  506.720    9.541    0.413    0.320   40.371  203.607
  506.970    9.358    0.413    0.343   38.132  202.879
  507.220    9.129    0.421    0.318   37.203  202.257
  507.470    8.920    0.443    0.298   37.272  199.521
  507.720    8.765    0.446    0.314   37.841  196.997
  507.970    8.612    0.438    0.330   39.471  195.530
  508.220    8.401    0.431    0.324   40.726  194.695
  508.470    8.269    0.422    0.318   42.169  193.863
  508.720    8.140    0.421    0.324   40.990  193.558
  508.970    8.073    0.424    0.323   37.379  193.043
  509.220    8.006    0.424    0.319   35.949  192.946
  509.470    7.955    0.430    0.327   34.834  192.960
  509.720    7.903    0.446    0.329   34.403  192.865
  509.970    7.836    0.448    0.334   34.100  192.772
  510.220    7.743    0.442    0.339   33.980  192.467
  510.470    7.679    0.423    0.334   34.175  191.951
  510.720    7.573    0.416    0.324   34.620  191.328
  510.970    7.483    0.424    0.322   35.127  191.235
  511.220    7.380    0.424    0.322   35.444  191.353
  511.470    7.278    0.419    0.341   36.076  191.471
  511.720    7.218    0.408    0.354   37.081  191.905
  511.970    7.145    0.421    0.350   38.587  192.130
  512.220    7.059    0.445    0.329   40.405  192.565
  512.470    7.000    0.447    0.339   40.287  192.577
  512.720    6.917    0.438    0.355   37.423  192.272
  512.970    6.835    0.429    0.349   38.491  192.177
  513.220    6.766    0.430    0.353   40.122  192.084
  513.470    6.709    0.427    0.341   41.316  192.202
  513.720    6.665    0.427    0.335   41.883  192.637
  513.970    6.634    0.441    0.340   42.703  192.861
  514.220    6.628    0.449    0.340   43.084  193.296
  514.470    6.597    0.444    0.338   43.528  193.730
  514.720    6.603    0.446    0.334   43.910  194.589
  514.970    6.560    0.442    0.327   44.478  195.340
  515.220    6.530    0.441    0.322   46.546  196.092
  515.470    6.536    0.451    0.327   47.051  196.950
  515.720    6.541    0.448    0.346   46.122  197.491
  515.970    6.535    0.441    0.349   45.694  197.820
  516.220    6.528    0.444    0.345   46.262  197.938
  516.470    6.535    0.445    0.334   47.019  197.951
  516.720    6.564    0.437    0.338   47.712  197.962
  516.970    6.631    0.430    0.344   48.157  197.762
  517.220    6.711    0.428    0.346   46.977  197.669
  517.470    6.753    0.426    0.334   44.987  197.470
  517.720    6.759    0.436    0.317   45.868  197.482
  517.970    6.778    0.455    0.326   47.311  197.494
  518.220    6.770    0.447    0.332   49.379  197.719
  518.470    6.702    0.438    0.340   51.445  198.049
  518.720    6.562    0.431    0.341   53.138  197.955
  518.970    6.495    0.436    0.322   54.767  197.966
  519.220    6.489    0.436    0.303   57.084  197.979
  519.470    6.506    0.441    0.302   57.092  197.884
  519.720    6.719    0.443    0.310   56.101  197.897
  519.970    6.978    0.436    0.295   55.172  197.803
  520.220    7.127    0.425    0.292   54.429  197.710
  520.470    7.093    0.428    0.292   54.437  197.510
  520.720    6.286    0.409    0.251   55.005  197.311
  520.970    5.195    0.374    0.214   56.012  197.323
  521.220    4.176    0.260    0.177   58.328  198.921
  521.470    4.393    0.414    0.142   61.269  200.941
  521.720    4.689    0.470    0.309   65.770  199.897
  521.970    4.843    0.441    0.337   69.398  196.843
  522.220    4.820    0.424    0.297   73.587  195.798
  522.470    4.693    0.448    0.284   75.529  196.445
  522.720    4.364    0.455    0.275   76.659  199.310
  522.970    4.179    0.448    0.268   77.166  201.753
  523.220    4.129    0.442    0.266   77.611  202.083
  523.470    4.087    0.434    0.248   79.366  202.094
  523.720    4.038    0.435    0.233   81.370  201.790
  523.970    4.005    0.445    0.246   84.748  201.591
  524.220    4.001    0.455    0.267   85.504  201.497
  524.470    3.997    0.458    0.272   84.325  201.509
  524.720    3.986    0.452    0.252   84.644  201.416
  524.970    3.989    0.446    0.248   87.274  201.429
  525.220    4.007    0.440    0.241   89.652  201.441
  525.470    4.041    0.446    0.227   88.162  201.875
  525.720    4.081    0.447    0.212   86.358  202.204
  525.970    4.108    0.435    0.224   87.241  202.428
  526.220    4.111    0.417    0.233   88.120  202.652
  526.470    4.138    0.414    0.266   90.624  203.086
  526.720    4.157    0.433    0.245   90.445  203.310
  526.970    4.175    0.426    0.244   87.706  203.746
  527.220    4.156    0.423    0.233   84.779  203.864
  527.470    4.137    0.429    0.206   80.666  203.981
  527.720    4.110    0.448    0.187   76.179  204.521
  527.970    4.091    0.436    0.200   74.001  204.852
  528.220    4.064    0.430    0.210   75.694  204.862
  528.470    4.038    0.441    0.216   79.322  204.559
  528.720    4.005    0.453    0.207   78.829  204.359
  528.970    3.950    0.461    0.226   76.901  204.370
  529.220    3.917    0.460    0.207   77.283  204.278
  529.470    3.870    0.461    0.211   79.912  204.289
  529.720    3.823    0.465    0.189   79.794  203.456
  529.970    3.806    0.462    0.178   76.431  202.728
  530.220    3.823    0.454    0.249   71.694  201.366
  530.470    3.919    0.440    0.296   66.271  199.476
  530.720    4.070    0.425    0.313   67.028  197.269
  530.970    4.361    0.436    0.292   70.218  195.694
  531.220    4.647    0.457    0.267   71.099  194.544
  531.470    4.817    0.467    0.270   72.354  194.134
  531.720    4.838    0.467    0.273   70.364  194.251
  531.970    4.798    0.464    0.288   67.812  196.060
  532.220    4.741    0.458    0.280   67.070  196.813
  532.470    4.728    0.447    0.280   65.891  197.143
  532.720    4.663    0.438    0.288   65.960  197.367
  532.970    4.565    0.454    0.286   67.403  197.694
  533.220    4.510    0.457    0.299   68.285  198.024
  533.470    4.514    0.448    0.291   68.229  198.143
  533.720    4.560    0.439    0.278   68.673  198.155
  533.970    4.709    0.448    0.255   68.618  198.274
  534.220    4.926    0.440    0.272   70.561  198.284
  534.470    4.948    0.439    0.256   72.877  198.190
  534.720    4.854    0.438    0.252   73.945  198.097
  534.970    4.795    0.436    0.251   73.703  198.426
  535.220    4.703    0.439    0.254   74.147  198.649
  535.470    4.614    0.449    0.252   76.589  198.979
  535.720    4.575    0.461    0.252   79.217  198.991
  535.970    4.605    0.457    0.260   79.349  199.004
