~VERSION INFORMATION
 VERS.                 2.0:   CWLS LOG ASCII STANDARD -VERSION 2.0
 WRAP.                  NO:   ONE LINE PER DEPTH STEP
~WELL INFORMATION BLOCK
#MNEM.UNIT           DATA                    DESCRIPTION OF MNEMONIC
#---------    -------------------            -------------------------------
# Generated from Intellog Unique Number	CS_77_79/WELL/986
WELL.         PCI PCEJ LEISMER               : Well_name    - WELL
LOC .         00/11-03-079-07W4/0            : Location     - LOCATION
UWI .         00/11-03-079-07W4/0            : Uwi          - UNIQUE WELL ID
ENTR.         JHS                            : Entered      - ENTERED BY
SRVC.         SCHLUMBERGER                   : Scn          - SERVICE COMPANY
STRT.M        125                            : top_depth    - START DEPTH
STOP.M        355                            : bot_depth    - STOP DEPTH
STEP.M        0.25                           : increment    - STEP LENGTH
 NULL. -999.2500:NULL Value
~CURVE INFORMATION BLOCK
#MNEM UNIT       ERCB CURVE CODE    CURVE DESCRIPTION
#-----------   ------------------   ----------------------------------
DEPT.M        00 001 00 00         : DEPTH        - DEPTH
DPHI.V/V      00 890 00 00         : PHID         - DENSITY POROSITY (LIMESTONE)
NPHI.V/V      00 330 00 00         : PHIN         - NEUTRON POROSITY (LIMESTONE)
GR  .API      00 310 00 00         : GR           - GAMMA RAY
ILD .OHMM     00 120 00 00         : RESD         - DEEP RESISTIVITY (DIL)
RHOB.KG/M3    00 350 00 00         : DENS         - BULK DENSITY
~PARAMETER INFORMATION
#MNEM.UNIT           DATA             DESCRIPTION OF MNEMONIC
#---------         -----------     ------------------------------
GL  .M        554.2                : gl           - GROUND LEVEL ELEVATION
EREF.M        557.3                : kb           - ELEVATION OF DEPTH REFERENCE
DATM.M        557.3                : datum        - DATUM ELEVATION
TDD .M        361                  : tdd          - TOTAL DEPTH DRILLER
RUN .         ONE                  : Run          - RUN NUMBER
ENG .         BILL                 : Engineer     - RECORDING ENGINEER
WIT .         JIM                  : Witness      - WITNESSED BY
MUD .         GEL                  : Mud_type     - MUD TYPE
MATR.         LIMESTONE            : Logunit      - NEUTRON MATRIX
TMAX.C        24                   : BHT          - MAXIMUM RECORDED TEMPERATURE
BHTD.M        361                  : BHTDEP       - MAXIMUM RECORDED TEMPERATURE
MATR.         1                    : LOGUNIT      - NEUTRON MATRIX
RMT .C        25                   : MDTP         - TEMPERATURE OF MUD
NEUT.         1                    : NEUTRON      - NEUTRON TYPE
RESI.         0                    : RESIST       - RESISTIVITY TYPE
RMC .OHMM     0.25                 : RMC          - RESISTIVITY OF MUD CAKE
RMF .OHMM     0.25                 : RMF          - RESISTIVITY OF MUD FILTRATE
SUFT.C        15                   : SUFT         - SURFACE TEMPERATURE
~A  DEPTH     PHID     PHIN       GR     RESD     DENS
  125.000    0.308    0.571   94.453    3.223    0.000
  125.250    0.302    0.562   91.992    3.347    0.000
  125.500    0.299    0.566   93.854    3.476    0.000
  125.750    0.301    0.582   97.571    3.680    0.000
  126.000    0.303    0.551   96.344    3.750    0.000
  126.250    0.302    0.514   91.418    3.823    0.000
  126.500    0.296    0.486   90.810    3.823    0.000
  126.750    0.299    0.484   94.528    3.752    0.000
  127.000    0.316    0.558   96.390    3.683    0.000
  127.250    0.326    0.592   96.400    3.547    0.000
  127.500    0.318    0.600   95.790    3.547    0.000
  127.750    0.294    0.606   94.569    3.548    0.000
  128.000    0.291    0.574   93.345    3.616    0.000
  128.250    0.300    0.536   94.590    3.686    0.000
  128.500    0.304    0.530   98.303    3.756    0.000
  128.750    0.292    0.575   94.610    3.829    0.000
  129.000    0.241    0.594   81.656    4.130    0.000
  129.250    0.212    0.449   70.554    4.371    0.000
  129.500    0.272    0.430   75.505    4.714    0.000
  129.750    0.386    0.456   64.403    5.280    0.000
  130.000    0.431    0.492   59.476    6.027    0.000
  130.250    0.379    0.461   68.745    5.916    0.000
  130.500    0.301    0.463   82.955    5.591    0.000
  130.750    0.280    0.501   88.521    5.088    0.000
  131.000    0.268    0.541   89.765    4.719    0.000
  131.250    0.287    0.559   82.985    4.545    0.000
  131.500    0.323    0.561   71.267    4.721    0.000
  131.750    0.321    0.532   75.600    4.996    0.000
  132.000    0.305    0.509   86.721    5.389    0.000
  132.250    0.295    0.504   91.052    5.923    0.000
  132.500    0.291    0.505  101.558    6.510    0.000
  132.750    0.299    0.505  102.187    7.156    0.000
  133.000    0.342    0.520   96.640    8.015    0.000
  133.250    0.376    0.512   90.478    8.978    0.000
  133.500    0.354    0.507   86.167    9.502    0.000
  133.750    0.330    0.505   91.736    9.504    0.000
  134.000    0.317    0.492   97.301    8.649    0.000
  134.250    0.291    0.490   97.313    7.725    0.000
  134.500    0.270    0.497   99.792    7.439    0.000
  134.750    0.265    0.479  104.124    8.024    0.000
  135.000    0.273    0.448  105.367    9.334    0.000
  135.250    0.289    0.443  104.143   10.653    0.000
  135.500    0.311    0.482   98.598   12.160    0.000
  135.750    0.324    0.502   99.225   13.366    0.000
  136.000    0.291    0.489  101.089   13.882    0.000
  136.250    0.274    0.468   98.012   13.370    0.000
  136.500    0.286    0.460  101.110   12.636    0.000
  136.750    0.286    0.474  109.147   11.942    0.000
  137.000    0.269    0.463  113.479   11.076    0.000
  137.250    0.272    0.457  114.722   10.871    0.000
  137.500    0.287    0.475  115.350   11.079    0.000
  137.750    0.303    0.499  104.248   11.507    0.000
  138.000    0.320    0.476   79.566   13.640    0.000
  138.250    0.336    0.450   69.701   15.569    0.000
  138.500    0.412    0.442   63.538   18.455    0.000
  138.750    0.391    0.439   59.228   19.905    0.000
  139.000    0.368    0.433   61.089   20.674    0.000
  139.250    0.364    0.433   66.040   20.678    0.000
  139.500    0.390    0.445   65.435   20.294    0.000
  139.750    0.401    0.478   66.059   19.546    0.000
  140.000    0.362    0.485   69.773   18.824    0.000
  140.250    0.291    0.470   74.725   18.131    0.000
  140.500    0.250    0.460   75.353   17.794    0.000
  140.750    0.202    0.440   75.978   17.465    0.000
  141.000    0.197    0.428   79.695   17.467    0.000
  141.250    0.271    0.424   79.088   18.142    0.000
  141.500    0.352    0.416   71.073   19.202    0.000
  141.750    0.379    0.449   60.588   20.323    0.000
  142.000    0.387    0.486   51.341   21.511    0.000
  142.250    0.363    0.457   50.732   22.768    0.000
  142.500    0.346    0.432   56.916   22.346    0.000
  142.750    0.358    0.427   64.952   21.521    0.000
  143.000    0.358    0.455   71.752   19.960    0.000
  143.250    0.333    0.458   77.319   19.223    0.000
  143.500    0.322    0.428   73.008   18.169    0.000
  143.750    0.325    0.415   66.230   17.832    0.000
  144.000    0.319    0.414   68.092   18.174    0.000
  144.250    0.330    0.420   68.102   18.524    0.000
  144.500    0.365    0.446   55.765   19.606    0.000
  144.750    0.420    0.482   47.752   20.751    0.000
  145.000    0.455    0.491   52.700   21.963    0.000
  145.250    0.462    0.501   61.356   22.811    0.000
  145.500    0.428    0.523   62.598   23.694    0.000
  145.750    0.410    0.544   67.548   23.698    0.000
  146.000    0.398    0.515   74.350   23.258    0.000
  146.250    0.388    0.491   76.211   22.400    0.000
  146.500    0.402    0.464   76.223   21.171    0.000
  146.750    0.447    0.457   80.555   20.390    0.000
  147.000    0.436    0.477   81.799   19.637    0.000
  147.250    0.435    0.516   75.637   19.273    0.000
  147.500    0.449    0.535   70.091   19.276    0.000
  147.750    0.560    0.508   66.400   19.647    0.000
  148.000    0.560    0.514   69.495   19.651    0.000
  148.250    0.512    0.492   72.591   19.653    0.000
  148.500    0.415    0.481   69.518   19.656    0.000
  148.750    0.398    0.503   68.294   19.660    0.000
  149.000    0.414    0.523   70.772   19.296    0.000
  149.250    0.430    0.534   70.782   19.665    0.000
  149.500    0.362    0.492   68.325   20.044    0.000
  149.750    0.309    0.444   65.246   20.428    0.000
  150.000    0.296    0.411   59.084   20.821    0.000
  150.250    0.322    0.401   54.773   20.054    0.000
  150.500    0.349    0.415   60.341   18.599    0.000
  150.750    0.331    0.427   64.675   16.610    0.000
  151.000    0.320    0.444   67.152   13.755    0.000
  151.250    0.301    0.445   75.187   10.365    0.000
  151.500    0.237    0.439   99.274    8.266    0.000
  151.750    0.193    0.475  104.222    6.845    0.000
  152.000    0.185    0.520  109.172    5.777    0.000
  152.250    0.194    0.534  115.974    5.063    0.000
  152.500    0.258    0.555  117.837    4.695    0.000
  152.750    0.262    0.582  115.995    4.438    0.000
  153.000    0.238    0.579  110.449    4.274    0.000
  153.250    0.224    0.543  111.076    4.116    0.000
  153.500    0.249    0.552  119.114    4.117    0.000
  153.750    0.276    0.577  123.444    4.276    0.000
  154.000    0.299    0.568  115.429    5.165    0.000
  154.250    0.313    0.569   86.427    6.856    0.000
  154.500    0.330    0.532   43.841   10.002    0.000
  154.750    0.381    0.472   39.532   16.652    0.000
  155.000    0.385    0.423   38.929   23.393    0.000
  155.250    0.352    0.412   39.554   26.703    0.000
  155.500    0.353    0.422   40.797   28.263    0.000
  155.750    0.368    0.436   41.425   28.807    0.000
  156.000    0.335    0.455   40.818   28.811    0.000
  156.250    0.169    0.358   39.596   28.276    0.000
  156.500    0.155    0.301   38.370   26.724    0.000
  156.750    0.250    0.287   38.998   25.738    0.000
  157.000    0.403    0.403   45.800   23.871    0.000
  157.250    0.395    0.446   55.070   22.560    0.000
  157.500    0.398    0.460   61.870   22.142    0.000
  157.750    0.409    0.467   66.202   21.730    0.000
  158.000    0.399    0.473   67.450   21.329    0.000
  158.250    0.360    0.449   68.693   21.331    0.000
  158.500    0.337    0.435   69.322   21.335    0.000
  158.750    0.328    0.439   65.010   20.940    0.000
  159.000    0.336    0.446   60.701   20.944    0.000
  159.250    0.344    0.434   61.944   20.554    0.000
  159.500    0.350    0.436   65.659   19.427    0.000
  159.750    0.348    0.445   66.904   18.709    0.000
  160.000    0.334    0.457   72.470   15.494    0.000
  160.250    0.329    0.453   81.123   12.125    0.000
  160.500    0.306    0.447   97.802    9.488    0.000
  160.750    0.256    0.457  115.096    7.567    0.000
  161.000    0.241    0.490  120.665    6.758    0.000
  161.250    0.238    0.514  118.206    6.509    0.000
