~VERSION INFORMATION
 VERS.                 2.0:   CWLS LOG ASCII STANDARD -VERSION 2.0
 WRAP.                  NO:   ONE LINE PER DEPTH STEP
~WELL INFORMATION BLOCK
#MNEM.UNIT           DATA                    DESCRIPTION OF MNEMONIC
#---------    -------------------            -------------------------------
# Generated from Intellog Unique Number	CS_71_72/WELL/887
WELL.         AMOCO AEC IPIATIK KIRBY        : Well_name    - WELL
LOC .         00/11-06-072-05W4/0            : Location     - LOCATION
UWI .         00/11-06-072-05W4/0            : Uwi          - UNIQUE WELL ID
ENTR.         SP                             : Entered      - ENTERED BY
SRVC.         SCHLUMBERGER                   : Scn          - SERVICE COMPANY
STRT.M        295                            : top_depth    - START DEPTH
STOP.M        535                            : bot_depth    - STOP DEPTH
STEP.M        0.25                           : increment    - STEP LENGTH
 NULL. -999.2500:NULL Value
~CURVE INFORMATION BLOCK
#MNEM UNIT       ERCB CURVE CODE    CURVE DESCRIPTION
#-----------   ------------------   ----------------------------------
DEPT.M        00 001 00 00         : DEPTH        - DEPTH
ILD .OHMM     00 120 00 00         : RESD         - DEEP RESISTIVITY (DIL)
DPHI.V/V      00 890 00 00         : PHID         - DENSITY POROSITY (LIMESTONE)
NPHI.V/V      00 330 00 00         : PHIN         - NEUTRON POROSITY (LIMESTONE)
GR  .API      00 310 00 00         : GR           - GAMMA RAY
~PARAMETER INFORMATION
#MNEM.UNIT           DATA             DESCRIPTION OF MNEMONIC
#---------         -----------     ------------------------------
GL  .M        668.3                : gl           - GROUND LEVEL ELEVATION
EREF.M        673.01               : kb           - ELEVATION OF DEPTH REFERENCE
DATM.M        668.3                : datum        - DATUM ELEVATION
TDD .M        562                  : tdd          - TOTAL DEPTH DRILLER
RUN .         ONE                  : Run          - RUN NUMBER
ENG .         BILL                 : Engineer     - RECORDING ENGINEER
WIT .         JIM                  : Witness      - WITNESSED BY
MUD .         GEL                  : Mud_type     - MUD TYPE
MATR.         LIMESTONE            : Logunit      - NEUTRON MATRIX
TMAX.C        20                   : BHT          - MAXIMUM RECORDED TEMPERATURE
BHTD.M        5622                 : BHTDEP       - MAXIMUM RECORDED TEMPERATURE
MATR.         1                    : LOGUNIT      - NEUTRON MATRIX
RMT .C        25                   : MDTP         - TEMPERATURE OF MUD
NEUT.         1                    : NEUTRON      - NEUTRON TYPE
RESI.         0                    : RESIST       - RESISTIVITY TYPE
RMC .OHMM     0.25                 : RMC          - RESISTIVITY OF MUD CAKE
RMF .OHMM     0.25                 : RMF          - RESISTIVITY OF MUD FILTRATE
SUFT.C        15                   : SUFT         - SURFACE TEMPERATURE
~A  DEPTH     RESD     PHID     PHIN       GR
# ...
  425.500    3.029    0.264    0.520   90.800
  425.750    3.264    0.260    0.491   88.388
  426.000    3.861    0.254    0.479   86.580
  426.250    4.239    0.260    0.492   84.169
  426.500    4.653    0.274    0.473   82.963
  426.750    5.109    0.276    0.462   80.552
  427.000    5.505    0.282    0.459   77.538
  427.250    5.931    0.264    0.462   71.513
  427.500    6.391    0.249    0.458   69.102
  427.750    6.634    0.235    0.453   79.943
  428.000    6.759    0.235    0.442   84.159
  428.250    6.759    0.240    0.442   85.362
  428.500    6.634    0.237    0.475   84.758
  428.750    6.390    0.238    0.492   82.347
  429.000    6.156    0.238    0.498   81.743
  429.250    6.042    0.226    0.473   82.947
  429.500    6.042    0.208    0.458   85.355
  429.750    6.042    0.208    0.466   86.558
  430.000    6.155    0.230    0.484   86.557
  430.250    6.271    0.243    0.476   86.555
  430.500    6.389    0.249    0.485   87.155
  430.750    6.389    0.249    0.489   87.757
  431.000    6.509    0.242    0.464   88.961
  431.250    6.757    0.238    0.457   89.561
  431.500    6.757    0.242    0.464   87.753
  431.750    6.757    0.226    0.466   83.534
  432.000    6.757    0.183    0.446   79.918
  432.250    6.756    0.185    0.434   76.905
  432.500    6.631    0.201    0.455   81.120
  432.750    6.388    0.213    0.475   84.734
  433.000    6.270    0.236    0.487   85.334
  433.250    6.040    0.248    0.480   84.731
  433.500    5.928    0.252    0.479   86.536
  433.750    5.818    0.258    0.474   90.752
  434.000    5.710    0.263    0.477   93.762
  434.250    5.710    0.265    0.489   91.954
  434.500    5.710    0.264    0.494   82.916
  434.750    5.604    0.246    0.418   84.119
  435.000    5.604    0.185    0.393   85.925
  435.250    5.604    0.185    0.404   84.719
  435.500    5.604    0.223    0.428   82.308
  435.750    5.500    0.263    0.440   82.306
  436.000    5.398    0.246    0.438   84.112
  436.250    5.298    0.223    0.441   85.315
  436.500    5.200    0.242    0.444   85.916
  436.750    5.104    0.263    0.443   86.517
  437.000    4.826    0.269    0.440   75.672
  437.250    4.649    0.241    0.443   74.466
  437.500    4.314    0.243    0.468   77.476
  437.750    3.786    0.268    0.507   80.487
  438.000    3.513    0.288    0.562   86.509
  438.250    3.260    0.308    0.566   88.315
  438.500    2.915    0.311    0.540   90.724
  438.750    2.655    0.292    0.520   92.530
  439.000    2.606    0.279    0.500   93.733
  439.250    2.558    0.270    0.501   93.129
  439.500    2.557    0.268    0.520   86.501
  439.750    2.705    0.270    0.511   82.283
  440.000    3.025    0.265    0.481   80.474
  440.250    3.199    0.234    0.452   80.473
  440.500    3.715    0.217    0.443   81.074
  440.750    4.233    0.234    0.463   82.879
  441.000    4.561    0.246    0.484   84.684
  441.250    4.824    0.226    0.495   84.684
  441.500    4.824    0.207    0.461   76.249
  441.750    4.824    0.224    0.435   77.452
  442.000    4.824    0.236    0.461   78.655
  442.250    4.647    0.241    0.469   78.051
  442.500    4.561    0.251    0.464   79.857
  442.750    4.476    0.258    0.450   82.265
  443.000    4.476    0.245    0.434   83.469
  443.250    4.393    0.230    0.441   85.274
  443.500    4.476    0.246    0.463   85.875
  443.750    4.560    0.264    0.469   76.235
  444.000    4.734    0.285    0.441   64.186
  444.250    5.705    0.290    0.429   62.377
  444.500    6.147    0.297    0.446   61.773
  444.750    7.836    0.298    0.451   63.579
  445.000    9.444    0.307    0.456   64.180
  445.250   11.172    0.309    0.465   58.154
  445.500   12.264    0.318    0.473   55.743
  445.750   13.464    0.331    0.479   58.754
  446.000   14.508    0.338    0.471   62.366
  446.250   15.059    0.342    0.462   61.160
  446.500   15.343    0.329    0.456   59.351
  446.750   15.632    0.322    0.446   59.350
  447.000   15.631    0.320    0.438   60.554
  447.250   15.925    0.321    0.439   62.359
  447.500   15.925    0.322    0.452   61.153
  447.750   16.225    0.321    0.456   61.152
  448.000   16.530    0.322    0.450   58.138
  448.250   16.841    0.320    0.461   56.329
  448.500   17.482    0.312    0.467   55.726
  448.750   18.488    0.309    0.476   55.724
  449.000   19.921    0.315    0.469   57.530
  449.250   21.068    0.315    0.466   55.721
  449.500   21.465    0.308    0.465   55.117
  449.750   21.869    0.302    0.483   55.116
  450.000   21.464    0.316    0.502   56.319
  450.250   21.464    0.324    0.505   54.510
  450.500   21.066    0.331    0.495   54.509
  450.750   20.676    0.332    0.493   55.110
  451.000   20.676    0.322    0.505   55.711
  451.250   21.065    0.310    0.497   56.914
  451.500   21.064    0.297    0.482   57.515
  451.750   21.461    0.288    0.469   55.706
  452.000   21.460    0.282    0.463   53.898
  452.250   21.459    0.299    0.476   55.703
  452.500   21.459    0.318    0.484   56.907
  452.750   21.062    0.331    0.496   56.905
  453.000   21.061    0.333    0.484   56.302
  453.250   20.289    0.337    0.467   54.493
  453.500   19.545    0.332    0.446   52.082
  453.750   17.803    0.321    0.457   58.104
  454.000   16.216    0.316    0.467   67.139
  454.250   15.049    0.301    0.455   73.162
  454.500   12.255    0.269    0.449   79.184
  454.750    9.795    0.246    0.443   84.605
  455.000    8.126    0.247    0.450   81.591
  455.250    6.495    0.253    0.466   78.578
  455.500    5.191    0.241    0.477   74.962
  455.750    4.471    0.245    0.482   72.550
  456.000    4.555    0.257    0.423   71.344
  456.250    5.593    0.245    0.409   68.933
  456.500    6.374    0.240    0.400   67.726
  456.750    7.975    0.238    0.411   68.930
  457.000    8.920    0.238    0.399   68.928
  457.250    9.792    0.245    0.387   69.529
  457.500   10.551    0.247    0.404   67.720
  457.750   10.953    0.236    0.417   67.117
  458.000   11.369    0.174    0.409   65.308
  458.250   11.801    0.017    0.347   60.487
  458.500   12.481   -0.002    0.319   58.077
  458.750   13.448    0.036    0.301   64.099
  459.000   14.223    0.176    0.329   68.917
  459.250   14.763    0.184    0.360   73.132
  459.500   14.490    0.202    0.375   76.143
  459.750   13.959    0.232    0.398   77.948
  460.000   13.447    0.264    0.415   78.549
  460.250   13.198    0.264    0.422   79.753
  460.500   13.446    0.263    0.408   80.956
  460.750   13.699    0.269    0.415   81.557
  461.000   13.957    0.274    0.412   85.170
  461.250   14.220    0.262    0.405   89.385
  461.500   13.698    0.240    0.385   91.794
  461.750   12.712    0.212    0.380   91.190
  462.000   12.477    0.200    0.368   86.971
  462.250   11.797    0.195    0.369   85.765
  462.500   11.364    0.216    0.391   83.354
  462.750   11.364    0.238    0.400   82.750
  463.000   11.578    0.230    0.385   81.544
  463.250   11.796    0.233    0.381   79.133
  463.500   12.475    0.252    0.393   74.915
  463.750   13.695    0.264    0.403   71.901
  464.000   15.035    0.261    0.409   75.514
  464.250   15.607    0.256    0.398   80.332
  464.500   16.200    0.259    0.389   85.752
  464.750   15.034    0.252    0.426   91.775
  465.000   12.948    0.240    0.447   97.195
  465.250   11.151    0.236    0.461   94.784
  465.500   10.157    0.236    0.491   77.312
  465.750    9.252    0.253    0.515   62.853
  466.000   10.742    0.267    0.428   53.816
  466.250   12.015    0.264    0.374   56.826
  466.500   13.439    0.241    0.348   70.078
  466.750   15.315    0.219    0.355   80.317
  467.000   16.197    0.207    0.374   88.147
  467.250   15.897    0.200    0.382   86.338
  467.500   14.212    0.199    0.377   77.301
  467.750   12.945    0.252    0.376   71.878
  468.000   12.944    0.279    0.385   67.659
  468.250   13.690    0.280    0.387   68.260
  468.500   15.895    0.272    0.371   72.475
  468.750   16.810    0.270    0.360   71.872
