~VERSION INFORMATION
 VERS.                 2.0:   CWLS LOG ASCII STANDARD -VERSION 2.0
 WRAP.                  NO:   ONE LINE PER DEPTH STEP
~WELL INFORMATION BLOCK
#MNEM.UNIT           DATA                    DESCRIPTION OF MNEMONIC
#---------    -------------------            -------------------------------
# Generated from Intellog Unique Number	CS_69_70/WELL/2886
NULL.         -999.25                        : NULL_VALUE
WELL.         AEC PRIMROSE                   : Well_name    - WELL              
LOC .         00/11-30-070-04W4/0            : Location     - LOCATION          
UWI .         00/11-30-070-04W4/0            : Uwi          - UNIQUE WELL ID    
ENTR.         TIM                            : Entered      - ENTERED BY        
SRVC.         SCHLUMBERGER                   : Scn          - SERVICE COMPANY   
DATE.         02/05/92                       : Date         - LOG DATE          
STRT.M        300                            : top_depth    - START DEPTH       
STOP.M        520                            : bot_depth    - STOP DEPTH        
STEP.M        0.25                           : increment    - STEP LENGTH       
~CURVE INFORMATION BLOCK
#MNEM UNIT       ERCB CURVE CODE    CURVE DESCRIPTION
#-----------   ------------------   ----------------------------------
DEPT.M        00 001 00 00         : DEPTH        - DEPTH                       
ILD .OHMM     00 120 00 00         : RESD         - DEEP RESISTIVITY (DIL)      
DPHI.V/V      00 890 00 00         : PHID         - DENSITY POROSITY (SANDSTONE)
NPHI.V/V      00 330 00 00         : PHIN         - NEUTRON POROSITY (SANDSTONE)
GR  .API      00 310 00 00         : GR           - GAMMA RAY                   
~PARAMETER INFORMATION       
#MNEM.UNIT           DATA             DESCRIPTION OF MNEMONIC
#---------         -----------     ------------------------------
GL  .M        673                  : gl           - GROUND LEVEL ELEVATION      
EREF.M        676.8                : kb           - ELEVATION OF DEPTH REFERENCE
DATM.M        676.8                : datum        - DATUM ELEVATION             
TDD .M        531                  : tdd          - TOTAL DEPTH DRILLER         
RUN .         ONE                  : Run          - RUN NUMBER                  
ENG .         BILL                 : Engineer     - RECORDING ENGINEER          
WIT .         JIM                  : Witness      - WITNESSED BY                
MUD .         GEL                  : Mud_type     - MUD TYPE                    
MATR.         SANDSTONE            : Logunit      - NEUTRON MATRIX              
TMAX.C        27                   : BHT          - MAXIMUM RECORDED TEMPERATURE
BHTD.M        531                  : BHTDEP       - MAXIMUM RECORDED TEMPERATURE
RMT .C        14                   : MDTP         - TEMPERATURE OF MUD          
MUDD.KG/M     1130                 : MWT          - MUD DENSITY                 
NEUT.         1                    : NEUTRON      - NEUTRON TYPE                
RESI.         0                    : RESIST       - RESISTIVITY TYPE            
RM  .OHMM     6.97                 : RM           - RESISTIVITY OF MUD          
RMC .OHMM     6.97                 : RMC          - RESISTIVITY OF MUD CAKE     
RMF .OHMM     6.97                 : RMF          - RESISTIVITY OF MUD FILTRATE 
SUFT.C        4                    : SUFT         - SURFACE TEMPERATURE         
~A  DEPTH     RESD     PHID     PHIN       GR
# ...
  387.000    4.450    0.360    0.453   56.243
  387.250    4.448    0.361    0.447   56.213
  387.500    4.445    0.362    0.439   56.203
  387.750    4.441    0.361    0.432   57.340
  388.000    4.435    0.358    0.429   58.477
  388.250    4.431    0.357    0.434   59.049
  388.500    4.427    0.357    0.439   60.763
  388.750    4.504    0.356    0.444   61.334
  389.000    4.583    0.355    0.446   60.141
  389.250    4.661    0.353    0.438   58.958
  389.500    4.658    0.349    0.425   58.938
  389.750    4.740    0.344    0.435   59.499
  390.000    4.736    0.353    0.447   59.479
  390.250    4.732    0.352    0.441   59.459
  390.500    4.726    0.340    0.434   59.444
  390.750    4.723    0.325    0.434   59.424
  391.000    4.716    0.306    0.440   57.655
  391.250    4.713    0.309    0.435   55.886
  391.500    4.707    0.318    0.436   54.708
  391.750    4.704    0.303    0.447   52.357
  392.000    4.698    0.271    0.445   51.180
  392.250    4.693    0.130    0.426   48.829
  392.500    4.690    0.091    0.385   49.972
  392.750    4.684    0.127    0.340   52.858
  393.000    4.681    0.184    0.390   56.912
  393.250    4.676    0.283    0.487   65.031
  393.500    4.673    0.301    0.457   70.819
  393.750    4.669    0.310    0.436   67.897
  394.000    4.663    0.323    0.415   63.803
  394.250    4.659    0.329    0.409   62.625
  394.500    4.655    0.326    0.424   63.186
  394.750    4.649    0.324    0.430   63.166
  395.000    4.644    0.322    0.432   63.146
  395.250    4.640    0.319    0.437   66.032
  395.500    4.636    0.316    0.443   79.959
  395.750    4.549    0.310    0.472   86.338
  396.000    3.999    0.300    0.503   95.038
  396.250    3.388    0.281    0.547  103.732
  396.500    3.147    0.268    0.578  104.298
  396.750    3.087    0.264    0.597  105.436
  397.000    3.083    0.266    0.596  103.672
  397.250    3.080    0.272    0.594  100.164
  397.500    3.077    0.275    0.580   96.079
  397.750    3.132    0.281    0.547   91.409
  398.000    3.365    0.285    0.551   84.408
  398.250    3.552    0.285    0.555   79.151
  398.500    3.818    0.279    0.557   79.712
  398.750    4.257    0.277    0.527   80.855
  399.000    4.745    0.270    0.497   83.160
  399.250    5.007    0.262    0.469   85.465
  399.500    5.096    0.257    0.451   88.346
  399.750    5.475    0.251    0.455   89.499
  400.000    5.572    0.242    0.478   86.567
  400.250    5.773    0.241    0.458   86.552
  400.500    5.876    0.246    0.449   86.527
  400.750    6.087    0.250    0.460   86.512
  401.000    6.081    0.245    0.465   85.910
  401.250    6.077    0.241    0.463   85.885
  401.500    5.958    0.239    0.466   85.865
  401.750    5.846    0.239    0.468   87.007
  402.000    5.842    0.237    0.472   92.800
  402.250    5.524    0.234    0.482   98.007
  402.500    4.947    0.230    0.493   95.667
  402.750    4.348    0.232    0.485   94.484
  403.000    4.345    0.238    0.462   94.464
  403.250    4.501    0.244    0.458   94.434
  403.500    4.581    0.249    0.463   93.837
  403.750    4.658    0.252    0.463   92.073
  404.000    4.570    0.254    0.468   91.477
  404.250    4.567    0.249    0.475   91.457
  404.500    4.318    0.242    0.483   93.175
  404.750    4.010    0.234    0.501   96.643
  405.000    3.657    0.223    0.506  101.274
  405.250    3.335    0.219    0.517  105.328
  405.500    3.041    0.219    0.527  106.470
  405.750    2.771    0.222    0.540  106.440
  406.000    2.719    0.227    0.543  105.849
  406.250    2.717    0.232    0.519  101.754
  406.500    2.920    0.232    0.498   97.665
  406.750    3.138    0.229    0.471   96.482
  407.000    3.373    0.228    0.465   98.196
  407.250    3.495    0.230    0.495   99.349
  407.500    3.557    0.231    0.528  102.816
  407.750    3.619    0.232    0.542  106.284
  408.000    3.615    0.236    0.516  106.264
  408.250    3.612    0.243    0.499  104.500
  408.500    3.542    0.250    0.488  100.411
  408.750    3.539    0.255    0.496   99.223
  409.000    3.536    0.264    0.513   99.208
  409.250    3.599    0.271    0.528   99.183
  409.500    3.727    0.278    0.526   96.256
  409.750    3.863    0.273    0.498   90.999
  410.000    4.152    0.271    0.490   88.648
  410.250    4.463    0.270    0.493   88.057
  410.500    4.884    0.270    0.491   85.707
  410.750    5.247    0.268    0.487   85.110
  411.000    5.541    0.265    0.483   84.509
  411.250    5.637    0.264    0.490   85.060
  411.500    5.530    0.264    0.500   86.794
  411.750    5.041    0.267    0.511   90.838
  412.000    4.768    0.272    0.507   89.655
  412.250    4.679    0.279    0.480   86.147
  412.500    4.674    0.285    0.463   84.959
  412.750    4.670    0.292    0.452   84.363
  413.000    4.839    0.285    0.445   83.170
  413.250    5.014    0.277    0.442   81.992
  413.500    5.292    0.274    0.470   79.061
  413.750    5.383    0.272    0.477   77.888
  414.000    5.785    0.271    0.454   76.700
  414.250    5.887    0.276    0.448   76.685
  414.500    5.991    0.285    0.445   75.502
  414.750    6.207    0.296    0.456   71.989
  415.000    6.201    0.319    0.470   70.230
  415.250    6.197    0.323    0.453   67.298
  415.500    6.079    0.325    0.441   66.111
  415.750    5.853    0.325    0.453   66.677
  416.000    5.640    0.324    0.476   67.238
  416.250    5.333    0.324    0.462   68.962
  416.500    5.135    0.323    0.448   70.680
  416.750    5.132    0.323    0.441   70.660
  417.000    5.031    0.323    0.441   70.054
  417.250    5.029    0.323    0.440   70.039
  417.500    5.025    0.321    0.440   71.186
  417.750    5.113    0.312    0.450   73.481
  418.000    5.108    0.298    0.475   75.797
  418.250    5.196    0.297    0.467   79.259
  418.500    5.286    0.297    0.458   82.722
  418.750    5.377    0.297    0.448   84.451
  419.000    5.473    0.296    0.447   87.337
  419.250    5.569    0.291    0.444   90.229
  419.500    5.565    0.287    0.442   90.209
  419.750    5.458    0.278    0.440   85.538
  420.000    5.162    0.283    0.436   84.927
  420.250    4.794    0.284    0.437   88.399
  420.500    4.531    0.285    0.495   92.448
  420.750    4.287    0.281    0.530   94.754
  421.000    4.130    0.274    0.541   95.310
  421.250    3.697    0.270    0.525   95.290
  421.500    3.562    0.272    0.529   95.851
  421.750    3.074    0.273    0.547   95.836
  422.000    2.751    0.274    0.546   96.397
  422.250    2.555    0.275    0.545   96.377
  422.500    2.245    0.275    0.553   96.357
  422.750    2.163    0.276    0.551   96.337
  423.000    2.123    0.277    0.545   96.316
  423.250    2.082    0.278    0.538   96.291
  423.500    2.080    0.270    0.527   96.276
  423.750    2.155    0.263    0.527   96.256
  424.000    2.359    0.255    0.534   97.975
  424.250    2.490    0.252    0.557   99.122
  424.500    2.725    0.252    0.574  101.999
  424.750    3.038    0.256    0.577  100.240
  425.000    3.207    0.262    0.568   93.825
  425.250    3.509    0.271    0.558   87.405
  425.500    3.911    0.282    0.465   85.641
  425.750    4.055    0.293    0.433   84.464
  426.000    4.439    0.300    0.424   79.793
  426.250    4.858    0.309    0.412   74.541
  426.500    6.384    0.317    0.416   65.796
  426.750    6.617    0.313    0.430   59.963
  427.000    7.110    0.301    0.410   54.129
  427.250    7.783    0.273    0.351   51.198
  427.500    8.520    0.242    0.291   52.340
  427.750    8.994    0.120    0.253   55.227
  428.000    9.664    0.113    0.298   58.699
  428.250    9.140    0.164    0.433   63.330
  428.500    8.336    0.267    0.456   70.867
  428.750    6.936    0.300    0.455   76.069
  429.000    6.561    0.300    0.451   77.216
  429.250    5.873    0.299    0.450   77.777
  429.500    5.454    0.293    0.449   78.343
  429.750    5.448    0.281    0.450   79.486
  430.000    5.345    0.276    0.458   80.623
  430.250    5.146    0.274    0.469   81.190
