~VERSION INFORMATION
 VERS.                 2.0:   CWLS LOG ASCII STANDARD -VERSION 2.0
 WRAP.                  NO:   ONE LINE PER DEPTH STEP
~WELL INFORMATION BLOCK
#MNEM.UNIT           DATA                    DESCRIPTION OF MNEMONIC
#---------    -------------------            -------------------------------
# Generated from Intellog Unique Number	CW_76_78/WELL/3588
WELL.         MARK RESOURCES INC.            : Well_name    - WELL
LOC .         00/14-03-077-19W4/0            : Location     - LOCATION
UWI .         00/14-03-077-19W4/0            : Uwi          - UNIQUE WELL ID
ENTR.         JOETTE                         : Entered      - ENTERED BY
SRVC.         SCHLUMBERGER                   : Scn          - SERVICE COMPANY
DATE.         08/26/92                       : Date         - LOG DATE
STRT.M        210                            : top_depth    - START DEPTH
STOP.M        455                            : bot_depth    - STOP DEPTH
STEP.M        0.25                           : increment    - STEP LENGTH
 NULL. -999.2500:NULL Value
~CURVE INFORMATION BLOCK
#MNEM UNIT       ERCB CURVE CODE    CURVE DESCRIPTION
#-----------   ------------------   ----------------------------------
DEPT.M        00 001 00 00         : DEPTH        - DEPTH
GR  .API      00 310 00 00         : GR           - GAMMA RAY
NPHI.V/V      00 330 00 00         : PHIN         - NEUTRON POROSITY (SANDSTONE)
DPHI.V/V      00 890 00 00         : PHID         - DENSITY POROSITY (SANDSTONE)
ILD .OHMM     00 120 00 00         : RESD         - DEEP RESISTIVITY (DIL)
~PARAMETER INFORMATION
#MNEM.UNIT           DATA             DESCRIPTION OF MNEMONIC
#---------         -----------     ------------------------------
GL  .M        561                  : gl           - GROUND LEVEL ELEVATION
EREF.M        564.3                : kb           - ELEVATION OF DEPTH REFERENCE
DATM.M        564.3                : datum        - DATUM ELEVATION
TDD .M        458                  : tdd          - TOTAL DEPTH DRILLER
RUN .         ONE                  : Run          - RUN NUMBER
ENG .         BILL                 : Engineer     - RECORDING ENGINEER
WIT .         JIM                  : Witness      - WITNESSED BY
MUD .         GEL                  : Mud_type     - MUD TYPE
MATR.         SANDSTONE            : Logunit      - NEUTRON MATRIX
TMAX.C        28                   : BHT          - MAXIMUM RECORDED TEMPERATURE
BHTD.M        458                  : BHTDEP       - MAXIMUM RECORDED TEMPERATURE
MATR.         1                    : LOGUNIT      - NEUTRON MATRIX
RMT .C        21                   : MDTP         - TEMPERATURE OF MUD
NEUT.         1                    : NEUTRON      - NEUTRON TYPE
RESI.         0                    : RESIST       - RESISTIVITY TYPE
RMC .OHMM     4.75                 : RMC          - RESISTIVITY OF MUD CAKE
RMF .OHMM     4.75                 : RMF          - RESISTIVITY OF MUD FILTRATE
SUFT.C        15                   : SUFT         - SURFACE TEMPERATURE
~A  DEPTH       GR     PHIN     PHID     RESD
# ...
  427.500   83.350    0.378    0.210    7.771
  427.750   84.559    0.390    0.215    7.632
  428.000   84.583    0.398    0.220    7.496
  428.250   82.842    0.395    0.225    7.362
  428.500   81.675    0.417    0.234    7.364
  428.750   79.324    0.396    0.234    7.100
  429.000   75.794    0.403    0.242    6.972
  429.250   73.448    0.422    0.244    6.722
  429.500   71.701    0.420    0.255    6.481
  429.750   72.318    0.407    0.267    6.365
  430.000   74.705    0.413    0.261    6.368
  430.250   75.321    0.415    0.189    6.488
  430.500   62.918    0.397    0.100    6.734
  430.750   56.414    0.385    0.114    7.120
  431.000   42.814    0.392    0.140    7.527
  431.250   37.512    0.424    0.170    8.106
  431.500   41.084    0.416    0.210    8.259
  431.750   46.446    0.411    0.242    8.416
  432.000   48.241    0.414    0.268    8.419
  432.250   50.042    0.421    0.265    8.117
  432.500   53.028    0.423    0.252    7.826
  432.750   56.606    0.414    0.228    7.546
  433.000   61.369    0.379    0.220    7.276
  433.250   63.176    0.371    0.213    7.279
  433.500   63.200    0.366    0.202    7.280
  433.750   63.816    0.359    0.195    7.557
  434.000   67.400    0.351    0.179    7.699
  434.250   68.010    0.337    0.168    8.141
  434.500   66.856    0.318    0.161    8.448
  434.750   64.504    0.319    0.162    8.933
  435.000   62.159    0.323    0.166    9.620
  435.250   58.629    0.314    0.170    9.984
  435.500   53.322    0.303    0.174   10.556
  435.750   49.797    0.295    0.170   10.756
  436.000   48.044    0.293    0.169   10.959
  436.250   49.259    0.299    0.176   11.376
  436.500   49.863    0.295    0.199   11.590
  436.750   49.887    0.292    0.192   12.030
  437.000   51.096    0.294    0.171   12.034
  437.250   54.082    0.294    0.162   11.603
  437.500   57.068    0.286    0.134   11.395
  437.750   48.798    0.285    0.102   12.499
  438.000   35.198    0.280    0.149   14.227
  438.250   31.076    0.268    0.175   13.971
  438.500   35.845    0.260    0.182   12.746
  438.750   39.429    0.298    0.184   12.288
  439.000   41.218    0.312    0.160   12.069
  439.250   42.426    0.307    0.132   12.298
  439.500   41.858    0.301    0.075   13.244
  439.750   39.519    0.292    0.062   14.262
  440.000   35.390    0.244    0.049   15.643
  440.250   31.860    0.195    0.043   18.472
  440.500   35.444    0.166    0.067   21.025
  440.750   39.621    0.204    0.071   21.424
  441.000   40.231    0.262    0.120   19.910
  441.250   39.070    0.271    0.149   18.499
  441.500   37.323    0.262    0.152   16.569
  441.750   39.118    0.275    0.157   15.116
  442.000   42.110    0.286    0.163   14.573
  442.250   43.905    0.278    0.092   14.848
  442.500   46.897    0.233    0.088   16.289
  442.750   48.100    0.190    0.081   17.540
  443.000   42.792    0.202    0.086   18.546
  443.250   39.855    0.255    0.118   16.920
  443.500   44.025    0.234    0.128   15.720
  443.750   48.800    0.232    0.140   13.822
  444.000   50.595    0.232    0.136   12.845
  444.250   50.033    0.245    0.130   13.089
  444.500   46.496    0.245    0.106   13.583
  444.750   40.005    0.217    0.102   14.902
  445.000   39.442    0.207    0.101   15.465
  445.250   42.422    0.205    0.119   16.351
  445.500   48.962    0.230    0.125   16.355
  445.750   53.138    0.255    0.132   15.481
  446.000   54.347    0.354    0.153   14.385
  446.250   53.773    0.359    0.165   13.367
  446.500   50.242    0.355    0.180   12.196
  446.750   47.305    0.330    0.182   11.125
  447.000   48.519    0.291    0.158   10.727
  447.250   49.728    0.285    0.142   10.342
  447.500   52.127    0.284    0.139   10.158
  447.750   52.732    0.311    0.134   10.160
  448.000   54.533    0.303    0.132   10.546
  448.250   54.563    0.333    0.128   10.946
  448.500   54.593    0.362    0.120   11.361
  448.750   53.438    0.306    0.121   10.557
  449.000   52.870    0.281    0.129   10.178
  449.250   52.882    0.261    0.119    9.116
  449.500   52.912    0.253    0.077    8.470
  449.750   52.343    0.332    0.066    8.792
  450.000   52.367    0.360    0.042    9.644
  450.250   52.984    0.366    0.056   10.578
  450.500   53.002    0.344    0.186   10.780
  450.750   53.026    0.340    0.175   10.202
  451.000   53.056    0.346    0.182    9.657
  451.250   53.074    0.385    0.208    8.974
  451.500   53.098    0.387    0.217    8.652
  451.750   53.122    0.391    0.212    8.497
  452.000   53.152    0.397    0.210    8.346
  452.250   53.176    0.405    0.202    8.349
  452.500   53.200    0.411    0.195    8.665
  452.750   53.224    0.417    0.186    8.994
  453.000   53.254    0.420    0.179    9.335
  453.250   52.685    0.422    0.153    9.869
  453.500   52.111    0.422    0.145   10.242
  453.750   51.543    0.423    0.128   10.829
  454.000   51.572    0.421    0.090   10.636
  454.250   51.590    0.416    0.109   10.639
  454.500   52.213    0.413    0.138   10.072
  454.750   52.237    0.414    0.129   10.073
  455.000   52.255    0.414    0.122    9.894
