~VERSION INFORMATION
 VERS.                 2.0:   CWLS LOG ASCII STANDARD -VERSION 2.0
 WRAP.                  NO:   ONE LINE PER DEPTH STEP
~WELL INFORMATION BLOCK
#MNEM.UNIT           DATA                    DESCRIPTION OF MNEMONIC
#---------    -------------------            -------------------------------
# Generated from Intellog Unique Number	CW_79_81/WELL/2493
WELL.         GULF WABASCA                   : Well_name    - WELL
LOC .         00/15-36-080-19W4/0            : Location     - LOCATION
UWI .         00/15-36-080-19W4/0            : Uwi          - UNIQUE WELL ID
ENTR.         MAX                            : Entered      - ENTERED BY
SRVC.         SCHLUMBERGER                   : Scn          - SERVICE COMPANY
STRT.M        137.16                         : top_depth    - START DEPTH
STOP.M        365.41                         : bot_depth    - STOP DEPTH
STEP.M        0.25                           : increment    - STEP LENGTH
 NULL. -999.2500:NULL Value
~CURVE INFORMATION BLOCK
#MNEM UNIT       ERCB CURVE CODE    CURVE DESCRIPTION
#-----------   ------------------   ----------------------------------
DEPT.M        00 001 00 00         : DEPTH        - DEPTH
ILD .OHMM     00 120 00 00         : RESD         - DEEP RESISTIVITY (DIL)
NPHI.V/V      00 330 00 00         : PHIN         - NEUTRON POROSITY (SANDSTONE)
DPHI.V/V      00 890 00 00         : PHID         - DENSITY POROSITY (SANDSTONE)
GR  .API      00 310 00 00         : GR           - GAMMA RAY
CALI.MM       00 280 01 00         : CAL          - CALIPER
~PARAMETER INFORMATION
#MNEM.UNIT           DATA             DESCRIPTION OF MNEMONIC
#---------         -----------     ------------------------------
GL  .M        569.976              : gl           - GROUND LEVEL ELEVATION
EREF.M        573.329              : kb           - ELEVATION OF DEPTH REFERENCE
DATM.M        569.976              : datum        - DATUM ELEVATION
TDD .M        376.733              : tdd          - TOTAL DEPTH DRILLER
RUN .         ONE                  : Run          - RUN NUMBER
ENG .         BILL                 : Engineer     - RECORDING ENGINEER
WIT .         JIM                  : Witness      - WITNESSED BY
MUD .         GEL                  : Mud_type     - MUD TYPE
MATR.         SANDSTONE            : Logunit      - NEUTRON MATRIX
TMAX.C        23.3333              : BHT          - MAXIMUM RECORDED TEMPERATURE
BHTD.M        376.733              : BHTDEP       - MAXIMUM RECORDED TEMPERATURE
MATR.         1                    : LOGUNIT      - NEUTRON MATRIX
RMT .C        20                   : MDTP         - TEMPERATURE OF MUD
NEUT.         1                    : NEUTRON      - NEUTRON TYPE
RESI.         0                    : RESIST       - RESISTIVITY TYPE
RMC .OHMM     7.3                  : RMC          - RESISTIVITY OF MUD CAKE
RMF .OHMM     7.49                 : RMF          - RESISTIVITY OF MUD FILTRATE
SUFT.C        -23.3333             : SUFT         - SURFACE TEMPERATURE
~A  DEPTH     RESD     PHIN     PHID       GR      CAL
# ...
  246.660   15.595    0.470    0.336   52.919  177.474
  246.910   15.583    0.473    0.334   52.662  177.817
  247.160   15.572    0.467    0.334   52.578  177.880
  247.410   15.504    0.462    0.330   53.489  177.836
  247.660   15.410    0.458    0.326   55.512  177.786
  247.910   15.395    0.452    0.329   58.246  177.581
  248.160   15.383    0.453    0.315   59.197  176.710
  248.410   15.374    0.466    0.314   59.405  176.666
  248.660   15.446    0.474    0.312   59.439  176.324
  248.910   15.602    0.474    0.307   59.414  175.484
  249.160   15.817    0.467    0.301   59.212  174.246
  249.410   16.176    0.460    0.295   58.135  172.683
  249.660   16.913    0.465    0.295   56.398  170.986
  249.910   18.416    0.451    0.267   55.207  166.582
  250.160   21.319    0.349    0.212   53.661  163.662
  250.410   28.962    0.255    0.144   51.061  162.625
  250.660   48.254    0.200    0.073   48.108  162.879
  250.910   69.826    0.152   -0.005   46.853  162.913
  251.160   92.841    0.143   -0.014   46.582  163.280
  251.410  110.663    0.137   -0.006   46.093  163.633
  251.660  118.719    0.133   -0.004   45.596  164.870
  251.910  121.688    0.131   -0.006   45.336  165.619
  252.160  123.377    0.132   -0.010   45.373  165.285
  252.410  121.823    0.137   -0.008   45.579  164.130
  252.660  119.018    0.140    0.006   45.552  164.492
  252.910  113.010    0.147   -0.008   46.462  166.033
  253.160  103.203    0.159   -0.016   49.126  166.686
  253.410   89.193    0.214   -0.008   51.790  166.442
  253.660   74.218    0.295    0.023   53.930  165.501
  253.910   58.178    0.330    0.100   56.680  164.099
  254.160   46.308    0.314    0.196   58.847  163.232
  254.410   37.896    0.352    0.199   60.696  162.788
  254.660   30.162    0.399    0.188   63.947  162.052
  254.910   25.225    0.434    0.208   66.145  161.218
  255.160   21.907    0.451    0.257   66.469  160.678
  255.410   18.227    0.454    0.287   65.880  161.017
  255.660   15.592    0.457    0.265   66.587  160.976
  255.910   14.167    0.457    0.280   66.088  160.932
  256.160   13.321    0.459    0.291   65.770  160.588
  256.410   12.844    0.461    0.295   65.629  160.348
  256.660   12.582    0.465    0.296   65.486  160.311
  256.910   12.390    0.472    0.301   65.133  160.340
  257.160   12.383    0.481    0.300   65.840  160.707
  257.410   12.373    0.480    0.303   66.748  161.055
  257.660   12.364    0.480    0.302   67.486  161.113
  257.910   12.356    0.481    0.303   68.631  161.067
  258.160   12.324    0.483    0.307   70.125  161.018
  258.410   12.206    0.489    0.309   71.266  160.973
  258.660   12.105    0.488    0.295   71.233  160.923
  258.910   12.009    0.485    0.289   70.508  160.883
  259.160   11.913    0.488    0.281   70.309  160.840
  259.410   11.819    0.493    0.277   70.049  160.796
  259.660   11.747    0.498    0.282   69.964  160.751
  259.910   11.720    0.499    0.298   71.596  160.778
  260.160   11.621    0.487    0.305   74.007  161.155
  260.410   11.530    0.481    0.294   75.616  161.111
  260.660   11.377    0.476    0.288   76.879  161.357
  260.910   11.124    0.483    0.286   78.725  161.512
  261.160   10.656    0.496    0.285   81.331  161.672
  261.410    9.625    0.494    0.272   84.208  162.494
  261.660    8.666    0.492    0.250   84.669  162.856
  261.910    8.535    0.481    0.263   83.241  162.817
  262.160    8.636    0.476    0.283   80.581  162.774
  262.410    8.850    0.476    0.293   77.393  162.527
  262.660    9.120    0.478    0.289   74.616  162.182
  262.910    9.505    0.491    0.274   73.466  162.138
  263.160    9.788    0.509    0.260   73.682  162.097
  263.410    9.923    0.505    0.283   74.829  162.053
  263.660    9.949    0.502    0.291   76.676  162.604
  263.910    9.942    0.493    0.281   78.874  163.549
  264.160    9.829    0.478    0.257   81.188  164.591
  264.410    9.259    0.466    0.220   84.375  165.661
  264.660    8.586    0.474    0.201   88.736  167.267
  264.910    8.094    0.483    0.223   92.223  168.020
  265.160    7.847    0.491    0.232   93.423  168.763
  265.410    7.701    0.488    0.235   93.397  168.517
  265.660    7.613    0.479    0.232   92.966  167.583
  265.910    7.570    0.490    0.219   93.139  167.952
  266.160    7.396    0.519    0.194   95.306  169.970
  266.410    7.338    0.520    0.192   93.642  170.322
  266.660    7.359    0.505    0.217   87.414  168.300
  266.910    7.434    0.487    0.230   82.238  165.284
  267.160    7.590    0.474    0.224   80.279  163.256
  267.410    7.956    0.464    0.232   79.760  165.122
  267.660    8.133    0.458    0.254   77.292  166.723
  267.910    8.127    0.470    0.229   75.867  166.684
  268.160    8.121    0.479    0.228   76.893  166.046
  268.410    8.086    0.481    0.243   78.153  164.415
  268.660    8.021    0.480    0.256   78.654  162.685
  268.910    7.956    0.484    0.227   79.354  163.114
  269.160    7.950    0.491    0.204   82.984  163.476
  269.410    8.002    0.503    0.198   86.003  163.833
  269.660    8.186    0.511    0.221   85.686  163.886
  269.910    8.509    0.516    0.245   83.085  163.444
  270.160    8.975    0.513    0.261   78.612  163.105
  270.410    9.728    0.491    0.284   70.711  164.993
  270.660   10.567    0.478    0.309   64.102  168.662
  270.910   12.684    0.460    0.315   62.666  167.024
  271.160   15.263    0.455    0.310   62.643  166.291
  271.410   17.590    0.458    0.304   62.269  166.247
  271.660   19.396    0.466    0.302   61.423  166.892
  271.910   22.543    0.475    0.299   61.331  169.093
  272.160   23.932    0.481    0.305   59.844  172.345
  272.410   26.058    0.487    0.315   60.754  169.919
  272.660   28.532    0.486    0.315   61.134  166.314
  272.910   31.003    0.482    0.313   60.875  164.092
  273.160   33.367    0.478    0.316   60.679  164.144
  273.410   36.700    0.477    0.327   62.394  165.923
  273.660   39.867    0.481    0.340   64.073  167.111
  273.910   41.596    0.481    0.350   64.276  166.680
  274.160   42.254    0.479    0.349   63.432  166.539
  274.410   41.836    0.478    0.338   61.105  165.846
  274.660   40.339    0.478    0.324   58.212  165.531
  274.910   37.197    0.480    0.326   57.464  168.378
  275.160   34.490    0.493    0.325   59.658  168.771
  275.410   30.868    0.489    0.324   61.529  168.751
  275.660   27.169    0.483    0.318   64.457  167.238
  275.910   21.027    0.483    0.308   66.915  163.435
  276.160   15.718    0.486    0.286   68.080  159.233
  276.410   12.336    0.452    0.228   67.146  159.374
  276.660   10.166    0.333    0.184   63.704  160.188
  276.910    9.871    0.285    0.112   61.574  158.177
  277.160    9.425    0.355    0.135   67.560  160.048
  277.410    8.750    0.431    0.195   76.724  161.621
  277.660    8.056    0.467    0.245   83.946  161.602
  277.910    7.597    0.491    0.260   83.540  161.746
  278.160    7.313    0.520    0.273   81.568  162.556
  278.410    7.205    0.526    0.258   80.380  162.534
  278.660    7.177    0.519    0.257   80.251  162.516
  278.910    7.227    0.502    0.257   80.121  162.496
  279.160    7.278    0.487    0.254   79.815  162.575
  279.410    7.127    0.494    0.256   80.527  162.869
  279.660    6.913    0.499    0.255   82.965  162.434
  279.910    6.761    0.502    0.268   84.365  159.627
  280.160    6.723    0.503    0.261   85.589  158.610
  280.410    6.721    0.496    0.241   86.283  158.391
  280.660    6.707    0.486    0.217   86.505  158.373
  280.910    6.656    0.483    0.203   86.921  158.433
  281.160    6.654    0.469    0.191   87.888  158.827
  281.410    6.652    0.474    0.176   89.056  159.204
  281.660    6.687    0.491    0.190   90.397  159.284
  281.910    6.685    0.506    0.221   91.680  159.264
  282.160    6.635    0.512    0.246   92.845  159.344
  282.410    6.574    0.503    0.231   94.251  160.134
  282.660    6.523    0.505    0.225   95.465  162.191
  282.910    6.474    0.512    0.236   93.335  167.747
