~VERSION INFORMATION
 VERS.                 2.0:   CWLS LOG ASCII STANDARD -VERSION 2.0
 WRAP.                  NO:   ONE LINE PER DEPTH STEP
~WELL INFORMATION BLOCK
#MNEM.UNIT           DATA                    DESCRIPTION OF MNEMONIC
#---------    -------------------            -------------------------------
# Generated from Intellog Unique Number	CX_WELLS/WELL/3404
WELL.         SUNCOR NEWBY                   : Well_name    - WELL
LOC .         00/11-20-084-04W4/0            : Location     - LOCATION
UWI .         00/11-20-084-04W4/0            : Uwi          - UNIQUE WELL ID
ENTR.         T                              : Entered      - ENTERED BY
SRVC.         SCHLUMBERGER                   : Scn          - SERVICE COMPANY
STRT.M        80                             : top_depth    - START DEPTH
STOP.M        235                            : bot_depth    - STOP DEPTH
STEP.M        0.25                           : increment    - STEP LENGTH
 NULL. -999.2500:NULL Value
~CURVE INFORMATION BLOCK
#MNEM UNIT       ERCB CURVE CODE    CURVE DESCRIPTION
#-----------   ------------------   ----------------------------------
DEPT.M        00 001 00 00         : DEPTH        - DEPTH
GR  .API      00 310 00 00         : GR           - GAMMA RAY
NPHI.V/V      00 330 00 00         : PHIN         - NEUTRON POROSITY (SANDSTONE)
DPHI.V/V      00 890 00 00         : PHID         - DENSITY POROSITY (SANDSTONE)
ILD .OHMM     00 120 00 00         : RESD         - DEEP RESISTIVITY (OTHER)
~PARAMETER INFORMATION
#MNEM.UNIT           DATA             DESCRIPTION OF MNEMONIC
#---------         -----------     ------------------------------
GL  .M        463                  : gl           - GROUND LEVEL ELEVATION
EREF.M        466                  : kb           - ELEVATION OF DEPTH REFERENCE
DATM.M        466                  : datum        - DATUM ELEVATION
TDD .M        245                  : tdd          - TOTAL DEPTH DRILLER
RUN .         ONE                  : Run          - RUN NUMBER
ENG .         BILL                 : Engineer     - RECORDING ENGINEER
WIT .         JIM                  : Witness      - WITNESSED BY
MUD .         GEL                  : Mud_type     - MUD TYPE
MATR.         SANDSTONE            : Logunit      - NEUTRON MATRIX
TMAX.C        33                   : BHT          - MAXIMUM RECORDED TEMPERATURE
BHTD.M        245                  : BHTDEP       - MAXIMUM RECORDED TEMPERATURE
MATR.         1                    : LOGUNIT      - NEUTRON MATRIX
RMT .C        18                   : MDTP         - TEMPERATURE OF MUD
NEUT.         1                    : NEUTRON      - NEUTRON TYPE
RESI.         2                    : RESIST       - RESISTIVITY TYPE
RMC .OHMM     1.9                  : RMC          - RESISTIVITY OF MUD CAKE
RMF .OHMM     2.7                  : RMF          - RESISTIVITY OF MUD FILTRATE
SUFT.C        4                    : SUFT         - SURFACE TEMPERATURE
~A  DEPTH       GR     PHIN     PHID     RESD
# ...
  167.000   88.922    0.473    0.226    3.747
  167.250   89.641    0.470    0.222    3.902
  167.500   90.312    0.492    0.218    4.063
  167.750   91.007    0.495    0.213    4.399
  168.000   91.678    0.485    0.202    4.676
  168.250   91.773    0.456    0.191    4.604
  168.500   91.892    0.435    0.176    4.449
  168.750   90.788    0.430    0.184    5.820
  169.000   87.862    0.426    0.201    8.221
  169.250   80.761    0.294    0.238   11.181
  169.500   72.437    0.216    0.277   12.811
  169.750   59.340    0.123    0.321   13.608
  170.000   48.017    0.090    0.343   15.025
  170.250   40.293    0.086    0.360   15.960
  170.500   30.794    0.160    0.364   16.634
  170.750   35.686    0.212    0.346   15.197
  171.000   44.800    0.229    0.326   14.125
  171.250   52.715    0.246    0.309   12.640
  171.500   53.386    0.252    0.311    9.192
  171.750   53.505    0.255    0.318    8.071
  172.000   52.401    0.258    0.326    6.458
  172.250   48.899    0.241    0.335    6.123
  172.500   47.171    0.233    0.325    5.584
  172.750   46.067    0.251    0.307    4.997
  173.000   50.360    0.280    0.297    3.308
  173.250   51.702    0.296    0.278    3.252
  173.500   51.774    0.312    0.285    2.858
  173.750   48.918    0.320    0.289    2.462
  174.000   48.366    0.336    0.290    2.166
  174.250   47.862    0.353    0.294    1.940
  174.500   47.981    0.365    0.299    1.838
  174.750   48.076    0.370    0.303    1.989
  175.000   49.971    0.367    0.298    2.153
  175.250   51.241    0.362    0.298    2.425
  175.500   63.953    0.354    0.304    2.574
  175.750   94.679    0.356    0.306    2.949
  176.000   98.397    0.402    0.321    3.319
  176.250   97.269    0.455    0.346    3.268
  176.500   91.367    0.495    0.353    3.276
  176.750   83.667    0.538    0.350    3.294
  177.000   74.743    0.500    0.342    3.299
  177.250   75.438    0.476    0.334    3.314
  177.500   95.946    0.499    0.294    3.457
  177.750  101.486    0.508    0.243    3.535
  178.000  100.958    0.510    0.223    3.616
  178.250   99.877    0.518    0.210    3.628
  178.500   98.797    0.521    0.208    3.707
  178.750   98.869    0.489    0.207    3.795
  179.000   98.940    0.480    0.201    3.808
  179.250   99.035    0.473    0.197    3.753
  179.500   99.202    0.461    0.196    3.763
  179.750   99.850    0.453    0.197    3.702
  180.000   99.921    0.460    0.202    3.651
  180.250  100.016    0.466    0.205    3.592
  180.500   98.936    0.464    0.207    3.540
  180.750   99.031    0.468    0.209    3.483
  181.000  100.326    0.461    0.211    3.433
  181.250  102.244    0.453    0.214    3.374
  181.500  102.939    0.443    0.216    3.331
  181.750  101.235    0.441    0.213    3.334
  182.000   98.908    0.466    0.204    3.283
  182.250   96.605    0.464    0.202    3.233
  182.500  100.322    0.463    0.204    3.186
  182.750  102.192    0.455    0.199    3.140
  183.000  104.087    0.446    0.201    3.148
  183.250   99.984    0.435    0.211    3.100
  183.500   92.860    0.420    0.225    3.055
  183.750   85.159    0.395    0.245    3.063
  184.000   77.459    0.387    0.257    2.962
  184.250   75.755    0.378    0.259    2.911
  184.500   75.850    0.368    0.261    2.813
  184.750   77.145    0.359    0.256    2.667
  185.000   78.439    0.359    0.255    2.481
  185.250   78.535    0.359    0.254    2.443
  185.500   76.831    0.356    0.251    2.449
  185.750   75.727    0.353    0.244    2.462
  186.000   74.623    0.349    0.240    2.468
  186.250   70.520    0.350    0.241    2.340
  186.500   66.994    0.353    0.255    2.259
  186.750   63.491    0.357    0.268    1.987
  187.000   59.413    0.359    0.276    1.847
  187.250   52.264    0.355    0.285    1.786
  187.500   49.385    0.352    0.288    1.759
  187.750   46.482    0.357    0.287    1.765
  188.000   45.378    0.359    0.288    1.805
  188.250   53.269    0.359    0.294    1.881
  188.500   50.366    0.359    0.300    1.922
  188.750   37.245    0.361    0.309    1.968
  189.000   31.343    0.364    0.315    1.976
  189.250   33.261    0.359    0.318    1.981
  189.500   35.731    0.353    0.312    1.990
  189.750   35.251    0.358    0.312    1.956
  190.000   32.947    0.366    0.312    1.926
  190.250   30.020    0.368    0.313    2.008
  190.500   28.341    0.372    0.314    2.579
  190.750   26.661    0.371    0.315    2.958
  191.000   26.708    0.370    0.315    3.202
  191.250   25.628    0.365    0.315    3.153
  191.500   25.723    0.362    0.314    2.876
  191.750   25.819    0.355    0.313    2.578
  192.000   25.914    0.343    0.318    2.788
  192.250   25.985    0.351    0.325    3.449
  192.500   26.128    0.365    0.328    3.273
  192.750   26.200    0.378    0.327    3.159
  193.000   26.271    0.378    0.325    3.108
  193.250   27.014    0.376    0.325    3.122
  193.500   27.685    0.372    0.323    3.447
  193.750   28.356    0.368    0.320    3.589
  194.000   29.051    0.366    0.317    3.218
  194.250   30.346    0.375    0.315    3.106
  194.500   32.288    0.382    0.313    3.240
  194.750   29.361    0.387    0.314    3.439
  195.000   27.081    0.383    0.320    3.590
  195.250   27.129    0.375    0.325    3.597
  195.500   25.473    0.370    0.321    3.678
  195.750   25.520    0.363    0.315    3.691
  196.000   25.639    0.356    0.310    3.707
  196.250   25.735    0.350    0.305    3.788
  196.500   25.854    0.346    0.299    3.878
  196.750   25.373    0.345    0.302    3.966
  197.000   24.821    0.343    0.311    3.983
  197.250   23.741    0.342    0.318    3.922
  197.500   25.036    0.340    0.323    3.929
  197.750   26.930    0.341    0.323    3.799
  198.000   28.224    0.344    0.322    3.671
  198.250   28.896    0.350    0.320    3.547
  198.500   30.190    0.346    0.320    3.424
  198.750   30.885    0.338    0.320    3.246
  199.000   31.604    0.338    0.323    2.963
  199.250   32.299    0.343    0.323    2.704
  199.500   32.394    0.350    0.318    2.873
  199.750   34.312    0.372    0.310    3.551
  200.000   37.430    0.365    0.305    3.437
  200.250   38.101    0.352    0.311    3.317
  200.500   39.395    0.356    0.326    3.148
  200.750   37.068    0.383    0.327    3.039
  201.000   34.765    0.385    0.315    2.936
  201.250   34.284    0.355    0.313    3.181
  201.500   34.403    0.343    0.311    3.310
  201.750   34.475    0.345    0.307    3.796
  202.000   33.947    0.349    0.312    4.109
  202.250   33.442    0.351    0.318    4.537
  202.500   32.962    0.357    0.319    4.728
  202.750   32.481    0.359    0.313    4.660
  203.000   31.929    0.363    0.310    4.581
  203.250   31.425    0.363    0.307    4.510
  203.500   30.920    0.362    0.310    4.358
  203.750   30.440    0.361    0.316    4.131
  204.000   29.312    0.360    0.320    4.562
  204.250   28.232    0.357    0.323    4.934
  204.500   27.703    0.354    0.325    5.147
  204.750   29.046    0.347    0.323    4.973
  205.000   29.717    0.349    0.322    4.897
  205.250   31.059    0.351    0.322    4.731
  205.500   30.531    0.356    0.323    4.571
  205.750   30.026    0.354    0.324    4.330
  206.000   30.122    0.354    0.324    4.183
  206.250   31.416    0.353    0.326    3.540
  206.500   31.512    0.355    0.326    3.293
  206.750   30.384    0.354    0.323    3.501
  207.000   29.280    0.349    0.320    3.577
  207.250   29.375    0.352    0.320    3.459
  207.500   30.094    0.358    0.321    3.215
  207.750   30.165    0.363    0.321    2.880
  208.000   30.884    0.364    0.321    2.677
  208.250   30.979    0.354    0.321    2.686
  208.500   30.451    0.350    0.323    3.023
  208.750   30.546    0.355    0.326    3.211
  209.000   29.442    0.364    0.327    3.222
  209.250   28.338    0.363    0.327    3.118
  209.500   28.457    0.358    0.325    3.124
  209.750   28.529    0.359    0.324    3.197
  210.000   31.070    0.362    0.325    3.458
  210.250   34.140    0.363    0.325    3.537
