~VERSION INFORMATION
 VERS.                 2.0:   CWLS LOG ASCII STANDARD -VERSION 2.0
 WRAP.                  NO:   ONE LINE PER DEPTH STEP
~WELL INFORMATION BLOCK
#MNEM.UNIT           DATA                    DESCRIPTION OF MNEMONIC
#---------    -------------------            -------------------------------
# Generated from Intellog Unique Number	CW_73_75/WELL/2743
WELL.         LAND BANK ET AL BLANCHE 11-03  : Well_name    - WELL
LOC .         00/11-03-073-02W5/0            : Location     - LOCATION
UWI .         00/11-03-073-02W5/0            : Uwi          - UNIQUE WELL ID
ENTR.         JAYE                           : Entered      - ENTERED BY
SRVC.         SCHLUMBERGER                   : Scn          - SERVICE COMPANY
DATE.         7 JAN 80                       : Date         - LOG DATE
STRT.M        380                            : top_depth    - START DEPTH
STOP.M        590                            : bot_depth    - STOP DEPTH
STEP.M        0.25                           : increment    - STEP LENGTH
 NULL. -999.2500:NULL Value
~CURVE INFORMATION BLOCK
#MNEM UNIT       ERCB CURVE CODE    CURVE DESCRIPTION
#-----------   ------------------   ----------------------------------
DEPT.M        00 001 00 00         : DEPTH        - DEPTH
DPHI.V/V      00 890 00 00         : PHID         - DENSITY POROSITY (SANDSTONE)
NPHI.V/V      00 330 00 00         : PHIN         - NEUTRON POROSITY (SANDSTONE)
GR  .API      00 310 00 00         : GR           - GAMMA RAY
CALI.MM       00 280 01 00         : CAL          - CALIPER
ILD .OHMM     00 120 00 00         : RESD         - DEEP RESISTIVITY (DIL)
~PARAMETER INFORMATION
#MNEM.UNIT           DATA             DESCRIPTION OF MNEMONIC
#---------         -----------     ------------------------------
GL  .M        597                  : gl           - GROUND LEVEL ELEVATION
EREF.M        600.2                : kb           - ELEVATION OF DEPTH REFERENCE
DATM.M        597                  : datum        - DATUM ELEVATION
TDD .M        601                  : tdd          - TOTAL DEPTH DRILLER
RUN .         ONE                  : Run          - RUN NUMBER
ENG .         WALTERHOUSE          : Engineer     - RECORDING ENGINEER
WIT .         LOWTHER              : Witness      - WITNESSED BY
BASE.         EDM                  : Branch       - HOME BASE OF LOGGING UNIT
MUD .         GEL CHEM             : Mud_type     - MUD TYPE
MATR.         SANDSTONE            : Logunit      - NEUTRON MATRIX
TMAX.C        24.4                 : BHT          - MAXIMUM RECORDED TEMPERATURE
BHTD.M        602.5                : BHTDEP       - MAXIMUM RECORDED TEMPERATURE
RMT .C        12.8                 : MDTP         - TEMPERATURE OF MUD
MUDD.KG/M     1170                 : MWT          - MUD DENSITY
NEUT.         1                    : NEUTRON      - NEUTRON TYPE
RESI.         0                    : RESIST       - RESISTIVITY TYPE
RM  .OHMM     2.98                 : RM           - RESISTIVITY OF MUD
RMC .OHMM     0                    : RMC          - RESISTIVITY OF MUD CAKE
RMF .OHMM     2.85                 : RMF          - RESISTIVITY OF MUD FILTRATE
SUFT.C        0                    : SUFT         - SURFACE TEMPERATURE
~A  DEPTH     PHID     PHIN       GR      CAL     RESD
  380.000    0.205    0.473  114.291  192.539    2.422
  380.250    0.186    0.501  114.066  190.623    2.432
  380.500    0.168    0.498  115.570  193.130    2.461
  380.750    0.194    0.484  116.269  194.095    2.547
  381.000    0.194    0.493  116.291  193.613    2.626
  381.250    0.188    0.507  112.428  191.499    2.687
  381.500    0.171    0.513  114.177  189.987    2.734
  381.750    0.187    0.482  115.372  188.277    2.782
  382.000    0.175    0.448  112.622  186.882    2.841
  382.250    0.189    0.437  109.990  185.986    2.880
  382.500    0.204    0.435  106.804  184.483    2.919
  382.750    0.196    0.469  102.818  186.164    2.954
  383.000    0.225    0.463  102.654  190.624    2.983
  383.250    0.227    0.448  102.678  193.435    2.978
  383.500    0.236    0.436  101.157  191.728    2.869
  383.750    0.211    0.434   98.158  185.595    2.681
  384.000    0.227    0.437   94.849  179.369    2.468
  384.250    0.208    0.434   92.528  177.240    2.341
  384.500    0.229    0.453   93.908  176.048    2.540
  384.750    0.242    0.489   95.349  177.424    2.804
  385.000    0.255    0.517   94.816  188.762    3.244
  385.250    0.267    0.433   90.337  195.483    3.662
  385.500    0.282    0.404   80.305  185.240    3.974
  385.750    0.249    0.390   73.357  174.894    4.336
  386.000    0.259    0.397   72.147  167.427    4.732
  386.250    0.264    0.393   73.340  163.766    5.038
  386.500    0.261    0.396   73.363  162.566    5.234
  386.750    0.253    0.404   74.495  162.506    5.346
  387.000    0.234    0.392   73.594  164.085    5.398
  387.250    0.199    0.368   71.273  167.005    5.431
  387.500    0.144    0.372   68.642  169.402    5.361
  387.750    0.212    0.395   61.694  171.491    5.184
  388.000    0.242    0.411   58.448  168.759    5.012
  388.250    0.290    0.400   62.849  166.222    4.728
  388.500    0.277    0.391   64.477  165.026    4.495
  388.750    0.269    0.406   63.695  164.651    4.224
  389.000    0.276    0.413   63.039  163.876    3.993
  389.250    0.288    0.386   66.701  163.598    3.832
  389.500    0.271    0.384   72.770  163.845    3.608
  389.750    0.240    0.397   77.663  164.080    3.430
  390.000    0.195    0.403   79.907  164.536    3.285
  390.250    0.169    0.393   81.656  165.700    3.176
  390.500    0.175    0.402   92.966  166.664    3.177
  390.750    0.203    0.425  102.363  170.090    3.184
  391.000    0.186    0.451  109.848  176.807    3.240
  391.250    0.210    0.444  111.352  178.593    3.456
  391.500    0.203    0.419  116.061  175.758    3.894
  391.750    0.187    0.438  121.571  177.846    4.298
  392.000    0.191    0.420  125.172  183.331    4.620
  392.250    0.195    0.388  119.274  189.847    4.727
  392.500    0.202    0.372  114.978  182.689    4.756
  392.750    0.206    0.382  109.326  176.967    4.731
  393.000    0.223    0.388   98.680  176.287    4.723
  393.250    0.225    0.393   90.807  177.660    4.645
  393.500    0.250    0.392   77.875  178.825    4.525
  393.750    0.301    0.384   68.276  171.668    4.326
  394.000    0.273    0.376   65.894  163.584    4.074
  394.250    0.227    0.376   76.712  164.551    3.887
  394.500    0.231    0.379   82.592  166.336    3.723
  394.750    0.248    0.406   92.483  168.425    3.724
  395.000    0.229    0.451  105.641  172.781    3.840
  395.250    0.217    0.453  114.176  179.087    3.967
  395.500    0.222    0.431  114.692  185.190    4.215
  395.750    0.200    0.414  111.693  179.368    4.574
  396.000    0.182    0.414  105.053  178.069    4.842
  396.250    0.188    0.407   95.083  178.517    4.936
  396.500    0.207    0.395   84.251  177.217    4.938
  396.750    0.226    0.379   76.380  175.200    4.893
  397.000    0.247    0.372   72.700  172.461    4.696
  397.250    0.255    0.377   75.498  169.621    4.347
  397.500    0.250    0.375   83.538  168.527    3.994
  397.750    0.238    0.372   95.960  169.595    3.683
  398.000    0.200    0.378  103.075  172.305    3.253
  398.250    0.173    0.402  108.955  176.042    3.103
  398.500    0.150    0.439  115.578  181.422    3.087
  398.750    0.174    0.467  115.723  192.048    3.281
  399.000    0.199    0.471  111.121  186.843    3.810
  399.250    0.218    0.426  106.762  195.002    4.150
  399.500    0.237    0.348   96.484  192.984    4.319
  399.750    0.213    0.323   84.727  182.227    4.378
  400.000    0.221    0.314   73.648  174.451    4.193
  400.250    0.251    0.323   62.383  170.787    3.868
  400.500    0.271    0.332   53.709  167.123    3.789
  400.750    0.290    0.348   48.735  162.742    3.827
  401.000    0.298    0.371   47.832  161.549    3.916
  401.250    0.294    0.363   52.914  161.686    4.007
  401.500    0.302    0.350   57.747  161.520    4.093
  401.750    0.284    0.345   62.702  162.274    4.164
  402.000    0.268    0.351   68.645  163.139    4.221
  402.250    0.267    0.348   74.156  163.481    4.279
  402.500    0.260    0.353   76.030  163.517    4.337
  402.750    0.250    0.340   79.014  163.142    4.396
  403.000    0.248    0.341   85.942  162.873    4.415
  403.250    0.235    0.366  100.275  162.602    4.441
  403.500    0.217    0.402  111.769  163.155    4.502
  403.750    0.198    0.398  115.677  164.735    4.555
  404.000    0.199    0.379  109.594  168.058    4.687
  404.250    0.197    0.364  105.051  170.154    4.796
  404.500    0.179    0.349  107.172  168.545    4.927
  404.750    0.167    0.361  116.015  168.483    4.791
  405.000    0.178    0.383  120.538  171.087    4.050
  405.250    0.182    0.389  115.566  176.472    3.431
  405.500    0.194    0.398  116.142  179.075    2.798
  405.750    0.208    0.421  122.702  179.216    2.494
  406.000    0.220    0.497  125.994  179.664    2.253
  406.250    0.228    0.507  123.489  187.924    2.170
  406.500    0.249    0.494  127.397  205.850    2.437
  406.750    0.245    0.497  126.680  210.312    2.709
  407.000    0.259    0.505  123.678  216.105    3.019
  407.250    0.290    0.474  119.138  231.454    3.641
  407.500    0.243    0.442  115.149  176.906    4.221
  407.750    0.202    0.410  110.915  176.536    4.685
  408.000    0.208    0.404  103.352  179.758    4.941
  408.250    0.218    0.370   95.419  183.393    4.980
  408.500    0.248    0.345   85.263  178.598    4.944
  408.750    0.287    0.333   69.250  167.021    4.844
  409.000    0.258    0.381   73.837  164.695    4.702
  409.250    0.218    0.402   75.835  168.021    4.478
  409.500    0.204    0.388   72.770  169.392    4.429
  409.750    0.240    0.376   69.462  168.818    4.422
  410.000    0.263    0.371   71.583  168.658    4.440
  410.250    0.268    0.384   76.725  168.683    4.425
  410.500    0.259    0.394   83.653  168.726    4.402
  410.750    0.250    0.394   81.271  168.345    4.362
  411.000    0.245    0.398   76.914  167.673    4.314
  411.250    0.268    0.407   75.086  167.189    4.283
  411.500    0.284    0.410   76.034  166.916    4.228
  411.750    0.265    0.406   82.718  166.749    4.198
  412.000    0.242    0.386   90.943  166.787    4.167
  412.250    0.228    0.394   99.848  167.852    4.137
  412.500    0.227    0.411  104.125  171.493    4.162
  412.750    0.206    0.434  101.495  175.534    4.291
  413.000    0.205    0.452   94.672  178.961    4.578
  413.250    0.216    0.442   87.540  180.953    4.702
  413.500    0.243    0.413   82.012  174.823    4.713
  413.750    0.265    0.350   77.964  169.205    4.661
  414.000    0.284    0.341   74.161  166.470    4.601
  414.250    0.306    0.358   75.974  165.993    4.458
  414.500    0.295    0.373   78.771  166.028    4.392
  414.750    0.284    0.384   81.629  165.970    4.361
  415.000    0.266    0.395   88.683  165.691    4.395
  415.250    0.260    0.419   86.423  166.354    4.489
  415.500    0.267    0.413   86.138  166.696    4.516
  415.750    0.242    0.410   90.291  166.830    4.552
  416.000    0.234    0.412   95.559  167.385    4.562
  416.250    0.229    0.419   96.999  168.242    4.521
