~VERSION INFORMATION
 VERS.                 2.0:   CWLS LOG ASCII STANDARD -VERSION 2.0
 WRAP.                  NO:   ONE LINE PER DEPTH STEP
~WELL INFORMATION BLOCK
#MNEM.UNIT           DATA                    DESCRIPTION OF MNEMONIC
#---------    -------------------            -------------------------------
# Generated from Intellog Unique Number	CW_76_78/WELL/2576
WELL.         10-19-078-24W4                 : Well_name    - WELL
LOC .         00/10-19-078-24W4/0            : Location     - LOCATION
UWI .         00/10-19-078-24W4/0            : Uwi          - UNIQUE WELL ID
ENTR.         MAX                            : Entered      - ENTERED BY
SRVC.         SCHLUMBERGER                   : Scn          - SERVICE COMPANY
STRT.M        274.32                         : top_depth    - START DEPTH
STOP.M        518.07                         : bot_depth    - STOP DEPTH
STEP.M        0.25                           : increment    - STEP LENGTH
 NULL. -999.2500:NULL Value
~CURVE INFORMATION BLOCK
#MNEM UNIT       ERCB CURVE CODE    CURVE DESCRIPTION
#-----------   ------------------   ----------------------------------
DEPT.M        00 001 00 00         : DEPTH        - DEPTH
ILD .OHMM     00 120 00 00         : RESD         - DEEP RESISTIVITY (DIL)
NPHI.V/V      00 330 00 00         : PHIN         - NEUTRON POROSITY (SANDSTONE)
DPHI.V/V      00 890 00 00         : PHID         - DENSITY POROSITY (SANDSTONE)
CALI.MM       00 280 01 00         : CAL          - CALIPER
GR  .API      00 310 00 00         : GR           - GAMMA RAY
~PARAMETER INFORMATION
#MNEM.UNIT           DATA             DESCRIPTION OF MNEMONIC
#---------         -----------     ------------------------------
GL  .M        592.531              : gl           - GROUND LEVEL ELEVATION
EREF.M        596.494              : kb           - ELEVATION OF DEPTH REFERENCE
DATM.M        592.531              : datum        - DATUM ELEVATION
TDD .M        537.667              : tdd          - TOTAL DEPTH DRILLER
RUN .         ONE                  : Run          - RUN NUMBER
ENG .         BILL                 : Engineer     - RECORDING ENGINEER
WIT .         JIM                  : Witness      - WITNESSED BY
MUD .         GEL                  : Mud_type     - MUD TYPE
MATR.         SANDSTONE            : Logunit      - NEUTRON MATRIX
TMAX.C        25.5556              : BHT          - MAXIMUM RECORDED TEMPERATURE
BHTD.M        537.667              : BHTDEP       - MAXIMUM RECORDED TEMPERATURE
RMT .C        14.4444              : MDTP         - TEMPERATURE OF MUD
MUDD.KG/M     9800                 : MWT          - MUD DENSITY
NEUT.         1                    : NEUTRON      - NEUTRON TYPE
RESI.         0                    : RESIST       - RESISTIVITY TYPE
RM  .OHMM     6.42                 : RM           - RESISTIVITY OF MUD
RMC .OHMM     6.05                 : RMC          - RESISTIVITY OF MUD CAKE
RMF .OHMM     7.72                 : RMF          - RESISTIVITY OF MUD FILTRATE
SUFT.C        -6.66667             : SUFT         - SURFACE TEMPERATURE
~A  DEPTH     RESD     PHIN     PHID      CAL       GR
# ...
  456.820   21.003    0.369    0.156  211.871   72.862
  457.070   19.033    0.367    0.148  211.876   73.156
  457.320   17.878    0.368    0.146  211.881   76.950
  457.570   17.251    0.385    0.148  211.886   81.617
  457.820   17.251    0.387    0.153  211.892   84.244
  458.070   16.808    0.386    0.150  211.895   83.081
  458.320   16.368    0.364    0.135  211.901   79.003
  458.570   16.980    0.349    0.126  211.906   79.880
  458.820   18.424    0.352    0.128  211.912   79.008
  459.070   22.480    0.351    0.182  211.424   69.390
  459.320   28.179    0.322    0.220  208.960   59.772
  459.570   48.877    0.257    0.275  206.497   45.197
  459.820   87.881    0.231    0.313  205.514   37.328
  460.070  169.830    0.217    0.339  205.520   31.792
  460.320  199.875    0.195    0.349  205.520   27.130
  460.570  218.849    0.216    0.349  206.024   23.343
  460.820  235.370    0.273    0.338  207.510   21.597
  461.070  244.139    0.300    0.325  208.010   21.308
  461.320  246.460    0.331    0.309  208.015   21.603
  461.570  246.617    0.385    0.298  207.526   22.189
  461.820  246.726    0.388    0.307  207.531   22.192
  462.070  249.103    0.379    0.305  207.535   21.903
  462.320  251.487    0.385    0.307  207.047   21.615
  462.570  253.910    0.392    0.310  207.053   21.910
  462.820  256.356    0.396    0.310  206.565   21.913
  463.070  256.356    0.395    0.310  206.570   21.916
  463.320  256.698    0.382    0.315  206.575   21.919
  463.570  256.730    0.359    0.311  206.085   21.922
  463.820  256.877    0.361    0.317  206.092   21.926
  464.070  256.877    0.365    0.321  205.603   21.928
  464.320  257.138    0.358    0.315  205.114   22.223
  464.570  259.632    0.352    0.307  204.626   21.935
  464.820  259.747    0.351    0.300  204.631   21.938
  465.070  259.895    0.350    0.300  204.636   21.938
  465.320  257.693    0.350    0.295  204.642   21.944
  465.570  253.231    0.351    0.289  204.646   21.947
  465.820  248.815    0.355    0.294  205.145   21.660
  466.070  233.742    0.370    0.306  205.151   21.661
  466.320  217.583    0.378    0.310  205.156   21.956
  466.570  180.124    0.380    0.313  205.160   22.542
  466.820  170.724    0.383    0.319  205.165   23.420
  467.070  156.090    0.383    0.321  205.172   23.714
  467.320  140.161    0.378    0.320  205.177   24.301
  467.570  126.989    0.374    0.312  205.182   25.470
  467.820  116.097    0.375    0.290  204.693   28.098
  468.070  104.242    0.377    0.287  204.698   30.141
  468.320   93.598    0.372    0.284  204.703   32.185
  468.570   78.191    0.370    0.282  204.709   34.229
  468.820   68.337    0.365    0.275  205.208   36.564
  469.070   58.127    0.357    0.265  205.212   39.191
  469.320   51.724    0.360    0.263  205.712   43.568
  469.570   41.304    0.377    0.261  206.211   47.652
  469.820   31.816    0.402    0.262  208.191   51.737
  470.070   26.103    0.433    0.264  209.678   54.948
  470.320   20.290    0.445    0.257  210.671   54.660
  470.570   18.055    0.439    0.247  210.181   53.205
  470.820   16.808    0.396    0.213  206.730   53.791
  471.070   16.808    0.344    0.184  206.242   54.085
  471.320   16.233    0.325    0.159  210.197   54.088
  471.570   15.947    0.322    0.149  212.670   53.217
  471.820   15.956    0.320    0.152  214.156   52.054
  472.070   15.956    0.334    0.159  214.656   51.474
  472.320   16.560    0.351    0.211  214.168   51.185
  472.570   18.295    0.375    0.223  213.185   50.022
  472.820   21.923    0.385    0.227  212.696   47.109
  473.070   29.009    0.393    0.261  212.701   41.864
  473.320   36.695    0.404    0.277  209.746   36.911
  473.570   41.654    0.391    0.282  206.787   33.998
  473.820   42.824    0.366    0.281  206.298   33.419
  474.070   42.077    0.361    0.284  204.823   34.296
  474.320   40.977    0.357    0.282  204.335   37.215
  474.570   39.545    0.370    0.281  203.353   40.716
  474.820   39.545    0.383    0.285  202.864   43.053
  475.070   38.188    0.383    0.277  203.363   44.513
  475.320   34.288    0.383    0.276  204.849   47.432
  475.570   27.878    0.387    0.268  205.349   49.475
  475.820   26.906    0.389    0.261  204.366   54.435
  476.070   25.273    0.389    0.263  203.877   56.187
  476.320   23.527    0.393    0.257  204.376   59.689
  476.570   21.900    0.387    0.240  204.875   63.774
  476.820   20.386    0.380    0.229  203.399   66.984
  477.070   18.977    0.359    0.195  204.886   70.777
  477.320   17.349    0.332    0.159  207.853   76.612
  477.570   15.163    0.327    0.152  210.327   80.988
  477.820   11.892    0.329    0.149  210.332   84.489
  478.070   11.170    0.335    0.152  209.844   88.283
  478.320   10.213    0.350    0.154  208.861   91.493
  478.570    9.681    0.365    0.154  208.867   99.076
  478.820    9.341    0.381    0.155  209.365  103.745
  479.070    8.934    0.386    0.159  209.865  101.707
  479.320    8.779    0.392    0.171  209.869   98.211
  479.570    8.784    0.397    0.191  210.369   94.424
  479.820    9.278    0.417    0.191  211.855   92.095
  480.070   10.437    0.421    0.187  212.847   76.937
  480.320   13.083    0.417    0.206  212.852   65.861
  480.570   16.850    0.387    0.208  211.871   53.910
  480.820   23.327    0.351    0.210  212.863   52.456
  481.070   24.635    0.345    0.213  213.855   54.208
  481.320   26.493    0.350    0.216  214.355   57.418
  481.570   26.506    0.353    0.215  213.865   61.795
  481.820   25.351    0.334    0.180  212.883   62.672
  482.070   21.759    0.327    0.152  212.888   65.008
  482.320   18.677    0.351    0.135  213.388   68.509
  482.570   14.002    0.366    0.120  213.392   75.218
  482.820   13.272    0.415    0.144  213.398   75.221
  483.070   13.160    0.440    0.207  212.417   68.519
  483.320   13.160    0.361    0.217  209.458   66.481
  483.570   13.785    0.361    0.242  207.983   64.151
  483.820   14.555    0.375    0.268  209.469   62.697
  484.070   15.100    0.394    0.306  210.955   61.534
  484.320   14.441    0.450    0.318  212.937   59.787
  484.570   13.563    0.525    0.338  213.435   58.042
  484.820   11.029    0.585    0.475  213.933   60.960
  485.070    9.214    0.642    0.485  213.938   74.083
  485.320    8.812    0.640    0.448  217.400   80.209
  485.570    8.580    0.669    0.383  222.342   81.670
  485.820    8.512    0.649    0.342  218.892   82.256
  486.070    8.212    0.626    0.347  213.466   83.425
  486.320    7.925    0.652    0.384  211.989   85.177
  486.570    7.579    0.680    0.386  212.488   85.763
  486.820    7.249    0.684    0.373  211.507   86.933
  487.070    7.249    0.656    0.357  211.018   88.394
  487.320    7.001    0.629    0.329  212.503   88.396
  487.570    6.694    0.595    0.307  214.978   88.108
  487.820    6.288    0.574    0.307  215.971   88.986
  488.070    5.960    0.598    0.319  218.444   88.697
  488.320    5.701    0.648    0.329  216.475   87.243
  488.570    5.755    0.680    0.342  213.517   87.245
  488.820    5.969    0.696    0.309  218.953   91.330
  489.070    6.083    0.664    0.263  219.946   89.293
  489.320    6.481    0.566    0.181  216.989   85.797
  489.570    7.225    0.436    0.157  215.019   81.427
  489.820    8.659    0.400    0.152  214.530   75.016
  490.070    8.821    0.411    0.183  214.536   75.894
  490.320    8.667    0.452    0.228  214.541   77.937
  490.570    7.782    0.503    0.249  214.053   85.521
  490.820    7.245    0.573    0.235  215.539   88.148
  491.070    7.055    0.610    0.234  218.014   93.107
  491.320    7.187    0.579    0.254  220.486   92.236
  491.570    7.942    0.534    0.261  219.010   88.157
  491.820    9.777    0.478    0.248  214.078   84.953
  492.070   12.146    0.450    0.215  212.108   84.081
  492.320   12.828    0.417    0.201  213.103   81.169
  492.570   12.834    0.404    0.199  212.120   75.924
  492.820   11.839    0.382    0.251  212.124   79.134
  493.070   10.924    0.382    0.247  211.637   87.010
