~VERSION INFORMATION
 VERS.                 2.0:   CWLS LOG ASCII STANDARD -VERSION 2.0
 WRAP.                  NO:   ONE LINE PER DEPTH STEP
~WELL INFORMATION BLOCK
#MNEM.UNIT           DATA                    DESCRIPTION OF MNEMONIC
#---------    -------------------            -------------------------------
# Generated from Intellog Unique Number	CW_82_90/WELL/3446
WELL.         NUMAC LIEGE 11-4               : Well_name    - WELL
LOC .         00/11-04-088-21W4/0            : Location     - LOCATION
UWI .         00/11-04-088-21W4/0            : Uwi          - UNIQUE WELL ID
ENTR.         MAX                            : Entered      - ENTERED BY
SRVC.         WESTERN ATLAS                  : Scn          - SERVICE COMPANY
STRT.M        110                            : top_depth    - START DEPTH
STOP.M        321                            : bot_depth    - STOP DEPTH
STEP.M        0.25                           : increment    - STEP LENGTH
 NULL. -999.2500:NULL Value
~CURVE INFORMATION BLOCK
#MNEM UNIT       ERCB CURVE CODE    CURVE DESCRIPTION
#-----------   ------------------   ----------------------------------
DEPT.M        00 001 00 00         : DEPTH        - DEPTH
ILD .OHMM     00 120 00 00         : RESD         - DEEP RESISTIVITY (DIL)
NPHI.V/V      00 330 00 00         : PHIN         - NEUTRON POROSITY (SANDSTONE)
DPHI.V/V      00 890 00 00         : PHID         - DENSITY POROSITY (SANDSTONE)
CALI.MM       00 280 01 00         : CAL          - CALIPER
GR  .API      00 310 00 00         : GR           - GAMMA RAY
~PARAMETER INFORMATION
#MNEM.UNIT           DATA             DESCRIPTION OF MNEMONIC
#---------         -----------     ------------------------------
GL  .M        532.2                : gl           - GROUND LEVEL ELEVATION
EREF.M        535.2                : kb           - ELEVATION OF DEPTH REFERENCE
DATM.M        532.2                : datum        - DATUM ELEVATION
TDD .M        322.5                : tdd          - TOTAL DEPTH DRILLER
RUN .         ONE                  : Run          - RUN NUMBER
ENG .         BILL                 : Engineer     - RECORDING ENGINEER
WIT .         JIM                  : Witness      - WITNESSED BY
MUD .         GEL                  : Mud_type     - MUD TYPE
MATR.         SANDSTONE            : Logunit      - NEUTRON MATRIX
TMAX.C        18.8                 : BHT          - MAXIMUM RECORDED TEMPERATURE
BHTD.M        322.5                : BHTDEP       - MAXIMUM RECORDED TEMPERATURE
MATR.         1                    : LOGUNIT      - NEUTRON MATRIX
RMT .C        16                   : MDTP         - TEMPERATURE OF MUD
NEUT.         1                    : NEUTRON      - NEUTRON TYPE
RESI.         0                    : RESIST       - RESISTIVITY TYPE
RMC .OHMM     5                    : RMC          - RESISTIVITY OF MUD CAKE
RMF .OHMM     3                    : RMF          - RESISTIVITY OF MUD FILTRATE
SUFT.C        -5                   : SUFT         - SURFACE TEMPERATURE
~A  DEPTH     RESD     PHIN     PHID      CAL       GR
# ...
  256.000   18.931    0.333    0.131  218.870   85.371
  256.250   15.567    0.308    0.104  219.872   80.862
  256.500   13.285    0.307    0.140  220.375   90.782
  256.750   11.337    0.347    0.196  220.877   99.198
  257.000   10.231    0.389    0.217  221.380  101.303
  257.250    9.232    0.447    0.214  222.382  102.204
  257.500    8.487    0.432    0.213  222.385  102.204
  257.750    8.174    0.405    0.211  222.388  100.701
  258.000    8.170    0.380    0.202  222.390  100.701
  258.250    8.880    0.386    0.192  219.895   97.996
  258.500   10.205    0.375    0.188  218.399   90.180
  258.750   12.751    0.333    0.164  219.401   74.850
  259.000   13.988    0.299    0.139  218.904   72.746
  259.250   16.377    0.319    0.161  216.909   73.347
  259.500   19.173    0.353    0.220  216.911   77.856
  259.750   19.525    0.352    0.224  218.413   79.659
  260.000   18.804    0.331    0.203  218.916   77.856
  260.250   17.942    0.328    0.162  217.419   73.046
  260.500   16.805    0.319    0.084  217.422   76.954
  260.750   16.184    0.327    0.170  218.924   82.966
  261.000   15.586    0.339    0.216  220.426   90.481
  261.250   15.434    0.339    0.223  219.929   92.285
  261.500   15.429    0.359    0.213  219.433   85.972
  261.750   15.566    0.374    0.167  219.436   82.665
  262.000   15.705    0.361    0.153  219.438   87.475
  262.250   15.409    0.347    0.170  219.941   78.156
  262.500   14.978    0.354    0.053  220.443   84.469
  262.750   14.426    0.344    0.154  220.446   90.180
  263.000   13.764    0.344    0.194  220.949   90.180
  263.250   14.016    0.382    0.202  220.952   89.880
  263.500   13.880    0.373    0.205  220.954   93.186
  263.750   13.620    0.366    0.067  220.958   94.088
  264.000   13.239    0.381    0.119  221.460   89.579
  264.250   12.990    0.382    0.187  222.462   94.689
  264.500   12.864    0.379    0.225  222.465  100.701
  264.750   12.389    0.394    0.221  222.967  106.713
  265.000   11.821    0.408    0.218  222.471   94.088
  265.250   11.175    0.379    0.213  221.974   96.192
  265.500   10.370    0.350    0.198  222.477   96.794
  265.750    9.803    0.347    0.186  222.480  104.609
  266.000    9.799    0.355    0.195  221.484  108.216
  266.250   11.054    0.365    0.180  221.486  104.309
  266.500   12.941    0.318    0.149  220.492   95.892
  266.750   15.010    0.290    0.080  221.991   65.832
  267.000   18.071    0.268   -0.056  221.995   66.433
  267.250   22.580    0.251   -0.041  221.997   76.653
  267.500   19.448    0.259    0.097  221.999   87.475
  267.750   17.067    0.322    0.195  221.503   97.996
  268.000   15.985    0.335    0.176  221.505  102.204
  268.250   15.539    0.326    0.165  221.009  100.401
  268.500   15.247    0.336    0.173  221.012   98.297
  268.750   15.383    0.363    0.191  220.515   98.898
  269.000   16.562    0.338    0.202  221.018   94.088
  269.250   17.836    0.322    0.206  221.021   91.683
  269.500   19.933    0.316    0.175  220.524   90.481
  269.750   21.866    0.286    0.117  220.527   84.769
  270.000   22.475    0.259   -0.021  220.529   85.671
  270.250   21.846    0.245    0.048  220.033   90.180
  270.500   19.714    0.291    0.174  220.035   94.389
  270.750   16.982    0.334    0.184  219.539   95.591
  271.000   16.355    0.334    0.189  220.041   97.094
  271.250   15.897    0.319    0.186  220.044   96.794
  271.500   15.599    0.329    0.180  219.048   94.990
  271.750   16.183    0.364    0.167  219.050   94.389
  272.000   16.479    0.325    0.145  218.553   86.573
  272.250   16.627    0.311    0.011  220.055   80.862
  272.500   16.313    0.313    0.018  220.058   83.868
  272.750   15.420    0.321    0.115  219.062   88.076
  273.000   13.161    0.348    0.164  219.065   89.279
  273.250   11.657    0.354    0.173  219.567   91.383
  273.500   10.918    0.390    0.183  220.570   85.671
  273.750   10.131    0.406    0.193  220.572   87.475
  274.000    9.578    0.396    0.198  221.075   94.689
  274.250    9.054    0.405    0.198  220.578   97.996
  274.500    8.966    0.395    0.204  220.581   94.389
  274.750    8.797    0.391    0.203  221.583   94.689
  275.000    9.127    0.382    0.182  221.586   97.395
  275.250    9.919    0.350    0.169  221.589  100.401
  275.500   10.780    0.359    0.188  221.093  104.309
  275.750   11.936    0.378    0.192  221.095  101.603
  276.000   13.216    0.365    0.167  220.598   92.285
  276.250   14.363    0.353    0.020  220.102   78.757
  276.500   15.041    0.335    0.096  220.104   80.862
  276.750   15.034    0.314    0.151  220.107   77.856
  277.000   14.614    0.310    0.142  219.610   73.046
  277.250   14.339    0.345    0.182  219.114   76.653
  277.500   15.585    0.344    0.201  218.617   69.138
  277.750   18.078    0.323    0.222  217.620   60.120
  278.000   20.775    0.339    0.305  217.623   57.715
  278.250   23.001    0.354    0.320  217.626   52.004
  278.500   25.468    0.363    0.320  217.629   46.894
  278.750   27.170    0.364    0.319  217.632   48.697
  279.000   28.986    0.393    0.318  217.635   52.305
  279.250   31.211    0.397    0.316  216.638   51.403
  279.500   32.988    0.396    0.313  216.141   49.900
  279.750   35.517    0.394    0.307  216.144   49.599
  280.000   36.849    0.382    0.294  216.647   51.102
  280.250   37.876    0.373    0.276  217.649   53.507
  280.500   36.477    0.368    0.244  218.152   53.206
  280.750   31.129    0.380    0.273  218.154   53.206
  281.000   28.355    0.386    0.287  218.158   58.016
  281.250   24.199    0.372    0.276  218.160   59.820
  281.500   20.271    0.364    0.276  218.163   52.906
  281.750   16.980    0.379    0.137  218.166   56.814
  282.000   14.627    0.377    0.177  217.669   67.936
  282.250   12.482    0.348    0.189  217.173   76.353
  282.500   11.476    0.392    0.194  217.175   82.365
  282.750   10.649    0.401    0.208  217.678   77.856
  283.000    9.790    0.376    0.224  218.680   52.906
  283.250    8.833    0.356    0.235  218.683   57.415
  283.500    8.045    0.341    0.227  218.685   67.635
  283.750    7.536    0.324    0.212  219.688   76.052
  284.000    6.992    0.353    0.202  220.190   77.856
  284.250    6.861    0.410    0.199  220.193   80.260
  284.500    7.118    0.394    0.198  220.196   85.070
  284.750    8.256    0.409    0.206  220.199   87.174
  285.000    9.577    0.430    0.210  220.202   94.689
  285.250   11.212    0.397    0.212  219.706  105.812
  285.500   12.530    0.373    0.213  219.708  119.038
  285.750   14.267    0.353    0.208  219.211  119.639
  286.000   16.395    0.331    0.201  218.714  110.020
  286.250   19.195    0.318    0.193  218.717  102.806
  286.500   23.762    0.313    0.188  218.720   93.487
  286.750   27.054    0.308    0.178  218.223   89.579
  287.000   29.954    0.312    0.144  217.727   84.769
  287.250   29.940    0.323    0.143  217.230   81.763
  287.500   28.305    0.331    0.207  216.733   76.653
  287.750   27.009    0.343    0.220  215.737   69.138
  288.000   25.531    0.339    0.229  214.740   70.641
  288.250   25.283    0.324    0.174  213.243   74.549
  288.500   25.748    0.343    0.153  211.748   80.260
  288.750   28.508    0.344    0.186  210.751   82.966
  289.000   29.577    0.329    0.213  210.255   75.751
  289.250   30.120    0.327    0.240  211.256   62.826
  289.500   29.552    0.326    0.250  213.258   71.243
  289.750   27.937    0.324    0.253  215.260   80.862
  290.000   26.163    0.323    0.236  216.762   92.585
  290.250   24.735    0.317    0.212  218.264   97.395
  290.500   20.528    0.299    0.199  219.266  102.505
  290.750   17.357    0.293    0.182  219.269  119.038
  291.000   15.231    0.326    0.157  219.772  127.455
  291.250   14.399    0.384    0.125  219.774  122.946
  291.500   13.867    0.375    0.100  219.777  125.050
  291.750   13.232    0.361    0.098  219.779  131.964
  292.000   12.863    0.341    0.114  219.783  136.774
  292.250   12.503    0.349    0.124  219.286  140.982
