~VERSION INFORMATION
 VERS.                 2.0:   CWLS LOG ASCII STANDARD -VERSION 2.0
 WRAP.                  NO:   ONE LINE PER DEPTH STEP
~WELL INFORMATION BLOCK
#MNEM.UNIT           DATA                    DESCRIPTION OF MNEMONIC
#---------    -------------------            -------------------------------
# Generated from Intellog Unique Number	CW_76_78/WELL/913
WELL.         PCP MARTEN HILLS 10-28-076     : Well_name    - WELL
LOC .         00/10-28-076-04W5/0            : Location     - LOCATION
UWI .         00/10-28-076-04W5/0            : Uwi          - UNIQUE WELL ID
ENTR.         JAYE                           : Entered      - ENTERED BY
SRVC.         SCHLUMBERGER                   : Scn          - SERVICE COMPANY
DATE.         18 FEB 74                      : Date         - LOG DATE
STRT.M        463.296                        : top_depth    - START DEPTH
STOP.M        704.046                        : bot_depth    - STOP DEPTH
STEP.M        0.25                           : increment    - STEP LENGTH
 NULL. -999.2500:NULL Value
~CURVE INFORMATION BLOCK
#MNEM UNIT       ERCB CURVE CODE    CURVE DESCRIPTION
#-----------   ------------------   ----------------------------------
DEPT.M        00 001 00 00         : DEPTH        - DEPTH
ILD .OHMM     00 120 00 00         : RESD         - DEEP RESISTIVITY (DIL)
NPHI.V/V      00 330 00 00         : PHIN         - NEUTRON POROSITY (SANDSTONE)
DPHI.V/V      00 890 00 00         : PHID         - DENSITY POROSITY (SANDSTONE)
GR  .API      00 310 00 00         : GR           - GAMMA RAY
CALI.MM       00 280 01 00         : CAL          - CALIPER
~PARAMETER INFORMATION
#MNEM.UNIT           DATA             DESCRIPTION OF MNEMONIC
#---------         -----------     ------------------------------
GL  .M        771.754              : gl           - GROUND LEVEL ELEVATION
EREF.M        775.716              : kb           - ELEVATION OF DEPTH REFERENCE
DATM.M        771.754              : datum        - DATUM ELEVATION
TDD .M        717.804              : tdd          - TOTAL DEPTH DRILLER
RUN .         ONE                  : Run          - RUN NUMBER
MATR.         SANDSTONE            : Logunit      - NEUTRON MATRIX
TMAX.C        31.6667              : BHT          - MAXIMUM RECORDED TEMPERATURE
BHTD.M        717.499              : BHTDEP       - MAXIMUM RECORDED TEMPERATURE
RMT .C        20                   : MDTP         - TEMPERATURE OF MUD
MUDD.KG/M     0                    : MWT          - MUD DENSITY
NEUT.         1                    : NEUTRON      - NEUTRON TYPE
RESI.         0                    : RESIST       - RESISTIVITY TYPE
RM  .OHMM     2.52                 : RM           - RESISTIVITY OF MUD
RMC .OHMM     0                    : RMC          - RESISTIVITY OF MUD CAKE
RMF .OHMM     2.67                 : RMF          - RESISTIVITY OF MUD FILTRATE
SUFT.C        -17.7778             : SUFT         - SURFACE TEMPERATURE
~A  DEPTH     RESD     PHIN     PHID       GR      CAL
# ...
  609.296    4.144    0.453    0.222   51.218  208.294
  609.546    4.358    0.450    0.228   51.627  208.413
  609.796    4.490    0.455    0.256   51.388  208.122
  610.046    4.321    0.461    0.278   50.824  207.520
  610.296    4.097    0.450    0.278   52.004  206.607
  610.546    3.922    0.442    0.279   55.372  203.112
  610.796    3.865    0.488    0.257   57.686  200.960
  611.046    3.838    0.500    0.224   59.149  205.317
  611.296    3.840    0.476    0.230   60.167  210.916
  611.546    3.870    0.433    0.238   60.819  213.413
  611.796    3.936    0.416    0.235   61.472  212.502
  612.046    4.064    0.495    0.218   62.084  213.246
  612.296    4.149    0.513    0.231   62.736  214.088
  612.546    4.220    0.517    0.231   62.983  214.830
  612.796    4.190    0.504    0.218   63.109  216.189
  613.046    4.078    0.485    0.206   62.991  217.346
  613.296    4.004    0.488    0.192   62.265  218.291
  613.546    3.984    0.474    0.200   60.161  219.138
  613.796    4.037    0.471    0.213   58.584  219.050
  614.046    4.230    0.480    0.226   56.845  215.968
  614.296    4.581    0.507    0.242   54.741  211.028
  614.546    5.064    0.483    0.252   52.799  208.151
  614.796    5.535    0.456    0.207   50.371  207.135
  615.046    6.360    0.413    0.182   47.092  206.947
  615.296    7.322    0.335    0.152   45.596  208.205
  615.546    7.858    0.284    0.043   44.992  209.771
  615.796    8.066    0.330    0.106   49.455  209.893
  616.046    7.922    0.369    0.140   52.417  207.741
  616.296    7.213    0.383    0.168   53.029  204.969
  616.546    6.542    0.397    0.227   53.520  204.161
  616.796    5.859    0.406    0.223   54.861  205.316
  617.046    5.514    0.404    0.202   57.419  207.917
  617.296    5.229    0.403    0.182   59.774  210.826
  617.546    4.976    0.410    0.174   61.318  213.428
  617.796    4.789    0.421    0.164   62.092  215.925
  618.046    4.634    0.421    0.171   62.339  217.497
  618.296    4.493    0.428    0.166   63.397  218.339
  618.546    4.380    0.466    0.172   64.941  218.873
  618.796    4.317    0.492    0.186   63.608  220.445
  619.046    4.272    0.465    0.169   62.193  221.184
  619.296    4.242    0.445    0.156   58.832  221.926
  619.546    4.236    0.433    0.160   59.364  222.251
  619.796    4.269    0.439    0.176   60.948  222.580
  620.046    4.326    0.476    0.193   63.019  222.700
  620.296    4.416    0.493    0.192   65.617  223.132
  620.546    4.509    0.478    0.190   67.850  223.668
  620.796    4.569    0.467    0.194   68.665  222.961
  621.046    4.699    0.464    0.179   65.953  221.120
  621.296    4.780    0.455    0.191   63.404  219.171
  621.546    4.677    0.426    0.184   62.029  215.573
  621.796    4.435    0.459    0.202   61.141  214.557
  622.046    4.121    0.473    0.218   60.294  217.261
  622.296    3.808    0.483    0.230   59.244  216.969
  622.546    3.651    0.492    0.230   60.059  214.611
  622.796    3.533    0.476    0.213   60.143  213.287
  623.046    3.541    0.474    0.219   58.608  212.580
  623.296    3.709    0.482    0.221   58.246  212.186
  623.546    3.996    0.473    0.236   59.547  212.101
  623.796    4.288    0.456    0.262   58.983  211.912
  624.046    4.610    0.439    0.268   55.745  210.794
  624.296    4.776    0.432    0.261   53.276  209.777
  624.546    4.665    0.436    0.239   54.212  209.174
  624.796    4.326    0.432    0.221   55.311  209.295
  625.046    4.027    0.424    0.186   56.774  211.896
  625.296    3.955    0.458    0.189   58.804  218.113
  625.546    4.151    0.483    0.205   57.106  221.231
  625.796    4.513    0.495    0.215   53.300  220.939
  626.046    5.331    0.491    0.236   48.520  216.514
  626.296    6.793    0.436    0.259   45.565  210.744
  626.546    8.235    0.366    0.069   42.610  211.798
  626.796   10.690    0.151    0.002   39.817  213.364
  627.046   12.886    0.138   -0.009   37.753  214.828
  627.296   17.877    0.155    0.000   38.608  214.744
  627.546   20.617    0.183    0.027   41.774  214.348
  627.796   18.806    0.226    0.063   43.075  213.852
  628.046   15.383    0.313    0.133   43.728  213.352
  628.296   13.226    0.352    0.172   44.299  212.850
  628.546   11.226    0.356    0.186   45.114  211.836
  628.796    9.669    0.353    0.175   46.009  211.130
  629.046    8.283    0.376    0.200   46.906  210.529
  629.296    6.927    0.419    0.239   47.558  209.928
  629.546    5.945    0.450    0.287   48.129  209.534
  629.796    5.216    0.471    0.296   49.470  209.342
  630.046    5.011    0.465    0.284   49.920  209.050
  630.296    5.221    0.471    0.289   46.884  208.964
  630.546    5.510    0.454    0.283   47.293  208.156
  630.796    6.012    0.440    0.274   48.270  207.552
  631.046    6.985    0.421    0.284   48.760  207.570
  631.296    7.678    0.395    0.244   47.873  209.036
  631.546    7.867    0.351    0.221   47.957  210.190
  631.796    7.670    0.384    0.181   48.691  210.625
  632.046    6.957    0.436    0.200   49.546  210.638
  632.296    6.173    0.449    0.246   51.374  210.657
  632.546    5.517    0.438    0.272   49.514  210.884
  632.796    5.079    0.435    0.274   48.098  211.005
  633.046    4.807    0.417    0.278   48.589  210.813
  633.296    4.575    0.465    0.280   49.120  210.727
  633.546    4.452    0.463    0.258   49.245  210.646
  633.796    4.365    0.455    0.261   49.654  210.763
  634.046    4.326    0.442    0.269   50.672  210.988
  634.296    4.319    0.434    0.283   50.837  211.418
  634.546    4.321    0.457    0.279   50.517  211.957
  634.796    4.379    0.456    0.271   50.400  212.385
  635.046    4.462    0.447    0.275   50.647  212.610
  635.296    4.684    0.434    0.270   51.583  212.630
  635.546    4.916    0.417    0.271   52.884  212.647
  635.796    5.123    0.419    0.257   52.928  212.665
  636.046    5.172    0.478    0.231   52.649  212.683
  636.296    5.126    0.497    0.276   51.720  212.803
  636.546    4.961    0.492    0.291   49.535  213.026
  636.796    4.809    0.463    0.283   50.594  213.147
  637.046    4.688    0.470    0.284   51.205  213.167
  637.296    4.570    0.484    0.263   51.736  212.980
  637.546    4.480    0.486    0.265   52.835  212.789
  637.796    4.400    0.470    0.250   54.013  212.394
  638.046    4.345    0.443    0.250   55.396  211.893
  638.296    4.339    0.451    0.241   55.845  211.705
  638.546    4.349    0.461    0.249   56.214  211.721
  638.796    4.423    0.448    0.227   56.826  211.948
  639.046    4.566    0.431    0.234   57.763  212.277
  639.296    4.731    0.426    0.226   59.752  212.603
  639.546    4.893    0.432    0.216   62.431  213.860
  639.796    5.042    0.436    0.201   62.071  215.634
  640.046    5.100    0.430    0.213   61.426  216.788
  640.296    5.065    0.412    0.215   61.309  217.840
  640.546    4.983    0.406    0.211   61.150  218.272
  640.796    4.876    0.424    0.175   60.627  219.012
  641.046    4.771    0.444    0.189   58.847  219.341
  641.296    4.703    0.460    0.201   58.851  218.530
  641.546    4.704    0.449    0.207   59.626  214.622
  641.796    4.750    0.410    0.203   60.035  211.746
  642.046    4.849    0.416    0.197   59.755  210.833
  642.296    5.015    0.428    0.199   59.556  210.957
  642.546    5.111    0.436    0.204   59.925  211.386
  642.796    5.160    0.424    0.205   60.820  209.856
  643.046    5.172    0.394    0.176   61.594  209.975
  643.296    5.145    0.394    0.169   62.044  212.473
  643.546    5.053    0.406    0.185   63.304  215.281
  643.796    4.917    0.423    0.195   64.727  218.813
  644.046    4.856    0.412    0.179   65.623  221.105
  644.296    4.822    0.406    0.173   65.546  222.155
  644.546    4.806    0.421    0.169   65.549  222.587
  644.796    4.835    0.435    0.175   66.202  222.812
  645.046    4.872    0.449    0.181   66.611  223.553
  645.296    4.929    0.450    0.186   65.561  224.086
  645.546    5.041    0.431    0.201   64.917  223.690
