~VERSION INFORMATION
 VERS.                 2.0:   CWLS LOG ASCII STANDARD -VERSION 2.0
 WRAP.                  NO:   ONE LINE PER DEPTH STEP
~WELL INFORMATION BLOCK
#MNEM.UNIT           DATA                    DESCRIPTION OF MNEMONIC
#---------    -------------------            -------------------------------
# Generated from Intellog Unique Number	CW_73_75/WELL/3525
WELL.         HCO ET AL FRANCIS              : Well_name    - WELL
LOC .         00/11-01-073-21W4/0            : Location     - LOCATION
UWI .         00/11-01-073-21W4/0            : Uwi          - UNIQUE WELL ID
ENTR.         TIM                            : Entered      - ENTERED BY
SRVC.         SCHLUMBERGER                   : Scn          - SERVICE COMPANY
STRT.M        320                            : top_depth    - START DEPTH
STOP.M        575                            : bot_depth    - STOP DEPTH
STEP.M        0.25                           : increment    - STEP LENGTH
 NULL. -999.2500:NULL Value
~CURVE INFORMATION BLOCK
#MNEM UNIT       ERCB CURVE CODE    CURVE DESCRIPTION
#-----------   ------------------   ----------------------------------
DEPT.M        00 001 00 00         : DEPTH        - DEPTH
GR  .API      00 310 00 00         : GR           - GAMMA RAY
CALI.MM       00 280 01 00         : CAL          - CALIPER
NPHI.V/V      00 330 00 00         : PHIN         - NEUTRON POROSITY (SANDSTONE)
DPHI.V/V      00 890 00 00         : PHID         - DENSITY POROSITY (SANDSTONE)
ILD .OHMM     00 120 00 00         : RESD         - DEEP RESISTIVITY (DIL)
~PARAMETER INFORMATION
#MNEM.UNIT           DATA             DESCRIPTION OF MNEMONIC
#---------         -----------     ------------------------------
GL  .M        658.2                : gl           - GROUND LEVEL ELEVATION
EREF.M        661.7                : kb           - ELEVATION OF DEPTH REFERENCE
DATM.M        661.7                : datum        - DATUM ELEVATION
TDD .M        587                  : tdd          - TOTAL DEPTH DRILLER
RUN .         ONE                  : Run          - RUN NUMBER
ENG .         BILL                 : Engineer     - RECORDING ENGINEER
WIT .         JIM                  : Witness      - WITNESSED BY
MUD .         GEL                  : Mud_type     - MUD TYPE
MATR.         SANDSTONE            : Logunit      - NEUTRON MATRIX
TMAX.C        26                   : BHT          - MAXIMUM RECORDED TEMPERATURE
BHTD.M        487                  : BHTDEP       - MAXIMUM RECORDED TEMPERATURE
MATR.         1                    : LOGUNIT      - NEUTRON MATRIX
RMT .C        18                   : MDTP         - TEMPERATURE OF MUD
NEUT.         1                    : NEUTRON      - NEUTRON TYPE
RESI.         0                    : RESIST       - RESISTIVITY TYPE
RMC .OHMM     3.39                 : RMC          - RESISTIVITY OF MUD CAKE
RMF .OHMM     3.39                 : RMF          - RESISTIVITY OF MUD FILTRATE
SUFT.C        5                    : SUFT         - SURFACE TEMPERATURE
~A  DEPTH       GR      CAL     PHIN     PHID     RESD
# ...
  356.500   90.670  173.794    0.543    0.248    1.879
  356.750   92.452  172.846    0.536    0.234    1.881
  357.000   91.876  171.880    0.543    0.222    1.849
  357.250   87.762  171.898    0.553    0.209    1.851
  357.500   85.412  170.938    0.537    0.191    1.785
  357.750   84.246  169.978    0.522    0.173    1.723
  358.000   90.162  170.002    0.528    0.194    1.631
  358.250   94.899  170.038    0.533    0.221    1.573
  358.500   96.097  170.050    0.528    0.249    1.761
  358.750   95.518  171.070    0.514    0.236    2.008
  359.000   93.765  172.072    0.488    0.222    2.164
  359.250   93.189  173.091    0.489    0.212    2.249
  359.500   94.381  173.103    0.494    0.212    2.380
  359.750   96.760  174.117    0.499    0.216    2.427
  360.000   98.545  174.147    0.504    0.222    2.474
  360.250   97.379  174.159    0.491    0.233    2.523
  360.500   95.032  174.183    0.477    0.236    2.574
  360.750   92.685  174.207    0.493    0.231    2.624
  361.000   92.700  174.237    0.494    0.228    2.677
  361.250   96.256  174.261    0.475    0.217    2.731
  361.500   98.044  174.285    0.479    0.208    2.735
  361.750   98.649  174.309    0.500    0.207    2.788
  362.000   99.250  174.333    0.522    0.211    2.791
  362.250   96.903  175.341    0.529    0.213    2.848
  362.500   94.560  176.348    0.516    0.208    2.850
  362.750   93.394  178.340    0.494    0.203    2.853
  363.000   94.589  178.364    0.483    0.196    2.909
  363.250   95.780  178.394    0.474    0.197    2.913
  363.500   97.566  178.406    0.480    0.199    2.915
  363.750   98.170  178.430    0.487    0.207    2.865
  364.000   96.421  178.460    0.503    0.212    2.869
  364.250   97.026  178.496    0.506    0.213    2.819
  364.500   97.623  178.508    0.502    0.213    2.822
  364.750   98.818  178.543    0.495    0.212    2.826
  365.000   99.423  178.555    0.489    0.212    2.829
  365.250  100.617  179.569    0.486    0.210    2.833
  365.500  101.229  179.593    0.479    0.209    2.836
  365.750  101.240  180.607    0.474    0.208    2.838
  366.000  101.254  180.619    0.465    0.204    2.842
  366.250  100.679  181.633    0.460    0.203    2.794
  366.500   98.335  181.657    0.456    0.204    2.795
  366.750   95.989  181.686    0.463    0.206    2.798
  367.000   93.048  181.698    0.470    0.210    2.751
  367.250   92.476  181.722    0.463    0.206    2.753
  367.500   96.619  180.763    0.471    0.205    2.861
  367.750  100.175  177.835    0.476    0.209    3.141
  368.000   98.418  171.957    0.475    0.211    4.154
  368.250   93.120  168.046    0.463    0.190    4.735
  368.500   87.822  164.135    0.438    0.160    5.298
  368.750   82.532  161.213    0.408    0.170    5.503
  369.000   86.671  160.247    0.400    0.225    5.936
  369.250   87.865  158.304    0.397    0.236    6.052
  369.500   80.797  157.344    0.383    0.261    6.170
  369.750   81.409  157.374    0.384    0.276    6.410
  370.000   82.596  159.366    0.401    0.275    6.301
  370.250   83.791  161.357    0.411    0.268    6.310
  370.500   82.625  163.348    0.409    0.267    6.203
  370.750   79.695  164.356    0.401    0.262    6.094
  371.000   80.296  165.376    0.392    0.256    5.990
  371.250   83.258  166.372    0.388    0.259    5.884
  371.500   88.585  167.385    0.389    0.260    5.678
  371.750   92.739  169.377    0.393    0.261    5.578
  372.000   95.114  170.385    0.401    0.252    5.285
  372.250   97.489  171.392    0.421    0.179    5.192
  372.500   99.865  172.400    0.433    0.197    5.101
  372.750   96.924  173.402    0.432    0.206    4.923
  373.000   92.810  175.393    0.424    0.222    4.927
  373.250   88.689  176.401    0.417    0.233    4.935
  373.500   83.982  177.409    0.404    0.238    4.938
  373.750   82.225  179.400    0.395    0.227    5.131
  374.000   79.288  181.398    0.399    0.218    5.231
  374.250   82.844  183.389    0.400    0.200    5.240
  374.500   90.532  183.407    0.401    0.196    5.151
  374.750   94.678  184.415    0.407    0.220    5.061
  375.000   94.693  184.439    0.413    0.244    4.972
  375.250   90.575  181.512    0.421    0.239    4.887
  375.500   87.638  176.629    0.433    0.234    4.984
  375.750   90.017  174.685    0.425    0.228    5.082
  376.000   93.573  172.742    0.407    0.219    5.479
  376.250   95.949  169.820    0.390    0.211    5.908
  376.500   98.320  168.848    0.375    0.209    6.136
  376.750   99.515  166.905    0.364    0.212    6.616
  377.000   98.947  164.967    0.370    0.215    7.135
  377.250   97.777  163.030    0.379    0.226    7.694
  377.500   96.020  162.058    0.391    0.236    8.143
  377.750   91.903  161.104    0.397    0.242    8.782
  378.000   77.748  159.161    0.386    0.253    9.118
  378.250   69.502  158.201    0.364    0.269   10.785
  378.500   67.152  158.219    0.365    0.280   13.489
  378.750   58.312  161.200    0.374    0.251   15.666
  379.000   37.078  164.175    0.395    0.237   16.885
  379.250   35.325  166.167    0.379    0.259   17.220
  379.500   37.110  170.132    0.343    0.280   17.244
  379.750   40.072  171.127    0.331    0.296   16.630
  380.000   49.530  173.119    0.424    0.308   15.464
  380.250   60.763  175.110    0.425    0.314   14.111
  380.500   61.371  177.102    0.407    0.302   13.117
  380.750   64.334  177.126    0.385    0.233   12.422
  381.000   70.251  177.150    0.377    0.225   11.980
  381.250   77.938  177.174    0.387    0.232   11.137
  381.500   82.088  177.204    0.391    0.241   10.352
  381.750   83.283  177.228    0.387    0.252    9.624
  382.000   84.478  177.258    0.383    0.255    9.113
  382.250   85.673  177.288    0.382    0.242    8.168
  382.500   86.864  177.300    0.387    0.223    7.733
  382.750   89.837  176.346    0.387    0.208    7.458
  383.000   91.025  176.376    0.388    0.198    6.682
  383.250   92.813  176.388    0.389    0.194    6.210
  383.500   94.598  176.412    0.392    0.200    5.773
  383.750   99.335  176.448    0.398    0.209    4.892
  384.000  105.842  176.466    0.465    0.217    4.222
  384.250  114.120  176.496    0.493    0.228    3.645
  384.500  115.905  176.514    0.530    0.234    3.326
  384.750  105.885  176.532    0.573    0.157    3.093
  385.000   99.410  176.555    0.543    0.068    3.096
  385.250  101.782  177.563    0.489    0.052    3.399
  385.500  108.880  177.587    0.536    0.194    3.804
  385.750  117.748  177.611    0.537    0.256    4.025
  386.000  117.172  177.635    0.483    0.261    4.341
  386.250  113.055  177.665    0.431    0.227    4.597
  386.500  110.711  177.689    0.396    0.217    4.686
  386.750  111.312  177.707    0.396    0.224    4.867
  387.000  112.507  176.759    0.405    0.261    5.058
  387.250  114.293  176.789    0.423    0.271    5.256
  387.500  114.307  175.817    0.439    0.277    5.358
  387.750  109.009  175.841    0.437    0.258    5.568
  388.000  103.711  174.882    0.438    0.218    5.894
  388.250   98.413  173.922    0.452    0.228    6.120
  388.500   93.705  172.968    0.451    0.305    6.849
  388.750   90.178  172.986    0.444    0.306    7.663
  389.000   84.884  173.010    0.424    0.250    8.423
  389.250   81.357  173.034    0.391    0.255    8.585
  389.500   80.187  173.058    0.379    0.268    8.917
  389.750   78.434  173.082    0.380    0.284    8.927
  390.000   77.272  173.118    0.400    0.297    8.936
  390.250   77.282  173.130    0.420    0.291    8.946
  390.500   76.116  173.160    0.444    0.285    8.956
  390.750   74.364  173.178    0.445    0.279    8.802
  391.000   72.020  173.202    0.435    0.273    8.496
  391.250   70.847  173.232    0.424    0.259    8.344
  391.500   71.452  173.249    0.428    0.249    8.052
  391.750   76.782  173.273    0.434    0.242    7.765
  392.000   78.564  173.303    0.451    0.243    7.356
  392.250   79.758  173.321    0.454    0.270    6.966
  392.500   80.957  173.357    0.447    0.280    6.845
  392.750   81.558  173.369    0.439    0.280    6.857
