~VERSION INFORMATION
 VERS.                 2.0:   CWLS LOG ASCII STANDARD -VERSION 2.0
 WRAP.                  NO:   ONE LINE PER DEPTH STEP
~WELL INFORMATION BLOCK
#MNEM.UNIT           DATA                    DESCRIPTION OF MNEMONIC
#---------    -------------------            -------------------------------
# Generated from Intellog Unique Number	CC_80_83/WELL/2408
NULL.         -999.25                        : NULL_VALUE
WELL.         CHEVRON BP GRAND RAPIDS        : Well_name    - WELL
LOC .         11-25-083-17W4                 : Location     - LOCATION          
UWI .         00/11-25-083-17W400            : Uwi          - UNIQUE WELL ID    
ENTR.         DW                             : Entered      - ENTERED BY        
SRVC.         SCHLUMBERGER                   : Scn          - SERVICE COMPANY   
DATE.         26 JAN 73                      : Date         - LOG DATE
STRT.M        91.44                          : top_depth    - START DEPTH       
STOP.M        280.415                        : bot_depth    - STOP DEPTH        
STEP.M        0.3048                         : increment    - STEP LENGTH       
~CURVE INFORMATION BLOCK
#MNEM UNIT       ERCB CURVE CODE    CURVE DESCRIPTION
#-----------   ------------------   ----------------------------------
DEPT.M        00 001 00 00         : DEPTH        - DEPTH                       
DPHI.V/V      00 890 00 00         : PHID         - DENSITY POROSITY (LIMESTONE)
NPHI.V/V      00 330 00 00         : PHIN         - NEUTRON POROSITY (LIMESTONE)
GR  .API      00 310 00 00         : GR           - GAMMA RAY                   
ILD .OHMM     00 120 00 00         : RESD         - DEEP RESISTIVITY (DIL)      
~PARAMETER INFORMATION       
#MNEM.UNIT           DATA             DESCRIPTION OF MNEMONIC
#---------         -----------     ------------------------------
GL  .M        510.388              : gl           - GROUND LEVEL ELEVATION      
EREF.M        513.588              : kb           - ELEVATION OF DEPTH REFERENCE
DATM.M        513.588              : datum        - DATUM ELEVATION             
TDD .M        321.259              : tdd          - TOTAL DEPTH DRILLER         
RUN .         ONE                  : Run          - RUN NUMBER                  
ENG .         BILL                 : Engineer     - RECORDING ENGINEER          
WIT .         JIM                  : Witness      - WITNESSED BY                
MUD .         GEL                  : Mud_type     - MUD TYPE                    
MATR.         LIMESTONE            : Logunit      - NEUTRON MATRIX              
TMAX.C        26.1111              : BHT          - MAXIMUM RECORDED TEMPERATURE
BHTD.M        321.259              : BHTDEP       - MAXIMUM RECORDED TEMPERATURE
MATR.         1                    : LOGUNIT      - NEUTRON MATRIX              
RMT .C        25                   : MDTP         - TEMPERATURE OF MUD          
NEUT.         1                    : NEUTRON      - NEUTRON TYPE                
RESI.         0                    : RESIST       - RESISTIVITY TYPE            
RMC .OHMM     0.25                 : RMC          - RESISTIVITY OF MUD CAKE     
RMF .OHMM     0.25                 : RMF          - RESISTIVITY OF MUD FILTRATE 
SUFT.C        15                   : SUFT         - SURFACE TEMPERATURE         
~A  DEPTH     PHID     PHIN       GR     RESD
   91.440    0.329    0.487   46.656   11.565
   91.745    0.339    0.470   46.657   11.566
   92.050    0.321    0.439   49.021   10.179
   92.354    0.327    0.435   55.519    8.797
   92.659    0.304    0.474   62.608    7.329
   92.964    0.285    0.505   70.287    6.569
   93.269    0.266    0.522   75.604    5.782
   93.574    0.272    0.561   72.653    5.375
   93.878    0.283    0.531   69.702    5.278
   94.183    0.293    0.545   70.295    5.090
   94.488    0.296    0.558   67.934    5.091
   94.793    0.273    0.550   65.574    5.378
   95.098    0.268    0.540   71.481    6.002
   95.402    0.292    0.545   72.665    6.948
   95.707    0.318    0.506   70.894    8.811
   96.012    0.360    0.462   77.393   13.172
   96.317    0.298    0.477   73.261   14.434
   96.622    0.313    0.493   64.995   14.702
   96.926    0.320    0.448   64.996   13.921
   97.231    0.278    0.448   75.629   13.180
   97.536    0.243    0.460   84.489   11.813
   97.841    0.216    0.477   85.672   10.983
   98.146    0.234    0.500   80.359   10.786
   98.450    0.262    0.499   79.771   10.986
   98.755    0.279    0.462   80.954   11.820
   99.060    0.265    0.456   79.183   12.263
   99.365    0.223    0.465   73.870   12.264
   99.670    0.188    0.439   68.557   11.402
   99.975    0.185    0.401   63.244   10.600
  100.279    0.245    0.382   60.883   10.602
  100.584    0.196    0.403   57.933   10.997
  100.889    0.249    0.433   56.753   11.409
  101.194    0.280    0.428   59.117   10.802
  101.498    0.258    0.425   69.159    9.860
  101.803    0.217    0.494   74.476    8.066
  102.108    0.247    0.497   82.155    7.099
  102.413    0.173    0.524   85.110    6.248
  102.718    0.191    0.471   82.750    5.499
  103.022    0.206    0.468   81.570    4.929
  103.327    0.217    0.532   86.888    4.667
  103.632    0.205    0.583   88.071    5.021
  103.937    0.218    0.515   87.482    5.305
  104.242    0.234    0.527   83.940    5.403
  104.546    0.180    0.495   76.856    5.709
  104.851    0.206    0.512   87.487    5.709
  105.156    0.212    0.538   90.442    5.607
  105.461    0.197    0.524   84.538    5.608
  105.766    0.191    0.509   81.587    5.609
  106.070    0.203    0.547   85.133    5.713
  106.375    0.203    0.565   85.134    6.036
  106.680    0.205    0.532   76.278    6.614
  106.985    0.231    0.446   66.831    8.236
  107.290    0.270    0.442   82.778    9.361
  107.595    0.231    0.479   81.009   10.073
  107.899    0.250    0.490   80.419    9.537
  108.204    0.234    0.508   89.871    8.706
  108.509    0.227    0.526   94.597    8.093
  108.814    0.184    0.549   95.781    7.663
  109.119    0.222    0.570   94.011    7.525
  109.423    0.234    0.531   92.240    7.665
  109.728    0.242    0.576   83.384    8.247
  110.033    0.265    0.600   71.574    9.547
  110.338    0.285    0.587   59.175   11.888
  110.643    0.242    0.491   53.271   14.015
  110.947    0.222    0.434   50.910   15.080
  111.252    0.247    0.415   49.732   16.525
  111.557    0.280    0.410   50.324   19.480
  111.862    0.303    0.370   50.326   27.069
  112.167    0.334    0.346   49.146   38.306
  112.471    0.354    0.328   49.149   49.478
  112.776    0.373    0.309   52.694   59.406
  113.081    0.391    0.268   56.239   65.097
  113.386    0.395    0.253   60.374   67.528
  113.691    0.383    0.253   58.014   61.641
  113.995    0.376    0.259   55.654   47.738
  114.300    0.409    0.278   55.065   35.645
  114.605    0.403    0.352   58.610   25.660
  114.910    0.360    0.399   63.337   20.612
  115.215    0.328    0.495   65.110   17.812
  115.519    0.318    0.508   58.616   17.177
  115.824    0.332    0.445   51.532   17.495
  116.129    0.364    0.402   48.581   18.484
  116.434    0.370    0.395   49.173   18.827
  116.739    0.346    0.461   53.309   18.830
  117.043    0.334    0.484   56.854   18.833
  117.348    0.332    0.507   56.266   18.494
  117.653    0.347    0.520   55.086   18.839
  117.958    0.353    0.509   53.317   18.841
  118.263    0.359    0.460   52.138   18.845
  118.567    0.348    0.446   50.958   18.171
  118.872    0.342    0.463   51.550   15.703
  119.177    0.314    0.460   55.687   13.821
  119.482    0.324    0.500   56.278   13.572
  119.787    0.283    0.527   53.328   13.824
  120.091    0.302    0.476   52.739   15.428
  120.396    0.301    0.486   57.465   15.430
  120.701    0.283    0.460   60.420   14.610
  121.006    0.298    0.503   59.831   13.095
  121.311    0.323    0.563   61.014   11.316
  121.615    0.272    0.595   71.056    9.959
  121.920    0.279    0.578   66.924    9.603
  122.225    0.280    0.516   65.744    9.605
  122.530    0.271    0.507   72.243   10.335
  122.835    0.302    0.508   75.198   10.720
  123.139    0.284    0.545   75.790   10.920
  123.444    0.301    0.577   74.611   10.724
  123.749    0.291    0.533   73.431   10.532
  124.054    0.303    0.560   68.118   10.727
  124.359    0.298    0.543   59.852   11.542
  124.663    0.316    0.496   69.894   12.648
  124.968    0.296    0.485   71.667   13.608
  125.273    0.308    0.491   66.945   13.861
  125.578    0.307    0.509   61.041   13.367
  125.883    0.278    0.497   63.405   12.656
  126.187    0.272    0.486   66.360   12.892
  126.492    0.284    0.469   63.409   13.373
  126.797    0.276    0.436   51.009   14.128
  127.102    0.328    0.421   42.153   16.057
  127.407    0.342    0.414   37.430   17.920
  127.711    0.326    0.424   36.250   19.638
  128.016    0.314    0.447   35.072   20.002
  128.321    0.309    0.432   33.892   20.375
  128.626    0.335    0.442   33.895   20.008
  128.931    0.346    0.424   36.258   19.649
  129.235    0.334    0.409   38.622   19.652
  129.540    0.340    0.416   39.805   19.654
  129.845    0.353    0.395   38.626   20.020
  130.150    0.332    0.398   36.856   20.024
  130.455    0.324    0.411   36.268   20.395
  130.759    0.335    0.405   40.404   20.776
  131.064    0.341    0.398   40.996   21.162
  131.369    0.353    0.417   40.407   21.554
  131.674    0.344    0.428   41.590   21.558
  131.979    0.334    0.429   45.136   22.364
  132.283    0.324    0.429   45.728   22.366
  132.588    0.316    0.429   45.730   22.782
  132.893    0.296    0.442   42.780   22.373
  133.198    0.290    0.469   41.009   21.573
  133.503    0.348    0.471   42.193   21.186
  133.807    0.351    0.414   42.785   20.429
  134.112    0.339    0.439   42.786   20.064
  134.417    0.341    0.470   41.608   20.067
  134.722    0.347    0.414   39.838   20.068
  135.027    0.324    0.405   41.611   19.708
  135.331    0.316    0.451   43.975   18.660
  135.636    0.353    0.471   45.159   19.008
  135.941    0.360    0.476   43.389   19.360
  136.246    0.363    0.466   46.934   20.456
  136.550    0.344    0.460   48.117   20.458
  136.855    0.339    0.457   46.347   20.092
  137.160    0.352    0.457   42.805   19.372
  137.465    0.342    0.463   43.399   18.011
  137.770    0.344    0.472   44.581   17.367
  138.074    0.333    0.474   45.173   17.055
  138.379    0.320    0.474   45.766   16.748
  138.684    0.320    0.503   47.540   17.374
  138.989    0.338    0.508   48.132   18.695
  139.294    0.351    0.496   45.772   19.393
  139.598    0.329    0.492   42.821   20.488
  139.903    0.316    0.442   39.870   20.870
  140.208    0.291    0.393   42.234   20.872
  140.513    0.255    0.416   44.007   20.497
  140.818    0.342    0.486   43.419   20.129
  141.122    0.335    0.464   42.240   19.768
  141.427    0.333    0.523   41.651   19.062
  141.732    0.327    0.546   41.062   18.049
  142.037    0.323    0.505   42.836   18.050
  142.342    0.334    0.527   42.838   17.727
  142.646    0.329    0.559   42.840   18.056
  142.951    0.345    0.528   46.385   18.391
  143.256    0.357    0.511   45.796   19.079
  143.561    0.338    0.519   43.436   20.528
  143.866    0.310    0.523   42.847   25.564
  144.170    0.292    0.474   42.849   27.505
