~VERSION INFORMATION
 VERS.                 2.0:   CWLS LOG ASCII STANDARD -VERSION 2.0
 WRAP.                  NO:   ONE LINE PER DEPTH STEP
~WELL INFORMATION BLOCK
#MNEM.UNIT           DATA                    DESCRIPTION OF MNEMONIC
#---------    -------------------            -------------------------------
# Generated from Intellog Unique Number	CW_73_75/WELL/1045
WELL.         L56 ET AL MARTIN 11-28         : Well_name    - WELL
LOC .         00/11-28-074-23W4/0            : Location     - LOCATION
UWI .         00/11-28-074-23W4/0            : Uwi          - UNIQUE WELL ID
ENTR.         JAYE                           : Entered      - ENTERED BY
SRVC.         SCHLUMBERGER                   : Scn          - SERVICE COMPANY
DATE.         1 JAN 76                       : Date         - LOG DATE
STRT.M        396.24                         : top_depth    - START DEPTH
STOP.M        624.74                         : bot_depth    - STOP DEPTH
STEP.M        0.25                           : increment    - STEP LENGTH
 NULL. -999.2500:NULL Value
~CURVE INFORMATION BLOCK
#MNEM UNIT       ERCB CURVE CODE    CURVE DESCRIPTION
#-----------   ------------------   ----------------------------------
DEPT.M        00 001 00 00         : DEPTH        - DEPTH
ILD .OHMM     00 120 00 00         : RESD         - DEEP RESISTIVITY (DIL)
DPHI.V/V      00 890 00 00         : PHID         - DENSITY POROSITY (SANDSTONE)
NPHI.V/V      00 330 00 00         : PHIN         - NEUTRON POROSITY (SANDSTONE)
GR  .API      00 310 00 00         : GR           - GAMMA RAY
CALI.MM       00 280 01 00         : CAL          - CALIPER
~PARAMETER INFORMATION
#MNEM.UNIT           DATA             DESCRIPTION OF MNEMONIC
#---------         -----------     ------------------------------
GL  .M        691.896              : gl           - GROUND LEVEL ELEVATION
EREF.M        695.249              : kb           - ELEVATION OF DEPTH REFERENCE
DATM.M        691.896              : datum        - DATUM ELEVATION
TDD .M        636.422              : tdd          - TOTAL DEPTH DRILLER
RUN .         ONE                  : Run          - RUN NUMBER
MATR.         SANDSTONE            : Logunit      - NEUTRON MATRIX
TMAX.C        22.2222              : BHT          - MAXIMUM RECORDED TEMPERATURE
BHTD.M        637.032              : BHTDEP       - MAXIMUM RECORDED TEMPERATURE
RMT .C        26.6667              : MDTP         - TEMPERATURE OF MUD
MUDD.KG/M     0                    : MWT          - MUD DENSITY
NEUT.         1                    : NEUTRON      - NEUTRON TYPE
RESI.         0                    : RESIST       - RESISTIVITY TYPE
RM  .OHMM     1.11                 : RM           - RESISTIVITY OF MUD
RMC .OHMM     0                    : RMC          - RESISTIVITY OF MUD CAKE
RMF .OHMM     1.02                 : RMF          - RESISTIVITY OF MUD FILTRATE
SUFT.C        -17.7778             : SUFT         - SURFACE TEMPERATURE
~A  DEPTH     RESD     PHID     PHIN       GR      CAL
# ...
  542.240    5.152    0.187    0.405   90.190  162.483
  542.490    5.088    0.180    0.397   87.424  163.169
  542.740    5.109    0.174    0.399   87.037  163.546
  542.990    5.138    0.161    0.407   87.809  162.688
  543.240    5.253    0.141    0.423   89.741  160.170
  543.490    5.450    0.136    0.438   93.319  159.621
  543.740    5.633    0.155    0.460   96.288  159.273
  543.990    5.918    0.140    0.424   84.738  159.135
  544.240    6.368    0.110    0.393   66.782  159.721
  544.490    7.196    0.066    0.363   62.126  160.304
  544.740    8.266    0.090    0.319   62.776  160.063
  544.990    9.776    0.145    0.355   66.354  157.964
  545.240   11.583    0.226    0.421   70.603  155.758
  545.490   12.508    0.236    0.424   69.362  154.588
  545.740   12.219    0.232    0.418   69.890  154.243
  545.990   11.447    0.237    0.397   70.540  154.719
  546.240   10.512    0.226    0.376   68.995  155.308
  546.490    9.548    0.207    0.356   70.011  156.821
  546.740    9.026    0.174    0.349   71.821  158.438
  546.990    8.534    0.127    0.371   75.581  159.953
  547.240    8.112    0.163    0.393   80.075  161.055
  547.490    7.572    0.171    0.398   79.625  160.296
  547.740    7.211    0.156    0.407   80.153  159.124
  547.990    7.083    0.163    0.400   80.377  159.399
  548.240    7.008    0.157    0.361   76.879  160.498
  548.490    6.934    0.133    0.336   75.091  161.182
  548.740    6.836    0.137    0.367   79.767  161.457
  548.990    6.739    0.201    0.423   87.066  160.805
  549.240    6.465    0.194    0.434   89.791  160.769
  549.490    6.236    0.200    0.418   88.731  160.117
  549.740    6.192    0.180    0.409   88.285  159.565
  549.990    6.239    0.163    0.409   91.314  159.115
  550.240    6.321    0.147    0.411   93.062  159.079
  550.490    6.416    0.160    0.412   90.418  159.145
  550.740    6.500    0.153    0.408   92.593  159.113
  550.990    6.562    0.164    0.423   89.523  159.487
  551.240    6.612    0.156    0.409   84.134  159.766
  551.490    6.711    0.137    0.408   81.917  160.139
  551.740    6.811    0.135    0.412   82.689  160.419
  551.990    6.901    0.133    0.394   86.022  160.384
  552.240    7.030    0.129    0.374   89.967  160.348
  552.490    7.200    0.130    0.387   90.983  160.102
  552.740    7.429    0.151    0.373   88.889  159.864
  552.990    7.554    0.150    0.354   86.061  159.621
  553.240    7.474    0.140    0.360   83.845  159.380
  553.490    7.395    0.130    0.330   80.957  159.443
  553.740    7.330    0.111    0.357   81.606  159.621
  553.990    7.187    0.155    0.387   88.967  159.889
  554.240    7.047    0.154    0.409   93.461  160.067
  554.490    6.871    0.140    0.419   94.111  160.029
  554.740    6.688    0.147    0.408   94.274  159.890
  554.990    6.475    0.130    0.424   92.666  159.853
  555.240    6.211    0.140    0.429   90.877  159.815
  555.490    6.046    0.149    0.418   88.536  159.683
  555.740    6.004    0.161    0.410   86.870  159.439
  555.990    6.028    0.151    0.411   88.191  159.406
  556.240    6.051    0.167    0.409   93.660  159.263
  556.490    6.097    0.159    0.395   91.259  159.128
  556.740    6.133    0.147    0.383   88.434  158.991
  556.990    6.179    0.148    0.376   87.192  158.745
  557.240    6.272    0.138    0.389   87.658  158.815
  557.490    6.331    0.120    0.419   90.323  158.885
  557.740    6.333    0.143    0.446   95.671  159.883
  557.990    6.266    0.162    0.438   95.526  161.601
  558.240    6.166    0.161    0.414   94.529  162.494
  558.490    6.057    0.155    0.425   95.425  163.185
  558.740    5.982    0.129    0.418   93.877  162.839
  558.990    5.887    0.128    0.410   93.795  161.462
  559.240    5.824    0.140    0.407   95.118  160.084
  559.490    5.794    0.151    0.403   95.767  159.322
  559.740    5.796    0.146    0.429   95.564  159.490
  559.990    5.830    0.133    0.442   94.690  159.563
  560.240    5.853    0.144    0.420   94.608  159.839
  560.490    5.886    0.145    0.416   99.162  159.907
  560.740    5.953    0.155    0.421   98.165  159.976
  560.990    5.987    0.142    0.438   93.264  160.039
  561.240    5.989    0.133    0.437   89.523  159.801
  561.490    5.926    0.133    0.420   88.098  159.559
  561.740    5.863    0.129    0.421   91.067  159.315
  561.990    5.844    0.143    0.434   93.974  159.172
  562.240    5.867    0.147    0.427   88.585  159.247
  562.490    5.933    0.153    0.413   88.076  159.311
  562.740    6.011    0.159    0.401   89.947  159.384
  562.990    6.046    0.143    0.416   89.681  159.343
  563.240    6.070    0.152    0.411   86.671  159.312
  563.490    6.060    0.141    0.392   90.189  159.270
  563.740    6.029    0.143    0.411   94.988  158.929
  563.990    5.988    0.165    0.420   96.063  158.689
  564.240    5.989    0.158    0.421   94.824  158.651
  564.490    6.013    0.147    0.408   91.203  158.307
  564.740    6.048    0.143    0.395   89.414  158.376
  564.990    6.072    0.162    0.394   91.589  158.340
  565.240    6.118    0.176    0.409   92.910  158.411
  565.490    6.187    0.169    0.409   92.645  158.479
  565.740    6.200    0.151    0.404   92.624  158.442
  565.990    6.191    0.144    0.407   92.360  158.615
  566.240    6.159    0.134    0.407   91.911  158.683
  566.490    6.060    0.161    0.397   91.464  158.852
  566.740    5.942    0.168    0.394   89.796  158.612
  566.990    5.944    0.177    0.396   87.213  158.362
  567.240    6.200    0.192    0.394   84.141  158.232
  567.490    6.892    0.187    0.386   80.583  158.090
  567.740    8.301    0.154    0.390   75.377  157.748
  567.990   10.426    0.128    0.357   68.829  157.398
  568.240   12.604    0.044    0.336   65.880  157.368
  568.490   14.114    0.052    0.316   64.517  157.122
  568.740   13.965    0.059    0.305   63.338  157.089
  568.990   13.323    0.077    0.314   63.318  156.950
  569.240   12.168    0.105    0.326   65.309  156.910
  569.490   10.972    0.102    0.337   69.681  157.082
  569.740    9.732    0.110    0.351   74.906  157.464
  569.990    8.159    0.106    0.359   76.715  157.843
  570.240    7.185    0.096    0.351   79.134  158.115
  570.490    6.634    0.103    0.376   85.823  158.492
  570.740    6.226    0.148    0.402   92.208  158.462
  570.990    6.094    0.150    0.403   95.602  158.631
  571.240    6.007    0.152    0.395   97.778  158.594
  571.490    6.009    0.163    0.387   98.732  158.353
  571.740    6.044    0.139    0.388   98.895  158.112
  571.990    6.068    0.127    0.409   99.607  158.074
  572.240    6.125    0.140    0.405  101.720  157.934
  572.490    6.274    0.133    0.390  103.591  157.903
  572.740    6.449    0.121    0.393  104.668  158.073
  572.990    6.691    0.101    0.369  102.817  157.929
  573.240    7.198    0.093    0.344   96.330  158.107
  573.490    7.605    0.129    0.356   92.405  158.278
  573.740    8.005    0.141    0.380   88.602  158.037
  573.990    8.335    0.138    0.359   86.142  155.316
  574.240    8.615    0.128    0.336   85.632  154.867
  574.490    8.664    0.110    0.334   87.808  155.039
  574.740    8.103    0.123    0.340   85.773  155.208
  574.990    7.787    0.118    0.343   90.938  155.380
  575.240    7.775    0.137    0.347   93.234  155.861
  575.490    7.906    0.129    0.346   93.824  156.963
  575.740    8.261    0.126    0.344   92.157  157.754
  575.990    8.953    0.101    0.341   87.804  158.133
  576.240    9.580    0.077    0.331   85.161  157.994
  576.490    9.848    0.057    0.312   78.248  157.130
  576.740    9.345    0.057    0.311   74.079  155.028
  576.990    8.867    0.080    0.344   78.266  154.787
  577.240    8.490    0.081    0.322   83.186  155.269
  577.490    8.027    0.072    0.377   84.447  156.372
  577.740    7.742    0.117    0.430   89.368  157.474
  577.990    7.508    0.112    0.410   84.588  158.263
  578.240    7.348    0.089    0.386   82.004  159.158
  578.490    7.075    0.074    0.398   83.997  159.639
