~VERSION INFORMATION
 VERS.                 2.0:   CWLS LOG ASCII STANDARD -VERSION 2.0
 WRAP.                  NO:   ONE LINE PER DEPTH STEP
~WELL INFORMATION BLOCK
#MNEM.UNIT           DATA                    DESCRIPTION OF MNEMONIC
#---------    -------------------            -------------------------------
# Generated from Intellog Unique Number	CS_73_76/WELL/2022
WELL.         AMOCO CANADA PETROLEUM CO.LTD. : Well_name    - WELL
LOC .         00/10-19-073-04W4/0            : Location     - LOCATION
UWI .         00/10-19-073-04W4/0            : Uwi          - UNIQUE WELL ID
ENTR.         JOETTE                         : Entered      - ENTERED BY
SRVC.         SCHLUMBERGER                   : Scn          - SERVICE COMPANY
DATE.         05/13/92                       : Date         - LOG DATE
STRT.M        300                            : top_depth    - START DEPTH
STOP.M        470                            : bot_depth    - STOP DEPTH
STEP.M        0.25                           : increment    - STEP LENGTH
 NULL. -999.2500:NULL Value
~CURVE INFORMATION BLOCK
#MNEM UNIT       ERCB CURVE CODE    CURVE DESCRIPTION
#-----------   ------------------   ----------------------------------
DEPT.M        00 001 00 00         : DEPTH        - DEPTH
CALI.MM       00 280 01 00         : CAL          - CALIPER
GR  .API      00 310 00 00         : GR           - GAMMA RAY
NPHI.V/V      00 330 00 00         : PHIN         - NEUTRON POROSITY (SANDSTONE)
DPHI.V/V      00 890 00 00         : PHID         - DENSITY POROSITY (SANDSTONE)
ILD .OHMM     00 120 00 00         : RESD         - DEEP RESISTIVITY (DIL)
~PARAMETER INFORMATION
#MNEM.UNIT           DATA             DESCRIPTION OF MNEMONIC
#---------         -----------     ------------------------------
GL  .M        630                  : gl           - GROUND LEVEL ELEVATION
EREF.M        634.4                : kb           - ELEVATION OF DEPTH REFERENCE
DATM.M        634.4                : datum        - DATUM ELEVATION
TDD .M        475.7                : tdd          - TOTAL DEPTH DRILLER
RUN .         ONE                  : Run          - RUN NUMBER
ENG .         BILL                 : Engineer     - RECORDING ENGINEER
WIT .         JIM                  : Witness      - WITNESSED BY
MUD .         GEL                  : Mud_type     - MUD TYPE
MATR.         SANDSTONE            : Logunit      - NEUTRON MATRIX
TMAX.C        20                   : BHT          - MAXIMUM RECORDED TEMPERATURE
BHTD.M        475.7                : BHTDEP       - MAXIMUM RECORDED TEMPERATURE
MATR.         1                    : LOGUNIT      - NEUTRON MATRIX
RMT .C        17                   : MDTP         - TEMPERATURE OF MUD
NEUT.         1                    : NEUTRON      - NEUTRON TYPE
RESI.         0                    : RESIST       - RESISTIVITY TYPE
RMC .OHMM     6.3                  : RMC          - RESISTIVITY OF MUD CAKE
RMF .OHMM     5.3                  : RMF          - RESISTIVITY OF MUD FILTRATE
SUFT.C        15                   : SUFT         - SURFACE TEMPERATURE
~A  DEPTH      CAL       GR     PHIN     PHID     RESD
  300.000  229.614  109.826    0.519    0.249    4.200
  300.250  229.784  109.953    0.514    0.246    4.367
  300.500  229.997  106.923    0.515    0.250    4.460
  300.750  230.124  104.494    0.523    0.254    4.558
  301.000  229.250  103.970    0.530    0.260    4.488
  301.250  228.376  102.819    0.526    0.261    4.414
  301.500  226.458   97.884    0.521    0.255    4.344
  301.750  224.540   91.095    0.522    0.249    4.280
  302.000  221.578   92.450    0.521    0.247    4.288
  302.250  222.877   94.431    0.522    0.250    4.296
  302.500  225.050   97.665    0.528    0.272    4.642
  302.750  225.220   99.672    0.502    0.313    5.197
  303.000  221.214   99.148    0.463    0.329    6.885
  303.250  218.252   81.659    0.461    0.359    8.308
  303.500  213.202   68.607    0.463    0.291   10.032
  303.750  210.282   74.973    0.426    0.269   10.437
  304.000  211.496   76.353    0.409    0.255   10.859
  304.250  213.754   72.671    0.404    0.294   12.174
  304.500  213.924   65.882    0.406    0.333   13.144
  304.750  214.094   60.948    0.413    0.324   14.737
  305.000  214.264   54.159    0.424    0.290   15.921
  305.250  215.478   54.913    0.426    0.282   16.544
  305.500  218.780   54.389    0.430    0.281   18.207
  305.750  219.994   53.238    0.430    0.287   18.595
  306.000  220.206   57.098    0.423    0.302   18.642
  306.250  219.247   60.332    0.416    0.300   18.008
  306.500  217.372   64.193    0.414    0.286   18.054
  306.750  218.586   68.680    0.414    0.276   17.767
  307.000  220.929   70.060    0.414    0.269   16.245
  307.250  222.058   70.136    0.410    0.273   15.977
  307.500  222.228   68.986    0.411    0.274   15.723
  307.750  218.222   65.329    0.406    0.242   15.763
  308.000  220.480   65.431    0.400    0.206   16.420
  308.250  221.694   70.621    0.412    0.242   16.441
  308.500  219.861   71.925    0.439    0.270   15.590
  308.750  217.857   75.785    0.455    0.291   15.061
  309.000  216.983   83.430    0.464    0.288   14.282
  309.250  217.196   83.531    0.465    0.289   13.806
  309.500  217.366   81.754    0.464    0.297   13.832
  309.750  217.493   84.362    0.464    0.289   13.370
  310.000  218.707   87.596    0.464    0.293   12.924
  310.250  222.009   90.830    0.453    0.304   12.711
  310.500  223.308   91.558    0.452    0.300   12.517
  310.750  223.436   99.203    0.462    0.274   11.869
  311.000  226.738  104.316    0.468    0.256   10.253
  311.250  231.084  105.722    0.469    0.239    8.545
  311.500  232.340  103.293    0.465    0.234    8.721
  311.750  229.378  100.263    0.465    0.226    9.068
  312.000  224.286   96.606    0.468    0.214    9.616
  312.250  220.322   94.203    0.470    0.238   10.005
  312.500  221.536   91.799    0.471    0.262   10.409
  312.750  221.749   89.395    0.467    0.273   10.630
  313.000  219.746   90.775    0.460    0.285   10.870
  313.250  216.783   92.079    0.455    0.304   10.890
  313.500  212.820   94.712    0.461    0.300   10.911
  313.750  214.034   96.067    0.465    0.291   10.751
  314.000  218.380   93.012    0.468    0.306   10.574
  314.250  223.770   82.465    0.466    0.317   10.027
  314.500  224.984   75.024    0.456    0.297    9.520
  314.750  223.066   68.236    0.448    0.280    9.185
  315.000  222.149   67.737    0.444    0.254    8.550
  315.250  222.319   73.451    0.444    0.232    8.103
  315.500  223.533   97.407    0.448    0.203    7.404
  315.750  222.659  111.316    0.458    0.125    6.893
  316.000  211.388  108.912    0.464    0.099    6.306
  316.250  214.690  116.531    0.489    0.169    6.084
  316.500  217.949  124.176    0.517    0.192    5.667
  316.750  224.468  124.303    0.527    0.206    5.276
  317.000  226.726  121.273    0.534    0.205    5.000
  317.250  226.896  118.869    0.530    0.205    4.569
  317.500  227.066  118.971    0.524    0.208    4.253
  317.750  226.192  122.205    0.520    0.202    3.886
  318.000  224.274  124.161    0.521    0.204    3.620
  318.250  223.442  126.142    0.525    0.209    3.495
  318.500  223.527  126.871    0.527    0.212    3.376
  318.750  223.697  127.599    0.527    0.221    3.384
  319.000  223.952  128.979    0.522    0.235    3.935
  319.250  224.122  130.360    0.505    0.237    5.311
  319.500  224.250  127.931    0.477    0.239    7.035
  319.750  224.420  124.875    0.462    0.242    8.648
  320.000  227.764  119.966    0.451    0.253   10.638
  320.250  228.978  106.913    0.437    0.290   14.356
  320.500  227.060   90.703    0.378    0.337   17.647
  320.750  222.969   75.094    0.346    0.345   22.113
  321.000  213.743   58.883    0.156    0.408   20.956
  321.250  210.781   50.216    0.190    0.436   14.772
  321.500  216.171   55.955    0.239    0.381   14.017
  321.750  224.778   64.226    0.321    0.349   14.306
  322.000  228.080   72.497    0.325    0.351   15.163
  322.250  229.337   75.130    0.303    0.363   16.381
  322.500  230.466   75.207    0.285    0.380   16.381
  322.750  229.634   79.093    0.268    0.389   18.412
  323.000  228.718   79.821    0.252    0.417   19.892
  323.250  227.928   82.429    0.260    0.420   19.930
  323.500  228.013   84.410    0.264    0.424   19.601
  323.750  228.183   78.222    0.264    0.428   18.599
  324.000  223.176   80.203    0.259    0.429   16.683
  324.250  220.214   85.969    0.254    0.424   14.146
  324.500  222.514   89.228    0.250    0.416   11.995
  324.750  226.818   89.931    0.259    0.392    9.807
  325.000  229.076   91.286    0.291    0.378    9.311
  325.250  229.246   90.135    0.328    0.350    9.675
  325.500  227.328   83.347    0.342    0.350   10.848
  325.750  224.366   75.906    0.332    0.352   12.170
  326.000  221.404   67.865    0.325    0.353   12.185
  326.250  221.531   66.113    0.314    0.339   11.999
  326.500  222.830   67.442    0.320    0.321   11.808
  326.750  222.958   70.702    0.330    0.330   13.231
  327.000  223.127   73.335    0.325    0.336   15.672
  327.250  221.252   75.316    0.248    0.311   26.419
  327.500  221.379   72.286    0.217    0.349   33.084
  327.750  222.593   67.952    0.101    0.389   42.232
  328.000  224.851   54.248    0.080    0.469   43.938
  328.250  226.065   23.630    0.086    0.465   37.977
  328.500  221.058   26.864    0.098    0.455   24.841
  328.750  219.140   36.362    0.104    0.444   17.511
  329.000  218.223   49.018    0.171    0.430   12.566
  329.250  216.305   57.915    0.238    0.402    9.906
  329.500  213.386   66.812    0.260    0.351    9.047
  329.750  212.511   75.684    0.299    0.321    8.584
  330.000  212.681   79.596    0.299    0.302    8.442
  330.250  213.853   77.818    0.289    0.315    8.324
  330.500  217.155   74.737    0.276    0.326    8.329
  330.750  219.455   72.986    0.268    0.337    8.350
  331.000  216.493   73.087    0.260    0.358    8.223
  331.250  215.662   72.563    0.250    0.381    7.797
  331.500  215.747   71.412    0.259    0.377    7.121
  331.750  216.961   70.913    0.276    0.361    6.628
  332.000  219.304   70.964    0.297    0.341    3.407
  332.250  221.562   72.344    0.327    0.322    3.113
  332.500  223.820   73.124    0.400    0.306    2.898
  332.750  226.078   70.068    0.403    0.296    2.698
  333.000  228.336   68.867    0.406    0.304    2.608
  333.250  230.594   63.957    0.414    0.324    2.665
  333.500  231.808   62.180    0.431    0.327    2.668
  333.750  230.934   65.414    0.437    0.316    2.579
  334.000  227.929   69.326    0.431    0.312    2.493
  334.250  229.186   68.175    0.420    0.326    2.451
  334.500  229.313   63.214    0.411    0.334    2.458
  334.750  228.439   55.173    0.403    0.334    2.509
  335.000  229.653   59.059    0.399    0.327    2.610
  335.250  228.779   65.425    0.396    0.324    2.818
  335.500  225.817   71.791    0.392    0.314    3.281
  335.750  220.767   81.315    0.390    0.305    3.543
  336.000  217.805   89.560    0.400    0.258    3.755
  336.250  222.193  100.337    0.412    0.237    3.906
