~VERSION INFORMATION
 VERS.                 2.0:   CWLS LOG ASCII STANDARD -VERSION 2.0
 WRAP.                  NO:   ONE LINE PER DEPTH STEP
~WELL INFORMATION BLOCK
#MNEM.UNIT           DATA                    DESCRIPTION OF MNEMONIC
#---------    -------------------            -------------------------------
# Generated from Intellog Unique Number	CS_69_70/WELL/896
WELL.         JOFFRE OIL LTD.                : Well_name    - WELL
LOC .         00/11-26-070-18W4/0            : Location     - LOCATION
UWI .         00/11-26-070-18W4/0            : Uwi          - UNIQUE WELL ID
ENTR.         SP                             : Entered      - ENTERED BY
SRVC.         SCHLUMBERGER                   : Scn          - SERVICE COMPANY
STRT.M        290                            : top_depth    - START DEPTH
STOP.M        485                            : bot_depth    - STOP DEPTH
STEP.M        0.25                           : increment    - STEP LENGTH
 NULL. -999.2500:NULL Value
~CURVE INFORMATION BLOCK
#MNEM UNIT       ERCB CURVE CODE    CURVE DESCRIPTION
#-----------   ------------------   ----------------------------------
DEPT.M        00 001 00 00         : DEPTH        - DEPTH
DPHI.V/V      00 890 00 00         : PHID         - DENSITY POROSITY (LIMESTONE)
NPHI.V/V      00 330 00 00         : PHIN         - NEUTRON POROSITY (LIMESTONE)
GR  .API      00 310 00 00         : GR           - GAMMA RAY
ILD .OHMM     00 120 00 00         : RESD         - DEEP RESISTIVITY (DIL)
~PARAMETER INFORMATION
#MNEM.UNIT           DATA             DESCRIPTION OF MNEMONIC
#---------         -----------     ------------------------------
GL  .M        565.34               : gl           - GROUND LEVEL ELEVATION
EREF.M        568.32               : kb           - ELEVATION OF DEPTH REFERENCE
DATM.M        565.34               : datum        - DATUM ELEVATION
TDD .M        586                  : tdd          - TOTAL DEPTH DRILLER
RUN .         ONE                  : Run          - RUN NUMBER
ENG .         BILL                 : Engineer     - RECORDING ENGINEER
WIT .         JIM                  : Witness      - WITNESSED BY
MUD .         GEL                  : Mud_type     - MUD TYPE
MATR.         LIMESTONE            : Logunit      - NEUTRON MATRIX
TMAX.C        6.9                  : BHT          - MAXIMUM RECORDED TEMPERATURE
BHTD.M        586                  : BHTDEP       - MAXIMUM RECORDED TEMPERATURE
MATR.         1                    : LOGUNIT      - NEUTRON MATRIX
RMT .C        25                   : MDTP         - TEMPERATURE OF MUD
NEUT.         1                    : NEUTRON      - NEUTRON TYPE
RESI.         0                    : RESIST       - RESISTIVITY TYPE
RMC .OHMM     0.25                 : RMC          - RESISTIVITY OF MUD CAKE
RMF .OHMM     0.25                 : RMF          - RESISTIVITY OF MUD FILTRATE
SUFT.C        15                   : SUFT         - SURFACE TEMPERATURE
~A  DEPTH     PHID     PHIN       GR     RESD
# ...
  377.000    0.256    0.412   84.459    5.016
  377.250    0.255    0.413   85.072    5.039
  377.500    0.262    0.422   84.227    5.024
  377.750    0.270    0.428   81.500    4.967
  378.000    0.276    0.423   78.227    4.941
  378.250    0.278    0.416   77.383    4.936
  378.500    0.283    0.423   78.177    4.931
  378.750    0.288    0.435   79.578    5.000
  379.000    0.269    0.438   83.165    5.089
  379.250    0.261    0.440   85.477    5.238
  379.500    0.259    0.442   85.787    5.391
  379.750    0.240    0.442   88.341    5.574
  380.000    0.222    0.441   90.350    5.596
  380.250    0.212    0.446   90.780    5.643
  380.500    0.207    0.453   90.907    5.647
  380.750    0.212    0.460   92.490    5.652
  381.000    0.220    0.464   91.828    5.647
  381.250    0.227    0.462   90.498    5.633
  381.500    0.229    0.448   88.866    5.669
  381.750    0.229    0.439   87.898    5.737
  382.000    0.224    0.432   86.689    5.849
  382.250    0.225    0.436   85.420    6.113
  382.500    0.231    0.427   83.483    6.173
  382.750    0.237    0.409   82.031    5.567
  383.000    0.227    0.396   81.186    5.210
  383.250    0.206    0.395   83.498    4.968
  383.500    0.230    0.429   85.446    5.085
  383.750    0.249    0.449   85.209    5.424
  384.000    0.251    0.446   84.667    5.740
  384.250    0.254    0.441   83.701    5.940
  384.500    0.237    0.432   82.553    6.024
  384.750    0.224    0.428   81.347    5.755
  385.000    0.231    0.428   81.107    5.468
  385.250    0.228    0.435   81.963    5.302
  385.500    0.220    0.431   82.756    5.151
  385.750    0.217    0.432   84.098    5.051
  386.000    0.224    0.437   84.709    4.944
  386.250    0.204    0.441   86.173    4.813
  386.500    0.212    0.431   87.271    4.780
  386.750    0.216    0.427   88.613    4.593
  387.000    0.206    0.433   89.224    4.519
  387.250    0.195    0.439   90.078    4.466
  387.500    0.187    0.445   91.055    4.553
  387.750    0.181    0.454   89.056    4.730
  388.000    0.197    0.464   89.426    4.960
  388.250    0.202    0.450   90.888    5.058
  388.500    0.196    0.439   90.226    5.015
  388.750    0.197    0.431   90.353    4.936
  389.000    0.205    0.425   90.844    4.859
  389.250    0.205    0.433   91.031    4.800
  389.500    0.206    0.446   88.365    4.760
  389.750    0.210    0.456   83.820    4.729
  390.000    0.219    0.441   81.274    4.707
  390.250    0.225    0.435   78.668    4.650
  390.500    0.227    0.442   77.216    4.603
  390.750    0.240    0.435   76.797    4.554
  391.000    0.247    0.418   76.862    4.492
  391.250    0.253    0.415   77.110    4.471
  391.500    0.250    0.423   75.416    4.433
  391.750    0.253    0.429   74.026    4.371
  392.000    0.248    0.426   74.152    4.302
  392.250    0.258    0.424   75.797    4.227
  392.500    0.267    0.421   76.955    4.153
  392.750    0.263    0.410   75.867    4.102
  393.000    0.264    0.408   75.448    4.009
  393.250    0.266    0.418   75.696    3.959
  393.500    0.261    0.424   75.883    3.842
  393.750    0.258    0.418   76.495    3.829
  394.000    0.260    0.418   76.137    3.755
  394.250    0.258    0.429   74.381    3.723
  394.500    0.267    0.442   71.048    3.678
  394.750    0.278    0.432   68.140    3.627
  395.000    0.270    0.421   67.052    3.577
  395.250    0.274    0.422   67.057    3.559
  395.500    0.287    0.433   69.369    3.544
  395.750    0.295    0.442   70.285    3.565
  396.000    0.299    0.449   68.469    3.623
  396.250    0.286    0.456   66.957    3.700
  396.500    0.279    0.466   67.084    3.873
  396.750    0.288    0.472   68.061    4.024
  397.000    0.300    0.450   69.281    4.126
  397.250    0.303    0.432   70.864    4.184
  397.500    0.298    0.439   73.175    4.243
  397.750    0.294    0.441   75.488    4.278
  398.000    0.286    0.439   76.343    4.234
  398.250    0.271    0.440   76.287    4.129
  398.500    0.258    0.444   75.989    4.019
  398.750    0.276    0.448   74.721    3.912
  399.000    0.292    0.444   74.057    3.815
  399.250    0.287    0.438   73.819    3.741
  399.500    0.298    0.437   75.160    3.709
  399.750    0.297    0.442   76.622    3.698
  400.000    0.292    0.446   78.206    3.600
  400.250    0.298    0.453   79.911    3.150
  400.500    0.284    0.454   82.162    2.814
  400.750    0.272    0.443   85.871    2.533
  401.000    0.269    0.438   89.943    2.319
  401.250    0.263    0.439   93.955    2.166
  401.500    0.252    0.451   97.239    2.073
  401.750    0.228    0.487   99.734    2.033
  402.000    0.236    0.507  101.560    2.050
  402.250    0.244    0.504  101.686    2.174
  402.500    0.240    0.496   98.899    2.402
  402.750    0.253    0.538   97.143    2.770
  403.000    0.245    0.555   97.999    3.106
  403.250    0.258    0.565   99.825    3.424
  403.500    0.235    0.557   99.770    3.763
  403.750    0.215    0.494   97.712    3.939
  404.000    0.220    0.449   93.467    4.038
  404.250    0.231    0.442   88.859    4.118
  404.500    0.210    0.444   86.618    4.129
  404.750    0.200    0.444   88.262    4.072
  405.000    0.195    0.443   89.603    4.001
  405.250    0.203    0.442   89.062    3.989
  405.500    0.216    0.437   89.128    4.037
  405.750    0.229    0.440   89.619    4.203
  406.000    0.221    0.450   90.231    4.269
  406.250    0.199    0.441   91.087    4.380
  406.500    0.208    0.428   93.398    4.381
  406.750    0.224    0.419   95.710    4.336
  407.000    0.229    0.418   97.172    4.205
  407.250    0.226    0.422   94.568    4.032
  407.500    0.220    0.429   90.687    3.954
  407.750    0.235    0.432   87.172    4.185
  408.000    0.247    0.430   83.656    4.547
  408.250    0.240    0.443   79.291    4.995
  408.500    0.226    0.432   75.593    5.426
  408.750    0.216    0.419   71.652    5.690
  409.000    0.149    0.332   67.651    5.770
  409.250    0.095    0.313   74.456    5.585
  409.500    0.141    0.353   79.863    5.208
  409.750    0.180    0.378   83.633    4.643
  410.000    0.186    0.375   84.245    4.156
  410.250    0.224    0.415   84.494    3.811
  410.500    0.255    0.439   88.324    3.534
  410.750    0.240    0.449   90.149    3.459
  411.000    0.229    0.454   91.551    3.468
  411.250    0.268    0.454   88.582    3.551
  411.500    0.283    0.439   82.091    3.627
  411.750    0.265    0.421   73.415    3.698
  412.000    0.240    0.404   69.960    3.778
  412.250    0.221    0.386   73.912    3.891
  412.500    0.255    0.400   76.953    3.907
  412.750    0.270    0.408   79.143    3.925
  413.000    0.238    0.416   79.573    3.885
  413.250    0.224    0.420   76.057    3.859
  413.500    0.231    0.425   72.845    3.841
  413.750    0.239    0.425   71.394    3.852
  414.000    0.253    0.414   71.035    3.876
  414.250    0.253    0.408   71.222    3.916
  414.500    0.251    0.405   72.382    3.995
  414.750    0.248    0.404   73.478    4.020
  415.000    0.236    0.406   74.820    4.061
  415.250    0.227    0.415   75.614    4.125
  415.500    0.227    0.423   75.377    4.256
  415.750    0.229    0.430   74.532    4.379
  416.000    0.226    0.419   73.324    4.575
  416.250    0.224    0.405   72.904    4.752
  416.500    0.227    0.404   72.666    4.957
  416.750    0.217    0.394   73.156    5.131
  417.000    0.199    0.372   74.862    5.162
  417.250    0.184    0.357   77.781    5.169
  417.500    0.202    0.366   79.121    5.145
  417.750    0.222    0.380   77.731    5.147
  418.000    0.217    0.393   78.162    5.116
  418.250    0.205    0.402   79.562    5.083
  418.500    0.194    0.402   80.600    5.030
  418.750    0.197    0.397   81.091    4.986
  419.000    0.199    0.387   80.975    4.844
  419.250    0.200    0.376   80.130    4.715
  419.500    0.217    0.384   78.557    4.580
  419.750    0.238    0.391   77.044    4.449
  420.000    0.246    0.406   75.168    4.228
  420.250    0.240    0.414   75.598    4.107
