~VERSION INFORMATION
 VERS.                 2.0:   CWLS LOG ASCII STANDARD -VERSION 2.0
 WRAP.                  NO:   ONE LINE PER DEPTH STEP
~WELL INFORMATION BLOCK
#MNEM.UNIT           DATA                    DESCRIPTION OF MNEMONIC
#---------    -------------------            -------------------------------
# Generated from Intellog Unique Number	CS_67_68/WELL/840
WELL.         INTER-CITY MANUFACTURING       : Well_name    - WELL
LOC .         00/11-22-068-14W4/0            : Location     - LOCATION
UWI .         00/11-22-068-14W4/0            : Uwi          - UNIQUE WELL ID
ENTR.         SP                             : Entered      - ENTERED BY
SRVC.         SCHLUMBERGER                   : Scn          - SERVICE COMPANY
STRT.M        280                            : top_depth    - START DEPTH
STOP.M        474                            : bot_depth    - STOP DEPTH
STEP.M        0.25                           : increment    - STEP LENGTH
 NULL. -999.2500:NULL Value
~CURVE INFORMATION BLOCK
#MNEM UNIT       ERCB CURVE CODE    CURVE DESCRIPTION
#-----------   ------------------   ----------------------------------
DEPT.M        00 001 00 00         : DEPTH        - DEPTH
ILD .OHMM     00 120 00 00         : RESD         - DEEP RESISTIVITY (DIL)
DPHI.V/V      00 890 00 00         : PHID         - DENSITY POROSITY (LIMESTONE)
NPHI.V/V      00 330 00 00         : PHIN         - NEUTRON POROSITY (LIMESTONE)
GR  .API      00 310 00 00         : GR           - GAMMA RAY
~PARAMETER INFORMATION
#MNEM.UNIT           DATA             DESCRIPTION OF MNEMONIC
#---------         -----------     ------------------------------
GL  .M        564.76               : gl           - GROUND LEVEL ELEVATION
EREF.M        567.8                : kb           - ELEVATION OF DEPTH REFERENCE
DATM.M        564.76               : datum        - DATUM ELEVATION
TDD .M        471                  : tdd          - TOTAL DEPTH DRILLER
RUN .         ONE                  : Run          - RUN NUMBER
ENG .         BILL                 : Engineer     - RECORDING ENGINEER
WIT .         JIM                  : Witness      - WITNESSED BY
MUD .         GEL                  : Mud_type     - MUD TYPE
MATR.         LIMESTONE            : Logunit      - NEUTRON MATRIX
TMAX.C        21                   : BHT          - MAXIMUM RECORDED TEMPERATURE
BHTD.M        471                  : BHTDEP       - MAXIMUM RECORDED TEMPERATURE
MATR.         1                    : LOGUNIT      - NEUTRON MATRIX
RMT .C        25                   : MDTP         - TEMPERATURE OF MUD
NEUT.         1                    : NEUTRON      - NEUTRON TYPE
RESI.         0                    : RESIST       - RESISTIVITY TYPE
RMC .OHMM     0.25                 : RMC          - RESISTIVITY OF MUD CAKE
RMF .OHMM     0.25                 : RMF          - RESISTIVITY OF MUD FILTRATE
SUFT.C        15                   : SUFT         - SURFACE TEMPERATURE
~A  DEPTH     RESD     PHID     PHIN       GR
# ...
  367.000    2.672    0.232    0.445  109.038
  367.250    2.722    0.261    0.428  111.354
  367.500    2.737    0.249    0.416  113.488
  367.750    2.783    0.245    0.420  114.405
  368.000    2.788    0.249    0.419  109.423
  368.250    2.793    0.240    0.417  105.656
  368.500    2.772    0.239    0.430  102.499
  368.750    2.731    0.271    0.438   98.186
  369.000    2.716    0.295    0.434   96.974
  369.250    2.670    0.256    0.419   98.378
  369.500    2.655    0.238    0.410  101.607
  369.750    2.655    0.216    0.404  105.262
  370.000    2.684    0.201    0.417  108.674
  370.250    2.730    0.204    0.417  110.807
  370.500    2.833    0.218    0.412  112.943
  370.750    2.935    0.235    0.414  112.339
  371.000    2.990    0.238    0.425  110.458
  371.250    2.984    0.233    0.425  108.274
  371.500    2.956    0.237    0.415  108.218
  371.750    2.934    0.234    0.437  108.406
  372.000    2.918    0.222    0.450  108.959
  372.250    2.896    0.236    0.454  109.998
  372.500    2.874    0.222    0.439  110.915
  372.750    2.858    0.215    0.424  111.345
  373.000    2.858    0.231    0.415  111.777
  373.250    2.826    0.231    0.412  107.403
  373.500    2.804    0.238    0.423  101.568
  373.750    2.789    0.282    0.430   97.984
  374.000    2.825    0.304    0.431   97.198
  374.250    3.112    0.200    0.418   95.015
  374.500    3.842    0.160    0.329   90.092
  374.750    4.997    0.086    0.238   80.183
  375.000    7.268    0.030    0.199   73.497
  375.250   11.180    0.012    0.188   68.939
  375.500   20.224    0.002    0.180   66.390
  375.750   20.604    0.007    0.178   69.620
  376.000   16.108    0.034    0.200   73.517
  376.250   12.019    0.075    0.281   78.997
  376.500    8.803    0.131    0.321   84.903
  376.750    5.722    0.200    0.355   90.261
  377.000    4.199    0.245    0.380   92.334
  377.250    3.350    0.266    0.405   94.651
  377.500    3.046    0.265    0.418   96.602
  377.750    2.979    0.255    0.416   98.554
  378.000    3.063    0.248    0.415   99.958
  378.250    3.155    0.242    0.427  101.605
  378.500    3.281    0.233    0.429  103.009
  378.750    3.431    0.212    0.426  104.232
  379.000    3.574    0.203    0.419  103.993
  379.250    3.745    0.201    0.411  103.146
  379.500    3.901    0.199    0.403  102.483
  379.750    4.004    0.200    0.402  103.036
  380.000    4.041    0.211    0.415  104.318
  380.250    4.018    0.211    0.425  104.688
  380.500    3.922    0.225    0.432  102.079
  380.750    3.792    0.234    0.431  101.779
  381.000    3.694    0.232    0.417  103.913
  381.250    3.565    0.226    0.408  105.804
  381.500    3.454    0.230    0.400  107.329
  381.750    3.365    0.213    0.408  108.855
  382.000    3.308    0.209    0.421  106.732
  382.250    3.277    0.200    0.429  104.913
  382.500    3.296    0.188    0.432  108.689
  382.750    3.320    0.197    0.433  113.620
  383.000    3.370    0.207    0.437  118.858
  383.250    3.414    0.218    0.430  121.477
  383.500    3.471    0.212    0.424  120.205
  383.750    3.484    0.198    0.421  118.081
  384.000    3.484    0.201    0.417  119.303
  384.250    3.470    0.207    0.418  123.445
  384.500    3.387    0.222    0.428  128.803
  384.750    3.085    0.230    0.439  129.964
  385.000    2.853    0.234    0.446  125.832
  385.250    2.522    0.267    0.453  122.614
  385.500    2.298    0.317    0.474  119.578
  385.750    2.124    0.379    0.510  117.029
  386.000    1.998    0.313    0.529  115.512
  386.250    1.913    0.289    0.519  117.221
  386.500    1.997    0.271    0.505  118.930
  386.750    2.168    0.252    0.495  120.881
  387.000    2.366    0.234    0.479  123.320
  387.250    2.549    0.227    0.463  125.149
  387.500    2.696    0.211    0.448  126.736
  387.750    2.798    0.189    0.442  125.828
  388.000    2.882    0.199    0.450  122.427
  388.250    2.898    0.223    0.456  120.121
  388.500    2.839    0.243    0.451  114.712
  388.750    2.787    0.262    0.439  108.817
  389.000    2.730    0.244    0.429  109.188
  389.250    2.679    0.226    0.419  111.627
  389.500    2.659    0.198    0.411  112.604
  389.750    2.669    0.169    0.415  112.366
  390.000    2.724    0.198    0.416  108.783
  390.250    2.796    0.235    0.417  106.962
  390.500    2.827    0.248    0.434  102.527
  390.750    2.816    0.236    0.442  103.323
  391.000    2.785    0.223    0.441  104.545
  391.250    2.728    0.221    0.438  101.996
  391.500    2.653    0.200    0.433  100.784
  391.750    2.546    0.223    0.434   99.086
  392.000    2.394    0.263    0.446   93.008
  392.250    2.205    0.291    0.453   83.281
  392.500    1.990    0.310    0.440   76.535
  392.750    1.830    0.326    0.433   72.586
  393.000    1.717    0.337    0.424   68.820
  393.250    1.633    0.344    0.421   68.582
  393.500    1.591    0.348    0.423   69.560
  393.750    1.549    0.357    0.425   71.329
  394.000    1.532    0.354    0.424   72.794
  394.250    1.523    0.343    0.419   73.408
  394.500    1.520    0.323    0.415   71.892
  394.750    1.529    0.324    0.410   68.309
  395.000    1.520    0.327    0.412   66.793
  395.250    1.517    0.326    0.422   67.041
  395.500    1.523    0.328    0.428   68.142
  395.750    1.534    0.336    0.421   69.911
  396.000    1.560    0.346    0.415   70.463
  396.250    1.601    0.331    0.415   70.773
  396.500    1.677    0.318    0.400   69.015
  396.750    1.814    0.262    0.383   67.316
  397.000    1.890    0.228    0.358   65.192
  397.250    1.940    0.199    0.324   65.927
  397.500    1.896    0.268    0.335   68.122
  397.750    1.813    0.290    0.377   69.831
  398.000    1.740    0.267    0.399   70.140
  398.250    1.695    0.286    0.409   68.928
  398.500    1.664    0.279    0.393   67.475
  398.750    1.645    0.290    0.384   66.870
  399.000    1.630    0.285    0.372   64.869
  399.250    1.621    0.284    0.386   63.778
  399.500    1.621    0.298    0.396   64.880
  399.750    1.627    0.311    0.407   66.041
  400.000    1.629    0.315    0.416   67.140
  400.250    1.629    0.326    0.426   68.058
  400.500    1.638    0.320    0.432   69.827
  400.750    1.647    0.322    0.434   71.960
  401.000    1.666    0.327    0.429   74.338
  401.250    1.684    0.318    0.420   76.776
  401.500    1.694    0.321    0.411   77.816
  401.750    1.719    0.325    0.411   77.395
  402.000    1.738    0.302    0.409   77.097
  402.250    1.751    0.299    0.404   76.979
  402.500    1.784    0.310    0.403   76.863
  402.750    1.791    0.309    0.407   76.686
  403.000    1.800    0.314    0.403   77.481
  403.250    1.821    0.313    0.394   79.676
  403.500    1.848    0.301    0.389   83.027
  403.750    1.861    0.298    0.392   86.073
  404.000    1.886    0.283    0.403   89.061
  404.250    1.903    0.276    0.412   90.526
  404.500    1.928    0.286    0.417   91.503
  404.750    1.953    0.296    0.418   92.238
  405.000    1.968    0.308    0.408   91.939
  405.250    1.997    0.318    0.413   90.606
  405.500    2.031    0.303    0.430   90.854
  405.750    2.065    0.295    0.439   94.083
  406.000    2.131    0.302    0.449   98.955
  406.250    2.216    0.299    0.441  102.428
  406.500    2.305    0.279    0.433  104.987
  406.750    2.397    0.262    0.426  107.060
  407.000    2.497    0.263    0.438  106.822
  407.250    2.572    0.264    0.449  102.265
  407.500    2.640    0.258    0.455   98.986
  407.750    2.699    0.251    0.463   96.984
  408.000    2.776    0.241    0.455   96.015
  408.250    2.844    0.250    0.436  101.678
  408.500    2.935    0.262    0.422  111.598
  408.750    3.046    0.237    0.431  116.712
  409.000    3.203    0.225    0.434  117.752
  409.250    3.245    0.222    0.427  114.472
  409.500    3.263    0.220    0.425  118.127
  409.750    3.221    0.222    0.425  120.687
  410.000    3.079    0.235    0.433  122.882
  410.250    2.923    0.242    0.437  124.834
