~VERSION INFORMATION
 VERS.                 2.0:   CWLS LOG ASCII STANDARD -VERSION 2.0
 WRAP.                  NO:   ONE LINE PER DEPTH STEP
~WELL INFORMATION BLOCK
#MNEM.UNIT           DATA                    DESCRIPTION OF MNEMONIC
#---------    -------------------            -------------------------------
# Generated from Intellog Unique Number	CS_67_68/WELL/838
WELL.         FISHER CREEK                   : Well_name    - WELL
LOC .         00/11-16-068-05W4/0            : Location     - LOCATION
UWI .         00/11-16-068-05W4/0            : Uwi          - UNIQUE WELL ID
ENTR.         SP                             : Entered      - ENTERED BY
SRVC.         SCHLUMBERGER                   : Scn          - SERVICE COMPANY
STRT.M        335                            : top_depth    - START DEPTH
STOP.M        555                            : bot_depth    - STOP DEPTH
STEP.M        0.25                           : increment    - STEP LENGTH
 NULL. -999.2500:NULL Value
~CURVE INFORMATION BLOCK
#MNEM UNIT       ERCB CURVE CODE    CURVE DESCRIPTION
#-----------   ------------------   ----------------------------------
DEPT.M        00 001 00 00         : DEPTH        - DEPTH
ILD .OHMM     00 120 00 00         : RESD         - DEEP RESISTIVITY (DIL)
DPHI.V/V      00 890 00 00         : PHID         - DENSITY POROSITY (LIMESTONE)
NPHI.V/V      00 330 00 00         : PHIN         - NEUTRON POROSITY (LIMESTONE)
GR  .API      00 310 00 00         : GR           - GAMMA RAY
~PARAMETER INFORMATION
#MNEM.UNIT           DATA             DESCRIPTION OF MNEMONIC
#---------         -----------     ------------------------------
GL  .M        683.92               : gl           - GROUND LEVEL ELEVATION
EREF.M        687.58               : kb           - ELEVATION OF DEPTH REFERENCE
DATM.M        683.92               : datum        - DATUM ELEVATION
TDD .M        568                  : tdd          - TOTAL DEPTH DRILLER
RUN .         ONE                  : Run          - RUN NUMBER
ENG .         BILL                 : Engineer     - RECORDING ENGINEER
WIT .         JIM                  : Witness      - WITNESSED BY
MUD .         GEL                  : Mud_type     - MUD TYPE
MATR.         LIMESTONE            : Logunit      - NEUTRON MATRIX
TMAX.C        24                   : BHT          - MAXIMUM RECORDED TEMPERATURE
BHTD.M        568                  : BHTDEP       - MAXIMUM RECORDED TEMPERATURE
MATR.         1                    : LOGUNIT      - NEUTRON MATRIX
RMT .C        25                   : MDTP         - TEMPERATURE OF MUD
NEUT.         1                    : NEUTRON      - NEUTRON TYPE
RESI.         0                    : RESIST       - RESISTIVITY TYPE
RMC .OHMM     0.25                 : RMC          - RESISTIVITY OF MUD CAKE
RMF .OHMM     0.25                 : RMF          - RESISTIVITY OF MUD FILTRATE
SUFT.C        15                   : SUFT         - SURFACE TEMPERATURE
~A  DEPTH     RESD     PHID     PHIN       GR
# ...
  509.000   18.845    0.288    0.408   48.744
  509.250   17.649    0.292    0.396   53.836
  509.500   16.407    0.287    0.400   58.139
  509.750   15.570    0.277    0.389   61.898
  510.000   15.140    0.263    0.379   63.959
  510.250   15.230    0.258    0.402   62.748
  510.500   16.179    0.280    0.386   57.961
  510.750   17.187    0.290    0.362   52.386
  511.000   17.850    0.295    0.382   45.599
  511.250   18.400    0.308    0.390   42.752
  511.500   18.165    0.303    0.389   47.056
  511.750   17.335    0.284    0.390   48.996
  512.000   17.049    0.269    0.393   42.027
  512.250   17.608    0.293    0.407   37.180
  512.500   18.810    0.308    0.414   36.090
  512.750   20.363    0.316    0.403   33.424
  513.000   21.226    0.316    0.425   32.879
  513.250   22.634    0.334    0.446   35.547
  513.500   23.507    0.348    0.459   38.214
  513.750   24.004    0.343    0.429   40.215
  514.000   23.966    0.330    0.378   41.247
  514.250   22.872    0.312    0.374   40.944
  514.500   21.828    0.293    0.385   39.309
  514.750   21.793    0.302    0.399   38.037
  515.000   23.635    0.322    0.405   35.856
  515.250   25.971    0.335    0.401   32.160
  515.500   28.646    0.344    0.392   28.767
  515.750   30.774    0.341    0.387   31.556
  516.000   33.186    0.338    0.411   32.466
  516.250   35.519    0.333    0.419   30.103
  516.500   37.379    0.330    0.403   31.134
  516.750   38.748    0.328    0.393   31.135
  517.000   39.568    0.329    0.402   30.227
  517.250   37.975    0.328    0.389   33.016
  517.500   33.999    0.321    0.360   37.502
  517.750   29.648    0.307    0.362   40.836
  518.000   25.950    0.302    0.386   42.473
  518.250   22.291    0.293    0.398   41.807
  518.500   20.645    0.285    0.391   43.444
  518.750   19.962    0.275    0.377   45.627
  519.000   20.347    0.278    0.387   45.022
  519.250   23.567    0.304    0.406   41.265
  519.500   27.604    0.315    0.409   36.478
  519.750   33.701    0.299    0.403   33.025
  520.000   38.886    0.306    0.394   28.723
  520.250   43.705    0.322    0.388   25.087
  520.500   49.213    0.329    0.393   20.664
  520.750   55.520    0.328    0.400   22.059
  521.000   60.209    0.327    0.398   24.969
  521.250   62.886    0.332    0.387   26.363
  521.500   59.454    0.339    0.387   26.000
  521.750   54.137    0.321    0.392   24.850
  522.000   52.054    0.305    0.387   24.548
  522.250   53.861    0.297    0.385   23.579
  522.500   58.851    0.306    0.397   20.792
  522.750   64.306    0.317    0.402   22.430
  523.000   70.396    0.322    0.394   25.279
  523.250   74.779    0.328    0.381   29.522
  523.500   56.529    0.340    0.374   32.796
  523.750   41.936    0.313    0.393   35.524
  524.000   32.546    0.297    0.409   36.494
  524.250   28.062    0.320    0.419   34.980
  524.500   30.953    0.338    0.409   27.829
  524.750   36.599    0.354    0.409   23.103
  525.000   46.921    0.350    0.418   22.619
  525.250   53.633    0.345    0.419   23.590
  525.500   61.422    0.344    0.396   24.742
  525.750   60.408    0.340    0.375   27.289
  526.000   45.837    0.351    0.414   30.017
  526.250   36.113    0.377    0.466   30.624
  526.500   29.540    0.409    0.525   28.261
  526.750   26.054    0.364    0.464   24.686
  527.000   30.346    0.355    0.434   24.566
  527.250   36.838    0.365    0.401   25.415
  527.500   42.188    0.344    0.396   25.901
  527.750   45.323    0.330    0.391   25.781
  528.000   45.506    0.334    0.419   25.297
  528.250   42.782    0.334    0.415   24.691
  528.500   40.446    0.330    0.406   25.056
  528.750   38.167    0.320    0.397   27.481
  529.000   42.496    0.314    0.424   26.755
  529.250   47.406    0.328    0.468   23.604
  529.500   47.954    0.362    0.461   20.211
  529.750   41.270    0.368    0.433   20.939
  530.000   37.509    0.325    0.403   24.334
  530.250   34.735    0.304    0.365   27.608
  530.500   32.840    0.311    0.404   26.760
  530.750   32.117    0.323    0.424   27.246
  531.000   32.858    0.321    0.427   27.913
  531.250   36.446    0.306    0.433   28.399
  531.500   40.200    0.309    0.450   25.976
  531.750   42.544    0.331    0.431   21.552
  532.000   43.281    0.344    0.398   20.280
  532.250   41.854    0.335    0.426   25.009
  532.500   41.008    0.376    0.479   29.434
  532.750   40.944    0.398    0.510   23.253
  533.000   40.418    0.370    0.483   20.466
  533.250   34.523    0.291    0.431   39.800
  533.500   24.162    0.236    0.384   51.983
  533.750   17.525    0.198    0.340   56.287
  534.000   14.525    0.205    0.324   56.773
  534.250   11.252    0.226    0.389   41.137
  534.500    9.629    0.261    0.416   21.017
  534.750    8.381    0.295    0.386   29.503
  535.000    7.689    0.351    0.380   49.382
  535.250    7.188    0.325    0.363   60.898
  535.500    6.757    0.263    0.346   68.899
  535.750    6.498    0.202    0.373   65.991
  536.000    6.271    0.233    0.444   40.174
  536.250    6.030    0.289    0.430   31.387
  536.500    5.669    0.310    0.398   24.418
  536.750    5.211    0.326    0.374   20.601
  537.000    4.945    0.332    0.353   31.814
  537.250    4.854    0.310    0.334   44.178
  537.500    4.994    0.257    0.333   54.179
  537.750    5.530    0.233    0.362   51.089
  538.000    5.841    0.278    0.392   50.787
  538.250    6.193    0.305    0.422   73.394
  538.500    6.396    0.291    0.434   81.516
  538.750    6.470    0.266    0.426   83.820
  539.000    6.351    0.288    0.412   75.700
  539.250    6.016    0.304    0.409   70.609
  539.500    5.592    0.305    0.399   63.216
  539.750    5.327    0.293    0.389   54.611
  540.000    5.103    0.301    0.388   48.249
  540.250    4.990    0.296    0.393   47.643
  540.500    4.936    0.278    0.385   54.190
  540.750    5.117    0.252    0.379   60.009
  541.000    5.375    0.233    0.369   64.798
  541.250    5.540    0.271    0.381   67.768
  541.500    5.562    0.318    0.395   67.527
  541.750    5.210    0.338    0.410   70.134
  542.000    5.019    0.347    0.419   72.013
  542.250    4.808    0.329    0.427   70.135
  542.500    4.792    0.313    0.431   72.500
  542.750    4.939    0.305    0.429   77.289
  543.000    5.247    0.297    0.414   78.380
  543.250    5.542    0.291    0.400   69.715
  543.500    5.575    0.299    0.394   62.079
  543.750    5.545    0.303    0.394   65.171
  544.000    5.526    0.291    0.393   68.202
  544.250    5.696    0.270    0.385   70.749
  544.500    5.983    0.249    0.366   60.204
  544.750    6.391    0.245    0.340   52.023
  545.000    6.931    0.267    0.319   52.873
  545.250    7.475    0.283    0.348   65.116
  545.500    7.778    0.297    0.545   75.420
  545.750    8.278    0.234    0.446   82.936
  546.000    8.711    0.186    0.413   88.149
  546.250    9.133    0.152    0.385   90.271
  546.500    9.326    0.136    0.373   88.999
  546.750    9.434    0.125    0.353   67.788
  547.000    9.244    0.150    0.340   65.849
  547.250    8.658    0.184    0.350   61.729
  547.500    8.263    0.218    0.375   58.518
  547.750    7.580    0.251    0.396   54.640
  548.000    6.672    0.291    0.401   47.247
  548.250    5.951    0.310    0.401   36.096
  548.500    5.409    0.319    0.392   33.552
  548.750    5.250    0.325    0.382   31.795
  549.000    5.222    0.322    0.373   30.220
  549.250    5.243    0.309    0.375   28.403
  549.500    5.364    0.310    0.383   29.070
  549.750    5.561    0.315    0.392   31.253
  550.000    5.829    0.303    0.377   34.830
  550.250    6.528    0.287    0.356   37.861
  550.500    7.240    0.270    0.362   34.044
  550.750    9.160    0.217    0.367   28.166
  551.000   11.655    0.071    0.328   23.985
  551.250   16.322    0.044    0.248   21.380
  551.500   19.963    0.027    0.211   19.987
  551.750   24.741    0.017    0.204   19.260
  552.000   29.474    0.007    0.205   19.989
  552.250   37.292   -0.000    0.227   20.171
