~VERSION INFORMATION
 VERS.                 2.0:   CWLS LOG ASCII STANDARD -VERSION 2.0
 WRAP.                  NO:   ONE LINE PER DEPTH STEP
~WELL INFORMATION BLOCK
#MNEM.UNIT           DATA                    DESCRIPTION OF MNEMONIC
#---------    -------------------            -------------------------------
# Generated from Intellog Unique Number	CC_80_83/WELL/2380
NULL.         -999.25                        : NULL_VALUE
WELL.         BVX ET AL WATCHUSK             : Well_name    - WELL
LOC .         10-27-082-02W4                 : Location     - LOCATION          
UWI .         00/10-27-082-02W400            : Uwi          - UNIQUE WELL ID    
ENTR.         DW                             : Entered      - ENTERED BY        
SRVC.         SCHLUMBERGER                   : Scn          - SERVICE COMPANY   
DATE.         04 FEB 79                      : Date         - LOG DATE
STRT.M        125                            : top_depth    - START DEPTH       
STOP.M        310.099                        : bot_depth    - STOP DEPTH        
STEP.M        0.3                            : increment    - STEP LENGTH       
~CURVE INFORMATION BLOCK
#MNEM UNIT       ERCB CURVE CODE    CURVE DESCRIPTION
#-----------   ------------------   ----------------------------------
DEPT.M        00 001 00 00         : DEPTH        - DEPTH                       
DPHI.V/V      00 890 00 00         : PHID         - DENSITY POROSITY (LIMESTONE)
NPHI.V/V      00 330 00 00         : PHIN         - NEUTRON POROSITY (LIMESTONE)
GR  .API      00 310 00 00         : GR           - GAMMA RAY                   
ILD .OHMM     00 120 00 00         : RESD         - DEEP RESISTIVITY (DIL)      
~PARAMETER INFORMATION       
#MNEM.UNIT           DATA             DESCRIPTION OF MNEMONIC
#---------         -----------     ------------------------------
GL  .M        466                  : gl           - GROUND LEVEL ELEVATION      
EREF.M        469.4                : kb           - ELEVATION OF DEPTH REFERENCE
DATM.M        469.4                : datum        - DATUM ELEVATION             
TDD .M        322                  : tdd          - TOTAL DEPTH DRILLER         
RUN .         ONE                  : Run          - RUN NUMBER                  
ENG .         BILL                 : Engineer     - RECORDING ENGINEER          
WIT .         JIM                  : Witness      - WITNESSED BY                
MUD .         GEL                  : Mud_type     - MUD TYPE                    
MATR.         LIMESTONE            : Logunit      - NEUTRON MATRIX              
TMAX.C        25                   : BHT          - MAXIMUM RECORDED TEMPERATURE
BHTD.M        322                  : BHTDEP       - MAXIMUM RECORDED TEMPERATURE
MATR.         1                    : LOGUNIT      - NEUTRON MATRIX              
RMT .C        25                   : MDTP         - TEMPERATURE OF MUD          
NEUT.         1                    : NEUTRON      - NEUTRON TYPE                
RESI.         0                    : RESIST       - RESISTIVITY TYPE            
RMC .OHMM     0.25                 : RMC          - RESISTIVITY OF MUD CAKE     
RMF .OHMM     0.25                 : RMF          - RESISTIVITY OF MUD FILTRATE 
SUFT.C        15                   : SUFT         - SURFACE TEMPERATURE         
~A  DEPTH     PHID     PHIN       GR     RESD
# ...
  177.201    0.314    0.587   83.267    2.632
  177.501    0.309    0.566   78.947    2.632
  177.801    0.314    0.565   78.960    2.734
  178.101    0.318    0.582   89.505    2.893
  178.401    0.315    0.591   90.141    3.240
  178.701    0.304    0.586   87.676    3.365
  179.001    0.284    0.537   84.594    3.840
  179.301    0.268    0.481   84.608    4.638
  179.601    0.251    0.467   85.865    5.497
  179.901    0.248    0.463   87.736    5.817
  180.201    0.256    0.461   88.371    5.928
  180.501    0.263    0.458   89.626    5.929
  180.801    0.267    0.459   90.879    5.709
  181.101    0.269    0.448   89.035    5.709
  181.401    0.268    0.466   96.482    5.603
  181.701    0.263    0.482   94.022    5.196
  182.001    0.266    0.495   89.082    4.728
  182.301    0.265    0.528   87.857    4.468
  182.601    0.265    0.567   89.732    4.143
  182.901    0.262    0.532   94.698    3.700
  183.201    0.262    0.512  104.007    3.496
  183.501    0.262    0.522  103.401    3.631
  183.801    0.254    0.522   99.087    3.770
  184.101    0.252    0.526  101.575    3.916
  184.401    0.252    0.525  100.969    3.990
  184.701    0.258    0.510  102.841    4.066
  185.001    0.273    0.507  108.431    3.990
  185.301    0.279    0.502  101.016    3.843
  185.601    0.282    0.508   97.935    3.771
  185.901    0.281    0.535   97.947    3.564
  186.201    0.275    0.549  104.154    3.701
  186.501    0.261    0.530  105.408    3.843
  186.801    0.246    0.506   96.756    4.304
  187.101    0.242    0.470   95.528    5.006
  187.401    0.241    0.438   94.925    5.501
  187.701    0.239    0.434   96.802    5.822
  188.001    0.239    0.450   96.194    6.046
  188.301    0.229    0.439   93.731    6.279
  188.601    0.222    0.424   85.692    6.279
  188.901    0.218    0.423   77.036    6.399
  189.201    0.243    0.423   73.336    6.521
  189.501    0.276    0.424   75.212    6.280
  189.801    0.287    0.430   81.419    5.934
  190.101    0.299    0.458   89.484    5.103
  190.401    0.314    0.560  101.268    4.822
  190.701    0.302    0.545  111.813    5.103
  191.001    0.247    0.456  119.882    5.401
  191.301    0.227    0.455  119.901    5.300
  191.601    0.218    0.456  118.052    5.715
  191.901    0.209    0.457  118.071    5.824
  192.201    0.200    0.462  118.701    5.825
  192.501    0.222    0.472  116.241    5.936
  192.801    0.221    0.473  111.918    5.936
  193.101    0.203    0.438  104.502    5.936
  193.401    0.193    0.440  107.614    5.936
  193.701    0.205    0.441  111.963    6.050
  194.001    0.209    0.447  116.933    6.050
  194.301    0.196    0.449  119.425    6.165
  194.601    0.190    0.447  118.822    6.165
  194.901    0.206    0.438  110.166    6.166
  195.201    0.216    0.432  102.749    6.283
  195.501    0.202    0.427   99.046    6.166
  195.801    0.204    0.416   91.628    6.166
  196.101    0.215    0.366   82.972    6.284
  196.401    0.220    0.379   84.847    6.404
  196.701    0.224    0.385   90.439    6.526
  197.001    0.226    0.363   92.311    6.526
  197.301    0.233    0.384   92.322    6.526
  197.601    0.239    0.403   93.576    6.651
  197.901    0.245    0.385   89.879    6.778
  198.201    0.243    0.386   87.413    6.778
  198.501    0.255    0.376   85.568    6.652
  198.801    0.256    0.387   83.106    6.779
  199.101    0.248    0.388   81.269    6.908
  199.401    0.243    0.361   83.136    6.779
  199.701    0.240    0.366   90.585    6.528
  200.001    0.250    0.367   87.501    6.054
  200.301    0.266    0.356   76.990    5.721
  200.601    0.271    0.352   78.862    5.721
  200.901    0.262    0.364   85.070    5.830
  201.201    0.247    0.378   93.755    5.721
  201.501    0.234    0.388   96.867    5.305
  201.801    0.251    0.379   86.971    5.206
  202.101    0.273    0.373   81.412    4.920
  202.401    0.284    0.373   88.244    5.014
  202.701    0.289    0.367   88.875    5.207
  203.001    0.287    0.347   86.413    5.615
  203.301    0.263    0.335   92.002    5.831
  203.601    0.239    0.337   93.257    6.056
  203.901    0.245    0.351   87.079    5.832
  204.201    0.256    0.358   82.138    5.511
  204.501    0.268    0.350   76.578    5.408
  204.801    0.264    0.342   79.694    5.408
  205.101    0.259    0.349   81.565    5.307
  205.401    0.267    0.370   79.718    5.015
  205.701    0.270    0.370   71.683    4.739
  206.001    0.273    0.368   67.980    4.479
  206.301    0.263    0.369   75.428    4.313
  206.601    0.278    0.372   66.770    4.232
  206.901    0.315    0.364   53.780    3.999
  207.201    0.318    0.357   40.166    3.999
  207.501    0.307    0.352   45.756    4.000
  207.801    0.292    0.392   52.587    4.233
  208.101    0.299    0.374   53.838    4.396
  208.401    0.306    0.364   63.145    4.565
  208.701    0.284    0.375   68.736    4.831
  209.001    0.284    0.389   67.512    4.741
  209.301    0.297    0.389   58.853    4.396
  209.601    0.307    0.382   47.100    3.926
  209.901    0.321    0.370   52.694    3.780
  210.201    0.319    0.353   60.759    3.853
  210.501    0.304    0.340   69.443    4.001
  210.801    0.286    0.333   65.743    4.315
  211.101    0.272    0.332   73.191    4.653
  211.401    0.271    0.356   77.541    4.653
  211.701    0.296    0.365   66.407    4.481
  212.001    0.317    0.361   52.795    4.315
  212.301    0.325    0.360   41.663    4.078
  212.601    0.330    0.362   39.818    3.781
  212.901    0.330    0.351   38.595    3.641
  213.201    0.320    0.344   41.088    3.642
  213.501    0.307    0.345   47.914    3.711
  213.801    0.307    0.351   49.790    3.854
  214.101    0.326    0.361   42.991    3.927
  214.401    0.328    0.366   41.150    3.928
  214.701    0.311    0.365   44.881    3.854
  215.001    0.302    0.362   47.373    3.712
  215.301    0.306    0.360   48.625    3.574
  215.601    0.311    0.369   30.675    3.442
  215.901    0.316    0.366   29.456    3.315
  216.201    0.320    0.369   30.707    3.253
  216.501    0.324    0.372   33.200    3.192
  216.801    0.316    0.359   40.026    3.192
  217.101    0.309    0.362   45.617    3.074
  217.401    0.311    0.369   41.916    3.074
  217.701    0.319    0.375   38.834    3.017
  218.001    0.315    0.374   41.331    3.017
  218.301    0.312    0.368   40.725    3.017
  218.601    0.315    0.372   40.119    2.961
  218.901    0.318    0.378   38.896    2.961
  219.201    0.321    0.389   38.911    2.961
  219.501    0.328    0.387   37.067    2.961
  219.801    0.338    0.382   37.084    2.961
  220.101    0.337    0.384   38.333    2.906
  220.401    0.331    0.381   37.733    2.906
  220.701    0.333    0.376   37.747    2.906
  221.001    0.334    0.381   37.763    2.906
  221.301    0.333    0.380   36.536    2.906
  221.601    0.332    0.374   33.453    2.961
  221.901    0.327    0.359   30.995    2.962
  222.201    0.317    0.351   31.624    3.018
  222.501    0.311    0.351   33.500    3.018
  222.801    0.317    0.357   37.232    3.018
  223.101    0.322    0.367   41.580    3.018
  223.401    0.325    0.392   47.172    3.018
  223.701    0.328    0.383   48.425    2.962
  224.001    0.324    0.371   36.055    2.962
  224.301    0.323    0.363   32.971    2.962
  224.601    0.321    0.362   32.370    2.962
  224.901    0.319    0.356   31.146    3.019
  225.201    0.300    0.349   30.536    3.019
  225.501    0.292    0.340   31.174    3.077
  225.801    0.290    0.335   33.047    3.256
  226.101    0.289    0.325   36.159    3.318
  226.401    0.292    0.323   39.891    3.446
  226.701    0.305    0.325   41.141    3.446
  227.001    0.327    0.348   38.679    3.382
  227.301    0.343    0.404   33.121    3.256
  227.601    0.343    0.380   36.233    3.196
  227.901    0.332    0.367   41.201    3.136
  228.201    0.319    0.353   46.171    3.136
  228.501    0.303    0.347   51.762    3.196
  228.801    0.284    0.336   56.733    3.382
  229.101    0.288    0.336   60.463    3.717
