~VERSION INFORMATION
 VERS.                 2.0:   CWLS LOG ASCII STANDARD -VERSION 2.0
 WRAP.                  NO:   ONE LINE PER DEPTH STEP
~WELL INFORMATION BLOCK
#MNEM.UNIT           DATA                    DESCRIPTION OF MNEMONIC
#---------    -------------------            -------------------------------
# Generated from Intellog Unique Number	CS_77_79/WELL/1010
WELL.         MAYNARD ET AL THORNBURY        : Well_name    - WELL
LOC .         00/11-35-079-12W4/0            : Location     - LOCATION
UWI .         00/11-35-079-12W4/0            : Uwi          - UNIQUE WELL ID
ENTR.         JHS                            : Entered      - ENTERED BY
SRVC.         SCHLUMBERGER                   : Scn          - SERVICE COMPANY
STRT.M        215                            : top_depth    - START DEPTH
STOP.M        480                            : bot_depth    - STOP DEPTH
STEP.M        0.25                           : increment    - STEP LENGTH
 NULL. -999.2500:NULL Value
~CURVE INFORMATION BLOCK
#MNEM UNIT       ERCB CURVE CODE    CURVE DESCRIPTION
#-----------   ------------------   ----------------------------------
DEPT.M        00 001 00 00         : DEPTH        - DEPTH
DPHI.V/V      00 890 00 00         : PHID         - DENSITY POROSITY (LIMESTONE)
NPHI.V/V      00 330 00 00         : PHIN         - NEUTRON POROSITY (LIMESTONE)
GR  .API      00 310 00 00         : GR           - GAMMA RAY
ILD .OHMM     00 120 00 00         : RESD         - DEEP RESISTIVITY (DIL)
RHOB.KG/M3    00 350 00 00         : DENS         - BULK DENSITY
~PARAMETER INFORMATION
#MNEM.UNIT           DATA             DESCRIPTION OF MNEMONIC
#---------         -----------     ------------------------------
GL  .M        681.99               : gl           - GROUND LEVEL ELEVATION
EREF.M        685.19               : kb           - ELEVATION OF DEPTH REFERENCE
DATM.M        685.19               : datum        - DATUM ELEVATION
TDD .M        495                  : tdd          - TOTAL DEPTH DRILLER
RUN .         ONE                  : Run          - RUN NUMBER
ENG .         BILL                 : Engineer     - RECORDING ENGINEER
WIT .         JIM                  : Witness      - WITNESSED BY
MUD .         GEL                  : Mud_type     - MUD TYPE
MATR.         LIMESTONE            : Logunit      - NEUTRON MATRIX
TMAX.C        20                   : BHT          - MAXIMUM RECORDED TEMPERATURE
BHTD.M        495                  : BHTDEP       - MAXIMUM RECORDED TEMPERATURE
MATR.         1                    : LOGUNIT      - NEUTRON MATRIX
RMT .C        25                   : MDTP         - TEMPERATURE OF MUD
NEUT.         1                    : NEUTRON      - NEUTRON TYPE
RESI.         0                    : RESIST       - RESISTIVITY TYPE
RMC .OHMM     0.25                 : RMC          - RESISTIVITY OF MUD CAKE
RMF .OHMM     0.25                 : RMF          - RESISTIVITY OF MUD FILTRATE
SUFT.C        15                   : SUFT         - SURFACE TEMPERATURE
~A  DEPTH     PHID     PHIN       GR     RESD     DENS
# ...
  397.500    0.059    0.210   61.989   10.612    0.000
  397.750    0.027    0.208   59.557   12.341    0.000
  398.000    0.031    0.219   62.063   12.918    0.000
  398.250    0.137    0.244   65.178   12.424    0.000
  398.500    0.184    0.296   69.530   10.943    0.000
  398.750    0.215    0.344   76.354    9.462    0.000
  399.000    0.258    0.413   81.943    8.228    0.000
  399.250    0.270    0.422   81.973    6.747    0.000
  399.500    0.279    0.425   80.163    6.501    0.000
  399.750    0.267    0.426   79.570    6.501    0.000
  400.000    0.256    0.423   75.618    6.831    0.000
  400.250    0.244    0.414   74.405    6.831    0.000
  400.500    0.245    0.414   75.646    6.831    0.000
  400.750    0.261    0.425   78.734    6.666    0.000
  401.000    0.262    0.432   81.206    6.501    0.000
  401.250    0.262    0.436   83.676    6.336    0.000
  401.500    0.276    0.441   86.148    6.171    0.000
  401.750    0.282    0.426   86.778    6.006    0.000
  402.000    0.294    0.415   87.405    5.924    0.000
  402.250    0.302    0.406   86.191    5.923    0.000
  402.500    0.288    0.398   84.361    5.923    0.000
  402.750    0.277    0.404   83.758    5.923    0.000
  403.000    0.262    0.416   83.156    5.840    0.000
  403.250    0.252    0.436   81.324    5.840    0.000
  403.500    0.254    0.444   80.109    5.758    0.000
  403.750    0.258    0.449   80.123    5.675    0.000
  404.000    0.255    0.448   82.596    5.593    0.000
  404.250    0.247    0.449   86.298    5.428    0.000
  404.500    0.242    0.451   91.230    5.263    0.000
  404.750    0.237    0.447   95.545    5.180    0.000
  405.000    0.234    0.438   98.631    5.262    0.000
  405.250    0.229    0.423   99.263    5.509    0.000
  405.500    0.221    0.410   99.278    5.838    0.000
  405.750    0.221    0.397   96.830    6.414    0.000
  406.000    0.232    0.395   93.156    6.578 2312.620
  406.250    0.240    0.393   92.550    6.660 2300.010
  406.500    0.236    0.373   90.720    6.825 2306.370
  406.750    0.216    0.348   78.440    7.154 2340.100
  407.000    0.156    0.330   74.765    7.647 2443.370
  407.250    0.124    0.325   74.162    7.894 2498.180
  407.500    0.110    0.330   75.409    8.058 2521.390
  407.750    0.119    0.353   77.262    8.058 2506.670
  408.000    0.153    0.383   87.115    7.811 2447.720
  408.250    0.187    0.421   92.045    7.317 2390.860
  408.500    0.216    0.438   95.130    6.822 2340.330
  408.750    0.217    0.428   97.607    6.658 2338.260
  409.000    0.208    0.422   98.849    6.657 2355.150
  409.250    0.210    0.426  100.089    6.822 2350.970
  409.500    0.205    0.433   98.875    6.821 2359.420
  409.750    0.195    0.435   98.274    6.821 2376.320
  410.000    0.196    0.439   98.285    6.903 2374.240
  410.250    0.195    0.432   99.528    6.903 2376.380
  410.500    0.198    0.418   97.082    6.985 2372.200
  410.750    0.201    0.414   97.711    7.067 2365.910
  411.000    0.196    0.413   98.957    7.231 2374.370
  411.250    0.188    0.408   98.353    7.313 2389.150
  411.500    0.183    0.408   97.135    7.396 2397.610
  411.750    0.174    0.412   98.381    7.478 2412.390
  412.000    0.190    0.417   99.622    7.560 2385.040
  412.250    0.200    0.419   96.562    7.559 2368.220
  412.500    0.205    0.419   95.347    7.230 2359.820
  412.750    0.224    0.419   96.589    6.900 2326.140
  413.000    0.221    0.420   98.446    6.736 2332.500
  413.250    0.206    0.422   99.074    6.488 2357.810
  413.500    0.200    0.423   98.475    6.159 2368.380
  413.750    0.199    0.425   99.715    5.583 2370.520
  414.000    0.195    0.430   98.500    5.089 2376.870
  414.250    0.206    0.435   93.596    4.512 2357.940
  414.500    0.207    0.442   93.610    3.936 2355.870
  414.750    0.217    0.472   94.239    3.195 2339.050
  415.000    0.240    0.498   91.178    2.701 2299.050
  415.250    0.249    0.515   89.345    2.371 2284.340
  415.500    0.277    0.534   88.130    2.206 2235.910
  415.750    0.278    0.541   86.913    2.206 2233.840
  416.000    0.267    0.536   84.472    2.206 2252.840
  416.250    0.264    0.519   85.712    2.288 2259.190
  416.500    0.249    0.494   87.568    2.370 2284.500
  416.750    0.222    0.467   90.040    2.699 2330.880
  417.000    0.216    0.441   91.898    2.946 2341.450
  417.250    0.216    0.425   90.683    3.521 2341.480
  417.500    0.214    0.404   90.696    4.180 2343.630
  417.750    0.207    0.388   92.553    4.755 2356.290
  418.000    0.196    0.388   90.721    5.496 2375.290
  418.250    0.180    0.381   88.276    5.907 2402.710
  418.500    0.177    0.378   87.675    6.154 2406.950
  418.750    0.183    0.387   92.606    6.154 2396.450
  419.000    0.197    0.399   96.309    5.660 2373.310
  419.250    0.208    0.414   97.553    5.248 2354.380
  419.500    0.220    0.427   96.950    4.836 2333.350
  419.750    0.230    0.431   95.118    4.671 2316.530
  420.000    0.223    0.416   91.443    4.589 2329.200
  420.250    0.215    0.401   88.383    4.835 2341.870
  420.500    0.189    0.389   86.554    5.493 2386.150
  420.750    0.178    0.385   91.484    5.740 2405.150
  421.000    0.187    0.404   93.958    5.657 2390.430
  421.250    0.205    0.427   95.200    5.246 2358.870
  421.500    0.210    0.446   96.442    4.752 2350.460
  421.750    0.210    0.460   99.531    4.257 2350.510
  422.000    0.203    0.470   98.929    3.846 2363.180
  422.250    0.197    0.476   98.329    3.516 2373.750
  422.500    0.195    0.481   98.341    3.351 2375.890
  422.750    0.197    0.474   99.583    3.433 2373.800
  423.000    0.199    0.457   97.137    3.516 2369.620
  423.250    0.189    0.445   94.692    3.680 2386.510
  423.500    0.161    0.437   99.624    3.762 2435.000
  423.750    0.156    0.434  103.940    3.926 2443.460
  424.000    0.160    0.434  105.797    4.091 2437.170
  424.250    0.173    0.436  110.732    4.173 2414.030
  424.500    0.195    0.440  111.974    4.255 2376.140
  424.750    0.193    0.442  111.371    4.337 2380.390
  425.000    0.177    0.435  103.395    4.419 2407.810
  425.250    0.171    0.433  105.249    4.418 2418.370
  425.500    0.188    0.434  106.495    4.418 2388.910
  425.750    0.190    0.429  107.735    4.336 2384.730
  426.000    0.200    0.412  108.364    4.335 2367.910
  426.250    0.196    0.395  107.148    4.418 2374.260
  426.500    0.198    0.374   98.553    4.746 2372.190
  426.750    0.185    0.360   91.806    5.240 2393.290
  427.000    0.172    0.349   88.131    5.981 2416.490
  427.250    0.183    0.344   85.684    7.215 2397.570
  427.500    0.204    0.348   85.082    8.943 2361.780
  427.750    0.212    0.355   88.788   10.013 2347.070
  428.000    0.233    0.353   90.646   10.588 2311.290
  428.250    0.253    0.345   90.041   10.917 2277.610
  428.500    0.248    0.350   88.212   10.917 2286.080
  428.750    0.238    0.360   90.068   10.917 2302.960
  429.000    0.232    0.366   88.853   10.917 2313.520
  429.250    0.224    0.369   88.865   10.916 2326.200
  429.500    0.227    0.372   86.424   11.081 2322.020
  429.750    0.227    0.380   88.279   11.410 2322.060
  430.000    0.219    0.382   93.826   11.739 2334.740
  430.250    0.211    0.386   98.755   12.068 2349.500
  430.500    0.191    0.391  104.918   11.985 2383.240
  430.750    0.164    0.391  109.234   11.079 2429.630
  431.000    0.153    0.392  113.551   10.338 2448.620
  431.250    0.155    0.391  114.793    9.680 2444.450
  431.500    0.168    0.380  115.421    9.103 2423.410
  431.750    0.185    0.360  108.675    9.268 2393.950
  432.000    0.201    0.344  104.996    9.926 2366.590
  432.250    0.203    0.328   98.248   11.407 2362.410
  432.500    0.216    0.318   90.272   13.382 2341.370
  432.750    0.220    0.309   84.134   16.016 2332.980
  433.000    0.214    0.302   73.698   23.770 2343.550
  433.250    0.225    0.302   68.791   28.689 2324.620
  433.500    0.234    0.314   66.348   31.967 2309.900
  433.750    0.241    0.325   68.208   35.246 2297.290
