~VERSION INFORMATION
 VERS.                 2.0:   CWLS LOG ASCII STANDARD -VERSION 2.0
 WRAP.                  NO:   ONE LINE PER DEPTH STEP
~WELL INFORMATION BLOCK
#MNEM.UNIT           DATA                    DESCRIPTION OF MNEMONIC
#---------    -------------------            -------------------------------
# Generated from Intellog Unique Number	CN_94_101/WELL/5000
WELL.         10-02-099-13W4                 : Well_name    - WELL
LOC .         00/10-02-099-13W4/0            : Location     - LOCATION
UWI .         00/10-02-099-13W400            : Uwi          - UNIQUE WELL ID
ENTR.         TOP                            : Entered      - ENTERED BY
SRVC.         SCHLUMBERGER                   : Scn          - SERVICE COMPANY
DATE.         08/11/92                       : Date         - LOG DATE
STRT.M        375                            : top_depth    - START DEPTH
STOP.M        575                            : bot_depth    - STOP DEPTH
STEP.M        0.25                           : increment    - STEP LENGTH
 NULL. -999.2500:NULL Value
~CURVE INFORMATION BLOCK
#MNEM UNIT       ERCB CURVE CODE    CURVE DESCRIPTION
#-----------   ------------------   ----------------------------------
DEPT.M        00 001 00 00         : DEPTH        - DEPTH
GR  .API      00 310 00 00         : GR           - GAMMA RAY
ILD .OHMM     00 120 00 00         : RESD         - DEEP RESISTIVITY (DIL)
NPHI.V/V      00 330 00 00         : PHIN         - NEUTRON POROSITY (SANDSTONE)
DPHI.V/V      00 890 00 00         : PHID         - DENSITY POROSITY (SANDSTONE)
~PARAMETER INFORMATION
#MNEM.UNIT           DATA             DESCRIPTION OF MNEMONIC
#---------         -----------     ------------------------------
GL  .M        827                  : gl           - GROUND LEVEL ELEVATION
EREF.M        830                  : kb           - ELEVATION OF DEPTH REFERENCE
DATM.M        830                  : datum        - DATUM ELEVATION
TDD .M        564                  : tdd          - TOTAL DEPTH DRILLER
RUN .         ONE                  : Run          - RUN NUMBER
ENG .         BILL                 : Engineer     - RECORDING ENGINEER
WIT .         JIM                  : Witness      - WITNESSED BY
MUD .         GEL                  : Mud_type     - MUD TYPE
MATR.         SANDSTONE            : Logunit      - NEUTRON MATRIX
TMAX.C        27                   : BHT          - MAXIMUM RECORDED TEMPERATURE
BHTD.M        564                  : BHTDEP       - MAXIMUM RECORDED TEMPERATURE
RMT .C        12                   : MDTP         - TEMPERATURE OF MUD
MUDD.KG/M     1090                 : MWT          - MUD DENSITY
NEUT.         1                    : NEUTRON      - NEUTRON TYPE
RESI.         0                    : RESIST       - RESISTIVITY TYPE
RM  .OHMM     5.8                  : RM           - RESISTIVITY OF MUD
RMC .OHMM     1.8                  : RMC          - RESISTIVITY OF MUD CAKE
RMF .OHMM     5.8                  : RMF          - RESISTIVITY OF MUD FILTRATE
SUFT.C        4                    : SUFT         - SURFACE TEMPERATURE
~A  DEPTH       GR     RESD     PHIN     PHID
# ...
  462.000   90.364    5.425    0.424    0.299
  462.250   89.191    5.333    0.419    0.302
  462.500   86.807    5.343    0.418    0.303
  462.750   86.233    5.559    0.419    0.306
  463.000   85.672    5.887    0.420    0.304
  463.250   83.288    6.604    0.416    0.283
  463.500   82.728    6.994    0.405    0.275
  463.750   82.154    7.694    0.403    0.291
  464.000   78.546    8.463    0.396    0.305
  464.250   74.912    8.967    0.388    0.333
  464.500   71.929    8.985    0.377    0.334
  464.750   71.342    9.003    0.375    0.327
  465.000   73.855    9.014    0.372    0.319
  465.250   75.755    8.861    0.365    0.314
  465.500   75.781    8.386    0.355    0.304
  465.750   75.833    7.793    0.410    0.301
  466.000   77.733    7.110    0.421    0.296
  466.250   80.858    6.364    0.420    0.279
  466.500   82.746    6.021    0.423    0.264
  466.750   85.870    5.389    0.426    0.242
  467.000   87.745    5.010    0.433    0.249
  467.250   90.245    4.831    0.447    0.269
  467.500   92.745    4.661    0.455    0.285
  467.750   95.231    4.413    0.455    0.294
  468.000   95.895    4.258    0.442    0.296
  468.250   94.735    4.109    0.434    0.293
  468.500   92.351    4.039    0.431    0.299
  468.750   91.765    3.969    0.427    0.305
  469.000   89.980    4.052    0.426    0.299
  469.250   90.643    4.377    0.438    0.295
  469.500   95.604    4.382    0.449    0.292
  469.750   99.328    4.151    0.458    0.297
  470.000  101.216    3.930    0.469    0.302
  470.250  100.043    3.862    0.467    0.299
  470.500   97.034    3.726    0.464    0.293
  470.750   95.861    3.664    0.456    0.291
  471.000   97.749    3.668    0.451    0.284
  471.250   99.637    3.744    0.476    0.283
  471.500  100.326    3.893    0.484    0.288
  471.750  100.364    4.126    0.492    0.291
  472.000  100.416    4.374    0.459    0.293
  472.250  100.467    4.546    0.458    0.295
  472.500  100.506    4.640    0.465    0.296
  472.750   99.346    4.647    0.471    0.297
  473.000   98.785    4.741    0.475    0.296
  473.250   97.612    4.932    0.472    0.294
  473.500   95.216    5.131    0.465    0.293
  473.750   93.418    5.236    0.454    0.291
  474.000   91.021    5.344    0.445    0.287
  474.250   91.098    5.454    0.435    0.282
  474.500   91.749    5.566    0.425    0.284
  474.750   92.425    5.577    0.417    0.291
  475.000   90.041    5.584    0.409    0.296
  475.250   88.843    5.590    0.404    0.274
  475.500   88.907    5.601    0.396    0.276
  475.750   88.958    5.509    0.422    0.284
  476.000   87.785    5.513    0.449    0.286
  476.250   87.212    5.424    0.464    0.290
  476.500   86.664    5.430    0.467    0.299
  476.750   87.328    5.437    0.475    0.314
  477.000   88.004    5.450    0.452    0.304
  477.250   89.280    5.456    0.440    0.293
  477.500   89.917    5.266    0.446    0.292
  477.750   92.430    5.173    0.448    0.288
  478.000   91.270    4.809    0.451    0.283
  478.250   90.072    4.725    0.448    0.288
  478.500   88.899    4.392    0.438    0.299
  478.750   90.200    4.316    0.436    0.303
  479.000   90.851    4.166    0.438    0.297
  479.250   91.514    4.255    0.438    0.293
  479.500   89.742    4.422    0.438    0.287
  479.750   89.156    4.513    0.436    0.289
  480.000   89.820    4.606    0.436    0.293
  480.250   92.332    4.701    0.435    0.295
  480.500   93.608    4.707    0.431    0.285
  480.750   91.849    4.718    0.426    0.216
  481.000   91.262    4.724    0.425    0.244
  481.250   90.702    4.645    0.425    0.273
  481.500   93.214    4.563    0.423    0.287
  481.750   91.416    4.572    0.422    0.295
  482.000   87.808    4.494    0.422    0.267
  482.250   86.011    4.501    0.434    0.229
  482.500   88.523    4.508    0.450    0.266
  482.750   92.859    4.434    0.450    0.284
  483.000   94.734    4.437    0.450    0.292
  483.250   98.471    4.281    0.456    0.282
  483.500   99.746    4.055    0.464    0.258
  483.750   97.962    3.768    0.470    0.257
  484.000   98.013    3.568    0.467    0.269
  484.250   98.064    3.506    0.455    0.278
  484.500   94.430    3.514    0.443    0.281
  484.750   90.210    3.517    0.429    0.275
  485.000   89.649    3.589    0.419    0.248
  485.250   90.912    3.804    0.414    0.218
  485.500   97.097    4.031    0.413    0.204
  485.750  101.433    4.193    0.417    0.236
  486.000  101.485    4.200    0.441    0.260
  486.250  100.937    4.054    0.447    0.269
  486.500   99.165    3.982    0.456    0.263
  486.750   97.966    3.914    0.452    0.252
  487.000   98.031    3.922    0.428    0.257
  487.250  101.155    4.155    0.416    0.266
  487.500  100.569    4.401    0.421    0.274
  487.750   98.198    5.121    0.419    0.270
  488.000   97.611    6.309    0.414    0.241
  488.250   98.275    6.937    0.404    0.243
  488.500   97.714    7.493    0.396    0.247
  488.750   94.731    7.788    0.394    0.252
  489.000   93.558    8.574    0.394    0.251
  489.250   93.584    8.912    0.390    0.238
  489.500   95.484    9.264    0.387    0.223
  489.750   96.760    9.823    0.380    0.225
  490.000   94.975    9.835    0.406    0.246
  490.250   93.190    9.668    0.412    0.255
  490.500   92.018    9.327    0.415    0.249
  490.750   89.621    8.667    0.412    0.246
  491.000   88.448    8.210    0.409    0.251
  491.250   89.711    7.917    0.406    0.256
  491.500   90.999    7.641    0.402    0.254
  491.750   89.839    7.369    0.398    0.252
  492.000   87.442    7.115    0.390    0.257
  492.250   86.270    7.124    0.387    0.266
  492.500   85.683    7.003    0.384    0.270
  492.750   86.372    6.884    0.385    0.267
  493.000   88.260    6.767    0.390    0.263
  493.250   91.359    6.777    0.395    0.259
  493.500   96.307    6.788    0.398    0.256
  493.750   94.535    6.797    0.400    0.249
  494.000   93.350    7.073    0.401    0.245
  494.250   90.353    7.216    0.396    0.247
  494.500   91.017    7.361    0.397    0.251
  494.750   94.129    7.512    0.399    0.255
  495.000   94.792    7.527    0.406    0.252
  495.250   92.408    7.537    0.411    0.258
  495.500   91.210    7.408    0.417    0.267
  495.750   90.662    7.147    0.425    0.269
  496.000   90.101    6.895    0.425    0.265
  496.250   88.316    6.655    0.421    0.261
  496.500   85.295    6.795    0.415    0.261
  496.750   85.346    7.068    0.407    0.261
  497.000   87.846    7.074    0.399    0.257
  497.250   89.121    7.222    0.393    0.256
  497.500   89.186    7.234    0.394    0.255
  497.750   89.849    6.849    0.405    0.255
  498.000   90.513    6.485    0.414    0.255
  498.250   93.012    6.254    0.413    0.258
  498.500   96.124    5.924    0.410    0.262
  498.750   98.025    5.828    0.411    0.275
  499.000   97.464    5.833    0.413    0.278
  499.250   96.278    5.950    0.417    0.269
  499.500   93.882    6.073    0.418    0.260
  499.750   92.122    6.317    0.416    0.258
  500.000   90.937    6.572    0.406    0.261
  500.250   90.376    6.701    0.392    0.265
  500.500   91.639    6.839    0.398    0.266
  500.750   93.526    6.240    0.404    0.269
  501.000   94.190    5.377    0.410    0.273
  501.250   96.703    4.636    0.415    0.278
  501.500   99.202    3.997    0.421    0.281
  501.750   98.030    3.714    0.451    0.280
  502.000   95.034    3.652    0.441    0.283
  502.250   93.874    3.522    0.412    0.287
  502.500   93.899    3.276    0.403    0.267
  502.750   96.412    3.100    0.400    0.283
  503.000   98.300    2.936    0.429    0.293
  503.250   98.950    2.831    0.452    0.304
  503.500  100.851    2.683    0.471    0.313
  503.750  100.290    2.686    0.477    0.309
  504.000   96.682    2.689    0.474    0.303
  504.250   94.884    2.744    0.467    0.301
  504.500   93.087    3.019    0.457    0.297
  504.750   92.526    3.259    0.442    0.295
  505.000   91.991    3.585    0.434    0.286
  505.250   92.029    4.173    0.433    0.266
