~VERSION INFORMATION
 VERS.                 2.0:   CWLS LOG ASCII STANDARD -VERSION 2.0
 WRAP.                  NO:   ONE LINE PER DEPTH STEP
~WELL INFORMATION BLOCK
#MNEM.UNIT           DATA                    DESCRIPTION OF MNEMONIC
#---------    -------------------            -------------------------------
# Generated from Intellog Unique Number	CS_71_72/WELL/889
WELL.         BVX ET AL CALL                 : Well_name    - WELL
LOC .         00/11-08-071-16W4/0            : Location     - LOCATION
UWI .         00/11-08-071-16W4/0            : Uwi          - UNIQUE WELL ID
ENTR.         SP                             : Entered      - ENTERED BY
SRVC.         SCHLUMBERGER                   : Scn          - SERVICE COMPANY
STRT.M        285                            : top_depth    - START DEPTH
STOP.M        479                            : bot_depth    - STOP DEPTH
STEP.M        0.25                           : increment    - STEP LENGTH
 NULL. -999.2500:NULL Value
~CURVE INFORMATION BLOCK
#MNEM UNIT       ERCB CURVE CODE    CURVE DESCRIPTION
#-----------   ------------------   ----------------------------------
DEPT.M        00 001 00 00         : DEPTH        - DEPTH
ILD .OHMM     00 120 00 00         : RESD         - DEEP RESISTIVITY (DIL)
DPHI.V/V      00 890 00 00         : PHID         - DENSITY POROSITY (LIMESTONE)
NPHI.V/V      00 330 00 00         : PHIN         - NEUTRON POROSITY (LIMESTONE)
GR  .API      00 310 00 00         : GR           - GAMMA RAY
~PARAMETER INFORMATION
#MNEM.UNIT           DATA             DESCRIPTION OF MNEMONIC
#---------         -----------     ------------------------------
GL  .M        576                  : gl           - GROUND LEVEL ELEVATION
EREF.M        579.6                : kb           - ELEVATION OF DEPTH REFERENCE
DATM.M        576                  : datum        - DATUM ELEVATION
TDD .M        486                  : tdd          - TOTAL DEPTH DRILLER
RUN .         ONE                  : Run          - RUN NUMBER
ENG .         BILL                 : Engineer     - RECORDING ENGINEER
WIT .         JIM                  : Witness      - WITNESSED BY
MUD .         GEL                  : Mud_type     - MUD TYPE
MATR.         LIMESTONE            : Logunit      - NEUTRON MATRIX
TMAX.C        22                   : BHT          - MAXIMUM RECORDED TEMPERATURE
BHTD.M        486                  : BHTDEP       - MAXIMUM RECORDED TEMPERATURE
MATR.         1                    : LOGUNIT      - NEUTRON MATRIX
RMT .C        25                   : MDTP         - TEMPERATURE OF MUD
NEUT.         1                    : NEUTRON      - NEUTRON TYPE
RESI.         0                    : RESIST       - RESISTIVITY TYPE
RMC .OHMM     0.25                 : RMC          - RESISTIVITY OF MUD CAKE
RMF .OHMM     0.25                 : RMF          - RESISTIVITY OF MUD FILTRATE
SUFT.C        15                   : SUFT         - SURFACE TEMPERATURE
~A  DEPTH     RESD     PHID     PHIN       GR
# ...
  415.500    5.546    0.208    0.374   87.850
  415.750    5.523    0.203    0.366   89.515
  416.000    5.480    0.198    0.363   87.807
  416.250    5.428    0.196    0.365   85.484
  416.500    5.324    0.201    0.373   84.020
  416.750    5.184    0.224    0.394   86.113
  417.000    4.991    0.262    0.421   91.641
  417.250    4.751    0.281    0.447   94.961
  417.500    4.488    0.285    0.464   97.728
  417.750    4.216    0.275    0.482  101.111
  418.000    3.961    0.263    0.477  103.264
  418.250    3.756    0.258    0.466  105.664
  418.500    3.643    0.251    0.457  107.758
  418.750    3.615    0.251    0.453  109.667
  419.000    3.614    0.249    0.446  111.454
  419.250    3.627    0.244    0.439  110.849
  419.500    3.633    0.240    0.433  108.588
  419.750    3.610    0.242    0.425  105.779
  420.000    3.610    0.263    0.417  105.049
  420.250    3.582    0.277    0.433  104.505
  420.500    3.541    0.285    0.448  103.839
  420.750    3.487    0.289    0.458  103.050
  421.000    3.440    0.300    0.461  102.876
  421.250    3.355    0.309    0.456  102.637
  421.500    3.348    0.318    0.451  102.031
  421.750    3.348    0.325    0.448  100.692
  422.000    3.353    0.317    0.453   99.534
  422.250    3.390    0.305    0.446   98.316
  422.500    3.434    0.296    0.433   96.669
  422.750    3.545    0.288    0.417   95.450
  423.000    3.736    0.275    0.400   93.377
  423.250    4.059    0.210    0.384   92.767
  423.500    4.359    0.176    0.384   90.262
  423.750    4.620    0.147    0.387   87.266
  424.000    4.944    0.125    0.377   83.594
  424.250    5.320    0.137    0.362   81.946
  424.500    5.909    0.163    0.346   88.947
  424.750    5.999    0.191    0.334   95.086
  425.000    6.479    0.210    0.355  100.798
  425.250    6.589    0.225    0.370   98.538
  425.500    6.599    0.222    0.387   94.927
  425.750    6.450    0.207    0.367   85.491
  426.000    6.363    0.179    0.284   75.504
  426.250    6.796    0.150    0.251   68.828
  426.500    7.885    0.113    0.207   62.029
  426.750    9.220    0.084    0.205   64.367
  427.000   10.578    0.081    0.221   73.329
  427.250   11.403    0.124    0.267   81.493
  427.500   10.592    0.151    0.308   88.493
  427.750    9.192    0.159    0.336   92.917
  428.000    8.145    0.168    0.363   97.586
  428.250    7.536    0.179    0.374  101.212
  428.500    7.255    0.185    0.381  102.018
  428.750    6.972    0.181    0.386   99.636
  429.000    6.763    0.176    0.393   98.295
  429.250    6.412    0.170    0.395   97.078
  429.500    6.339    0.167    0.390   96.715
  429.750    6.219    0.165    0.385   96.479
  430.000    6.147    0.163    0.383   96.549
  430.250    6.157    0.158    0.379   95.884
  430.500    6.332    0.152    0.376   94.665
  430.750    6.451    0.150    0.372   94.918
  431.000    6.659    0.160    0.369   96.520
  431.250    6.721    0.169    0.366   99.288
  431.500    6.808    0.175    0.364  102.117
  431.750    6.832    0.181    0.370  103.658
  432.000    6.442    0.179    0.383  103.606
  432.250    6.343    0.165    0.385  101.652
  432.500    6.107    0.155    0.379  100.188
  432.750    6.105    0.144    0.367   98.786
  433.000    6.326    0.136    0.355   95.421
  433.250    6.482    0.127    0.343   88.870
  433.500    6.987    0.120    0.333   84.952
  433.750    7.200    0.118    0.321   81.893
  434.000    7.502    0.117    0.336   83.864
  434.250    7.601    0.125    0.346   89.148
  434.500    7.756    0.143    0.357   92.528
  434.750    7.712    0.166    0.363   95.847
  435.000    7.189    0.200    0.369   99.967
  435.250    7.014    0.223    0.375  101.444
  435.500    6.502    0.225    0.381  103.477
  435.750    5.882    0.233    0.392  105.324
  436.000    5.202    0.242    0.403  106.559
  436.250    4.778    0.245    0.418  105.402
  436.500    4.281    0.242    0.434  103.387
  436.750    3.744    0.229    0.445  101.432
  437.000    3.249    0.204    0.399   98.376
  437.250    2.884    0.182    0.356   94.030
  437.500    2.659    0.152    0.289   88.273
  437.750    2.921    0.113    0.270   81.903
  438.000    3.467    0.091    0.272   77.373
  438.250    4.131    0.126    0.280   83.208
  438.500    4.921    0.168    0.331   91.372
  438.750    5.765    0.201    0.361   97.513
  439.000    6.466    0.228    0.387   97.031
  439.250    6.970    0.237    0.406   88.821
  439.500    7.333    0.219    0.390   81.409
  439.750    7.612    0.192    0.336   75.591
  440.000    7.668    0.078    0.292   68.793
  440.250    7.841    0.056    0.256   69.353
  440.500    8.631    0.052    0.247   73.469
  440.750    9.571    0.068    0.254   78.078
  441.000   10.535    0.075    0.261   80.968
  441.250   11.861    0.088    0.265   84.473
  441.500   12.836    0.105    0.272   88.222
  441.750   13.503    0.122    0.291   92.645
  442.000   13.756    0.144    0.316   96.762
  442.250   11.071    0.169    0.341  102.044
  442.500    8.776    0.187    0.364  107.204
  442.750    7.446    0.193    0.382  107.335
  443.000    6.635    0.182    0.392  105.014
  443.250    6.116    0.166    0.396  102.937
  443.500    5.702    0.156    0.402  101.473
  443.750    5.326    0.150    0.409   99.642
  444.000    5.070    0.146    0.412   97.202
  444.250    4.918    0.144    0.401   96.593
  444.500    4.779    0.141    0.392   96.170
  444.750    4.724    0.142    0.384   99.246
  445.000    4.732    0.168    0.378  102.197
  445.250    4.740    0.198    0.385  104.782
  445.500    4.756    0.199    0.402  105.648
  445.750    4.719    0.203    0.413  105.166
  446.000    4.683    0.208    0.413  103.888
  446.250    4.594    0.210    0.407  103.220
  446.500    4.541    0.209    0.402  102.676
  446.750    4.446    0.202    0.411  102.379
  447.000    4.379    0.193    0.420  102.387
  447.250    4.320    0.179    0.421  101.844
  447.500    4.278    0.171    0.420  101.421
  447.750    4.277    0.175    0.422  102.594
  448.000    4.284    0.166    0.426  102.297
  448.250    4.332    0.159    0.420   98.993
  448.500    4.404    0.162    0.413   95.076
  448.750    4.496    0.184    0.408   94.779
  449.000    4.615    0.202    0.403   97.424
  449.250    4.719    0.205    0.401  100.070
  449.500    4.798    0.199    0.398  101.365
  449.750    4.842    0.187    0.398  102.048
  450.000    4.869    0.184    0.398  100.952
  450.250    4.867    0.174    0.394   98.814
  450.500    4.866    0.187    0.387  103.178
  450.750    4.810    0.210    0.397  106.742
  451.000    4.728    0.225    0.414  110.553
  451.250    4.449    0.218    0.422  112.829
  451.500    4.407    0.209    0.408  112.224
  451.750    4.195    0.200    0.406  110.025
  452.000    4.023    0.194    0.405  106.907
  452.250    3.858    0.177    0.383   98.941
  452.500    3.961    0.130    0.355   82.514
  452.750    4.596    0.085    0.334   73.140
  453.000    5.486    0.073    0.312   65.053
  453.250    6.877    0.097    0.293   61.016
  453.500    9.158    0.176    0.265   61.023
  453.750   12.104    0.192    0.296   60.356
  454.000   13.783    0.206    0.325   59.690
  454.250   14.664    0.203    0.338   62.460
  454.500   15.513    0.197    0.341   64.735
  454.750   15.835    0.192    0.336   68.485
  455.000   15.389    0.185    0.328   71.929
  455.250   14.592    0.182    0.319   73.776
  455.500   13.996    0.183    0.313   75.071
  455.750   13.348    0.190    0.308   77.348
  456.000   13.169    0.195    0.306   79.687
  456.250   13.091    0.186    0.316   83.498
  456.500   13.014    0.179    0.321   90.252
  456.750   12.719    0.170    0.318  100.072
  457.000   12.175    0.174    0.332  110.751
  457.250   11.309    0.188    0.351  122.472
  457.500   10.192    0.194    0.369  123.462
  457.750    9.082    0.202    0.378  109.059
  458.000    8.092    0.212    0.363   98.948
  458.250    7.320    0.225    0.344   84.177
  458.500    6.723    0.242    0.327   73.269
  458.750    6.423    0.260    0.319   70.212
