~VERSION INFORMATION
 VERS.                 2.0:   CWLS LOG ASCII STANDARD -VERSION 2.0
 WRAP.                  NO:   ONE LINE PER DEPTH STEP
~WELL INFORMATION BLOCK
#MNEM.UNIT           DATA                    DESCRIPTION OF MNEMONIC
#---------    -------------------            -------------------------------
# Generated from Intellog Unique Number	CS_67_68/WELL/2193
WELL.         10-08-067-03W4                 : Well_name    - WELL
LOC .         00/10-08-067-03W4/0            : Location     - LOCATION
UWI .         00/10-08-067-03W4/0            : Uwi          - UNIQUE WELL ID
ENTR.         SP                             : Entered      - ENTERED BY
SRVC.         SCHLUMBERGER                   : Scn          - SERVICE COMPANY
STRT.M        340                            : top_depth    - START DEPTH
STOP.M        576                            : bot_depth    - STOP DEPTH
STEP.M        0.25                           : increment    - STEP LENGTH
 NULL. -999.2500:NULL Value
~CURVE INFORMATION BLOCK
#MNEM UNIT       ERCB CURVE CODE    CURVE DESCRIPTION
#-----------   ------------------   ----------------------------------
DEPT.M        00 001 00 00         : DEPTH        - DEPTH
ILD .OHMM     00 120 00 00         : RESD         - DEEP RESISTIVITY (DIL)
DPHI.V/V      00 890 00 00         : PHID         - DENSITY POROSITY (LIMESTONE)
NPHI.V/V      00 330 00 00         : PHIN         - NEUTRON POROSITY (LIMESTONE)
GR  .API      00 310 00 00         : GR           - GAMMA RAY
CALI.MM       00 280 01 00         : CAL          - CALIPER
~PARAMETER INFORMATION
#MNEM.UNIT           DATA             DESCRIPTION OF MNEMONIC
#---------         -----------     ------------------------------
GL  .M        673.54               : gl           - GROUND LEVEL ELEVATION
EREF.M        678.04               : kb           - ELEVATION OF DEPTH REFERENCE
DATM.M        678.04               : datum        - DATUM ELEVATION
TDD .M        584                  : tdd          - TOTAL DEPTH DRILLER
RUN .         ONE                  : Run          - RUN NUMBER
ENG .         BILL                 : Engineer     - RECORDING ENGINEER
WIT .         JIM                  : Witness      - WITNESSED BY
MUD .         GEL                  : Mud_type     - MUD TYPE
MATR.         LIMESTONE            : Logunit      - NEUTRON MATRIX
TMAX.C        18.3                 : BHT          - MAXIMUM RECORDED TEMPERATURE
BHTD.M        584.5                : BHTDEP       - MAXIMUM RECORDED TEMPERATURE
MATR.         1                    : LOGUNIT      - NEUTRON MATRIX
RMT .C        25                   : MDTP         - TEMPERATURE OF MUD
NEUT.         1                    : NEUTRON      - NEUTRON TYPE
RESI.         0                    : RESIST       - RESISTIVITY TYPE
RMC .OHMM     0.25                 : RMC          - RESISTIVITY OF MUD CAKE
RMF .OHMM     0.25                 : RMF          - RESISTIVITY OF MUD FILTRATE
SUFT.C        15                   : SUFT         - SURFACE TEMPERATURE
~A  DEPTH     RESD     PHID     PHIN       GR      CAL
# ...
  449.500    6.680    0.318    0.457   64.531  157.449
  449.750    6.759    0.313    0.448   66.413  157.436
  450.000    6.865    0.315    0.451   68.600  157.524
  450.250    6.868    0.324    0.452   69.691  157.918
  450.500    6.872    0.330    0.459   69.257  158.209
  450.750    6.966    0.325    0.458   66.017  158.504
  451.000    7.155    0.317    0.467   64.973  158.593
  451.250    7.446    0.302    0.464   66.368  158.580
  451.500    7.735    0.269    0.470   65.628  158.667
  451.750    8.035    0.270    0.479   63.669  158.859
  452.000    8.363    0.280    0.483   64.881  158.643
  452.250    8.574    0.287    0.472   67.373  158.631
  452.500    8.465    0.300    0.464   69.013  158.617
  452.750    8.343    0.311    0.457   69.432  158.402
  453.000    8.222    0.300    0.469   68.203  158.286
  453.250    8.180    0.294    0.481   66.917  158.072
  453.500    8.293    0.298    0.434   63.554  158.361
  453.750    8.359    0.298    0.412   61.230  158.552
  454.000    8.300    0.304    0.416   58.233  158.541
  454.250    8.180    0.311    0.432   57.252  158.732
  454.500    8.002    0.319    0.423   55.537  158.822
  454.750    7.842    0.314    0.430   56.383  158.908
  455.000    7.656    0.313    0.438   59.546  159.101
  455.250    7.475    0.309    0.427   63.501  159.087
  455.500    7.229    0.309    0.417   65.140  159.278
  455.750    6.927    0.309    0.418   65.559  159.569
  456.000    6.662    0.300    0.440   65.552  159.761
  456.250    6.240    0.290    0.464   69.874  160.054
  456.500    5.890    0.278    0.480   77.914  160.346
  456.750    5.686    0.266    0.482   80.286  160.635
  457.000    5.499    0.285    0.466   80.644  160.826
  457.250    5.390    0.299    0.458   79.965  160.814
  457.500    5.372    0.310    0.468   78.555  160.698
  457.750    5.344    0.316    0.464   75.560  160.481
  458.000    5.327    0.312    0.461   73.174  160.262
  458.250    5.389    0.308    0.475   71.764  160.147
  458.500    5.515    0.312    0.470   71.818  160.234
  458.750    5.549    0.322    0.454   73.883  160.424
  459.000    5.489    0.311    0.455   78.630  160.817
  459.250    4.672    0.294    0.494   81.185  161.009
  459.500    4.231    0.291    0.505   83.739  161.205
  459.750    4.023    0.287    0.499   85.864  161.399
  460.000    3.855    0.280    0.500   87.564  161.793
  460.250    3.625    0.272    0.501   90.179  162.084
  460.500    3.415    0.261    0.520   93.647  162.276
  460.750    3.278    0.252    0.534   97.420  162.367
  461.000    3.170    0.248    0.541  100.644  162.758
  461.250    3.055    0.247    0.542  102.892  163.153
  461.500    2.983    0.232    0.532  104.715  163.648
  461.750    2.962    0.222    0.540  101.962  171.056
  462.000    2.963    0.235    0.520   98.541  172.159
  462.250    2.987    0.247    0.507   96.826  172.856
  462.500    3.016    0.240    0.524   97.305  173.557
  462.750    3.081    0.236    0.518   98.335  173.544
  463.000    3.165    0.256    0.520   95.948  172.313
  463.250    3.257    0.288    0.537   92.771  170.064
  463.500    3.526    0.307    0.553   86.971  167.816
  463.750    4.436    0.317    0.531   71.170  164.551
  464.000    7.713    0.324    0.484   65.492  161.693
  464.250   13.924    0.329    0.466   62.130  159.951
  464.500   22.204    0.332    0.453   59.683  159.329
  464.750   32.779    0.328    0.442   56.506  159.011
  465.000   45.142    0.323    0.437   55.218  158.691
  465.250   52.889    0.320    0.432   54.539  158.678
  465.500   53.815    0.320    0.423   53.798  158.563
  465.750   49.849    0.324    0.416   53.244  158.551
  466.000   46.000    0.328    0.429   53.053  158.640
  466.250   42.208    0.328    0.445   53.897  158.627
  466.500   37.938    0.331    0.451   54.745  158.512
  466.750   35.673    0.337    0.455   55.894  158.295
  467.000   34.243    0.339    0.469   56.681  158.085
  467.250   32.934    0.330    0.473   57.771  157.763
  467.500   32.336    0.320    0.465   59.044  157.546
  467.750   32.172    0.319    0.461   59.707  157.329
  468.000   32.064    0.328    0.455   59.455  157.315
  468.250   31.722    0.336    0.456   60.362  157.202
  468.500   31.261    0.340    0.460   60.843  157.291
  468.750   30.406    0.333    0.458   60.956  157.482
  469.000   29.685    0.329    0.452   60.949  157.674
  469.250   29.146    0.327    0.465   60.758  157.766
  469.500   28.511    0.328    0.478   60.020  157.756
  469.750   27.890    0.329    0.486   60.560  157.641
  470.000   27.176    0.328    0.481   63.052  157.728
  470.250   24.795    0.325    0.476   65.057  158.022
  470.500   21.465    0.322    0.463   67.183  158.619
  470.750   16.662    0.319    0.444   67.908  159.418
  471.000   13.056    0.318    0.425   68.083  160.117
  471.250   10.783    0.306    0.484   67.771  161.018
  471.500    9.638    0.308    0.505   68.920  161.921
  471.750    8.810    0.325    0.489   71.536  162.215
  472.000    8.009    0.305    0.450   74.578  162.505
  472.250    7.362    0.275    0.468   77.314  162.794
  472.500    6.807    0.253    0.490   79.989  162.884
  472.750    6.376    0.273    0.489   82.176  162.875
  473.000    5.940    0.278    0.468   81.681  162.863
  473.250    5.649    0.277    0.455   78.686  162.748
  473.500    5.402    0.282    0.464   76.727  162.530
  473.750    5.314    0.261    0.462   76.291  162.316
  474.000    5.257    0.241    0.453   77.870  161.895
  474.250    5.229    0.242    0.446   80.057  162.086
  474.500    5.262    0.250    0.471   82.184  161.870
  474.750    5.334    0.261    0.481   83.396  162.059
  475.000    5.397    0.267    0.483   83.206  162.453
  475.250    5.430    0.270    0.468   80.027  162.745
  475.500    5.483    0.260    0.459   78.190  163.142
  475.750    5.476    0.251    0.459   82.511  165.669
  476.000    5.509    0.243    0.465   85.248  168.096
  476.250    5.481    0.244    0.470   88.594  169.608
  476.500    5.651    0.247    0.468   89.928  168.172
  476.750    5.982    0.265    0.461   85.774  164.194
  477.000    6.488    0.279    0.461   79.121  162.148
  477.250    7.077    0.294    0.473   73.381  160.715
  477.500    7.838    0.282    0.484   71.483  160.093
  477.750    8.485    0.273    0.485   75.439  160.076
  478.000    9.273    0.281    0.480   78.297  160.064
  478.250    9.871    0.288    0.479   78.167  160.052
  478.500   10.567    0.298    0.467   77.732  160.346
  478.750   11.143    0.285    0.457   77.053  160.637
  479.000   11.752    0.262    0.450   77.230  161.338
  479.250   12.392    0.269    0.458   76.795  161.732
  479.500   13.266    0.279    0.464   75.508  162.126
  479.750   13.963    0.287    0.467   70.864  162.315
  480.000   14.479    0.292    0.466   66.773  162.404
  480.250   14.732    0.281    0.455   66.216  162.494
  480.500   14.766    0.274    0.436   73.159  162.479
  480.750    6.658    0.264    0.423   80.835  162.468
  481.000    4.794    0.256    0.445   85.706  162.251
  481.250    4.309    0.250    0.457   89.113  162.342
  481.500    3.873    0.252    0.465   89.166  162.429
  481.750    3.622    0.255    0.479   88.610  162.417
  482.000    3.412    0.253    0.494   85.798  162.405
  482.250    3.238    0.252    0.492   82.375  162.287
  482.500    3.034    0.254    0.487   81.757  162.377
  482.750    2.896    0.257    0.509   82.299  162.466
  483.000    2.738    0.260    0.535   82.962  162.353
  483.250    2.565    0.270    0.545   83.929  162.240
  483.500    2.362    0.282    0.546   84.714  161.920
  483.750    2.196    0.282    0.544   85.134  161.604
  484.000    2.058    0.285    0.541   85.004  161.490
  484.250    1.990    0.287    0.531   84.387  161.376
  484.500    1.976    0.283    0.525   81.512  161.057
  484.750    1.977    0.281    0.517   78.274  160.739
  485.000    1.982    0.283    0.520   75.827  160.524
  485.250    1.975    0.285    0.544   74.539  160.207
  485.500    1.958    0.288    0.555   74.348  160.093
  485.750    1.933    0.298    0.564   77.391  159.978
