~VERSION INFORMATION
 VERS.                 2.0:   CWLS LOG ASCII STANDARD -VERSION 2.0
 WRAP.                  NO:   ONE LINE PER DEPTH STEP
~WELL INFORMATION BLOCK
#MNEM.UNIT           DATA                    DESCRIPTION OF MNEMONIC
#---------    -------------------            -------------------------------
# Generated from Intellog Unique Number	CS_71_72/WELL/855
WELL.         PEX PHILLIPS AEC WIAU          : Well_name    - WELL
LOC .         00/10-13-071-08W4/0            : Location     - LOCATION
UWI .         00/10-13-071-08W4/0            : Uwi          - UNIQUE WELL ID
ENTR.         SP                             : Entered      - ENTERED BY
SRVC.         SCHLUMBERGER                   : Scn          - SERVICE COMPANY
STRT.M        305                            : top_depth    - START DEPTH
STOP.M        525                            : bot_depth    - STOP DEPTH
STEP.M        0.25                           : increment    - STEP LENGTH
 NULL. -999.2500:NULL Value
~CURVE INFORMATION BLOCK
#MNEM UNIT       ERCB CURVE CODE    CURVE DESCRIPTION
#-----------   ------------------   ----------------------------------
DEPT.M        00 001 00 00         : DEPTH        - DEPTH
ILD .OHMM     00 120 00 00         : RESD         - DEEP RESISTIVITY (DIL)
DPHI.V/V      00 890 00 00         : PHID         - DENSITY POROSITY (LIMESTONE)
NPHI.V/V      00 330 00 00         : PHIN         - NEUTRON POROSITY (LIMESTONE)
GR  .API      00 310 00 00         : GR           - GAMMA RAY
~PARAMETER INFORMATION
#MNEM.UNIT           DATA             DESCRIPTION OF MNEMONIC
#---------         -----------     ------------------------------
GL  .M        663.74               : gl           - GROUND LEVEL ELEVATION
EREF.M        666.7                : kb           - ELEVATION OF DEPTH REFERENCE
DATM.M        663.74               : datum        - DATUM ELEVATION
TDD .M        535                  : tdd          - TOTAL DEPTH DRILLER
RUN .         ONE                  : Run          - RUN NUMBER
ENG .         BILL                 : Engineer     - RECORDING ENGINEER
WIT .         JIM                  : Witness      - WITNESSED BY
MUD .         GEL                  : Mud_type     - MUD TYPE
MATR.         LIMESTONE            : Logunit      - NEUTRON MATRIX
TMAX.C        22                   : BHT          - MAXIMUM RECORDED TEMPERATURE
BHTD.M        535                  : BHTDEP       - MAXIMUM RECORDED TEMPERATURE
MATR.         1                    : LOGUNIT      - NEUTRON MATRIX
RMT .C        25                   : MDTP         - TEMPERATURE OF MUD
NEUT.         1                    : NEUTRON      - NEUTRON TYPE
RESI.         0                    : RESIST       - RESISTIVITY TYPE
RMC .OHMM     0.25                 : RMC          - RESISTIVITY OF MUD CAKE
RMF .OHMM     0.25                 : RMF          - RESISTIVITY OF MUD FILTRATE
SUFT.C        15                   : SUFT         - SURFACE TEMPERATURE
~A  DEPTH     RESD     PHID     PHIN       GR
# ...
  435.500    2.227    0.284    0.563  101.442
  435.750    2.200    0.280    0.558  100.647
  436.000    2.189    0.279    0.549   98.759
  436.250    2.174    0.288    0.536   96.203
  436.500    2.192    0.284    0.516   92.308
  436.750    2.329    0.288    0.494   90.360
  437.000    2.511    0.321    0.473   88.411
  437.250    2.753    0.254    0.463   88.041
  437.500    3.047    0.274    0.460   89.190
  437.750    3.404    0.246    0.459   89.915
  438.000    3.824    0.234    0.467   90.517
  438.250    4.100    0.230    0.470   90.451
  438.500    4.429    0.219    0.449   89.900
  438.750    4.652    0.205    0.439   89.772
  439.000    4.878    0.199    0.442   89.888
  439.250    5.086    0.207    0.447   89.882
  439.500    5.234    0.185    0.435   89.211
  439.750    5.346    0.148    0.422   81.369
  440.000    5.553    0.076    0.360   72.312
  440.250    5.922    0.037    0.206   64.409
  440.500    6.386    0.112    0.228   73.638
  440.750    6.820    0.153    0.282   81.409
  441.000    7.763    0.190    0.377   87.237
  441.250    8.479    0.224    0.419   91.849
  441.500    8.907    0.235    0.453   93.302
  441.750    8.716    0.247    0.466   93.965
  442.000    7.770    0.257    0.474   94.689
  442.250    6.799    0.245    0.468   94.926
  442.500    6.083    0.232    0.462   94.862
  442.750    5.661    0.241    0.468   95.525
  443.000    5.366    0.235    0.459   98.254
  443.250    5.135    0.227    0.459  101.954
  443.500    4.988    0.206    0.460  103.832
  443.750    4.890    0.189    0.454  101.945
  444.000    4.848    0.202    0.449   93.434
  444.250    4.888    0.281    0.452   90.209
  444.500    4.947    0.297    0.459   88.078
  444.750    5.015    0.291    0.454   87.829
  445.000    5.037    0.286    0.453   88.068
  445.250    4.776    0.288    0.457   88.245
  445.500    4.411    0.294    0.454   88.665
  445.750    4.166    0.293    0.447   89.086
  446.000    4.092    0.284    0.436   89.081
  446.250    4.118    0.275    0.429   88.894
  446.500    4.191    0.269    0.425   87.916
  446.750    4.225    0.265    0.423   87.120
  447.000    4.251    0.274    0.426   86.387
  447.250    4.271    0.284    0.433   85.409
  447.500    4.250    0.287    0.441   85.040
  447.750    4.113    0.280    0.447   84.489
  448.000    3.855    0.267    0.451   83.755
  448.250    3.424    0.251    0.454   85.937
  448.500    3.035    0.245    0.452   88.058
  448.750    2.757    0.255    0.446   89.874
  449.000    2.462    0.264    0.438   90.539
  449.250    2.304    0.266    0.455   91.202
  449.500    2.188    0.274    0.493   91.744
  449.750    2.190    0.300    0.549   92.346
  450.000    2.283    0.304    0.576   93.130
  450.250    2.657    0.285    0.559   93.794
  450.500    3.081    0.286    0.527   94.881
  450.750    3.533    0.273    0.509   94.939
  451.000    4.174    0.256    0.518   94.326
  451.250    4.672    0.250    0.510   85.573
  451.500    5.019    0.276    0.466   80.100
  451.750    5.004    0.287    0.441   77.240
  452.000    4.735    0.236    0.428   77.842
  452.250    4.381    0.214    0.423   80.145
  452.500    4.062    0.249    0.429   82.935
  452.750    3.829    0.270    0.437   84.874
  453.000    3.712    0.224    0.440   85.599
  453.250    3.680    0.254    0.442   84.439
  453.500    3.844    0.251    0.445   82.855
  453.750    4.279    0.263    0.449   84.368
  454.000    4.727    0.256    0.453   86.671
  454.250    5.310    0.242    0.453   86.970
  454.500    5.932    0.233    0.460   85.994
  454.750    6.315    0.245    0.456   82.282
  455.000    6.390    0.217    0.425   78.388
  455.250    6.358    0.182    0.388   76.075
  455.500    6.291    0.109    0.360   74.795
  455.750    6.077    0.247    0.393   73.879
  456.000    5.782    0.288    0.414   73.265
  456.250    5.462    0.303    0.430   72.107
  456.500    5.159    0.317    0.439   68.699
  456.750    4.891    0.311    0.432   68.877
  457.000    4.679    0.303    0.424   70.755
  457.250    4.469    0.303    0.417   71.358
  457.500    4.238    0.310    0.415   69.955
  457.750    4.025    0.306    0.424   69.768
  458.000    3.816    0.292    0.430   72.981
  458.250    3.644    0.265    0.426   76.319
  458.500    3.429    0.238    0.417   82.875
  458.750    3.245    0.212    0.413   87.427
  459.000    3.122    0.224    0.435   95.195
  459.250    2.993    0.246    0.456   98.048
  459.500    2.919    0.241    0.472  102.539
  459.750    2.899    0.245    0.487  106.360
  460.000    2.994    0.232    0.499  107.267
  460.250    3.093    0.220    0.504  107.080
  460.500    3.142    0.232    0.510  106.164
  460.750    3.258    0.226    0.493  102.757
  461.000    3.493    0.216    0.473   99.592
  461.250    4.035    0.215    0.459   97.886
  461.500    4.593    0.217    0.469   95.694
  461.750    5.207    0.228    0.478   91.923
  462.000    6.040    0.221    0.487   85.964
  462.250    6.622    0.239    0.453   82.010
  462.500    7.274    0.249    0.406   78.603
  462.750    7.641    0.256    0.386   76.411
  463.000    7.491    0.263    0.392   74.826
  463.250    6.690    0.237    0.388   73.970
  463.500    5.942    0.198    0.378   74.270
  463.750    5.199    0.214    0.391   80.035
  464.000    4.678    0.250    0.404   83.737
  464.250    4.385    0.265    0.399   86.100
  464.500    4.189    0.242    0.403   88.100
  464.750    4.270    0.217    0.419   90.159
  465.000    4.825    0.205    0.428   90.702
  465.250    5.553    0.214    0.435   90.576
  465.500    6.331    0.222    0.419   85.894
  465.750    7.021    0.228    0.403   79.813
  466.000    7.570    0.230    0.394   76.224
  466.250    7.952    0.236    0.391   72.755
  466.500    8.199    0.249    0.399   71.779
  466.750    8.205    0.261    0.406   71.288
  467.000    8.123    0.259    0.402   72.072
  467.250    8.095    0.257    0.394   73.889
  467.500    8.040    0.253    0.386   74.250
  467.750    8.228    0.244    0.391   73.029
  468.000    8.675    0.236    0.392   70.472
  468.250    9.303    0.232    0.387   68.766
  468.500    9.735    0.232    0.383   68.032
  468.750    9.926    0.211    0.388   67.663
  469.000    9.823    0.118    0.397   67.537
  469.250    9.666    0.022    0.376   71.663
  469.500    9.406    0.011    0.344   79.190
  469.750    9.018    0.034    0.318   85.321
  470.000    8.693    0.111    0.344   87.808
  470.250    8.506    0.164    0.372   88.349
  470.500    8.561    0.225    0.391   88.040
  470.750    9.421    0.261    0.405   89.251
  471.000   10.804    0.281    0.400   91.311
  471.250   12.205    0.263    0.406   92.461
  471.500   13.737    0.249    0.399   90.390
  471.750   14.894    0.258    0.386   88.865
  472.000   15.792    0.254    0.373   88.556
  472.250   16.313    0.265    0.369   86.183
  472.500   16.023    0.276    0.368   77.308
  472.750   14.125    0.288    0.374   74.205
  473.000   12.062    0.299    0.387   79.303
  473.250   10.476    0.290    0.393   83.976
  473.500    9.427    0.275    0.385   88.648
  473.750    9.976    0.266    0.375   90.102
  474.000   10.796    0.244    0.375   90.885
  474.250   11.926    0.234    0.389   89.970
  474.500   12.908    0.244    0.398   85.834
  474.750   13.333    0.259    0.406   83.703
  475.000   12.687    0.270    0.402   87.404
  475.250   10.876    0.283    0.398   90.861
  475.500    9.236    0.290    0.395   94.562
  475.750    8.248    0.300    0.393   98.688
  476.000    8.042    0.269    0.402  100.445
  476.250    8.245    0.243    0.412  100.440
  476.500    8.907    0.227    0.419   96.183
  476.750    9.567    0.235    0.422   86.396
  477.000   10.869    0.240    0.406   78.493
  477.250   13.034    0.234    0.382   72.838
  477.500   16.134    0.225    0.365   69.188
  477.750   20.808    0.217    0.363   64.201
  478.000   26.388    0.232    0.372   60.004
  478.250   31.999    0.264    0.373   55.686
  478.500   35.283    0.282    0.364   52.158
  478.750   36.994    0.289    0.353   48.082
