~VERSION INFORMATION
 VERS.                 2.0:   CWLS LOG ASCII STANDARD -VERSION 2.0
 WRAP.                  NO:   ONE LINE PER DEPTH STEP
~WELL INFORMATION BLOCK
#MNEM.UNIT           DATA                    DESCRIPTION OF MNEMONIC
#---------    -------------------            -------------------------------
# Generated from Intellog Unique Number	CW_70_72/WELL/1045
NULL.         -999.25                        : NULL_VALUE
WELL.         SUNDANCE MCMORGAN SMITH 10-31  : Well_name    - WELL              
LOC .         10-31-072-24W4                 : Location     - LOCATION          
UWI .         00/10-31-072-24W4/0            : Uwi          - UNIQUE WELL ID    
ENTR.         JAYE                           : Entered      - ENTERED BY        
SRVC.         SCHLUMBERGER                   : Scn          - SERVICE COMPANY   
DATE.         20 JAN 74                      : Date         - LOG DATE          
STRT.M        399.288                        : top_depth    - START DEPTH       
STOP.M        655.288                        : bot_depth    - STOP DEPTH        
STEP.M        0.25                           : increment    - STEP LENGTH       
~CURVE INFORMATION BLOCK
#MNEM UNIT       ERCB CURVE CODE    CURVE DESCRIPTION
#-----------   ------------------   ----------------------------------
DEPT.M        00 001 00 00         : DEPTH        - DEPTH                       
CALI.MM       00 280 01 00         : CAL          - CALIPER                     
GR  .API      00 310 00 00         : GR           - GAMMA RAY                   
DPHI.V/V      00 890 00 00         : PHID         - DENSITY POROSITY (SANDSTONE)
NPHI.V/V      00 330 00 00         : PHIN         - NEUTRON POROSITY (SANDSTONE)
ILD .OHMM     00 120 00 00         : RESD         - DEEP RESISTIVITY (DIL)      
~PARAMETER INFORMATION       
#MNEM.UNIT           DATA             DESCRIPTION OF MNEMONIC
#---------         -----------     ------------------------------
GL  .M        648.767              : gl           - GROUND LEVEL ELEVATION      
EREF.M        651.815              : kb           - ELEVATION OF DEPTH REFERENCE
DATM.M        648.767              : datum        - DATUM ELEVATION             
TDD .M        664.464              : tdd          - TOTAL DEPTH DRILLER         
RUN .         ONE                  : Run          - RUN NUMBER                  
ENG .         WOON                 : Engineer     - RECORDING ENGINEER          
WIT .         TIEFENBACH           : Witness      - WITNESSED BY                
BASE.         EDM                  : Branch       - HOME BASE OF LOGGING UNIT   
MUD .         GEL CHEM             : Mud_type     - MUD TYPE                    
MATR.         SANDSTONE            : Logunit      - NEUTRON MATRIX              
TMAX.C        30                   : BHT          - MAXIMUM RECORDED TEMPERATURE
BHTD.M        663.55               : BHTDEP       - MAXIMUM RECORDED TEMPERATURE
RMT .C        15.5556              : MDTP         - TEMPERATURE OF MUD          
MUDD.KG/M     1080                 : MWT          - MUD DENSITY                 
NEUT.         1                    : NEUTRON      - NEUTRON TYPE                
RESI.         0                    : RESIST       - RESISTIVITY TYPE            
RM  .OHMM     5.63                 : RM           - RESISTIVITY OF MUD          
RMC .OHMM     0                    : RMC          - RESISTIVITY OF MUD CAKE     
RMF .OHMM     6.8                  : RMF          - RESISTIVITY OF MUD FILTRATE 
SUFT.C        -17.7778             : SUFT         - SURFACE TEMPERATURE         
~A  DEPTH      CAL       GR     PHID     PHIN     RESD
# ...
  618.288  156.712  101.727    0.192    0.368    4.257
  618.538  157.226  112.349    0.211    0.363    4.005
  618.788  159.226  112.417    0.234    0.365    3.765
  619.038  159.746   93.742    0.223    0.383    3.477
  619.288  159.781   92.053    0.215    0.386    3.211
  619.538  159.291  103.838    0.209    0.380    2.992
  619.788  158.321  120.901    0.201    0.370    2.917
  620.038  156.857  140.313    0.176    0.355    2.920
  620.288  155.393  152.692    0.147    0.357    2.923
  620.538  155.415  160.956    0.161    0.393    2.953
  620.788  155.933  169.237    0.169    0.444    3.010
  621.038  156.448  176.046    0.186    0.476    3.124
  621.288  156.960  185.782    0.152    0.472    3.213
  621.538  158.962  201.674    0.171    0.427    3.334
  621.788   59.000    3.500    0.185    0.460    0.350
  622.038  160.989  207.388    0.209    0.513    3.372
  622.288  160.017  195.436    0.232    0.599    3.171
  622.538  158.060  170.898    0.227    0.575    2.982
  622.788  159.070  157.793    0.222    0.536    2.855
  623.038  162.061  149.363    0.228    0.478    2.782
  623.288  162.579  149.431    0.227    0.431    2.711
  623.538  162.101  154.199    0.221    0.397    2.596
  623.788  159.650  160.121    0.229    0.326    2.507
  624.038  159.670  168.686    0.232    0.285    2.400
  624.288  160.680  175.805    0.223    0.286    2.339
  624.538  160.700  176.750    0.190    0.270    2.259
  624.788  160.720  174.760    0.191    0.245    2.262
  625.038  161.237  171.608    0.187    0.251    2.326
  625.288  163.734  165.821    0.183    0.248    2.525
  625.538  165.238  158.571    0.202    0.258    3.051
  625.788  165.753  152.190    0.222    0.294    3.755
  626.038  166.765  143.183    0.258    0.331    4.379
  626.288  169.752  135.640    0.308    0.342    5.060
  626.538  163.342  130.145    0.215    0.346    6.062
  626.788  162.870  138.710    0.195    0.392    6.522
  627.038  163.884  168.954    0.202    0.443    6.022
  627.288  161.428  185.139    0.230    0.432    5.463
  627.538  157.982  201.616    0.235    0.403    4.868
  627.788  156.023  206.375    0.221    0.416    4.495
  628.038  155.553  191.798    0.230    0.446    4.006
  628.288  155.573  173.114    0.223    0.394    3.634
  628.538  156.091  159.416    0.193    0.336    3.480
  628.788  156.603  135.755    0.178    0.385    3.483
  629.038  157.615  102.134    0.154    0.416    3.550
  629.288  159.619   79.361    0.087    0.402    3.718
  629.538  160.624   81.193    0.092    0.398    3.858
  629.788  161.139   84.188    0.110    0.400    4.113
  630.038  161.659   89.826    0.125    0.367    4.345
  630.288  162.171   96.927    0.135    0.357    4.674
  630.538  162.694  104.907    0.138    0.391    5.165
  630.788  162.216  122.262    0.156    0.408    5.658
  631.038  160.257  122.631    0.170    0.432    5.975
  631.288  159.288  119.479    0.163    0.475    6.845
  631.538  158.818  118.961    0.148    0.462    7.039
  631.788  158.833  114.930    0.111    0.420    6.328
  632.038  159.848  115.592    0.071    0.401    5.018
  632.288  160.858  121.807    0.018    0.408    3.737
  632.538  160.880  140.040   -0.011    0.424    3.155
  632.788  158.426  160.917    0.012    0.477    2.762
  633.038  159.931  148.096    0.090    0.553    2.620
  633.288  161.932  136.446    0.168    0.587    2.844
  633.538  162.945  128.024    0.151    0.568    3.199
  633.788  163.460  181.118    0.143    0.411    3.600
  634.038  162.982  227.185    0.135    0.407    4.012
  634.288  162.013  231.360    0.133    0.411    4.514
  634.538  161.543  212.099    0.127    0.400    4.856
  634.788  161.066  195.172    0.136    0.398    4.863
  635.038  160.591  173.862    0.143    0.432    4.740
  635.288  160.616  171.587    0.150    0.451    4.577
  635.538  162.118  177.518    0.136    0.467    4.382
  635.788  164.615  172.015    0.103    0.454    4.309
  636.038  165.624  127.856    0.128    0.421    4.199
  636.288  165.645  117.971    0.127    0.421    4.130
  636.538  165.667  122.438    0.140    0.445    4.098
  636.788  165.690  128.653    0.146    0.438    4.215
  637.038  165.710  138.096    0.129    0.421    4.335
  637.288  166.230  154.280    0.114    0.454    4.499
  637.538  166.247  172.514    0.100    0.543    4.628
  637.788  165.280  200.123    0.093    0.582    4.801
  638.038  164.311  196.678    0.104    0.585    4.894
  638.288  163.834  192.940    0.117    0.565    4.856
  638.538  163.361  199.456    0.135    0.513    4.485
  638.788  163.879  213.006    0.133    0.462    4.293
  639.038  164.888  237.103    0.124    0.431    4.147
  639.288  166.393  247.131    0.127    0.452    4.115
  639.538  166.913  225.813    0.131    0.509    4.120
  639.788  166.930  192.192    0.098    0.513    4.237
  640.038  166.953  168.833    0.103    0.459    4.319
  640.288  165.494  159.232    0.117    0.419    4.443
  640.538  164.522  160.772    0.142    0.388    4.568
  640.788  164.044  169.044    0.136    0.380    4.741
  641.038  163.572  177.902    0.140    0.392    4.921
  641.288  163.592  186.467    0.150    0.379    5.061
  641.538  163.123  196.797    0.168    0.359    5.205
  641.788  163.140  193.068    0.192    0.367    5.305
  642.038  163.160  203.673    0.195    0.423    5.170
  642.288  162.688  203.155    0.154    0.455    4.862
  642.538  162.708  170.705    0.105    0.469    4.530
  642.788  162.728  124.488    0.109    0.434    4.185
  643.038  162.751  119.872    0.103    0.397    4.006
  643.288  162.773  148.067    0.096    0.404    3.870
  643.538  162.796  148.728    0.113    0.427    3.738
  643.788  162.321  125.654    0.121    0.463    3.708
  644.038  161.844   97.887    0.135    0.436    3.681
  644.288  160.385   73.641    0.146    0.399    3.651
  644.538  158.923   67.562    0.160    0.392    3.622
  644.788  158.443   79.355    0.174    0.380    3.594
  645.038  158.466   89.384    0.162    0.335    3.567
  645.288  159.478  112.017    0.160    0.333    3.571
  645.538  160.485  130.250    0.134    0.366    3.640
  645.788  162.987  147.313    0.123    0.401    3.744
  646.038  164.486  150.024    0.134    0.444    3.885
  646.288  164.511  141.301    0.144    0.458    4.255
  646.538  162.552  117.055    0.161    0.440    4.455
  646.788  161.085   90.468    0.180    0.432    4.707
  647.038  160.118   90.243    0.191    0.414    4.887
  647.288  160.138   98.222    0.193    0.381    5.024
  647.538  160.164   97.128    0.165    0.356    5.121
  647.788  160.184   81.087    0.115    0.341    5.173
  648.038  159.706   70.315    0.100    0.324    5.173
  648.288  158.739   63.349    0.086    0.326    5.234
  648.538  157.770   65.474    0.099    0.333    5.333
  648.788  157.295   64.956    0.102    0.333    5.389
  649.038  157.318   52.135    0.073    0.340    5.444
  649.288  157.835   41.958    0.051    0.339    5.498
  649.538  157.858   33.820    0.066    0.327    5.506
  649.788  157.383   29.790    0.053    0.310    5.561
  650.038  155.916   26.370    0.037    0.288    5.620
  650.288  155.939   25.250    0.029    0.278    5.625
  650.538  155.961   24.732    0.028    0.291    5.683
  650.788  156.474   25.101    0.035    0.315    5.638
  651.038  156.996   26.925    0.023    0.344    5.546
  651.288  158.003   30.806    0.005    0.377    5.502
  651.538  159.013   40.542    0.034    0.383    5.460
  651.788  159.036   55.849    0.082    0.352    5.468
  652.038  159.053   75.546    0.126    0.327    5.522
  652.288  156.607  102.871    0.132    0.328    5.629
  652.538  156.130   90.050    0.115    0.348    5.687
  652.788  155.655   69.902    0.082    0.362    5.693
  653.038  155.675   36.867    0.074    0.373    5.750
  653.288  155.695   21.997    0.067    0.375    5.810
  653.538  156.215   18.259    0.057    0.375    5.922
  653.788  156.235   17.741    0.067    0.372    6.146
  654.038  156.255   18.118    0.063    0.362    6.210
  654.288  156.280   18.479    0.081    0.350    6.106
  654.538  155.803   19.132    0.089    0.348    5.950
