~VERSION INFORMATION
 VERS.                 2.0:   CWLS LOG ASCII STANDARD -VERSION 2.0
 WRAP.                  NO:   ONE LINE PER DEPTH STEP
~WELL INFORMATION BLOCK
#MNEM.UNIT           DATA                    DESCRIPTION OF MNEMONIC
#---------    -------------------            -------------------------------
# Generated from Intellog Unique Number	CC_80_83/WELL/2424
NULL.         -999.25                        : NULL_VALUE
WELL.         NOVALTA INVERNESS              : Well_name    - WELL
LOC .         11-35-081-04W4                 : Location     - LOCATION          
UWI .         00/11-35-081-04W400            : Uwi          - UNIQUE WELL ID    
ENTR.         DW                             : Entered      - ENTERED BY        
SRVC.         SCHLUMBERGER                   : Scn          - SERVICE COMPANY   
DATE.         12 JAN 82                      : Date         - LOG DATE
STRT.M        100                            : top_depth    - START DEPTH       
STOP.M        265.001                        : bot_depth    - STOP DEPTH        
STEP.M        0.3                            : increment    - STEP LENGTH       
~CURVE INFORMATION BLOCK
#MNEM UNIT       ERCB CURVE CODE    CURVE DESCRIPTION
#-----------   ------------------   ----------------------------------
DEPT.M        00 001 00 00         : DEPTH        - DEPTH                       
DPHI.V/V      00 890 00 00         : PHID         - DENSITY POROSITY (LIMESTONE)
NPHI.V/V      00 330 00 00         : PHIN         - NEUTRON POROSITY (LIMESTONE)
GR  .API      00 310 00 00         : GR           - GAMMA RAY                   
ILD .OHMM     00 120 00 00         : RESD         - DEEP RESISTIVITY (DIL)      
~PARAMETER INFORMATION       
#MNEM.UNIT           DATA             DESCRIPTION OF MNEMONIC
#---------         -----------     ------------------------------
GL  .M        456.1                : gl           - GROUND LEVEL ELEVATION      
EREF.M        459.5                : kb           - ELEVATION OF DEPTH REFERENCE
DATM.M        459.5                : datum        - DATUM ELEVATION             
TDD .M        276                  : tdd          - TOTAL DEPTH DRILLER         
RUN .         ONE                  : Run          - RUN NUMBER                  
ENG .         BILL                 : Engineer     - RECORDING ENGINEER          
WIT .         JIM                  : Witness      - WITNESSED BY                
MUD .         GEL                  : Mud_type     - MUD TYPE                    
MATR.         LIMESTONE            : Logunit      - NEUTRON MATRIX              
TMAX.C        12.7                 : BHT          - MAXIMUM RECORDED TEMPERATURE
BHTD.M        277                  : BHTDEP       - MAXIMUM RECORDED TEMPERATURE
MATR.         1                    : LOGUNIT      - NEUTRON MATRIX              
RMT .C        25                   : MDTP         - TEMPERATURE OF MUD          
NEUT.         1                    : NEUTRON      - NEUTRON TYPE                
RESI.         0                    : RESIST       - RESISTIVITY TYPE            
RMC .OHMM     0.25                 : RMC          - RESISTIVITY OF MUD CAKE     
RMF .OHMM     0.25                 : RMF          - RESISTIVITY OF MUD FILTRATE 
SUFT.C        15                   : SUFT         - SURFACE TEMPERATURE         
~A  DEPTH     PHID     PHIN       GR     RESD
  100.000    0.225    0.436   74.684    6.384
  100.300    0.207    0.419   74.689    6.500
  100.600    0.227    0.434   74.076    6.495
  100.900    0.217    0.458   73.461    6.490
  101.200    0.235    0.446   69.113    6.485
  101.500    0.222    0.436   67.874    6.476
  101.800    0.226    0.430   69.127    6.472
  102.100    0.241    0.439   70.381    6.340
  102.400    0.206    0.458   66.655    6.335
  102.700    0.236    0.440   59.816    6.452
  103.000    0.267    0.452   51.112    6.447
  103.300    0.273    0.452   51.120    6.442
  103.600    0.278    0.457   57.352    6.556
  103.900    0.220    0.454   57.980    6.552
  104.200    0.240    0.436   53.010    6.673
  104.500    0.175    0.418   54.263    6.663
  104.800    0.247    0.471   55.515    6.658
  105.100    0.288    0.432   50.544    6.525
  105.400    0.270    0.414   52.422    6.521
  105.700    0.228    0.395   52.428    6.388
  106.000    0.220    0.421   49.324    6.384
  106.300    0.251    0.434   46.843    6.380
  106.600    0.276    0.436   44.363    6.619
  106.900    0.144    0.413   43.749    6.740
  107.200    0.184    0.390   51.845    6.736
  107.500    0.267    0.424   53.097    6.858
  107.800    0.292    0.429   45.015    6.854
  108.100    0.271    0.442   41.911    6.716
  108.400    0.255    0.446   50.010    6.708
  108.700    0.111    0.423   55.619    6.705
  109.000    0.146    0.374   49.403    6.698
  109.300    0.224    0.394   44.432    6.564
  109.600    0.270    0.445   46.309    6.192
  109.900    0.193    0.435   43.827    5.842
  110.200    0.216    0.418   36.365    5.726
  110.500    0.246    0.414   33.884    5.722
  110.800    0.195    0.423   37.007    5.823
  111.100    0.209    0.445   37.012    5.933
  111.400    0.200    0.429   34.531    6.275
  111.700    0.152    0.418   33.917    6.269
  112.000    0.156    0.414   37.036    6.029
  112.300    0.198    0.454   46.379    5.170
  112.600    0.192    0.501   58.211    4.106
  112.900    0.168    0.527  100.538    3.199
  113.200    0.195    0.563   93.700    2.961
  113.500    0.205    0.564   95.574    3.193
  113.800    0.109    0.548   97.451    3.509
  114.100    0.122    0.576   92.480    3.311
  114.400    0.018    0.574   95.599    3.007
  114.700    0.030    0.543   95.609    2.783
  115.000    0.135    0.551   92.503    2.675
  115.300    0.205    0.576   88.157    2.829
  115.600    0.229    0.571   86.918    2.938
  115.900    0.238    0.538   74.479    3.623
  116.200    0.246    0.521   65.774    5.105
  116.500    0.263    0.494   57.692    6.175
  116.800    0.256    0.440   48.989    7.908
  117.100    0.256    0.409   46.506    8.527
  117.400    0.275    0.403   45.894    8.522
  117.700    0.283    0.406   45.902    8.190
  118.000    0.258    0.425   45.285    8.029
  118.300    0.202    0.455   43.427    7.720
  118.600    0.223    0.450   46.545    7.424
  118.900    0.279    0.430   47.797    7.278
  119.200    0.312    0.414   43.450    7.271
  119.500    0.283    0.418   45.947    7.837
  119.800    0.271    0.414   46.579    7.833
  120.100    0.261    0.433   45.964    7.827
  120.400    0.276    0.420   44.108    7.667
  120.700    0.294    0.418   44.111    7.663
  121.000    0.276    0.432   45.366    7.655
  121.300    0.253    0.428   44.129    7.646
  121.600    0.244    0.409   42.891    7.640
  121.900    0.280    0.414   42.277    7.491
  122.200    0.269    0.442   42.284    7.339
  122.500    0.280    0.444   44.782    7.475
  122.800    0.269    0.443   52.259    7.468
  123.100    0.250    0.433   54.133    7.459
  123.400    0.243    0.424   50.408    7.171
  123.700    0.197    0.427   47.929    7.032
  124.000    0.208    0.464   47.932    7.438
  124.300    0.218    0.473   48.563    7.432
  124.600    0.242    0.453   52.929    6.877
  124.900    0.303    0.510   55.425    6.743
  125.200    0.291    0.506   51.700    7.554
  125.500    0.167    0.359   47.350    7.405
  125.800    0.129    0.326   44.249    6.722
  126.100    0.178    0.434   47.367    6.465
  126.400    0.237    0.463   51.731    6.583
  126.700    0.270    0.490   51.739    7.376
  127.000    0.193    0.390   45.523   12.112
  127.300    0.046    0.156   37.440   18.785
  127.600    0.022    0.150   40.561   26.474
  127.900    0.010    0.147   43.060   26.446
  128.200    0.011    0.192   42.443   24.948
  128.500    0.180    0.237   35.605   19.817
  128.800    0.174    0.279   25.033    9.946
  129.100    0.187    0.333   34.999    8.366
  129.400    0.258    0.382   38.742    7.452
  129.700    0.237    0.407   48.706    7.304
  130.000    0.217    0.413   49.959    7.298
  130.300    0.210    0.425   51.835    7.430
  130.600    0.257    0.438   53.086    7.284
  130.900    0.294    0.448   53.094    7.002
  131.200    0.267    0.453   52.484    6.862
  131.500    0.257    0.453   52.488    6.726
  131.800    0.230    0.430   49.384    6.466
  132.100    0.172    0.403   50.636    6.338
  132.400    0.271    0.444   53.757    6.332
  132.700    0.289    0.441   48.788    6.329
  133.000    0.272    0.423   46.926    6.323
  133.300    0.230    0.406   55.027    6.317
  133.600    0.238    0.401   49.432    6.189
  133.900    0.216    0.397   45.084    6.067
  134.200    0.206    0.400   50.072    5.948
  134.500    0.284    0.471   53.191    5.829
  134.800    0.310    0.458   54.443    5.823
  135.100    0.248    0.440   55.695    5.931
  135.400    0.232    0.432   51.348    6.156
  135.700    0.240    0.418   49.489    6.389
  136.000    0.283    0.450   49.496    6.632
  136.300    0.277    0.476   48.258   10.485
  136.600    0.086    0.410   45.155   13.685
  136.900    0.133    0.252   44.541   13.416
  137.200    0.204    0.366   53.262    7.700
  137.500    0.289    0.441   60.737    6.114
  137.800    0.303    0.435   60.123    5.879
  138.100    0.324    0.435   53.284    5.985
  138.400    0.309    0.456   55.161    5.980
  138.700    0.268    0.471   60.771    5.863
  139.000    0.231    0.465   62.021    5.635
  139.300    0.250    0.452   60.784    5.629
  139.600    0.237    0.426   57.682    5.519
  139.900    0.210    0.458   56.447    5.514
  140.200    0.217    0.435   55.208    5.615
  140.500    0.224    0.442   53.350    5.611
  140.800    0.270    0.436   51.491    5.602
  141.100    0.288    0.427   53.987    5.492
  141.400    0.281    0.440   55.861    5.489
  141.700    0.271    0.452   55.872    5.377
  142.000    0.231    0.452   55.258    5.272
  142.300    0.220    0.435   55.268    5.366
  142.600    0.196    0.414   55.893    5.260
  142.900    0.132    0.419   56.524    5.256
  143.200    0.169    0.482   58.401    5.351
  143.500    0.240    0.483   57.786    5.345
  143.800    0.232    0.485   54.059    5.043
  144.100    0.240    0.467   51.578    4.943
  144.400    0.262    0.451   52.208    4.846
  144.700    0.244    0.417   54.084    4.660
  145.000    0.280    0.447   54.713    4.480
  145.300    0.309    0.473   53.476    4.310
  145.600    0.270    0.441   62.196    3.625
  145.900    0.219    0.498   81.496    2.991
  146.200    0.247    0.522   93.329    2.376
  146.500    0.153    0.580   88.982    2.116
  146.800    0.149    0.598   85.878    2.113
  147.100    0.226    0.599   87.130    2.194
  147.400    0.205    0.582   87.141    2.277
  147.700    0.039    0.574   85.901    2.364
  148.000    0.051    0.574   87.153    2.501
  148.300    0.201    0.574   92.142    2.647
  148.600    0.236    0.577   94.015    2.854
  148.900    0.168    0.573   95.266    3.077
  149.201    0.174    0.532   96.523    3.134
  149.501    0.209    0.542   95.907    3.253
  149.801    0.225    0.518   92.801    3.442
  150.101    0.224    0.472   85.344    3.857
  150.401    0.200    0.465   83.483    4.240
  150.701    0.173    0.484   82.246    4.400
  151.001    0.117    0.466   84.124    4.232
  151.301    0.121    0.471   83.506    3.992
  151.601    0.156    0.465   79.159    3.912
  151.901    0.224    0.456   77.299    3.983
