~VERSION INFORMATION
 VERS.                 2.0:   CWLS LOG ASCII STANDARD -VERSION 2.0
 WRAP.                  NO:   ONE LINE PER DEPTH STEP
~WELL INFORMATION BLOCK
#MNEM.UNIT           DATA                    DESCRIPTION OF MNEMONIC
#---------    -------------------            -------------------------------
# Generated from Intellog Unique Number	CC_80_83/WELL/2352
NULL.         -999.25                        : NULL_VALUE
WELL.         ARCO ET AL PONY                : Well_name    - WELL              
LOC .         10-14-080-08W4                 : Location     - LOCATION          
UWI .         00/10-14-080-08W400            : Uwi          - UNIQUE WELL ID    
ENTR.         DW                             : Entered      - ENTERED BY        
SRVC.         SCHLUMBERGER                   : Scn          - SERVICE COMPANY   
DATE.         17 feb 70                      : Date         - LOG DATE
STRT.M        198.12                         : top_depth    - START DEPTH       
STOP.M        420.933                        : bot_depth    - STOP DEPTH        
STEP.M        0.305                          : increment    - STEP LENGTH       
~CURVE INFORMATION BLOCK
#MNEM UNIT       ERCB CURVE CODE    CURVE DESCRIPTION
#-----------   ------------------   ----------------------------------
DEPT.M        00 001 00 00         : DEPTH        - DEPTH                       
DPHI.V/V      00 890 00 00         : PHID         - DENSITY POROSITY (LIMESTONE)
GR  .API      00 310 00 00         : GR           - GAMMA RAY                   
NPHI.V/V      00 330 00 00         : PHIN         - NEUTRON POROSITY (LIMESTONE)
ILD .OHMM     00 120 00 00         : RESD         - DEEP RESISTIVITY (DIL)      
~PARAMETER INFORMATION       
#MNEM.UNIT           DATA             DESCRIPTION OF MNEMONIC
#---------         -----------     ------------------------------
GL  .M        652.577              : gl           - GROUND LEVEL ELEVATION      
EREF.M        655.625              : kb           - ELEVATION OF DEPTH REFERENCE
DATM.M        655.625              : datum        - DATUM ELEVATION             
TDD .M        427.025              : tdd          - TOTAL DEPTH DRILLER         
RUN .         ONE                  : Run          - RUN NUMBER                  
ENG .         BILL                 : Engineer     - RECORDING ENGINEER          
WIT .         JIM                  : Witness      - WITNESSED BY                
MUD .         GEL                  : Mud_type     - MUD TYPE                    
MATR.         LIMESTONE            : Logunit      - NEUTRON MATRIX              
TMAX.C        20                   : BHT          - MAXIMUM RECORDED TEMPERATURE
BHTD.M        427.025              : BHTDEP       - MAXIMUM RECORDED TEMPERATURE
MATR.         1                    : LOGUNIT      - NEUTRON MATRIX              
RMT .C        25                   : MDTP         - TEMPERATURE OF MUD          
NEUT.         0                    : NEUTRON      - NEUTRON TYPE                
RESI.         0                    : RESIST       - RESISTIVITY TYPE            
RMC .OHMM     0.25                 : RMC          - RESISTIVITY OF MUD CAKE     
RMF .OHMM     0.25                 : RMF          - RESISTIVITY OF MUD FILTRATE 
SUFT.C        4                    : SUFT         - SURFACE TEMPERATURE         
~A  DEPTH     PHID       GR     PHIN     RESD
  198.120    0.165   93.275    0.428    3.031
  198.425    0.169   98.215    0.441    3.092
  198.730    0.176   96.399    0.448    3.214
  199.034    0.171  101.950    0.448    3.218
  199.339    0.177  104.434    0.414    3.281
  199.644    0.181   95.869    0.406    3.285
  199.949    0.175   93.445    0.416    3.288
  200.254    0.163   97.157    0.432    3.231
  200.558    0.170  100.250    0.423    3.234
  200.863    0.167   96.599    0.438    3.238
  201.168    0.160   96.010    0.449    3.302
  201.473    0.164   92.973    0.423    3.306
  201.778    0.168   89.322    0.422    3.309
  202.082    0.166   88.120    0.414    3.314
  202.387    0.176   83.239    0.430    3.316
  202.692    0.181   80.813    0.433    3.320
  202.997    0.181   84.524    0.438    3.262
  203.301    0.176   88.245    0.427    3.265
  203.606    0.176   87.649    0.415    3.268
  203.911    0.183   84.608    0.447    3.271
  204.216    0.194   81.571    0.436    3.275
  204.521    0.198   84.054    0.413    3.218
  204.825    0.199   86.532    0.441    3.221
  205.130    0.199   90.856    0.441    3.224
  205.435    0.205   86.592    0.426    3.228
  205.740    0.200   82.942    0.445    3.112
  206.045    0.217   81.740    0.451    3.057
  206.349    0.224   85.448    0.478    3.003
  206.654    0.223   88.548    0.473    2.895
  206.959    0.245   91.645    0.481    2.845
  207.264    0.240   89.218    0.436    2.795
  207.569    0.224   85.564    0.441    2.797
  207.873    0.213   89.271    0.451    2.801
  208.178    0.207   89.913    0.451    2.803
  208.483    0.207   88.715    0.448    2.755
  208.788    0.208   90.582    0.446    2.810
  209.093    0.203   91.228    0.411    2.813
  209.397    0.183   93.709    0.421    2.816
  209.702    0.185   95.577    0.458    2.819
  210.007    0.209   88.858    0.422    2.822
  210.312    0.211   85.206    0.403    2.825
  210.617    0.197   88.306    0.432    2.882
  210.921    0.184   90.176    0.431    2.884
  211.226    0.173   90.198    0.420    2.942
  211.531    0.160   88.386    0.428    3.115
  211.836    0.166   85.964    0.430    3.363
  212.141    0.177   84.759    0.422    3.698
  212.445    0.168   86.629    0.409    3.916
  212.750    0.131   86.656    0.391    3.995
  213.055    0.117   86.691    0.384    4.000
  213.360    0.104   86.099    0.374    4.079
  213.665    0.088   75.084    0.360    4.927
  213.969    0.036   47.497    0.315    5.733
  214.274    0.031   43.844    0.240    5.847
  214.579    0.066   62.280    0.308    5.855
  214.884    0.104   88.701    0.365    5.644
  215.188    0.163   88.110    0.397    5.240
  215.493    0.170   80.774    0.384    5.053
  215.798    0.175   67.917    0.384    4.965
  216.103    0.186   70.402    0.388    5.064
  216.408    0.187   83.928    0.376    5.165
  216.712    0.181   79.049    0.378    4.981
  217.017    0.182   69.258    0.346    4.894
  217.322    0.190   67.450    0.308    4.991
  217.627    0.172   76.677    0.337    5.386
  217.932    0.163   86.524    0.367    6.151
  218.236    0.174   90.243    0.380    6.637
  218.541    0.205   83.513    0.353    7.437
  218.846    0.216   78.637    0.349    8.332
  219.151    0.195   85.414    0.366    9.338
  219.456    0.188   90.352    0.375    9.172
  219.760    0.179   95.285    0.374    8.204
  220.065    0.170   97.159    0.354    7.618
  220.370    0.189   95.343    0.358    8.067
  220.675    0.191   85.552    0.374    9.388
  220.980    0.214   83.129    0.360   11.337
  221.284    0.239   88.684    0.357   14.764
  221.589    0.225   90.547    0.377   15.937
  221.894    0.204   93.647    0.345   15.655
  222.199    0.176   93.057    0.299   14.537
  222.504    0.167   93.088    0.300   12.760
  222.808    0.172  100.477    0.324   11.409
  223.113    0.162  104.188    0.326   10.799
  223.418    0.153   95.625    0.337   11.221
  223.723    0.151   72.950    0.342   12.339
  224.028    0.194   49.045    0.342   16.069
  224.332    0.209   47.847    0.346   19.780
  224.637    0.236   58.923    0.342   23.450
  224.942    0.244   68.156    0.338   23.928
  225.247    0.240   66.958    0.350   23.070
  225.551    0.231   60.234    0.355   22.240
  225.856    0.243   63.329    0.354   23.119
  226.161    0.261   67.043    0.345   24.032
  226.466    0.259   70.749    0.344   23.605
  226.771    0.250   72.010    0.362   23.189
  227.075    0.243   67.739    0.364   22.352
  227.380    0.222   60.402    0.358   21.151
  227.685    0.218   48.158    0.353   20.778
  227.990    0.239   53.098    0.352   19.301
  228.295    0.270   54.964    0.354   18.605
  228.599    0.281   62.972    0.329   17.940
  228.904    0.273   69.753    0.337   17.625
  229.209    0.245   65.486    0.353   17.972
  229.514    0.264   56.307    0.360   20.140
  229.819    0.290   56.335    0.360   22.572
  230.123    0.298   52.682    0.363   23.464
  230.428    0.265   51.482    0.378   23.483
  230.733    0.263   60.101    0.352   23.072
  231.038    0.269   68.721    0.366   23.096
  231.343    0.287   73.659    0.341   22.687
  231.647    0.282   74.300    0.336   22.711
  231.952    0.298   63.282    0.347   22.741
  232.257    0.303   68.836    0.363   22.767
  232.562    0.294   78.680    0.357   22.790
  232.867    0.279   83.003    0.369   22.815
  233.171    0.271   78.128    0.376   21.997
  233.476    0.273   84.290    0.366   20.425
  233.781    0.266   87.998    0.342   19.689
  234.086    0.258   88.027    0.339   18.980
  234.391    0.258   84.373    0.336   17.957
  234.695    0.256   83.787    0.338   17.320
  235.000    0.231   81.362    0.370   17.334
  235.305    0.218   70.960    0.343   18.020
  235.610    0.216   65.463    0.350   18.727
  235.914    0.263   45.855    0.365   20.591
  236.219    0.279   45.270    0.339   26.317
  236.524    0.273   50.208    0.332   29.499
  236.829    0.255   49.624    0.344   28.976
  237.134    0.260   48.425    0.363   27.420
  237.438    0.288   52.748    0.359   26.427
  237.743    0.301   51.551    0.365   24.548
  238.048    0.293   57.718    0.366   24.111
  238.353    0.287   60.811    0.350   24.139
  238.658    0.283   63.292    0.369   24.168
  238.962    0.280   63.937    0.384   23.741
  239.267    0.268   61.511    0.360   22.463
  239.572    0.252   62.765    0.332   20.859
  239.877    0.246   68.314    0.307   19.007
  240.182    0.255   68.345    0.296   19.030
  240.486    0.273   54.872    0.308   19.777
  240.791    0.280   47.538    0.322   23.889
  241.096    0.293   37.133    0.335   27.790
  241.401    0.295   36.550    0.313   30.563
  241.706    0.301   39.035    0.323   31.176
  242.010    0.294   41.517    0.337   29.500
  242.315    0.296   42.158    0.330   28.438
  242.620    0.302   38.501    0.337   27.423
  242.925    0.303   37.920    0.331   26.940
  243.230    0.306   42.860    0.331   26.966
  243.534    0.303   49.021    0.323   26.495
  243.839    0.296   52.728    0.323   26.517
  244.144    0.285   56.443    0.345   26.054
  244.449    0.276   60.153    0.356   24.659
  244.754    0.261   63.250    0.361   23.774
  245.058    0.251   65.114    0.361   22.921
  245.363    0.229   65.759    0.364   22.098
  245.668    0.250   62.717    0.356   21.303
  245.973    0.277   62.747    0.353   21.325
  246.277    0.288   59.095    0.356   21.754
  246.582    0.277   64.029    0.368   22.188
  246.887    0.287   70.808    0.375   21.795
  247.192    0.293   75.744    0.373   19.135
  247.497    0.278   80.681    0.396   15.285
  247.801    0.219   84.393    0.400   10.120
  248.106    0.174  105.284    0.389    7.500
  248.411    0.168  104.087    0.363    6.835
  248.716    0.160  108.413    0.351    6.972
  249.021    0.136  106.598    0.353    7.524
  249.325    0.154  106.624    0.353    9.261
  249.630    0.191  105.426    0.347   12.760
  249.935    0.236   93.794    0.357   16.932
  250.240    0.268   90.757    0.354   20.842
  250.545    0.279  111.035    0.350   20.870
  250.849    0.243  107.993    0.336   18.660
