~VERSION INFORMATION
 VERS.                 2.0:   CWLS LOG ASCII STANDARD -VERSION 2.0
 WRAP.                  NO:   ONE LINE PER DEPTH STEP
~WELL INFORMATION BLOCK
#MNEM.UNIT           DATA                    DESCRIPTION OF MNEMONIC
#---------    -------------------            -------------------------------
# Generated from Intellog Unique Number	CS_67_68/WELL/811
WELL.         DOME PETROLEUM LIMITED         : Well_name    - WELL
LOC .         00/10-28-068-03W4/0            : Location     - LOCATION
UWI .         00/10-28-068-03W4/0            : Uwi          - UNIQUE WELL ID
ENTR.         SP                             : Entered      - ENTERED BY
SRVC.         SCHLUMBERGER                   : Scn          - SERVICE COMPANY
STRT.M        395                            : top_depth    - START DEPTH
STOP.M        615                            : bot_depth    - STOP DEPTH
STEP.M        0.25                           : increment    - STEP LENGTH
 NULL. -999.2500:NULL Value
~CURVE INFORMATION BLOCK
#MNEM UNIT       ERCB CURVE CODE    CURVE DESCRIPTION
#-----------   ------------------   ----------------------------------
DEPT.M        00 001 00 00         : DEPTH        - DEPTH
GR  .API      00 310 00 00         : GR           - GAMMA RAY
NPHI.V/V      00 330 00 00         : PHIN         - NEUTRON POROSITY (LIMESTONE)
DPHI.V/V      00 890 00 00         : PHID         - DENSITY POROSITY (LIMESTONE)
ILD .OHMM     00 120 00 00         : RESD         - DEEP RESISTIVITY (DIL)
~PARAMETER INFORMATION
#MNEM.UNIT           DATA             DESCRIPTION OF MNEMONIC
#---------         -----------     ------------------------------
GL  .M        748.86               : gl           - GROUND LEVEL ELEVATION
EREF.M        752.86               : kb           - ELEVATION OF DEPTH REFERENCE
DATM.M        748.86               : datum        - DATUM ELEVATION
TDD .M        621                  : tdd          - TOTAL DEPTH DRILLER
RUN .         ONE                  : Run          - RUN NUMBER
ENG .         BILL                 : Engineer     - RECORDING ENGINEER
WIT .         JIM                  : Witness      - WITNESSED BY
MUD .         GEL                  : Mud_type     - MUD TYPE
MATR.         LIMESTONE            : Logunit      - NEUTRON MATRIX
TMAX.C        23.3                 : BHT          - MAXIMUM RECORDED TEMPERATURE
BHTD.M        621                  : BHTDEP       - MAXIMUM RECORDED TEMPERATURE
MATR.         1                    : LOGUNIT      - NEUTRON MATRIX
RMT .C        25                   : MDTP         - TEMPERATURE OF MUD
NEUT.         1                    : NEUTRON      - NEUTRON TYPE
RESI.         0                    : RESIST       - RESISTIVITY TYPE
RMC .OHMM     0.25                 : RMC          - RESISTIVITY OF MUD CAKE
RMF .OHMM     0.25                 : RMF          - RESISTIVITY OF MUD FILTRATE
SUFT.C        15                   : SUFT         - SURFACE TEMPERATURE
~A  DEPTH       GR     PHIN     PHID     RESD
# ...
  525.500   64.740    0.463    0.346   14.215
  525.750   63.715    0.467    0.336   13.164
  526.000   62.809    0.468    0.329   12.799
  526.250   64.966    0.456    0.322   12.630
  526.500   65.382    0.463    0.318   12.676
  526.750   65.498    0.474    0.315   12.888
  527.000   65.793    0.469    0.318   12.886
  527.250   64.167    0.475    0.326   12.250
  527.500   63.380    0.472    0.333   11.093
  527.750   63.677    0.470    0.335   10.196
  528.000   64.093    0.472    0.334    9.820
  528.250   65.170    0.466    0.331    9.782
  528.500   63.724    0.458    0.333   10.699
  528.750   62.397    0.464    0.335   11.944
  529.000   62.993    0.468    0.328   12.965
  529.250   64.490    0.452    0.314   14.100
  529.500   65.507    0.438    0.302   14.418
  529.750   68.445    0.429    0.275   12.003
  530.000   72.045    0.450    0.241    8.045
  530.250   75.405    0.471    0.237    6.635
  530.500   77.082    0.477    0.233    5.432
  530.750   78.639    0.485    0.227    4.720
  531.000   80.557    0.496    0.230    4.172
  531.250   81.694    0.494    0.238    4.003
  531.500   82.410    0.466    0.266    4.879
  531.750   82.586    0.442    0.285    6.302
  532.000   77.115    0.420    0.297    8.278
  532.250   68.820    0.410    0.286    9.720
  532.500   64.430    0.443    0.277   11.370
  532.750   62.023    0.452    0.278   12.836
  533.000   60.516    0.442    0.296   14.224
  533.250   59.069    0.435    0.309   15.441
  533.500   58.825    0.438    0.321   17.109
  533.750   59.061    0.452    0.245   18.365
  534.000   56.233    0.447    0.222   20.048
  534.250   56.769    0.397    0.228   21.885
  534.500   59.888    0.378    0.263   24.432
  534.750   63.968    0.426    0.304   25.263
  535.000   67.507    0.449    0.302   25.259
  535.250   69.606    0.445    0.299   24.012
  535.500   71.403    0.434    0.311   16.367
  535.750   74.101    0.415    0.323   11.094
  536.000   76.740    0.441    0.324    8.333
  536.250   80.160    0.469    0.329    6.486
  536.500   78.052    0.488    0.317    5.616
  536.750   75.705    0.481    0.275    5.019
  537.000   84.411    0.471    0.259    4.428
  537.250   90.654    0.473    0.242    3.770
  537.500   91.250    0.495    0.252    3.121
  537.750   88.901    0.515    0.274    2.677
  538.000   86.314    0.540    0.287    2.406
  538.250   82.465    0.559    0.286    2.203
  538.500   79.998    0.546    0.279    2.091
  538.750   77.049    0.547    0.289    1.984
  539.000   71.157    0.567    0.305    1.947
  539.250   68.690    0.573    0.317    1.893
  539.500   68.686    0.561    0.308    1.847
  539.750   70.602    0.554    0.291    1.853
  540.000   73.001    0.546    0.291    1.874
  540.250   75.640    0.529    0.296    1.913
  540.500   79.059    0.527    0.287    1.978
  540.750   78.393    0.532    0.288    2.084
  541.000   76.948    0.529    0.308    2.279
  541.250   76.161    0.527    0.289    2.460
  541.500   77.119    0.505    0.253    2.601
  541.750   78.376    0.519    0.247    2.670
  542.000   80.232    0.538    0.260    2.615
  542.250   81.309    0.548    0.272    2.519
  542.500   79.263    0.539    0.278    2.595
  542.750   78.236    0.504    0.256    2.780
  543.000   79.734    0.479    0.231    3.006
  543.250   81.171    0.462    0.224    3.276
  543.500   81.827    0.448    0.235    3.464
  543.750   82.003    0.453    0.249    3.535
  544.000   83.500    0.474    0.246    3.431
  544.250   85.117    0.492    0.253    3.219
  544.500   86.795    0.479    0.258    2.987
  544.750   86.730    0.490    0.246    2.797
  545.000   80.898    0.513    0.235    2.709
  545.250   80.653    0.505    0.245    2.673
  545.500   82.451    0.501    0.249    2.668
  545.750   84.789    0.496    0.247    2.692
  546.000   84.904    0.480    0.242    2.717
  546.250   85.621    0.470    0.232    2.737
  546.500   83.814    0.487    0.230    2.778
  546.750   83.749    0.484    0.238    2.883
  547.000   84.105    0.476    0.223    3.072
  547.250   84.160    0.469    0.211    3.298
  547.500   83.375    0.463    0.204    3.600
  547.750   79.285    0.453    0.259    3.937
  548.000   73.153    0.439    0.280    4.445
  548.250   69.244    0.420    0.286    4.736
  548.500   65.275    0.398    0.273    5.093
  548.750   62.387    0.375    0.259    5.355
  549.000   69.410    0.388    0.254    5.517
  549.250   75.053    0.412    0.262    5.610
  549.500   64.175    0.437    0.042    5.833
  549.750   50.534    0.346    0.005    6.549
  550.000   58.819    0.277    0.209    7.230
  550.250   64.341    0.288    0.243    7.936
  550.500   66.439    0.311    0.247    8.440
  550.750   61.329    0.330    0.239    8.793
  551.000   60.663    0.350    0.218    8.824
  551.250   63.661    0.336    0.184    8.659
  551.500   64.739    0.323    0.166    8.530
  551.750   59.748    0.336    0.209    8.033
  552.000   56.079    0.370    0.256    7.086
  552.250   56.976    0.389    0.280    6.967
  552.500   59.914    0.367    0.294    6.710
  552.750   61.952    0.347    0.310    6.609
  553.000   61.707    0.349    0.320    6.596
  553.250   58.279    0.351    0.315    6.682
  553.500   61.758    0.349    0.311    6.870
  553.750   65.537    0.361    0.312    6.895
  554.000   68.897    0.379    0.310    6.728
  554.250   70.875    0.381    0.304    6.653
  554.500   66.545    0.384    0.306    6.553
  554.750   65.819    0.384    0.323    6.394
  555.000   68.398    0.383    0.329    6.310
  555.250   67.613    0.383    0.317    6.239
  555.500   61.120    0.375    0.313    6.180
  555.750   62.738    0.368    0.308    6.144
  556.000   67.058    0.373    0.304    6.143
  556.250   67.835    0.388    0.301    6.246
  556.500   68.671    0.390    0.300    6.351
  556.750   73.111    0.410    0.301    6.434
  557.000   76.411    0.413    0.289    6.493
  557.250   79.709    0.401    0.282    6.565
  557.500   72.016    0.404    0.276    6.675
  557.750   60.718    0.400    0.282    6.787
  558.000   46.957    0.327    0.282    6.824
  558.250   36.500    0.314    0.275    6.823
  558.500   47.188    0.320    0.269    6.797
  558.750   56.855    0.337    0.264    6.745
  559.000   63.338    0.359    0.267    6.656
  559.250   65.196    0.372    0.284    6.581
  559.500   59.423    0.360    0.294    6.567
  559.750   57.497    0.358    0.296    6.665
  560.000   60.376    0.355    0.293    6.854
  560.250   63.855    0.348    0.293    7.047
  560.500   67.695    0.353    0.296    7.233
  560.750   70.093    0.378    0.286    7.382
  561.000   70.990    0.395    0.267    7.450
  561.250   79.755    0.359    0.246    7.462
  561.500   85.998    0.377    0.227    7.419
  561.750   82.749    0.397    0.234    7.390
  562.000   74.996    0.372    0.248    7.375
  562.250   67.363    0.343    0.242    7.374
  562.500   57.567    0.322    0.254    7.345
  562.750   52.396    0.305    0.269    7.317
  563.000   62.963    0.324    0.264    7.316
  563.250   68.786    0.351    0.264    7.260
  563.500   54.063    0.366    0.284    7.232
  563.750   45.469    0.362    0.300    7.163
  564.000   53.634    0.358    0.302    7.069
  564.250   60.237    0.361    0.307    7.015
  564.500   66.239    0.366    0.292    6.936
  564.750   70.260    0.378    0.287    6.832
  565.000   71.397    0.368    0.281    6.717
  565.250   67.187    0.365    0.279    6.567
  565.500   64.119    0.353    0.275    6.492
  565.750   58.827    0.339    0.262    6.515
  566.000   59.604    0.323    0.247    6.588
  566.250   62.662    0.315    0.227    6.749
  566.500   63.499    0.323    0.232    7.124
  566.750   61.272    0.338    0.275    7.394
  567.000   67.214    0.349    0.292    7.518
  567.250   71.355    0.359    0.300    7.173
  567.500   75.194    0.371    0.310    6.643
  567.750   77.473    0.381    0.295    6.210
  568.000   80.831    0.373    0.292    6.197
  568.250   82.629    0.372    0.284    6.254
  568.500   84.788    0.391    0.271    6.348
  568.750   87.786    0.399    0.263    6.662
