~VERSION INFORMATION
 VERS.                 2.0:   CWLS LOG ASCII STANDARD -VERSION 2.0
 WRAP.                  NO:   ONE LINE PER DEPTH STEP
~WELL INFORMATION BLOCK
#MNEM.UNIT           DATA                    DESCRIPTION OF MNEMONIC
#---------    -------------------            -------------------------------
# Generated from Intellog Unique Number	CW_70_72/WELL/1074
NULL.         -999.25                        : NULL_VALUE
WELL.         NORTHSTAR ET AL TOMATO 16-20   : Well_name    - WELL              
LOC .         16-20-072-23W4                 : Location     - LOCATION          
UWI .         00/16-20-072-23W4/0            : Uwi          - UNIQUE WELL ID    
ENTR.         JAYE                           : Entered      - ENTERED BY        
SRVC.         COMPUTALOG                     : Scn          - SERVICE COMPANY   
DATE.         18 FEB 81                      : Date         - LOG DATE          
STRT.M        430                            : top_depth    - START DEPTH       
STOP.M        639.75                         : bot_depth    - STOP DEPTH        
STEP.M        0.25                           : increment    - STEP LENGTH       
~CURVE INFORMATION BLOCK
#MNEM UNIT       ERCB CURVE CODE    CURVE DESCRIPTION
#-----------   ------------------   ----------------------------------
DEPT.M        00 001 00 00         : DEPTH        - DEPTH                       
DPHI.V/V      00 890 00 00         : PHID         - DENSITY POROSITY (SANDSTONE)
NPHI.V/V      00 330 00 00         : PHIN         - NEUTRON POROSITY (SANDSTONE)
GR  .API      00 310 00 00         : GR           - GAMMA RAY                   
CALI.MM       00 280 01 00         : CAL          - CALIPER                     
ILD .OHMM     00 120 00 00         : RESD         - DEEP RESISTIVITY (DLL)      
~PARAMETER INFORMATION       
#MNEM.UNIT           DATA             DESCRIPTION OF MNEMONIC
#---------         -----------     ------------------------------
GL  .M        674.7                : gl           - GROUND LEVEL ELEVATION      
EREF.M        678.7                : kb           - ELEVATION OF DEPTH REFERENCE
DATM.M        674.7                : datum        - DATUM ELEVATION             
TDD .M        644                  : tdd          - TOTAL DEPTH DRILLER         
RUN .         ONE                  : Run          - RUN NUMBER                  
ENG .         ABHNDROTH            : Engineer     - RECORDING ENGINEER          
WIT .         SNELLING/FERRIS      : Witness      - WITNESSED BY                
BASE.         MEDICINE HAT         : Branch       - HOME BASE OF LOGGING UNIT   
MUD .         GEL CHEN             : Mud_type     - MUD TYPE                    
MATR.         SANDSTONE            : Logunit      - NEUTRON MATRIX              
TMAX.C        32                   : BHT          - MAXIMUM RECORDED TEMPERATURE
BHTD.M        642                  : BHTDEP       - MAXIMUM RECORDED TEMPERATURE
RMT .C        16                   : MDTP         - TEMPERATURE OF MUD          
MUDD.KG/M     1080                 : MWT          - MUD DENSITY                 
NEUT.         1                    : NEUTRON      - NEUTRON TYPE                
RESI.         1                    : RESIST       - RESISTIVITY TYPE            
RM  .OHMM     3.5                  : RM           - RESISTIVITY OF MUD          
RMC .OHMM     2.75                 : RMC          - RESISTIVITY OF MUD CAKE     
RMF .OHMM     4.5                  : RMF          - RESISTIVITY OF MUD FILTRATE 
SUFT.C        0                    : SUFT         - SURFACE TEMPERATURE         
~A  DEPTH     PHID     PHIN       GR      CAL     RESD
# ...
  503.000    0.307    0.371   21.543  152.437    4.854
  503.250    0.309    0.389   20.705  151.123    4.856
  503.500    0.305    0.394   20.151  150.846    4.839
  503.750    0.299    0.409   19.884  150.884    4.814
  504.000    0.303    0.413   20.766  151.022    4.816
  504.250    0.308    0.412   21.072  151.475    4.845
  504.500    0.307    0.416   22.382  151.510    4.893
  504.750    0.300    0.410   22.616  152.689    4.961
  505.000    0.294    0.420   24.070  153.867    5.038
  505.250    0.295    0.414   27.456  154.738    5.107
  505.500    0.292    0.452   30.630  155.289    5.177
  505.750    0.286    0.440   36.095  155.635    5.238
  506.000    0.282    0.433   36.617  156.195    5.310
  506.250    0.285    0.420   37.637  155.917    5.353
  506.500    0.291    0.406   40.666  152.942    5.385
  506.750    0.286    0.427   42.766  151.629    5.418
  507.000    0.283    0.446   40.209  151.350    5.472
  507.250    0.284    0.433   35.928  151.495    5.516
  507.500    0.285    0.406   29.000  152.048    5.550
  507.750    0.283    0.384   27.735  152.808    5.605
  508.000    0.285    0.368   32.194  154.197    5.628
  508.250    0.285    0.375   35.510  155.061    5.673
  508.500    0.290    0.385   30.370  156.035    5.697
  508.750    0.287    0.391   28.601  157.003    5.742
  509.000    0.288    0.377   31.129  158.076    5.789
  509.250    0.285    0.380   31.437  158.843    5.824
  509.500    0.287    0.410   35.038  159.293    5.827
  509.750    0.283    0.405   28.180  159.638    5.862
  510.000    0.277    0.379   40.736  159.784    5.864
  510.250    0.268    0.378   48.136  159.717    5.933
  510.500    0.255    0.399   50.878  159.436    6.107
  510.750    0.263    0.443   45.238  159.056    6.368
  511.000    0.272    0.443   39.315  158.576    6.963
  511.250    0.246    0.427   36.182  158.507    7.831
  511.500    0.179    0.162   32.407  158.437    9.499
  511.750    0.072    0.124   28.558  158.682   11.587
  512.000    0.042    0.116   27.074  159.238   13.281
  512.250    0.027    0.110   28.956  159.273   14.114
  512.500    0.019    0.109   30.982  159.412   14.664
  512.750    0.048    0.113   33.582  159.344   15.006
  513.000    0.077    0.127   42.842  159.279   14.732
  513.250    0.098    0.161   45.799  158.797   13.639
  513.500    0.091    0.273   46.894  158.726   12.252
  513.750    0.100    0.245   50.352  158.661   10.882
  514.000    0.190    0.370   56.320  158.595    9.342
  514.250    0.244    0.406   60.135  158.521    8.297
  514.500    0.271    0.453   63.738  157.730    7.610
  514.750    0.278    0.437   62.614  156.307    7.113
  515.000    0.279    0.407   59.553  154.997    6.813
  515.250    0.280    0.421   64.085  154.512    6.588
  515.500    0.283    0.436   63.175  154.233    6.407
  515.750    0.274    0.442   51.088  154.686    6.301
  516.000    0.267    0.411   56.266  154.931    6.210
  516.250    0.280    0.425   65.384  154.967    6.177
  516.500    0.285    0.362   67.554  155.003    6.064
  516.750    0.265    0.313   68.507  155.144    5.942
  517.000    0.225    0.330   71.463  155.389    5.756
  517.250    0.200    0.352   77.141  155.732    5.577
  517.500    0.179    0.371   90.343  156.708    5.372
  517.750    0.180    0.404   82.984  158.193    5.117
  518.000    0.180    0.421   77.778  160.100    4.809
  518.250    0.180    0.428   76.792  162.109    4.453
  518.500    0.175    0.404   81.900  162.772    4.193
  518.750    0.174    0.415   89.440  162.804    4.227
  519.000    0.187    0.454   96.625  163.047    4.417
  519.250    0.198    0.437   98.794  163.502    4.730
  519.500    0.193    0.415  105.405  164.159    5.122
  519.750    0.190    0.396   99.837  164.194    5.579
  520.000    0.179    0.415   94.771  163.503    5.963
  520.250    0.188    0.413  100.451  162.188    6.090
  520.500    0.200    0.400   94.740  160.459    6.151
  520.750    0.204    0.379   83.872  159.767    6.072
  521.000    0.188    0.348   78.950  159.180    5.984
  521.250    0.182    0.365   78.970  158.803    5.897
  521.500    0.179    0.385   75.409  158.840    5.822
  521.750    0.177    0.412   72.707  158.875    5.802
  522.000    0.178    0.426   77.671  159.117    5.761
  522.250    0.184    0.444   76.473  159.261    5.687
  522.500    0.188    0.400   67.468  159.500    5.647
  522.750    0.182    0.367   72.575  160.161    5.607
  523.000    0.175    0.338   80.187  161.234    5.620
  523.250    0.177    0.317   80.709  162.516    5.697
  523.500    0.183    0.301   85.528  163.488    5.786
  523.750    0.183    0.312   81.753  160.096    5.843
  524.000    0.181    0.408   74.895  160.965    5.857
  524.250    0.196    0.462   80.002  162.041    5.815
  524.500    0.228    0.424   71.856  162.076    5.698
  524.750    0.250    0.372   57.979  160.550    5.583
  525.000    0.268    0.355   46.753  157.887    5.471
  525.250    0.279    0.393   47.061  157.195    5.401
  525.500    0.287    0.416   57.826  157.030    5.373
  525.750    0.291    0.411   63.791  157.169    5.355
  526.000    0.295    0.425   58.941  157.202    5.377
  526.250    0.297    0.436   53.588  157.032    5.410
  526.500    0.284    0.436   51.890  156.963    5.463
  526.750    0.276    0.400   58.214  156.999    5.676
  527.000    0.259    0.358   65.469  156.933    6.324
  527.250    0.200    0.328   58.253  156.861    7.862
  527.500    0.129    0.295   54.120  157.416   10.382
  527.750    0.099    0.245   48.481  158.697   12.242
  528.000    0.036    0.160   36.395  160.084   13.846
  528.250    0.007    0.123   29.539  160.951   13.931
  528.500   -0.012    0.115   23.184  161.090   11.892
  528.750    0.053    0.163   30.366  160.712    9.574
  529.000    0.141    0.331   53.096  159.917    7.914
  529.250    0.202    0.352   66.153  158.394    6.794
  529.500    0.228    0.341   71.333  156.769    6.161
  529.750    0.215    0.330   71.709  154.415    5.824
  530.000    0.192    0.395   72.804  153.831    5.685
  530.250    0.206    0.390   76.907  156.356    5.634
  530.500    0.207    0.376   81.799  157.846    5.680
  530.750    0.197    0.352   80.028  156.224    5.725
  531.000    0.177    0.340   77.971  156.259    5.749
  531.250    0.175    0.359   78.996  156.501    5.676
  531.500    0.184    0.389   82.883  156.539    5.519
  531.750    0.196    0.404   89.923  156.885    5.337
  532.000    0.211    0.412   89.585  160.244    5.093
  532.250    0.231    0.399   81.940  162.358    4.897
  532.500    0.256    0.379   71.216  158.033    4.772
  532.750    0.288    0.441   63.500  156.717    4.719
  533.000    0.289    0.475   61.658  155.924    4.784
  533.250    0.286    0.488   53.082  154.193    4.971
  533.500    0.291    0.476   43.360  152.684    5.223
  533.750    0.291    0.428   40.732  152.717    5.732
  534.000    0.289    0.379   45.550  153.265    6.278
  534.250    0.290    0.359   46.432  153.920    6.942
  534.500    0.291    0.405   46.951  154.479    8.017
  534.750    0.266    0.438   46.470  154.616    9.725
  535.000    0.220    0.284   52.078  154.652   11.532
  535.250    0.121    0.183   53.746  154.375   13.830
  535.500    0.071    0.159   53.910  154.100   15.614
  535.750    0.062    0.145   38.457  154.343   16.974
  536.000    0.068    0.154   32.677  154.694   14.935
  536.250    0.099    0.217   29.186  155.352   11.191
  536.500    0.207    0.326   28.920  155.182    9.009
  536.750    0.269    0.420   34.528  153.554    7.434
  537.000    0.298    0.426   40.064  150.991    6.590
  537.250    0.282    0.440   41.300  150.613    5.976
  537.500    0.237    0.430   44.259  151.587    5.978
  537.750    0.153    0.277   46.355  151.100    6.536
  538.000    0.116    0.277   38.926  150.204    7.988
  538.250    0.096    0.220   43.100  150.031   10.710
  538.500    0.061    0.173   49.281  150.688   12.676
  538.750    0.013    0.145   39.202  153.532   14.176
  539.000    0.000    0.157   29.265  156.163   14.129
  539.250    0.054    0.189   30.074  157.655   12.837
