~V
VERS. 2.00: Ver 2.00
WRAP. NO:
VEND. PRIZM:GeoGraphix
~W
STRT.M 45.7200:START DEPTH
STOP.M 281.6352:STOP DEPTH
STEP.M 0.3048:STEP
NULL. -999.2500:NULL VALUE
WELL. NUMAC SURMONT :WELL
COMP. :COMPANY
UWI. 00_10-14-082-06W4_0:UNIQUE WELL ID
FLD. :FIELD
CNTY. :COUNTY
STAT. :STATE
CTRY. :COUNTRY
PDAT. :PERMANENT DATUM
LMF. :LOG MEASURED FROM
DMF. :DRILLING MEASURED FROM
LOC1. 10-14-082-06W4:LOCATION LINE 1
LOC2. :LOCATION LINE 2
LOC3. :LOCATION LINE 3
SEC. :SECTION
TWP. :TOWNSHIP
RAN. :RANGE
SRVC. DRESSER ATLAS:Logging Company
BASE. :Logging Unit Location
ENG. BILL:Logging Engineer
WITN. JIM:Witnessed By
DATE. 26 - MAR - 1973:Date
RUN. ONE:Run No.
MUD_TYPE. GEL:Type Fluid in Hole
MUDS. :Source of Mud Sample
RMFS. :Source of Mud Filtrate
RMCS. :Source of Mud Cake
LOC. :LOCATION
~C
DEPT.M :DEPTH
PHID. :Density Pososity
NPHI. :PHIN         - NEUTRON POROSITY (LIMESTONE)
RHOB.KG/M3 :DENS         - BULK DENSITY
GR.API :GR           - GAMMA RAY
ILD.OHMM :RESD         - DEEP RESISTIVITY (DIL)
~P
EKB. 488.6000:ELEVATION OF KELLY BUSHING
EDF. -999.2500:ELEVATION OF DRILLING FLOOR
EGL. 486.7660:ELEVATION OF GROUND LEVEL
EPD. -999.2500:ELEVATION OF PERMANENT DATUM
APD. -999.2500:LMF DISTANCE ABOVE PERMANENT DATUM
LAT. 56.1093:LATITUDE OF WELL LOCATION
LONG. 110.8227:LONGITUDE OF WELL LOCATION
TDD. 278.8920:Total Depth Driller
TDL. -999.2500:Total Depth Logger
LCSG1. -999.2500:Depth of Casing from Logger
CSIZE. -999.2500:Casing Size
CWT. -999.2500:Casing Weight
BS. -999.2500:Bit Size
TLI. 45.7200:Top Logged Interval
BLI. 281.6352:Bottom Logged Interval
MRT. 16.6667:Maximum Recorded Temperature
WMUD. -999.2500:Drilling Mud Density
DFV. -999.2500:Drilling Mud Viscosity
PH. -999.2500:Drilling Mud pH
DFL. -999.2500:Drilling Mud Fluid Loss
RM. -999.2500:Resistivity of Drilling Fluid
RMT. -999.2500:Measured Temp. of Drilling Fluid
RMF. 0.2500:Resistivity of Drilling Fluid Filtrate
RMFT. -999.2500:Measured Temp. of Drilling Fluid Filtrate
RMC. 0.2500:Resistivity of Mud Cake
RMCT. -999.2500:Measured Temp. of Mud Cake
PHImax.V/V 0.3900:Maximum allowable Porosity
RwBnd.OHMM 0.1500:Bound Water Resistivity
RhoHy.KG/MT 1000.0000:Hydrocarbon Bulk density
SwCutoff.V/V 0.7000:Water Saturation Cutoff
PHINsh.V/V 0.4800:New Description
Rw.OHMM 1.0000:Formation Water Resistivity
Rshl.OHMM 5.0000:Resistivity shale
Trw.DEGC 25.0000:Rw measured at Lab conditions
ShaleCutoff.V/V 0.4000:New Description
GRcln.API 45.0000:Gamma Ray clean
RhoM.KG/MT 2650.0000:Bulk Density Matrix
GRshl.API 90.0000:Gamma Ray shale
m. 2.0000:Archie "m"
n. 2.0000:Archie "n"
GasTol.V/V 0.0500:Gas Tollerance
BHTemp.DEGC 25.0000:Bottom Hole Temperature
BHTDepth.M 1000.0000:Bottom Hole Depth
PHIDsh.US/MT 0.1800:New Description
a. 1.0000:Archie "a"
Gas Tol.V/V 0.0500:Gas Tollerance
RhoF.KG/MT 1000.0000:Bulk Density Fluid
RhoShl.KG/MT 2300.0000:Bulk Density Shale
TarCutoff.V/V 0.0300:New Description
SurfTemp.DEGC 10.0000:New Description
HIshl.V/V 0.4000:Neutron Hydrogen Index shale
MATR. 1.0000:
NEUT. 0.0000:
BHTD.M 278.8920:
DATM.M 488.5940:
NULL. -999.2500:
RESI. 0.0000:
SUFT.C 15.0000:
~A
# ...
  228.6000     0.1586     0.2700  2388.3301    87.5210     5.6860 
  228.9048     0.1721     0.2710  2366.0701    88.1290     7.3880 
  229.2096     0.1868     0.2580  2341.7800    86.3160     7.6710 
  229.5144     0.1807     0.2550  2351.9099    84.5030     7.1210 
  229.8192     0.1745     0.2540  2362.0400    83.9010     8.4260 
  230.1240     0.1794     0.2490  2353.9500    83.9030     6.9940 
  230.4288     0.1892     0.2510  2337.7600    85.1170     7.2620 
  230.7336     0.1990     0.2530  2321.5701    86.9360     7.2640 
  231.0384     0.1892     0.2510  2337.7700    88.1480     7.0000 
  231.3432     0.1708     0.2380  2368.1499    87.5460     7.1340 
  231.6480     0.1782     0.2300  2356.0100    79.6810     7.8350 
  231.9528     0.1819     0.2260  2349.9399    77.8670     8.4450 
  232.2576     0.1880     0.2290  2339.8201    77.2650     8.6070 
  232.5624     0.1855     0.2320  2343.8799    81.5050     9.4520 
  232.8672     0.1868     0.2310  2341.8601    80.9020     8.9400 
  233.1720     0.1880     0.2300  2339.8401    80.9050     9.2830 
  233.4768     0.1917     0.2350  2333.7700    82.7230    10.1950 
  233.7816     0.1867     0.2440  2341.8799    86.3580     9.2890 
  234.0864     0.1696     0.2520  2370.2200    89.3870     7.4270 
  234.3912     0.1377     0.2600  2422.8601    89.3890     7.0240 
  234.6960     0.1327     0.2580  2430.9700    87.5760     6.2820 
  235.0008     0.1659     0.2520  2376.3201    81.5260     6.6460 
  235.3056     0.1880     0.2470  2339.8799    67.6080     8.3170 
  235.6104     0.2125     0.2440  2299.3999    57.3210    37.7570 
  235.9152     0.2333     0.2440  2265.0000    51.8770    18.5760 
  236.2200     0.2603     0.2530  2220.4700    42.1960    14.0430 
  236.5248     0.2468     0.2480  2242.7400    34.9350    29.0990 
  236.8296     0.2493     0.2430  2238.7000    31.3070    58.0850 
  237.1344     0.2812     0.2430  2186.0701    31.9160   162.2700 
  237.4392     0.3204     0.2430  2121.3000    33.1290   174.9130 
  237.7440     0.3020     0.2460  2151.6699    34.3410   153.5320 
  238.0488     0.3118     0.2470  2135.4800    34.9480   159.4170 
  238.3536     0.3266     0.2520  2111.1899    36.1630   132.3110 
  238.6584     0.3192     0.2590  2123.3501    37.3760    62.7120 
  238.9632     0.3081     0.2630  2141.5701    39.7990    84.5700 
  239.2680     0.3045     0.2630  2147.6499    41.0120   116.2010 
  239.5728     0.3118     0.2520  2135.5100    40.4090    40.0950 
  239.8776     0.3155     0.2490  2129.4399    37.9910    45.7090 
  240.1824     0.3130     0.2640  2133.5000    36.7840    98.3180 
  240.4872     0.3118     0.2640  2135.5300    34.9710    72.9480 
  240.7920     0.3302     0.2590  2105.1699    34.9730    58.3250 
  241.0968     0.3437     0.2590  2082.9099    35.5810   166.0020 
  241.4016     0.3363     0.2560  2095.0601    33.1630   296.2430 
  241.7064     0.3241     0.2580  2115.3101    33.1650   192.8760 
  242.0112     0.3290     0.2600  2107.2200    34.9840   135.3070 
  242.3160     0.3277     0.2660  2109.2500    37.4080   123.2840 
  242.6208     0.3191     0.2640  2123.4299    38.6210   265.1830 
  242.9256     0.3167     0.2610  2127.4800    41.6500   275.3700 
  243.2304     0.3142     0.2590  2131.5400    45.8890   232.8320 
  243.5352     0.3093     0.2620  2139.6399    52.5500   130.5540 
  243.8400     0.3056     0.2650  2145.7200    47.7830   239.1000 
  244.1448     0.3254     0.2600  2113.0500    41.7440   107.1310 
  244.4496     0.3168     0.2560  2127.2500    47.1980   283.3830 
  244.7544     0.3033     0.2550  2149.5901    54.4690   368.5500 
  245.0592     0.3008     0.2590  2153.6299    56.8960   120.1560 
  245.3640     0.3021     0.2610  2151.5601    59.9270   150.4950 
  245.6688     0.2947     0.2600  2163.7300    54.4950   150.5970 
  245.9736     0.2935     0.2440  2165.7400    61.1580   207.1460 
  246.2784     0.2923     0.2460  2167.7500    67.2150    43.9270 
  246.5832     0.2701     0.2550  2204.3101    63.5950    31.4040 
  246.8880     0.2332     0.2440  2265.2700    58.7680    44.0040 
  247.1928     0.2812     0.2260  2185.9600    69.6630    10.6400 
  247.4976     0.2886     0.2260  2173.7300    66.6510    10.2560 
  247.8024     0.2308     0.2450  2269.2500    60.6110    13.3350 
  248.1072     0.1790     0.2600  2354.6001    55.1760    33.9810 
  248.4120     0.2111     0.2510  2301.7200    61.8410   108.3800 
  248.7168     0.2320     0.2390  2267.1299    61.8500    24.3130 
  249.0216     0.2789     0.2370  2189.8601    55.8090    29.8930 
  249.3264     0.2419     0.2350  2250.8101    54.0070    13.1420 
  249.6312     0.2506     0.2550  2236.5601    50.3860    13.6550 
  249.9360     0.2383     0.2740  2256.8501    46.1610    57.6380 
  250.2408     0.2371     0.2820  2258.8601    55.2460   287.8910 
  250.5456     0.3061     0.2710  2144.9900    61.9070    83.9030 
  250.8504     0.3135     0.2630  2132.7600    68.5700    59.9850 
  251.1552     0.3086     0.2620  2140.8701    73.4210    85.6440 
  251.4600     0.3024     0.2490  2151.0100    72.8270    16.5430 
  251.7648     0.2753     0.2380  2195.7000    71.6240    13.2300 
  252.0696     0.2322     0.2240  2266.8301    67.3980     9.8200 
  252.3744     0.2310     0.2160  2268.8301    64.3880    10.5910 
  252.6792     0.1793     0.2110  2354.1899    64.3950    11.6390 
  252.9840     0.2076     0.2410  2307.3899    61.3790    14.0420 
  253.2888     0.2150     0.2330  2295.1699    57.1540    16.9450 
  253.5936     0.2459     0.2390  2244.3301    55.9540    15.4420 
  253.8984     0.2200     0.2580  2286.9800    56.5700    11.0390 
  254.2032     0.2126     0.2730  2299.1499    42.0620    16.9830 
  254.5080     0.2237     0.2710  2280.8301    38.4460    30.3380 
  254.8128     0.2928     0.2750  2166.9600    40.8750    33.9670 
  255.1176     0.3149     0.2900  2130.3401    39.0680    54.2480 
  255.4224     0.3248     0.2810  2114.0500    33.6360    38.7790 
  255.7272     0.3445     0.2700  2081.5000    33.0430   166.7940 
  256.0320     0.3458     0.2680  2079.4399    34.8650   238.1130 
  256.3368     0.3113     0.2640  2136.3201    37.2910   225.4400 
  256.6416     0.3101     0.2650  2138.3301    41.5360   213.2460 
  256.9464     0.3163     0.2660  2128.1299    43.3610   180.3640 
  257.2512     0.2830     0.2680  2183.0000    38.5320    34.1930 
  257.5560     0.2584     0.2730  2223.6299    37.9350    79.3590 
  257.8608     0.3176     0.2870  2126.0300    41.5750    85.5930 
  258.1656     0.3077     0.2880  2142.2600    40.9780   131.7060 
  258.4704     0.2782     0.2870  2191.0200    36.7560   107.3160 
  258.7752     0.1907     0.2830  2335.3301    36.7650   105.4000 
  259.0800     0.1612     0.2760  2384.0901    39.7980    97.8880 
  259.3848     0.3448     0.2860  2081.1599    40.4130   134.6150 
  259.6896     0.3337     0.2860  2099.4299    38.0050   165.4880 
  259.9944     0.3374     0.2750  2093.3000    37.4070   211.1870 
  260.2992     0.3374     0.2650  2093.2700    42.8620   207.4410 
  260.6040     0.3337     0.2600  2099.3401    49.5230   142.8570 
  260.9088     0.3190     0.2540  2123.7100    54.3730    41.6360 
  261.2136     0.2857     0.2530  2178.5701    51.9640    27.1090 
  261.5184     0.2857     0.2580  2178.5400    48.9490    18.3230 
  261.8232     0.2771     0.2720  2192.7400    35.6520    52.2320 
  262.1280     0.2833     0.2890  2182.5601    32.0310   151.7210 
  262.4328     0.3203     0.2750  2121.5400    33.8600   123.6210 
  262.7376     0.3412     0.2640  2086.9600    35.6820    70.6200 
  263.0424     0.3166     0.2590  2127.5801    38.1130    86.8140 
  263.3472     0.2772     0.2550  2192.6101    39.3280    69.4260 
  263.6520     0.2242     0.2530  2280.0000    41.7570    37.4960 
  263.9568     0.2600     0.2590  2221.0200    35.7200    70.8580 
  264.2616     0.2896     0.2670  2172.1899    34.5200   209.7280 
  264.5664     0.2970     0.2700  2159.9700    35.7390   194.8130 
  264.8712     0.3290     0.2650  2107.0901    44.2160   141.8480 
