~VERSION INFORMATION
 VERS.                 2.0:   CWLS LOG ASCII STANDARD -VERSION 2.0
 WRAP.                  NO:   ONE LINE PER DEPTH STEP
~WELL INFORMATION BLOCK
#MNEM.UNIT           DATA                    DESCRIPTION OF MNEMONIC
#---------    -------------------            -------------------------------
# Generated from Intellog Unique Number	CS_67_68/WELL/2216
WELL.         CAVALIER FLAT LAKE             : Well_name    - WELL
LOC .         00/14-03-067-18W4/0            : Location     - LOCATION
UWI .         00/14-03-067-18W4/0            : Uwi          - UNIQUE WELL ID
ENTR.         SP                             : Entered      - ENTERED BY
SRVC.         SCHLUMBERGER                   : Scn          - SERVICE COMPANY
STRT.M        395                            : top_depth    - START DEPTH
STOP.M        551                            : bot_depth    - STOP DEPTH
STEP.M        0.25                           : increment    - STEP LENGTH
 NULL. -999.2500:NULL Value
~CURVE INFORMATION BLOCK
#MNEM UNIT       ERCB CURVE CODE    CURVE DESCRIPTION
#-----------   ------------------   ----------------------------------
DEPT.M        00 001 00 00         : DEPTH        - DEPTH
ILD .OHMM     00 120 00 00         : RESD         - DEEP RESISTIVITY (DIL)
DPHI.V/V      00 890 00 00         : PHID         - DENSITY POROSITY (LIMESTONE)
NPHI.V/V      00 330 00 00         : PHIN         - NEUTRON POROSITY (LIMESTONE)
GR  .API      00 310 00 00         : GR           - GAMMA RAY
CALI.MM       00 280 01 00         : CAL          - CALIPER
~PARAMETER INFORMATION
#MNEM.UNIT           DATA             DESCRIPTION OF MNEMONIC
#---------         -----------     ------------------------------
GL  .M        616.5                : gl           - GROUND LEVEL ELEVATION
EREF.M        620.5                : kb           - ELEVATION OF DEPTH REFERENCE
DATM.M        620.5                : datum        - DATUM ELEVATION
TDD .M        570                  : tdd          - TOTAL DEPTH DRILLER
RUN .         ONE                  : Run          - RUN NUMBER
ENG .         BILL                 : Engineer     - RECORDING ENGINEER
WIT .         JIM                  : Witness      - WITNESSED BY
MUD .         GEL                  : Mud_type     - MUD TYPE
MATR.         LIMESTONE            : Logunit      - NEUTRON MATRIX
TMAX.C        23                   : BHT          - MAXIMUM RECORDED TEMPERATURE
BHTD.M        570                  : BHTDEP       - MAXIMUM RECORDED TEMPERATURE
MATR.         1                    : LOGUNIT      - NEUTRON MATRIX
RMT .C        25                   : MDTP         - TEMPERATURE OF MUD
NEUT.         1                    : NEUTRON      - NEUTRON TYPE
RESI.         0                    : RESIST       - RESISTIVITY TYPE
RMC .OHMM     0.25                 : RMC          - RESISTIVITY OF MUD CAKE
RMF .OHMM     0.25                 : RMF          - RESISTIVITY OF MUD FILTRATE
SUFT.C        15                   : SUFT         - SURFACE TEMPERATURE
~A  DEPTH     RESD     PHID     PHIN       GR      CAL
# ...
  504.500    3.808    0.144    0.298   68.634  166.492
  504.750    4.334    0.094    0.285   77.494  166.274
  505.000    4.849    0.124    0.345   81.828  165.850
  505.250    5.117    0.180    0.372   83.045  165.429
  505.500    4.696    0.192    0.380   82.852  164.799
  505.750    4.407    0.195    0.381   82.599  164.584
  506.000    4.113    0.195    0.377   82.162  164.568
  506.250    3.862    0.176    0.377   79.767  164.858
  506.500    3.736    0.182    0.379   78.840  165.150
  506.750    3.718    0.190    0.377   81.340  165.849
  507.000    4.113    0.201    0.383   83.350  166.141
  507.250    4.787    0.114    0.384   73.063  166.024
  507.500    5.787    0.079    0.226   61.738  165.908
  507.750    6.599    0.053    0.199   55.245  165.380
  508.000    7.016    0.010    0.191   53.156  165.368
  508.250    6.378    0.000    0.208   64.587  165.048
  508.500    5.754    0.018    0.250   74.549  164.931
  508.750    5.181    0.117    0.324   80.475  164.816
  509.000    4.836    0.142    0.356   84.747  164.597
  509.250    4.556    0.157    0.366   85.718  164.378
  509.500    4.424    0.161    0.366   85.402  164.363
  509.750    4.321    0.159    0.360   86.433  164.449
  510.000    4.110    0.155    0.371   87.955  164.434
  510.250    3.968    0.151    0.375   89.291  164.522
  510.500    3.804    0.161    0.372   89.588  164.506
  510.750    3.729    0.171    0.372   88.234  164.492
  511.000    3.711    0.179    0.386   84.188  164.887
  511.250    3.693    0.164    0.383   84.729  164.871
  511.500    3.682    0.157    0.377   87.534  164.958
  511.750    3.665    0.164    0.388   90.218  165.044
  512.000    3.696    0.177    0.397   92.472  165.542
  512.250    3.706    0.186    0.407   91.851  165.830
  512.500    3.723    0.148    0.400   91.231  166.329
  512.750    3.762    0.125    0.390   91.345  166.926
  513.000    3.808    0.167    0.388   91.458  167.318
  513.250    3.813    0.190    0.411   90.287  167.609
  513.500    3.829    0.185    0.415   92.724  168.003
  513.750    3.776    0.178    0.407   94.062  168.192
  514.000    3.673    0.186    0.399   94.787  168.277
  514.250    3.494    0.195    0.407   93.860  168.366
  514.500    3.152    0.199    0.412   93.607  168.658
  514.750    2.854    0.203    0.414   97.085  169.966
  515.000    2.609    0.222    0.448  101.053  172.605
  515.250    2.500    0.240    0.488  102.390  174.425
  515.500    2.474    0.237    0.512  103.482  175.430
  515.750    2.477    0.237    0.501  106.104  175.924
  516.000    2.484    0.246    0.500  107.869  175.909
  516.250    2.481    0.248    0.501  108.410  175.179
  516.500    2.488    0.240    0.496  106.261  174.862
  516.750    2.519    0.237    0.490  105.089  174.334
  517.000    2.618    0.235    0.485  102.818  173.403
  517.250    2.757    0.227    0.479  102.257  172.269
  517.500    2.921    0.222    0.487   98.885  171.031
  517.750    3.141    0.219    0.464   93.431  169.589
  518.000    3.384    0.187    0.426   90.058  167.738
  518.250    3.632    0.147    0.410   86.379  166.193
  518.500    3.733    0.055    0.392   81.966  165.874
  518.750    3.778    0.109    0.381   88.073  166.370
  519.000    3.725    0.142    0.399   93.142  169.107
  519.250    3.590    0.160    0.417   95.948  171.538
  519.500    3.480    0.166    0.429   98.387  172.747
  519.750    3.456    0.170    0.437   99.846  173.647
  520.000    3.506    0.173    0.434   97.511  173.024
  520.250    3.617    0.140    0.420   96.403  171.583
  520.500    3.724    0.126    0.402   98.412  169.733
  520.750    3.820    0.110    0.390  100.483  168.291
  521.000    3.941    0.135    0.405  101.331  167.868
  521.250    4.058    0.166    0.425   95.449  166.934
  521.500    4.138    0.168    0.439   87.305  166.309
  521.750    4.285    0.159    0.432   80.628  164.256
  522.000    4.713    0.152    0.392   73.829  162.608
  522.250    6.406    0.164    0.328   66.296  162.085
  522.500    7.643    0.126    0.296   63.901  162.479
  522.750    8.172    0.080    0.268   62.852  163.074
  523.000    7.221    0.074    0.238   62.110  163.771
  523.250    6.356    0.072    0.227   75.315  164.066
  523.500    5.268    0.069    0.236   86.194  163.848
  523.750    4.806    0.083    0.291   92.915  163.729
  524.000    4.410    0.121    0.349   95.292  163.205
  524.250    4.139    0.150    0.385   90.511  162.580
  524.500    4.182    0.142    0.399   87.260  161.646
  524.750    4.422    0.132    0.408   89.026  160.920
  525.000    4.596    0.139    0.409   90.913  160.192
  525.250    4.999    0.150    0.400   82.585  159.666
  525.500    5.305    0.124    0.367   73.522  159.345
  525.750    5.577    0.088    0.306   66.907  159.023
  526.000    5.603    0.048    0.235   64.390  159.012
  526.250    5.451    0.085    0.313   79.002  159.199
  526.500    5.117    0.134    0.349   87.740  159.287
  526.750    4.922    0.153    0.361   88.220  159.578
  527.000    4.753    0.119    0.364   84.909  159.869
  527.250    4.617    0.109    0.359   82.331  160.160
  527.500    4.620    0.101    0.353   85.808  159.838
  527.750    4.529    0.110    0.346   89.837  159.515
  528.000    4.356    0.134    0.329   91.970  159.402
  528.250    4.136    0.160    0.341   91.899  159.287
  528.500    4.031    0.163    0.349   91.218  159.374
  528.750    3.952    0.155    0.348   89.618  159.256
  529.000    3.926    0.148    0.343   88.998  159.444
  529.250    3.989    0.141    0.352   89.724  159.738
  529.500    4.107    0.166    0.366   90.142  159.823
  529.750    4.237    0.171    0.358   87.810  160.422
  530.000    4.281    0.158    0.351   88.841  160.815
  530.250    4.245    0.148    0.355   90.423  161.208
  530.500    4.209    0.159    0.362   90.108  161.704
  530.750    4.165    0.154    0.359   89.549  162.096
  531.000    4.153    0.143    0.374   91.680  162.692
  531.250    4.260    0.136    0.383   93.750  162.882
  531.500    4.461    0.149    0.385   95.333  163.175
  531.750    4.637    0.163    0.385   96.243  163.261
  532.000    4.839    0.175    0.372   95.500  163.245
  532.250    4.907    0.183    0.357   93.594  163.232
  532.500    4.977    0.187    0.337   92.913  163.218
  532.750    4.943    0.188    0.326   92.781  162.997
  533.000    4.846    0.183    0.324   95.464  163.086
  533.250    4.778    0.173    0.337   98.513  163.173
  533.500    4.755    0.165    0.350   98.260  163.465
  533.750    4.697    0.160    0.358   96.050  163.552
  534.000    4.088    0.160    0.360   94.450  163.535
  534.250    3.337    0.117    0.347   96.032  163.623
  534.500    2.866    0.105    0.333   99.998  163.814
  534.750    2.406    0.131    0.389  102.131  164.207
  535.000    2.229    0.169    0.439  102.245  165.211
  535.250    2.169    0.194    0.456   99.239  166.727
  535.500    2.159    0.196    0.440   99.658  167.120
  535.750    2.181    0.197    0.434  101.485  167.410
  536.000    2.237    0.208    0.467  103.250  167.394
  536.250    2.383    0.205    0.499  102.996  167.379
  536.500    2.671    0.192    0.470  100.296  167.265
  536.750    3.098    0.189    0.488   98.942  166.737
  537.000    3.499    0.175    0.518   89.206  166.619
  537.250    3.849    0.144    0.449   78.737  166.607
  537.500    4.178    0.076    0.377   73.957  166.493
  537.750    4.368    0.014    0.330   80.554  165.458
  538.000    4.600    0.050    0.351   85.439  164.624
  538.250    4.736    0.096    0.370   89.773  164.102
  538.500    4.777    0.131    0.374   92.212  163.885
  538.750    4.754    0.149    0.367   86.514  163.766
  539.000    4.669    0.161    0.378   70.906  163.956
  539.250    4.500    0.099    0.361   68.573  163.943
  539.500    4.083    0.073    0.341   82.144  163.621
  539.750    3.740    0.091    0.361   90.272  163.914
  540.000    3.523    0.119    0.375   95.768  164.101
  540.250    3.332    0.145    0.383  100.164  164.596
  540.500    3.205    0.164    0.398  104.008  165.194
  540.750    3.184    0.158    0.427  107.059  165.589
