~VERSION INFORMATION
 VERS.                 2.0:   CWLS LOG ASCII STANDARD -VERSION 2.0
 WRAP.                  NO:   ONE LINE PER DEPTH STEP
~WELL INFORMATION BLOCK
#MNEM.UNIT           DATA                    DESCRIPTION OF MNEMONIC
#---------    -------------------            -------------------------------
# Generated from Intellog Unique Number	CW_76_78/WELL/877
WELL.         10-16-076-25W4                 : Well_name    - WELL
LOC .         00/10-16-076-25W4/0            : Location     - LOCATION
UWI .         00/10-16-076-25W4/0            : Uwi          - UNIQUE WELL ID
ENTR.         JAYE                           : Entered      - ENTERED BY
SRVC.         SCHLUMBERGER                   : Scn          - SERVICE COMPANY
DATE.         8 FEB 75                       : Date         - LOG DATE
STRT.M        472.44                         : top_depth    - START DEPTH
STOP.M        679.69                         : bot_depth    - STOP DEPTH
STEP.M        0.25                           : increment    - STEP LENGTH
 NULL. -999.2500:NULL Value
~CURVE INFORMATION BLOCK
#MNEM UNIT       ERCB CURVE CODE    CURVE DESCRIPTION
#-----------   ------------------   ----------------------------------
DEPT.M        00 001 00 00         : DEPTH        - DEPTH
ILD .OHMM     00 120 00 00         : RESD         - DEEP RESISTIVITY (DIL)
NPHI.V/V      00 330 00 00         : PHIN         - NEUTRON POROSITY (SANDSTONE)
DPHI.V/V      00 890 00 00         : PHID         - DENSITY POROSITY (SANDSTONE)
GR  .API      00 310 00 00         : GR           - GAMMA RAY
CALI.MM       00 280 01 00         : CAL          - CALIPER
~PARAMETER INFORMATION
#MNEM.UNIT           DATA             DESCRIPTION OF MNEMONIC
#---------         -----------     ------------------------------
GL  .M        763.829              : gl           - GROUND LEVEL ELEVATION
EREF.M        768.096              : kb           - ELEVATION OF DEPTH REFERENCE
DATM.M        763.829              : datum        - DATUM ELEVATION
TDD .M        673.608              : tdd          - TOTAL DEPTH DRILLER
RUN .         ONE                  : Run          - RUN NUMBER
ENG .         EARLEY               : Engineer     - RECORDING ENGINEER
WIT .         BRONK/AYERS          : Witness      - WITNESSED BY
BASE.         EDM                  : Branch       - HOME BASE OF LOGGING UNIT
MUD .         GEL CHEM             : Mud_type     - MUD TYPE
MATR.         SANDSTONE            : Logunit      - NEUTRON MATRIX
TMAX.C        35                   : BHT          - MAXIMUM RECORDED TEMPERATURE
BHTD.M        666.902              : BHTDEP       - MAXIMUM RECORDED TEMPERATURE
RMT .C        3.33333              : MDTP         - TEMPERATURE OF MUD
MUDD.KG/M     1080                 : MWT          - MUD DENSITY
NEUT.         1                    : NEUTRON      - NEUTRON TYPE
RESI.         0                    : RESIST       - RESISTIVITY TYPE
RM  .OHMM     2.32                 : RM           - RESISTIVITY OF MUD
RMC .OHMM     2.65                 : RMC          - RESISTIVITY OF MUD CAKE
RMF .OHMM     3.87                 : RMF          - RESISTIVITY OF MUD FILTRATE
SUFT.C        -17.7778             : SUFT         - SURFACE TEMPERATURE
~A  DEPTH     RESD     PHIN     PHID       GR      CAL
  472.440    2.760    0.644    0.336   95.101  322.995
  472.690    2.743    0.659    0.344   98.867  316.554
  472.940    2.682    0.677    0.309  102.570  294.116
  473.190    2.598    0.670    0.333  106.089  255.796
  473.440    2.554    0.655    0.352  109.549  236.544
  473.690    2.590    0.641    0.295  107.136  220.365
  473.940    2.720    0.698    0.301   99.519  211.874
  474.190    2.910    0.722    0.335   92.994  216.814
  474.440    2.990    0.716    0.366   85.312  267.775
  474.690    3.140    0.642    0.384   84.293  281.526
  474.940    3.274    0.577    0.122   88.674  270.580
  475.190    3.290    0.590    0.188   93.095  227.028
  475.440    3.276    0.603    0.293   94.927  219.666
  475.690    3.227    0.608    0.265   91.364  217.325
  475.940    3.131    0.594    0.275   87.189  221.440
  476.190    3.084    0.610    0.351   82.967  236.426
  476.440    2.998    0.677    0.397   77.647  259.608
  476.690    2.841    0.716    0.436   74.263  277.058
  476.940    2.585    0.723    0.443   72.648  297.367
  477.190    2.335    0.687    0.419   72.712  324.026
  477.440    2.157    0.669    0.405   73.457  334.303
  477.690    2.132    0.680    0.442   74.976  308.482
  477.940    2.623    0.691    0.512   78.431  269.241
  478.190    3.577    0.636    0.520   85.703  249.676
  478.440    5.154    0.555    0.488   69.913  236.780
  478.690    7.226    0.517    0.429   62.242  227.882
  478.940   10.490    0.513    0.316   60.195  224.824
  479.190   13.463    0.525    0.313   59.170  222.085
  479.440   15.849    0.548    0.317   58.581  220.792
  479.690   19.214    0.542    0.346   58.531  220.509
  479.940   22.785    0.521    0.303   58.604  220.477
  480.190   23.712    0.489    0.243   58.554  220.395
  480.440   23.225    0.475    0.223   57.953  220.516
  480.690   22.456    0.448    0.212   57.422  220.534
  480.940   21.632    0.419    0.200   57.374  220.789
  481.190   20.839    0.457    0.216   57.442  221.205
  481.440   20.448    0.552    0.295   57.866  221.618
  481.690   20.213    0.565    0.309   58.244  221.849
  481.940   19.508    0.574    0.291   58.371  221.949
  482.190   18.586    0.583    0.291   58.630  222.183
  482.440   17.547    0.591    0.301   59.721  222.494
  482.690   16.085    0.604    0.270   60.581  222.720
  482.940   14.290    0.607    0.283   60.409  223.042
  483.190   13.318    0.565    0.301   59.936  223.265
  483.440   12.901    0.588    0.300   59.770  223.815
  483.690   13.475    0.610    0.337   59.832  224.328
  483.940   14.101    0.574    0.358   60.389  224.764
  484.190   14.542    0.611    0.341   61.850  225.701
  484.440   14.374    0.641    0.327   64.402  226.123
  484.690   13.950    0.623    0.363   65.749  226.541
  484.940   13.364    0.571    0.316   65.459  249.417
  485.190   12.640    0.556    0.312   65.165  239.690
  485.440   11.272    0.569    0.316   65.234  232.737
  485.690    9.356    0.611    0.326   65.117  225.478
  485.940    7.322    0.642    0.342   65.249  224.580
  486.190    5.636    0.620    0.362   65.745  225.833
  486.440    4.686    0.592    0.321   69.447  230.673
  486.690    3.701    0.596    0.397   78.172  235.906
  486.940    3.349    0.695    0.562   84.843  246.171
  487.190    3.544    0.681    0.578   92.599  268.116
  487.440    4.044    0.627    0.380   96.301  279.415
  487.690    4.974    0.683    0.314   87.237  264.155
  487.940    5.264    0.707    0.387   81.130  250.331
  488.190    5.388    0.716    0.444   77.083  252.912
  488.440    5.475    0.702    0.417   76.734  293.828
  488.690    5.624    0.649    0.417   75.286  339.151
  488.940    6.107    0.627    0.437   68.880  339.889
  489.190    7.349    0.556    0.339   61.144  315.812
  489.440    9.125    0.547    0.281   53.222  246.444
  489.690   10.761    0.518    0.260   50.393  225.443
  489.940   12.210    0.445    0.226   51.975  216.129
  490.190   12.545    0.453    0.186   53.129  216.662
  490.440   11.931    0.519    0.230   53.821  217.595
  490.690   10.718    0.557    0.279   54.001  219.366
  490.940    9.646    0.565    0.330   54.082  221.122
  491.190    8.712    0.528    0.321   54.385  222.469
  491.440    8.255    0.517    0.296   55.063  224.029
  491.690    8.071    0.510    0.291   55.554  224.872
  491.940    8.052    0.537    0.307   55.988  224.896
  492.190    8.151    0.564    0.310   56.301  224.694
  492.440    8.071    0.562    0.290   56.681  224.408
  492.690    7.861    0.550    0.292   56.745  223.905
  492.940    7.729    0.541    0.288   56.688  222.703
  493.190    7.528    0.538    0.286   56.469  221.266
  493.440    7.373    0.541    0.289   56.298  219.549
  493.690    7.262    0.563    0.323   55.512  217.711
  493.940    7.151    0.564    0.332   54.311  215.985
  494.190    7.056    0.536    0.341   53.534  215.813
  494.440    7.039    0.529    0.348   53.781  216.542
  494.690    7.060    0.518    0.339   56.037  218.913
  494.940    7.056    0.508    0.308   59.070  221.901
  495.190    7.092    0.507    0.300   61.806  225.606
  495.440    7.180    0.509    0.310   63.634  226.039
  495.690    7.216    0.510    0.292   65.584  224.816
  495.940    7.146    0.502    0.296   67.825  223.509
  496.190    6.921    0.508    0.298   71.527  223.009
  496.440    6.705    0.519    0.276   75.963  225.894
  496.690    6.424    0.529    0.253   79.902  231.344
  496.940    6.188    0.513    0.272   85.602  237.515
  497.190    6.061    0.489    0.302   91.787  246.857
  497.440    6.273    0.626    0.402   89.076  266.244
  497.690    7.039    0.639    0.478   84.904  294.758
  497.940    8.302    0.608    0.391   80.677  281.549
  498.190   10.655    0.575    0.283   75.479  256.047
  498.440   14.399    0.546    0.255   66.899  235.668
  498.690   17.232    0.513    0.261   60.371  224.402
  498.940   19.303    0.498    0.273   56.626  218.887
  499.190   20.535    0.452    0.285   54.525  219.619
  499.440   20.450    0.507    0.284   53.746  220.149
  499.690   19.200    0.520    0.280   53.760  220.585
  499.940   17.696    0.510    0.274   53.822  219.579
  500.190   15.608    0.477    0.255   54.192  217.844
  500.440   12.883    0.427    0.250   58.565  216.331
  500.690   10.773    0.439    0.256   63.718  216.762
  500.940    8.650    0.454    0.274   73.107  219.943
  501.190    6.908    0.469    0.269   85.591  223.765
  501.440    5.883    0.501    0.235   93.771  225.518
  501.690    5.217    0.525    0.189  100.746  226.259
  501.940    5.054    0.523    0.204  106.503  226.982
  502.190    5.023    0.518    0.193  104.398  227.202
  502.440    5.095    0.530    0.185  102.832  226.091
  502.690    5.206    1.109    0.187  104.352  224.379
  502.940    5.251    1.110    0.189  101.098  223.253
  503.190    5.086    1.120    0.203   97.168  232.290
  503.440    4.846    1.126    0.223   96.816  257.933
  503.690    4.533    1.132    0.207  102.818  270.353
  503.940    3.818    1.144    0.213  107.126  251.616
  504.190    3.380    1.186    0.184  110.286  235.536
  504.440    3.139    1.190    0.136  113.996  229.198
  504.690    2.963    1.210    0.169  117.083  226.261
  504.940    2.875    1.242    0.173  123.213  225.752
  505.190    2.858    1.253    0.216  124.068  226.993
  505.440    2.867    1.257    0.214  121.297  229.884
  505.690    2.839    1.268    0.205  119.850  235.644
  505.940    2.906    1.283    0.197  118.593  230.836
  506.190    3.069    1.216    0.267  115.330  225.221
  506.440    3.375    1.185    0.288  109.102  227.399
  506.690    4.055    1.160    0.309  102.273  239.616
  506.940    5.100    1.125    0.462   94.593  257.564
  507.190    5.406    1.168    0.523   86.978  352.595
  507.440    5.443    1.225    0.556   85.960  387.155
  507.690    5.282    1.253    0.533   91.784  378.868
  507.940    5.079    1.215    0.438   96.025  352.134
  508.190    4.956    1.165    0.365  100.879  234.986
  508.440    4.890    1.183    0.282  104.096  243.920
  508.690    4.941    1.206    0.372  104.953  278.480
