~VERSION INFORMATION
 VERS.                 2.0:   CWLS LOG ASCII STANDARD -VERSION 2.0
 WRAP.                  NO:   ONE LINE PER DEPTH STEP
~WELL INFORMATION BLOCK
#MNEM.UNIT           DATA                    DESCRIPTION OF MNEMONIC
#---------    -------------------            -------------------------------
# Generated from Intellog Unique Number	CW_76_78/WELL/2584
WELL.         PETROMARK ET AL MARTIN CREEK   : Well_name    - WELL
LOC .         00/11-31-078-05W5/0            : Location     - LOCATION
UWI .         00/11-31-078-05W5/0            : Uwi          - UNIQUE WELL ID
ENTR.         MAX                            : Entered      - ENTERED BY
SRVC.         SCHLUMBERGER                   : Scn          - SERVICE COMPANY
STRT.M        325                            : top_depth    - START DEPTH
STOP.M        570                            : bot_depth    - STOP DEPTH
STEP.M        0.25                           : increment    - STEP LENGTH
 NULL. -999.2500:NULL Value
~CURVE INFORMATION BLOCK
#MNEM UNIT       ERCB CURVE CODE    CURVE DESCRIPTION
#-----------   ------------------   ----------------------------------
DEPT.M        00 001 00 00         : DEPTH        - DEPTH
ILD .OHMM     00 120 00 00         : RESD         - DEEP RESISTIVITY (DIL)
NPHI.V/V      00 330 00 00         : PHIN         - NEUTRON POROSITY (SANDSTONE)
DPHI.V/V      00 890 00 00         : PHID         - DENSITY POROSITY (SANDSTONE)
CALI.MM       00 280 01 00         : CAL          - CALIPER
GR  .API      00 310 00 00         : GR           - GAMMA RAY
~PARAMETER INFORMATION
#MNEM.UNIT           DATA             DESCRIPTION OF MNEMONIC
#---------         -----------     ------------------------------
GL  .M        658.4                : gl           - GROUND LEVEL ELEVATION
EREF.M        662.4                : kb           - ELEVATION OF DEPTH REFERENCE
DATM.M        658.4                : datum        - DATUM ELEVATION
TDD .M        1828                 : tdd          - TOTAL DEPTH DRILLER
RUN .         ONE                  : Run          - RUN NUMBER
ENG .         BILL                 : Engineer     - RECORDING ENGINEER
WIT .         JIM                  : Witness      - WITNESSED BY
MUD .         GEL                  : Mud_type     - MUD TYPE
MATR.         SANDSTONE            : Logunit      - NEUTRON MATRIX
TMAX.C        32                   : BHT          - MAXIMUM RECORDED TEMPERATURE
BHTD.M        1828                 : BHTDEP       - MAXIMUM RECORDED TEMPERATURE
RMT .C        28                   : MDTP         - TEMPERATURE OF MUD
MUDD.KG/M     1170                 : MWT          - MUD DENSITY
NEUT.         1                    : NEUTRON      - NEUTRON TYPE
RESI.         0                    : RESIST       - RESISTIVITY TYPE
RM  .OHMM     0.0926               : RM           - RESISTIVITY OF MUD
RMC .OHMM     0                    : RMC          - RESISTIVITY OF MUD CAKE
RMF .OHMM     0.0867               : RMF          - RESISTIVITY OF MUD FILTRATE
SUFT.C        -20                  : SUFT         - SURFACE TEMPERATURE
~A  DEPTH     RESD     PHIN     PHID      CAL       GR
  325.000    3.814    0.471    0.309  295.382   73.745
  325.250    3.714    0.538    0.303  290.951   74.094
  325.500    3.887    0.559    0.303  289.525   83.138
  325.750    4.106    0.535    0.302  287.128   88.864
  326.000    4.259    0.512    0.293  284.177   97.903
  326.250    4.300    0.510    0.294  278.755  101.243
  326.500    4.380    0.500    0.305  260.339   96.498
  326.750    4.502    0.498    0.314  260.412   96.546
  327.000    4.545    0.490    0.322  273.979   95.991
  327.250    4.506    0.488    0.326  263.554   94.231
  327.500    4.510    0.482    0.326  290.624   93.980
  327.750    4.470    0.469    0.321  296.689   94.618
  328.000    4.431    0.466    0.318  306.251   95.560
  328.250    4.393    0.473    0.317  305.316   96.203
  328.500    4.355    0.467    0.333  290.914   96.241
  328.750    4.241    0.451    0.342  292.476   96.290
  329.000    4.091    0.473    0.340  296.553   95.734
  329.250    3.913    0.505    0.391  310.110   92.787
  329.500    3.844    0.528    0.390  307.686   91.926
  329.750    3.743    0.477    0.319  314.751   93.173
  330.000    3.744    0.502    0.299  313.824   92.923
  330.250    3.780    0.526    0.348  304.407   92.955
  330.500    3.816    0.506    0.309  296.988   95.097
  330.750    3.818    0.494    0.309  289.079   96.339
  331.000    3.785    0.514    0.334  293.138   96.982
  331.250    3.752    0.531    0.328  303.699   94.029
  331.500    3.720    0.555    0.330  296.289   89.577
  331.750    3.721    0.557    0.377  301.846   89.326
  332.000    3.689    0.541    0.365  302.918   89.670
  332.250    3.658    0.557    0.383  316.993   89.713
  332.500    3.660    0.566    0.397  340.040   90.650
  332.750    3.661    0.522    0.359  358.592   94.900
  333.000    3.696    0.482    0.384  334.691   97.041
  333.250    3.765    0.490    0.316  308.784   94.982
  333.500    3.906    0.503    0.286  307.857   93.227
  333.750    4.015    0.500    0.294  303.444   93.276
  334.000    4.164    0.481    0.292  296.515   91.827
  334.250    4.281    0.468    0.280  285.101   91.865
  334.500    4.283    0.453    0.264  289.668   93.407
  334.750    4.246    0.461    0.265  293.746   95.548
  335.000    4.209    0.460    0.281  286.317   94.094
  335.250    4.288    0.434    0.291  289.414   89.043
  335.500    4.408    0.413    0.299  285.464   87.888
  335.750    4.531    0.430    0.300  284.537   87.032
  336.000    4.616    0.412    0.299  276.619   84.984
  336.250    4.702    0.407    0.284  277.191   85.615
  336.500    4.578    0.456    0.284  292.256   88.966
  336.750    4.261    0.483    0.262  289.831   92.611
  337.000    4.074    0.497    0.262  286.898   94.447
  337.250    3.930    0.493    0.285  295.470   96.583
  337.500    3.968    0.477    0.294  285.554   99.928
  337.750    4.079    0.467    0.288  261.644   99.073
  338.000    4.044    0.464    0.292  256.223   99.727
  338.250    3.937    0.450    0.289  268.782  101.563
  338.500    3.868    0.464    0.274  269.853  102.505
  338.750    3.767    0.480    0.289  248.940  100.446
  339.000    3.667    0.466    0.298  244.027   96.594
  339.250    3.702    0.429    0.289  242.102   92.442
  339.500    3.911    0.398    0.321  221.189   88.590
  339.750    4.130    0.426    0.324  217.275   86.830
  340.000    4.246    0.449    0.306  229.334   87.783
  340.250    4.209    0.494    0.297  236.408   89.625
  340.500    4.209    0.494    0.288  238.479   92.360
  340.750    4.137    0.480    0.292  241.039   95.700
  341.000    4.065    0.468    0.293  248.104   98.451
  341.250    3.994    0.456    0.330  271.160   98.500
  341.500    3.960    0.437    0.308  273.730   96.435
  341.750    4.034    0.469    0.277  254.324   91.978
  342.000    4.035    0.466    0.285  251.909   88.431
  342.250    4.001    0.481    0.239  270.969   91.771
  342.500    3.895    0.495    0.225  286.016   93.319
  342.750    3.827    0.477    0.249  281.594   93.662
  343.000    3.726    0.489    0.273  263.677   96.702
  343.250    3.628    0.505    0.275  251.273   99.443
  343.500    3.564    0.502    0.266  251.836  100.995
  343.750    3.470    0.497    0.254  249.920  101.028
  344.000    3.441    0.493    0.254  246.986  101.077
  344.250    3.411    0.484    0.259  245.570  100.227
  344.500    3.443    0.475    0.270  247.150   98.473
  344.750    3.476    0.503    0.243  248.703   96.413
  345.000    3.574    0.527    0.258  255.776   96.457
  345.250    3.640    0.528    0.274  266.337   98.903
  345.500    3.708    0.487    0.282  254.423   97.138
  345.750    3.743    0.444    0.252  253.996   94.484
  346.000    3.814    0.437    0.238  255.585   95.138
  346.250    3.851    0.472    0.243  256.639   94.582
  346.500    3.887    0.477    0.260  261.706   93.122
  346.750    3.959    0.474    0.282  276.771   91.967
  347.000    3.997    0.476    0.257  267.862   92.915
  347.250    3.998    0.479    0.258  267.926   95.350
  347.500    4.001    0.467    0.252  270.995   95.089
  347.750    3.966    0.441    0.244  263.585   92.147
  348.000    3.968    0.423    0.268  276.153   93.988
  348.250    3.969    0.417    0.257  280.212   98.521
  348.500    3.971    0.436    0.251  267.290   99.469
  348.750    3.971    0.432    0.251  258.373   96.516
  349.000    3.975    0.435    0.248  254.468   97.764
  349.250    4.012    0.451    0.235  254.032   98.695
  349.500    4.125    0.448    0.239  254.095   98.739
  349.750    4.356    0.443    0.240  254.095   97.584
  350.000    4.643    0.435    0.230  254.241   93.432
  350.250    4.773    0.423    0.234  254.313   89.291
  350.500    4.605    0.414    0.253  254.404   88.725
  350.750    4.171    0.420    0.272  252.969   88.768
  351.000    3.298    0.426    0.294  249.546   87.613
  351.250    2.426    0.462    0.327  243.616   81.963
  351.500    2.405    0.524    0.299  240.692   81.107
  351.750    2.540    0.529    0.295  240.773   82.355
  352.000    2.322    0.504    0.307  241.345   86.289
  352.250    2.200    0.501    0.312  241.908   87.237
  352.500    2.760    0.525    0.310  242.998   89.084
  352.750    4.073    0.533    0.300  242.562   81.625
  353.000    4.667    0.483    0.278  238.639   72.984
  353.250    4.503    0.437    0.257  224.727   66.429
  353.500    4.345    0.369    0.273  221.803   41.590
  353.750    4.230    0.367    0.275  222.375   43.131
  354.000    4.232    0.357    0.257  223.438   46.177
  354.250    4.159    0.352    0.251  224.518   45.627
  354.500    4.086    0.351    0.258  226.598   46.863
  354.750    4.014    0.356    0.248  228.159   50.503
  355.000    3.908    0.357    0.243  231.238   52.650
  355.250    3.908    0.369    0.239  234.316   55.989
  355.500    3.876    0.376    0.235  236.368   59.030
  355.750    3.774    0.387    0.232  239.438   61.781
  356.000    3.776    0.396    0.231  244.023   63.612
  356.250    3.778    0.394    0.226  249.090   66.352
  356.500    3.745    0.402    0.224  255.147   68.504
  356.750    3.679    0.403    0.229  259.724   70.346
  357.000    3.518    0.387    0.227  254.793   72.781
  357.250    3.364    0.386    0.234  252.877   73.424
  357.500    3.335    0.405    0.235  254.475   72.874
  357.750    3.337    0.421    0.236  255.020   74.116
  358.000    3.220    0.431    0.261  254.593   74.759
  358.250    3.051    0.427    0.263  253.676   75.108
  358.500    2.970    0.442    0.258  255.237   75.157
  358.750    3.053    0.440    0.248  253.830   74.290
  359.000    3.727    0.426    0.236  253.394   69.539
  359.250    4.119    0.413    0.228  252.459   64.783
  359.500    4.311    0.411    0.243  247.037   55.836
  359.750    4.274    0.405    0.261  239.618   51.091
  360.000    4.087    0.396    0.254  232.199   52.327
  360.250    3.944    0.385    0.249  227.277   55.667
  360.500    3.839    0.380    0.239  224.344   57.215
  360.750    3.806    0.370    0.244  223.427   58.451
  361.000    3.843    0.388    0.243  224.008   62.096
  361.250    3.844    0.394    0.245  224.081   60.947
