~VERSION INFORMATION
 VERS.                 2.0:   CWLS LOG ASCII STANDARD -VERSION 2.0
 WRAP.                  NO:   ONE LINE PER DEPTH STEP
~WELL INFORMATION BLOCK
#MNEM.UNIT           DATA                    DESCRIPTION OF MNEMONIC
#---------    -------------------            -------------------------------
# Generated from Intellog Unique Number	CS_71_72/WELL/867
WELL.         PEX PHILLIPS AEC GRIST         : Well_name    - WELL
LOC .         00/10-23-071-08W4/0            : Location     - LOCATION
UWI .         00/10-23-071-08W4/0            : Uwi          - UNIQUE WELL ID
ENTR.         SP                             : Entered      - ENTERED BY
SRVC.         SCHLUMBERGER                   : Scn          - SERVICE COMPANY
STRT.M        310                            : top_depth    - START DEPTH
STOP.M        530                            : bot_depth    - STOP DEPTH
STEP.M        0.25                           : increment    - STEP LENGTH
 NULL. -999.2500:NULL Value
~CURVE INFORMATION BLOCK
#MNEM UNIT       ERCB CURVE CODE    CURVE DESCRIPTION
#-----------   ------------------   ----------------------------------
DEPT.M        00 001 00 00         : DEPTH        - DEPTH
ILD .OHMM     00 120 00 00         : RESD         - DEEP RESISTIVITY (DIL)
DPHI.V/V      00 890 00 00         : PHID         - DENSITY POROSITY (LIMESTONE)
NPHI.V/V      00 330 00 00         : PHIN         - NEUTRON POROSITY (LIMESTONE)
GR  .API      00 310 00 00         : GR           - GAMMA RAY
~PARAMETER INFORMATION
#MNEM.UNIT           DATA             DESCRIPTION OF MNEMONIC
#---------         -----------     ------------------------------
GL  .M        670.2                : gl           - GROUND LEVEL ELEVATION
EREF.M        674                  : kb           - ELEVATION OF DEPTH REFERENCE
DATM.M        670.2                : datum        - DATUM ELEVATION
TDD .M        540                  : tdd          - TOTAL DEPTH DRILLER
RUN .         ONE                  : Run          - RUN NUMBER
ENG .         BILL                 : Engineer     - RECORDING ENGINEER
WIT .         JIM                  : Witness      - WITNESSED BY
MUD .         GEL                  : Mud_type     - MUD TYPE
MATR.         LIMESTONE            : Logunit      - NEUTRON MATRIX
TMAX.C        23                   : BHT          - MAXIMUM RECORDED TEMPERATURE
BHTD.M        540                  : BHTDEP       - MAXIMUM RECORDED TEMPERATURE
MATR.         1                    : LOGUNIT      - NEUTRON MATRIX
RMT .C        25                   : MDTP         - TEMPERATURE OF MUD
NEUT.         1                    : NEUTRON      - NEUTRON TYPE
RESI.         0                    : RESIST       - RESISTIVITY TYPE
RMC .OHMM     0.25                 : RMC          - RESISTIVITY OF MUD CAKE
RMF .OHMM     0.25                 : RMF          - RESISTIVITY OF MUD FILTRATE
SUFT.C        15                   : SUFT         - SURFACE TEMPERATURE
~A  DEPTH     RESD     PHID     PHIN       GR
# ...
  353.500    6.685    0.279    0.451   83.397
  353.750    6.551    0.265    0.447   89.478
  354.000    6.601    0.253    0.453   92.944
  354.250    6.892    0.263    0.453   90.750
  354.500    7.196    0.272    0.430   81.680
  354.750    7.402    0.278    0.415   74.740
  355.000    7.307    0.289    0.410   70.964
  355.250    6.949    0.275    0.424   71.508
  355.500    6.331    0.257    0.434   83.979
  355.750    5.910    0.245    0.433   96.693
  356.000    5.485    0.234    0.441  106.243
  356.250    5.091    0.216    0.451  106.362
  356.500    4.952    0.206    0.446   98.995
  356.750    5.141    0.237    0.455   95.585
  357.000    5.562    0.247    0.480   93.208
  357.250    6.062    0.232    0.494   92.049
  357.500    6.694    0.260    0.511   90.828
  357.750    7.420    0.285    0.527   89.547
  358.000    7.820    0.277    0.503   87.840
  358.250    8.149    0.268    0.479   85.402
  358.500    8.304    0.270    0.467   84.000
  358.750    8.183    0.270    0.459   87.526
  359.000    8.003    0.264    0.453   91.478
  359.250    7.798    0.252    0.445   93.057
  359.500    7.698    0.245    0.438   91.654
  359.750    7.685    0.252    0.437   89.399
  360.000    7.788    0.264    0.427   87.631
  360.250    7.996    0.269    0.409   86.046
  360.500    8.164    0.262    0.399   87.503
  360.750    8.257    0.251    0.414   91.455
  361.000    8.228    0.236    0.408   87.922
  361.250    8.002    0.228    0.395   84.146
  361.500    7.682    0.236    0.390   81.831
  361.750    7.485    0.258    0.420   84.018
  362.000    7.334    0.272    0.471   87.057
  362.250    7.200    0.282    0.505   89.123
  362.500    6.963    0.250    0.467   87.902
  362.750    6.823    0.222    0.451   86.500
  363.000    6.748    0.244    0.461   88.565
  363.250    6.699    0.245    0.477   89.657
  363.500    6.688    0.237    0.495   88.984
  363.750    6.566    0.241    0.503   85.695
  364.000    6.072    0.247    0.491   82.649
  364.250    5.552    0.250    0.478   90.252
  364.500    5.241    0.239    0.466  100.167
  364.750    5.482    0.224    0.457  104.363
  365.000    6.042    0.236    0.481  101.438
  365.250    6.660    0.249    0.489   94.377
  365.500    7.245    0.258    0.476   88.715
  365.750    7.942    0.255    0.458   84.756
  366.000    8.032    0.258    0.443   83.779
  366.250    8.019    0.258    0.431   79.455
  366.500    7.813    0.239    0.425   76.106
  366.750    7.585    0.221    0.437   80.240
  367.000    7.281    0.244    0.450   83.705
  367.250    7.068    0.259    0.459   83.093
  367.500    6.849    0.258    0.440   88.262
  367.750    6.673    0.262    0.427   88.928
  368.000    6.588    0.249    0.439   84.543
  368.250    6.431    0.238    0.438   81.315
  368.500    6.162    0.246    0.435   78.573
  368.750    5.838    0.252    0.441   77.840
  369.000    5.511    0.240    0.447   79.662
  369.250    5.370    0.232    0.444   84.345
  369.500    5.431    0.226    0.448   88.174
  369.750    6.133    0.229    0.462   84.095
  370.000    6.849    0.254    0.481   78.615
  370.250    7.606    0.275    0.461   72.039
  370.500    8.182    0.292    0.426   68.872
  370.750    8.623    0.307    0.418   69.051
  371.000    8.970    0.307    0.429   70.873
  371.250    9.158    0.311    0.415   70.870
  371.500    9.297    0.300    0.407   69.954
  371.750    9.404    0.287    0.414   71.046
  372.000    9.423    0.274    0.438   73.294
  372.250    9.390    0.266    0.468   76.699
  372.500    9.305    0.260    0.471   80.528
  372.750    9.254    0.257    0.451   82.351
  373.000    9.222    0.255    0.431   79.670
  373.250    9.224    0.253    0.417   77.963
  373.500    8.988    0.256    0.413   77.108
  373.750    8.872    0.262    0.412   75.583
  374.000    8.549    0.265    0.414   75.337
  374.250    8.024    0.264    0.416   78.984
  374.500    7.270    0.257    0.411   85.005
  374.750    6.710    0.272    0.448   89.687
  375.000    6.686    0.300    0.480   90.171
  375.250    6.994    0.325    0.503   84.265
  375.500    7.454    0.357    0.495   76.838
  375.750    7.885    0.334    0.470   68.803
  376.000    8.295    0.321    0.451   62.958
  376.250    8.532    0.323    0.441   60.642
  376.500    8.711    0.316    0.453   64.898
  376.750    8.761    0.307    0.464   65.199
  377.000    8.829    0.314    0.477   64.161
  377.250    8.864    0.320    0.460   64.341
  377.500    8.849    0.315    0.440   66.832
  377.750    8.834    0.273    0.437   68.898
  378.000    8.836    0.255    0.440   72.120
  378.250    8.788    0.242    0.408   75.767
  378.500    8.627    0.237    0.397   77.468
  378.750    8.375    0.226    0.402   82.515
  379.000    7.891    0.220    0.402   88.718
  379.250    7.270    0.227    0.399   93.340
  379.500    6.824    0.230    0.409   97.535
  379.750    6.575    0.221    0.420  101.365
  380.000    6.539    0.228    0.432   96.798
  380.250    6.528    0.238    0.434   92.657
  380.500    6.919    0.243    0.414   89.794
  380.750    7.038    0.230    0.403   88.209
  381.000    7.266    0.222    0.408   89.422
  381.250    7.488    0.214    0.427   90.453
  381.500    7.631    0.210    0.429   91.240
  381.750    7.675    0.214    0.412   91.785
  382.000    7.492    0.223    0.406   92.451
  382.250    7.692    0.220    0.411   89.771
  382.500    8.137    0.233    0.411   84.534
  382.750    8.819    0.253    0.418   75.038
  383.000    9.417    0.282    0.435   64.812
  383.250   10.092    0.321    0.445   54.951
  383.500   10.797    0.341    0.435   47.403
  383.750   11.294    0.335    0.421   46.243
  384.000   11.617    0.323    0.416   47.031
  384.250   11.750    0.335    0.426   46.602
  384.500   11.643    0.345    0.434   48.058
  384.750   11.494    0.353    0.442   50.854
  385.000   11.433    0.358    0.434   53.041
  385.250   11.371    0.352    0.421   54.194
  385.500   11.373    0.347    0.423   54.982
  385.750   11.291    0.347    0.430   55.343
  386.000   11.229    0.353    0.430   54.550
  386.250   11.169    0.351    0.435   52.599
  386.500   11.130    0.341    0.454   50.709
  386.750   11.070    0.333    0.453   48.576
  387.000   11.030    0.334    0.444   47.660
  387.250   10.992    0.339    0.439   47.596
  387.500   10.953    0.342    0.439   48.567
  387.750   10.996    0.344    0.452   50.632
  388.000   11.060    0.345    0.455   52.272
  388.250   11.062    0.347    0.443   52.755
  388.500   11.064    0.346    0.432   50.196
  388.750   11.046    0.350    0.434   49.098
  389.000   11.027    0.357    0.450   53.415
  389.250   11.029    0.360    0.459   53.411
  389.500   11.011    0.360    0.438   48.479
  389.750   10.951    0.356    0.416   45.920
  390.000   10.852    0.353    0.414   46.708
  390.250   10.834    0.351    0.431   49.078
  390.500   10.736    0.347    0.446   49.865
  390.750   10.697    0.345    0.432   47.976
  391.000   10.600    0.349    0.422   49.555
  391.250   10.484    0.355    0.420   49.612
  391.500   10.486    0.356    0.427   48.635
  391.750   10.626    0.360    0.431   47.293
  392.000   11.157    0.359    0.435   48.142
  392.250   12.047    0.341    0.446   48.504
  392.500   13.453    0.023    0.453   47.466
  392.750   15.479    0.010    0.170   47.036
  393.000   17.910    0.034    0.175   48.736
  393.250   19.962    0.165    0.230   50.377
  393.500   21.435    0.243    0.294   52.199
  393.750   16.171    0.285    0.364   55.299
  394.000   10.121    0.300    0.411   61.380
  394.250    6.638    0.310    0.444   70.383
  394.500    4.761    0.299    0.466   77.012
  394.750    3.296    0.282    0.496   83.277
  395.000    2.834    0.267    0.518   92.705
  395.250    2.492    0.267    0.540   97.144
  395.500    2.424    0.268    0.538   98.723
  395.750    2.375    0.259    0.526   98.658
  396.000    2.344    0.252    0.549   96.526
  396.250    2.327    0.272    0.562   94.148
  396.500    2.298    0.284    0.573   92.259
  396.750    2.281    0.280    0.548   91.160
