~VERSION INFORMATION
 VERS.                 2.0:   CWLS LOG ASCII STANDARD -VERSION 2.0
 WRAP.                  NO:   ONE LINE PER DEPTH STEP
~WELL INFORMATION BLOCK
#MNEM.UNIT           DATA                    DESCRIPTION OF MNEMONIC
#---------    -------------------            -------------------------------
# Generated from Intellog Unique Number	CN_94_101/WELL/3236
NULL.         -999.25                        : NULL_VALUE
WELL.         PACIFIC PETROLEUMS LTD.        : Well_name    - WELL              
LOC .         11-29-096-09W4/0               : Location     - LOCATION          
UWI .         00/11-29-094-21W4/0            : Uwi          - UNIQUE WELL ID    
ENTR.         JOETTE                         : Entered      - ENTERED BY        
SRVC.         SCHLUMBERGER                   : Scn          - SERVICE COMPANY   
DATE.         01 MAR 78                      : Date         - LOG DATE          
STRT.M        0                              : top_depth    - START DEPTH       
STOP.M        75                             : bot_depth    - STOP DEPTH        
STEP.M        0.25                           : increment    - STEP LENGTH       
~CURVE INFORMATION BLOCK
#MNEM UNIT       ERCB CURVE CODE    CURVE DESCRIPTION
#-----------   ------------------   ----------------------------------
DEPT.M        00 001 00 00         : DEPTH        - DEPTH                       
GR  .API      00 310 00 00         : GR           - GAMMA RAY                   
RHOB.KG/M3    00 350 00 00         : DENS         - BULK DENSITY                
NPHI.V/V      00 330 00 00         : PHIN         - NEUTRON POROSITY (SANDSTONE)
ILD .OHMM     00 120 00 00         : RESD         - DEEP RESISTIVITY (DIL)      
DPHI.V/V      00 890 00 00         : PHID         - DENSITY POROSITY (SANDSTONE)
~PARAMETER INFORMATION       
#MNEM.UNIT           DATA             DESCRIPTION OF MNEMONIC
#---------         -----------     ------------------------------
GL  .M        0                    : gl           - GROUND LEVEL ELEVATION      
EREF.M        0                    : kb           - ELEVATION OF DEPTH REFERENCE
DATM.M        0                    : datum        - DATUM ELEVATION             
TDD .M        340                  : tdd          - TOTAL DEPTH DRILLER         
RUN .         ONE                  : Run          - RUN NUMBER                  
ENG .         BILL                 : Engineer     - RECORDING ENGINEER          
WIT .         JIM                  : Witness      - WITNESSED BY                
MUD .         GEL                  : Mud_type     - MUD TYPE                    
MATR.         SANDSTONE            : Logunit      - NEUTRON MATRIX              
TMAX.C        0                    : BHT          - MAXIMUM RECORDED TEMPERATURE
BHTD.M        340                  : BHTDEP       - MAXIMUM RECORDED TEMPERATURE
RMT .C        0                    : MDTP         - TEMPERATURE OF MUD          
MUDD.KG/M     0                    : MWT          - MUD DENSITY                 
NEUT.         1                    : NEUTRON      - NEUTRON TYPE                
RESI.         0                    : RESIST       - RESISTIVITY TYPE            
RM  .OHMM     0                    : RM           - RESISTIVITY OF MUD          
RMC .OHMM     0                    : RMC          - RESISTIVITY OF MUD CAKE     
RMF .OHMM     0                    : RMF          - RESISTIVITY OF MUD FILTRATE 
SUFT.C        4                    : SUFT         - SURFACE TEMPERATURE         
~A  DEPTH       GR     DENS     PHIN     RESD     PHID
# ...
   36.500   15.067 2093.510    0.414  667.846    0.337
   36.750   18.082 2081.600    0.408  313.818    0.344
   37.000   22.085 2188.780    0.399  189.743    0.280
   37.250   28.060 2203.100    0.403  138.645    0.271
   37.500   37.008 2237.630    0.419   58.153    0.250
   37.750   48.928 2346.810    0.426    8.678    0.184
   38.000   49.965 2468.110    0.426    9.255    0.110
   38.250   61.384 2415.840    0.428    8.809    0.142
   38.500   82.203 2373.660    0.476    7.394    0.167
   38.750   95.606 2151.810    0.514    7.309    0.302
   39.000  103.070 2067.240    0.530    7.227    0.353
   39.250  106.091 2261.200    0.525    7.238    0.236
   39.500  108.111 2305.800    0.523    7.247    0.209
   39.750  101.739 2293.890    0.523    7.345    0.216
   40.000   90.904 2215.380    0.515    7.543    0.263
   40.250   85.026 2393.190    0.496    8.042    0.156
   40.500   88.529 2457.990    0.488    8.364    0.116
   40.750   95.993 2320.960    0.500    7.666    0.199
   41.000   98.019 2280.760    0.521    7.206    0.224
   41.250   90.658 2270.900    0.535    7.494    0.230
   41.500   79.329 2281.180    0.542    8.094    0.224
   41.750   64.546 1702.050    0.544    7.901    0.575
   42.000   64.106 1605.410    0.544    8.640    0.633
   42.250   67.115 1599.520    0.540    8.435    0.637
   42.500   85.950 1629.990    0.533    7.260    0.618
   42.750   91.943 1880.480    0.525    6.741    0.466
   43.000   88.030 2056.280    0.518    6.664    0.360
   43.250   89.067 2300.720    0.507    6.842    0.212
   43.500   92.082 2377.600    0.496    7.025    0.165
   43.750   91.636 2397.980    0.487    7.213    0.153
   44.000   91.685 2394.140    0.470    7.693    0.155
   44.250   82.340 2432.700    0.453    8.851    0.132
   44.500   59.151 2457.120    0.441    9.677    0.117
   44.750   49.306 2431.080    0.430   11.852    0.133
   45.000   37.489 2324.290    0.427   13.461    0.197
   45.250   26.661 2229.660    0.426   14.908    0.255
   45.500   20.776 2215.700    0.427   19.208    0.263
   45.750   11.437 2066.530    0.427   27.719    0.354
   46.000   13.964 2068.750    0.427   24.776    0.352
   46.250   17.955 2026.560    0.428   25.440    0.378
   46.500   17.015 2073.180    0.425   22.173    0.350
   46.750   14.097 2133.970    0.413   15.798    0.313
   47.000   23.044 2158.360    0.394   15.818    0.298
   47.250   31.021 2259.480    0.383   15.440    0.237
   47.500   35.513 2275.850    0.383   12.958    0.227
   47.750   41.983 2284.090    0.382   10.340    0.222
   48.000   61.813 2239.910    0.415    8.250    0.249
   48.250   82.626 2098.790    0.481    8.158    0.334
   48.500  111.849 2266.520    0.501    7.386    0.232
   48.750  105.971 2418.120    0.507    7.874    0.141
   49.000   99.092 2394.100    0.509    8.505    0.155
   49.250   86.286 2396.290    0.510    8.843    0.154
   49.500   86.829 2323.830    0.546    9.080    0.198
   49.750   92.810 2315.960    0.559    9.090    0.202
   50.000  101.757 2376.700    0.542    8.334    0.166
   50.250  112.194 2433.430    0.502    7.543    0.131
   50.500  111.748 2395.280    0.507    7.181    0.154
   50.750  113.774 2411.620    0.514    7.190    0.144
   51.000  118.778 2427.980    0.512    6.345    0.135
   51.250  119.803 2446.320    0.507    5.890    0.123
   51.500  114.908 2430.390    0.499    6.442    0.133
   51.750  111.990 2434.630    0.487    7.793    0.131
   52.000  102.151 2471.120    0.469    8.417    0.108
   52.250   82.918 2451.140    0.437    6.974    0.121
   52.500   74.067 2503.830    0.432    8.123    0.089
   52.750   54.334 2382.920    0.445    9.462    0.162
   53.000   44.995 2142.930    0.441   11.301    0.307
   53.250   46.032 2133.040    0.439   11.315    0.313
   53.500   49.541 2181.670    0.437   11.472    0.284
   53.750   46.617 2161.680    0.438   13.196    0.296
   54.000   38.755 2097.320    0.443   12.883    0.335
   54.250   37.815 2170.170    0.448   12.421    0.291
   54.500   43.301 2206.690    0.448   13.081    0.269
   54.750   45.828 2178.640    0.447   13.774    0.286
   55.000   43.410 2132.390    0.446   14.690    0.314
   55.250   41.475 2100.300    0.446   15.270    0.333
   55.500   45.478 2104.530    0.443   14.537    0.331
   55.750   44.044 2126.930    0.443   13.668    0.317
   56.000   44.587 2102.900    0.443   15.521    0.332
   56.250   42.169 2157.610    0.444   13.026    0.298
   56.500   41.223 2204.230    0.445   13.892    0.270
   56.750   40.777 2151.950    0.448   13.735    0.302
   57.000   42.809 2125.940    0.449   12.121    0.318
   57.250   48.295 2120.050    0.449   11.398    0.321
   57.500   50.321 2172.720    0.448   11.555    0.289
   57.750   48.398 2126.500    0.448   11.571    0.317
   58.000   41.519 2140.850    0.448   10.339    0.309
   58.250   45.523 2165.240    0.448   10.753    0.294
   58.500   39.144 2080.670    0.448   11.042    0.345
   58.750   39.192 2155.540    0.448   11.057    0.300
   59.000   34.303 2079.050    0.446   11.068    0.346
   59.250   32.862 2038.900    0.445   11.366    0.370
   59.500   31.433 2051.190    0.444   11.672    0.363
   59.750   28.509 2118.050    0.444   11.686    0.322
   60.000   30.535 2093.980    0.441   11.699    0.337
   60.250   34.545 2051.800    0.440   11.711    0.363
   60.500   38.060 2049.980    0.441   10.207    0.364
   60.750   42.063 2106.680    0.444   10.615    0.329
   61.000   43.101 2191.640    0.454   11.038    0.278
   61.250   37.210 2145.420    0.458   11.332    0.306
   61.500   37.753 2135.550    0.461   11.491    0.312
   61.750   41.763 2065.080    0.461   11.363    0.354
   62.000   46.255 2097.590    0.458   11.092    0.335
   62.250   53.224 2148.220    0.456   10.561    0.304
   62.500   49.324 2170.640    0.448   11.121    0.291
   62.750   44.923 2197.070    0.442   10.066    0.275
   63.000   35.572 2130.670    0.441   10.732    0.315
   63.250   43.042 2151.050    0.444    9.237    0.302
   63.500   48.535 2189.590    0.449   10.360    0.279
   63.750   48.095 2218.040    0.451   10.244    0.262
   64.000   46.648 2139.530    0.450    9.271    0.309
   64.250   51.146 2186.140    0.440   10.398    0.281
   64.500   34.385 2137.900    0.434   11.809    0.310
   64.750   39.377 2158.280    0.430   11.975    0.298
   65.000   36.959 2184.730    0.430   11.114    0.282
   65.250   32.070 2102.160    0.430    9.812    0.332
   65.500   33.095 2120.520    0.430    9.948    0.321
   65.750   32.655 2157.070    0.427   11.442    0.299
   66.000   26.771 2139.130    0.425   11.314    0.310
   66.250   22.364 2157.490    0.419   10.906    0.298
   66.500   17.969 2103.140    0.413   10.514    0.331
   66.750   15.545 2111.460    0.409   10.514    0.326
   67.000   16.088 2125.760    0.406   10.414    0.318
   67.250   14.647 2079.540    0.405   10.422    0.346
   67.500   14.701 2081.750    0.404   10.433    0.344
   67.750   14.249 2118.280    0.402   10.446    0.322
   68.000   13.309 2150.760    0.405   10.460    0.303
   68.250   12.875 2070.280    0.401   10.474    0.351
   68.500   13.412 2076.480    0.394   10.753    0.348
   68.750   13.466 2137.220    0.389   11.760    0.311
   69.000   14.992 2175.790    0.379   11.923    0.287
   69.250   18.501 2155.800    0.372   11.353    0.300
   69.500   22.505 2147.930    0.369   11.082    0.304
   69.750   31.452 2138.030    0.369   10.821    0.310
   70.000   39.417 2160.430    0.369    5.768    0.297
   70.250   63.196 2227.220    0.369    6.149    0.256
   70.500   98.847 2552.380    0.389    5.293    0.059
   70.750  110.278 2431.490    0.427    5.168    0.132
   71.000  113.287 2429.670    0.489    5.722    0.134
   71.250  105.919 2435.950    0.495    4.988    0.130
   71.500   97.069 2440.180    0.496    5.455    0.127
   71.750   96.629 2440.380    0.493    6.041    0.127
   72.000   91.233 2444.610    0.484    6.205    0.124
   72.250   89.804 2456.910    0.474    6.533    0.117
   72.500   89.352 2487.400    0.460    6.879    0.099
   72.750   83.962 2509.780    0.444    6.974    0.085
