~VERSION INFORMATION
 VERS.                 2.0:   CWLS LOG ASCII STANDARD -VERSION 2.0
 WRAP.                  NO:   ONE LINE PER DEPTH STEP
~WELL INFORMATION BLOCK
#MNEM.UNIT           DATA                    DESCRIPTION OF MNEMONIC
#---------    -------------------            -------------------------------
# Generated from Intellog Unique Number	CS_77_79/WELL/1010
WELL.         MAYNARD ET AL THORNBURY        : Well_name    - WELL
LOC .         00/11-35-079-12W4/0            : Location     - LOCATION
UWI .         00/11-35-079-12W4/0            : Uwi          - UNIQUE WELL ID
ENTR.         JHS                            : Entered      - ENTERED BY
SRVC.         SCHLUMBERGER                   : Scn          - SERVICE COMPANY
STRT.M        215                            : top_depth    - START DEPTH
STOP.M        480                            : bot_depth    - STOP DEPTH
STEP.M        0.25                           : increment    - STEP LENGTH
 NULL. -999.2500:NULL Value
~CURVE INFORMATION BLOCK
#MNEM UNIT       ERCB CURVE CODE    CURVE DESCRIPTION
#-----------   ------------------   ----------------------------------
DEPT.M        00 001 00 00         : DEPTH        - DEPTH
DPHI.V/V      00 890 00 00         : PHID         - DENSITY POROSITY (LIMESTONE)
NPHI.V/V      00 330 00 00         : PHIN         - NEUTRON POROSITY (LIMESTONE)
GR  .API      00 310 00 00         : GR           - GAMMA RAY
ILD .OHMM     00 120 00 00         : RESD         - DEEP RESISTIVITY (DIL)
RHOB.KG/M3    00 350 00 00         : DENS         - BULK DENSITY
~PARAMETER INFORMATION
#MNEM.UNIT           DATA             DESCRIPTION OF MNEMONIC
#---------         -----------     ------------------------------
GL  .M        681.99               : gl           - GROUND LEVEL ELEVATION
EREF.M        685.19               : kb           - ELEVATION OF DEPTH REFERENCE
DATM.M        685.19               : datum        - DATUM ELEVATION
TDD .M        495                  : tdd          - TOTAL DEPTH DRILLER
RUN .         ONE                  : Run          - RUN NUMBER
ENG .         BILL                 : Engineer     - RECORDING ENGINEER
WIT .         JIM                  : Witness      - WITNESSED BY
MUD .         GEL                  : Mud_type     - MUD TYPE
MATR.         LIMESTONE            : Logunit      - NEUTRON MATRIX
TMAX.C        20                   : BHT          - MAXIMUM RECORDED TEMPERATURE
BHTD.M        495                  : BHTDEP       - MAXIMUM RECORDED TEMPERATURE
MATR.         1                    : LOGUNIT      - NEUTRON MATRIX
RMT .C        25                   : MDTP         - TEMPERATURE OF MUD
NEUT.         1                    : NEUTRON      - NEUTRON TYPE
RESI.         0                    : RESIST       - RESISTIVITY TYPE
RMC .OHMM     0.25                 : RMC          - RESISTIVITY OF MUD CAKE
RMF .OHMM     0.25                 : RMF          - RESISTIVITY OF MUD FILTRATE
SUFT.C        15                   : SUFT         - SURFACE TEMPERATURE
~A  DEPTH     PHID     PHIN       GR     RESD     DENS
# ...
  288.000    0.181    0.460  121.460    6.220    0.000
  288.250    0.174    0.449  123.960    6.138    0.000
  288.500    0.176    0.430  125.235    6.468    0.000
  288.750    0.191    0.423  125.878    7.209    0.000
  289.000    0.205    0.419  128.385    8.609    0.000
  289.250    0.217    0.410  127.802    9.762    0.000
  289.500    0.225    0.410  125.357   10.914    0.000
  289.750    0.235    0.417  120.457   11.656    0.000
  290.000    0.245    0.414  114.319   12.068    0.000
  290.250    0.256    0.405  107.560   12.480    0.000
  290.500    0.271    0.399  100.186   12.562    0.000
  290.750    0.264    0.393   98.370   12.480    0.000
  291.000    0.257    0.388   97.791   12.234    0.000
  291.250    0.253    0.385   97.819   12.152    0.000
  291.500    0.259    0.387   98.469   12.152    0.000
  291.750    0.276    0.396   95.414   11.906    0.000
  292.000    0.288    0.412   94.831   11.413    0.000
  292.250    0.284    0.429   96.101   11.084    0.000
  292.500    0.273    0.435   95.514   10.591    0.000
  292.750    0.258    0.445   99.260   10.426    0.000
  293.000    0.252    0.444  101.134   10.262    0.000
  293.250    0.250    0.430   97.464   10.509    0.000
  293.500    0.260    0.421   91.325   11.580    0.000
  293.750    0.259    0.418   85.190   12.486    0.000
  294.000    0.257    0.427   83.990   13.062    0.000
  294.250    0.260    0.434   84.023   12.898    0.000
  294.500    0.255    0.438   89.611   12.405    0.000
  294.750    0.246    0.441   97.053   11.747    0.000
  295.000    0.235    0.443  100.789   11.007    0.000
  295.250    0.229    0.444  102.055   10.678    0.000
  295.500    0.220    0.448  102.087   10.678    0.000
  295.750    0.221    0.447   98.418   11.172    0.000
  296.000    0.232    0.439   94.745   12.325    0.000
  296.250    0.258    0.433   90.465   12.902    0.000
  296.500    0.260    0.437   87.413   13.560    0.000
  296.750    0.262    0.446   88.057   13.890    0.000
  297.000    0.262    0.449   90.560   13.562    0.000
  297.250    0.255    0.455   93.682   12.903    0.000
  297.500    0.252    0.445   94.948   12.163    0.000
  297.750    0.254    0.444   93.135   11.423    0.000
  298.000    0.245    0.445   91.934   11.094    0.000
  298.250    0.245    0.448   93.814   10.930    0.000
  298.500    0.251    0.461   95.085   10.848    0.000
  298.750    0.252    0.480   93.266   10.684    0.000
  299.000    0.262    0.486   94.531   10.520    0.000
  299.250    0.260    0.479   95.796   10.273    0.000
  299.500    0.261    0.473   97.683    9.944    0.000
  299.750    0.251    0.469   98.334    9.616    0.000
  300.000    0.242    0.462  101.461    9.122    0.000
  300.250    0.235    0.449  103.339    8.629    0.000
  300.500    0.227    0.440  103.994    8.218    0.000
  300.750    0.227    0.433  102.793    8.054    0.000
  301.000    0.235    0.422  100.364    8.219    0.000
  301.250    0.249    0.418   97.928    8.795    0.000
  301.500    0.257    0.425   95.492   10.030    0.000
  301.750    0.259    0.428   94.293   10.771    0.000
  302.000    0.268    0.431   93.087   11.513    0.000
  302.250    0.275    0.436   92.491   12.007    0.000
  302.500    0.271    0.429   90.058   12.584    0.000
  302.750    0.275    0.414   84.540   13.325    0.000
  303.000    0.275    0.404   78.399   14.313    0.000
  303.250    0.270    0.394   74.109   16.042    0.000
  303.500    0.283    0.392   70.443   18.930    0.000
  303.750    0.302    0.393   67.393   22.222    0.000
  304.000    0.308    0.393   65.572   23.045    0.000
  304.250    0.311    0.391   64.984   23.868    0.000
  304.500    0.313    0.394   65.634   23.868    0.000
  304.750    0.315    0.402   66.291   23.868    0.000
  305.000    0.320    0.410   64.466   23.868    0.000
  305.250    0.321    0.411   64.499   23.868    0.000
  305.500    0.316    0.408   67.628   23.045    0.000
  305.750    0.312    0.403   67.036   23.045    0.000
  306.000    0.307    0.401   65.850   22.222    0.000
  306.250    0.307    0.396   64.646   22.222    0.000
  306.500    0.319    0.401   64.055   22.222    0.000
  306.750    0.328    0.409   62.231   23.045    0.000
  307.000    0.344    0.417   60.414   23.045    0.000
  307.250    0.339    0.415   61.067   23.868    0.000
  307.500    0.334    0.407   60.483   23.868    0.000
  307.750    0.325    0.394   56.809   24.691    0.000
  308.000    0.305    0.383   56.231   24.691    0.000
  308.250    0.263    0.381   56.876   23.868    0.000
  308.500    0.256    0.384   58.764   23.045    0.000
  308.750    0.255    0.395   58.794   22.222    0.000
  309.000    0.289    0.407   61.924   22.222    0.000
  309.250    0.329    0.405   65.036   21.399    0.000
  309.500    0.335    0.411   66.924   21.399    0.000
  309.750    0.327    0.418   65.110   21.399    0.000
  310.000    0.320    0.424   65.135   21.399    0.000
  310.250    0.317    0.430   66.406   21.399    0.000
  310.500    0.327    0.433   65.824   21.399    0.000
  310.750    0.333    0.434   64.002   22.222    0.000
  311.000    0.345    0.430   64.033   22.222    0.000
  311.250    0.349    0.425   64.068   22.222    0.000
  311.500    0.344    0.420   62.249   22.222    0.000
  311.750    0.339    0.418   60.433   21.399    0.000
  312.000    0.340    0.418   61.088   21.399    0.000
  312.250    0.330    0.419   62.969   20.576    0.000
  312.500    0.336    0.421   61.767   20.576    0.000
  312.750    0.330    0.429   60.579   20.576    0.000
  313.000    0.320    0.436   61.214   20.576    0.000
  313.250    0.319    0.441   62.486   20.576    0.000
  313.500    0.326    0.447   64.376   21.399    0.000
  313.750    0.326    0.439   65.641   21.399    0.000
  314.000    0.336    0.395   65.055   22.222    0.000
  314.250    0.344    0.368   63.848   23.045    0.000
  314.500    0.291    0.358   60.801   24.691    0.000
  314.750    0.248    0.350   57.749   25.514    0.000
  315.000    0.238    0.348   57.163   24.691    0.000
  315.250    0.232    0.354   57.206   24.691    0.000
  315.500    0.234    0.375   59.089   24.691    0.000
  315.750    0.310    0.412   60.350   23.868    0.000
  316.000    0.329    0.425   61.008   23.045    0.000
  316.250    0.328    0.430   61.040   21.399    0.000
  316.500    0.328    0.431   59.840   21.399    0.000
  316.750    0.329    0.431   58.640   21.399    0.000
  317.000    0.325    0.432   58.047   20.576    0.000
  317.250    0.328    0.432   57.462   20.576    0.000
  317.500    0.325    0.432   58.726   20.576    0.000
  317.750    0.323    0.432   60.617   20.576    0.000
  318.000    0.324    0.432   60.650   20.576    0.000
  318.250    0.324    0.432   60.067   21.399    0.000
  318.500    0.322    0.431   59.482   21.399    0.000
  318.750    0.327    0.429   58.901   21.399    0.000
  319.000    0.332    0.427   58.310   22.222    0.000
  319.250    0.333    0.426   58.960   22.222    0.000
  319.500    0.333    0.427   60.232   22.222    0.000
  319.750    0.322    0.434   61.495   22.222    0.000
  320.000    0.321    0.448   62.147   22.222    0.000
  320.250    0.314    0.457   62.800   22.222    0.000
  320.500    0.316    0.460   62.217   22.222    0.000
  320.750    0.317    0.461   62.258   22.222    0.000
  321.000    0.311    0.463   62.908   22.222    0.000
  321.250    0.313    0.448   64.783   22.222    0.000
  321.500    0.322    0.447   66.053   21.399    0.000
  321.750    0.326    0.445   63.622   21.399    0.000
  322.000    0.310    0.440   61.797   21.399    0.000
  322.250    0.294    0.424   58.129   21.399    0.000
  322.500    0.290    0.405   51.991   22.222    0.000
  322.750    0.292    0.394   48.319   22.222    0.000
  323.000    0.294    0.386   46.510   23.045    0.000
  323.250    0.299    0.381   45.311   23.045    0.000
  323.500    0.307    0.395   45.334   23.045    0.000
  323.750    0.314    0.391   45.366   23.045    0.000
  324.000    0.321    0.398   46.015   23.045    0.000
  324.250    0.332    0.401   46.672   23.045    0.000
