~VERSION INFORMATION
 VERS.                 2.0:   CWLS LOG ASCII STANDARD -VERSION 2.0
 WRAP.                  NO:   ONE LINE PER DEPTH STEP
~WELL INFORMATION BLOCK
#MNEM.UNIT           DATA                    DESCRIPTION OF MNEMONIC
#---------    -------------------            -------------------------------
# Generated from Intellog Unique Number	CW_70_72/WELL/1057
NULL.         -999.25                        : NULL_VALUE
WELL.         MIKAS AMOCO CALLING LAKE 11-12 : Well_name    - WELL              
LOC .         11-12-072-20W4                 : Location     - LOCATION          
UWI .         00/11-12-072-20W4/0            : Uwi          - UNIQUE WELL ID    
ENTR.         JAYE                           : Entered      - ENTERED BY        
SRVC.         SCHLUMBERGER                   : Scn          - SERVICE COMPANY   
DATE.         24 FEB 73                      : Date         - LOG DATE          
STRT.M        316.992                        : top_depth    - START DEPTH       
STOP.M        518.242                        : bot_depth    - STOP DEPTH        
STEP.M        0.25                           : increment    - STEP LENGTH       
~CURVE INFORMATION BLOCK
#MNEM UNIT       ERCB CURVE CODE    CURVE DESCRIPTION
#-----------   ------------------   ----------------------------------
DEPT.M        00 001 00 00         : DEPTH        - DEPTH                       
DPHI.V/V      00 890 00 00         : PHID         - DENSITY POROSITY (SANDSTONE)
NPHI.V/V      00 330 00 00         : PHIN         - NEUTRON POROSITY (SANDSTONE)
GR  .API      00 310 00 00         : GR           - GAMMA RAY                   
CALI.MM       00 280 01 00         : CAL          - CALIPER                     
ILD .OHMM     00 120 00 00         : RESD         - DEEP RESISTIVITY (DLL)      
~PARAMETER INFORMATION       
#MNEM.UNIT           DATA             DESCRIPTION OF MNEMONIC
#---------         -----------     ------------------------------
GL  .M        594.055              : gl           - GROUND LEVEL ELEVATION      
EREF.M        597.408              : kb           - ELEVATION OF DEPTH REFERENCE
DATM.M        594.055              : datum        - DATUM ELEVATION             
TDD .M        542.544              : tdd          - TOTAL DEPTH DRILLER         
RUN .         ONE                  : Run          - RUN NUMBER                  
ENG .         LYE                  : Engineer     - RECORDING ENGINEER          
WIT .         COVENEY/BOUPLAND     : Witness      - WITNESSED BY                
BASE.         R.D.                 : Branch       - HOME BASE OF LOGGING UNIT   
MUD .         GEL CHEM             : Mud_type     - MUD TYPE                    
MATR.         SANDSTONE            : Logunit      - NEUTRON MATRIX              
TMAX.C        28.8889              : BHT          - MAXIMUM RECORDED TEMPERATURE
BHTD.M        542.239              : BHTDEP       - MAXIMUM RECORDED TEMPERATURE
RMT .C        18.8889              : MDTP         - TEMPERATURE OF MUD          
MUDD.KG/M     1104                 : MWT          - MUD DENSITY                 
NEUT.         1                    : NEUTRON      - NEUTRON TYPE                
RESI.         1                    : RESIST       - RESISTIVITY TYPE            
RM  .OHMM     4.29                 : RM           - RESISTIVITY OF MUD          
RMC .OHMM     0                    : RMC          - RESISTIVITY OF MUD CAKE     
RMF .OHMM     5.03                 : RMF          - RESISTIVITY OF MUD FILTRATE 
SUFT.C        -17.7778             : SUFT         - SURFACE TEMPERATURE         
~A  DEPTH     PHID     PHIN       GR      CAL     RESD
# ...
  462.992    0.140    0.480   89.287  168.465    4.092
  463.242    0.127    0.437   91.571  163.437    4.262
  463.492    0.171    0.459   96.600  163.263    4.415
  463.742    0.196    0.504  100.163  165.988    4.590
  463.992    0.195    0.493  100.430  171.095    4.691
  464.242    0.206    0.468  102.162  174.029    4.787
  464.492    0.229    0.463   98.947  165.481    4.827
  464.742    0.208    0.445   95.184  163.964    4.817
  464.992    0.194    0.418   95.203  164.935    4.816
  465.242    0.193    0.442  100.235  165.488    4.797
  465.492    0.199    0.474  103.004  166.356    4.764
  465.742    0.187    0.493  104.430  167.734    4.722
  465.992    0.195    0.511  101.276  175.320    4.617
  466.242    0.217    0.512  104.110  175.048    4.515
  466.492    0.204    0.459  100.100  169.912    4.438
  466.742    0.185    0.404   89.126  166.536    4.482
  466.992    0.150    0.380   73.208  165.436    4.970
  467.242    0.122    0.314   65.535  164.129    6.984
  467.492    0.037    0.247   64.212  162.620    9.309
  467.742    0.055    0.245   62.952  161.927   12.600
  467.992    0.064    0.253   61.080  161.551   15.294
  468.242    0.052    0.267   61.346  161.589   15.213
  468.492    0.063    0.283   67.355  161.731   12.127
  468.742    0.115    0.370   73.055  162.386    9.264
  468.992    0.148    0.406   83.828  162.527    7.423
  469.242    0.207    0.428   87.513  162.565    5.887
  469.492    0.190    0.444   91.323  162.807    5.015
  469.742    0.169    0.468   92.015  162.748    4.756
  469.992    0.190    0.475   90.511  162.883    4.519
  470.242    0.187    0.463   89.861  162.817    4.456
  470.492    0.188    0.445   90.433  162.656    4.485
  470.742    0.184    0.452   90.149  162.373    4.560
  470.992    0.187    0.435   90.049  163.034    4.637
  471.242    0.188    0.424   92.451  163.483    4.733
  471.492    0.203    0.416   91.618  165.898    4.813
  471.742    0.181    0.409   91.459  168.421    4.869
  471.992    0.171    0.415   91.785  168.452    4.891
  472.242    0.184    0.429   92.113  167.457    4.941
  472.492    0.160    0.434   94.821  166.560    4.939
  472.742    0.168    0.443   98.996  165.563    4.913
  472.992    0.183    0.445  103.782  165.082    4.912
  473.242    0.195    0.436  103.376  164.915    4.960
  473.492    0.183    0.438  100.956  164.853    5.088
  473.742    0.168    0.440   98.781  164.271    5.270
  473.992    0.152    0.434   96.601  163.371    5.507
  474.242    0.137    0.411   92.958  162.174    5.590
  474.492    0.131    0.384   92.431  162.000    5.580
  474.742    0.122    0.366   92.758  162.240    5.502
  474.992    0.186    0.397   94.980  162.276    5.371
  475.242    0.186    0.396   97.017  162.318    5.226
  475.492    0.171    0.398   98.259  162.460    5.092
  475.742    0.183    0.398   99.505  162.596    4.955
  475.992    0.176    0.384   99.830  162.328    4.877
  476.242    0.164    0.378   99.241  162.771    4.794
  476.492    0.172    0.392   96.454  166.532    4.751
  476.742    0.146    0.394   92.077  176.188    4.742
  476.992    0.124    0.385   93.505  173.947    4.734
  477.242    0.180    0.395   94.992  169.540    4.797
  477.492    0.167    0.399   92.327  169.066    4.927
  477.742    0.155    0.381   84.775  168.895    5.228
  477.992    0.129    0.368   86.510  169.650    5.027
  478.242    0.194    0.378   90.681  170.102    4.783
  478.492    0.207    0.408   95.162  169.001    4.158
  478.742    0.202    0.430   98.361  167.279    3.677
  478.992    0.198    0.476  101.191  165.765    3.018
  479.242    0.245    0.513  103.901  165.085    2.584
  479.492    0.251    0.570  106.245  164.600    2.309
  479.742    0.248    0.594  106.570  164.020    2.123
  479.992    0.230    0.586  102.012  163.534    2.090
  480.242    0.207    0.580  100.689  162.645    2.203
  480.492    0.172    0.571  101.750  162.471    2.452
  480.742    0.149    0.541   98.718  162.920    2.847
  480.992    0.123    0.477   91.899  164.198    3.212
  481.242    0.081    0.366   89.112  167.960    3.717
  481.492    0.133    0.387   90.477  169.237    4.629
  481.742    0.132    0.400   90.987  165.449    5.284
  481.992    0.112    0.406   91.743  164.450    5.466
  482.242    0.157    0.415   94.146  169.450    5.044
  482.492    0.196    0.427   97.345  174.245    4.476
  482.742    0.187    0.443  100.419  172.215    4.195
  482.992    0.155    0.454   98.549  168.631    4.116
  483.242    0.132    0.416   91.546  170.530    4.128
  483.492    0.103    0.394   76.238  170.360    4.547
  483.742    0.084    0.328   73.818  164.606    5.720
  483.992    0.066    0.301   78.542  162.169    6.599
  484.242    0.077    0.330   84.917  163.232    6.919
  484.492    0.121    0.360   89.945  163.893    6.800
  484.742    0.108    0.413   92.412  166.097    6.503
  484.992    0.169    0.448   91.822  170.173    5.851
  485.242    0.147    0.453   90.500  166.377    5.165
  485.492    0.152    0.430   90.034  168.795    4.694
  485.742    0.151    0.411   91.093  168.009    4.490
  485.992    0.180    0.435   93.926  165.870    4.391
  486.242    0.173    0.474   95.290  164.665    4.367
  486.492    0.147    0.469   92.318  163.876    4.330
  486.742    0.157    0.445   93.991  163.810    4.225
  486.992    0.191    0.434   96.394  164.262    4.055
  487.242    0.176    0.435   94.950  165.334    3.892
  487.492    0.158    0.457   91.920  166.303    3.825
  487.742    0.130    0.475   89.131  166.854    3.831
  487.992    0.103    0.465   90.313  168.341    3.836
  488.242    0.027    0.440   96.564  169.517    3.854
  488.492    0.122    0.463  102.022  169.862    3.860
  488.742    0.160    0.487  104.243  169.382    3.813
  488.992    0.177    0.512  103.164  168.382    3.741
  489.242    0.195    0.517  104.103  167.592    3.671
  489.492    0.190    0.514  102.538  167.008    3.602
  489.742    0.181    0.512   98.038  166.325    3.576
  489.992    0.168    0.497   96.716  165.948    3.544
  490.242    0.149    0.463   97.411  165.261    3.568
  490.492    0.166    0.452  100.303  165.096    3.585
  490.742    0.144    0.441  102.891  165.334    3.633
  490.992    0.155    0.450  101.752  166.405    3.688
  491.242    0.158    0.474   98.047  167.472    3.732
  491.492    0.117    0.461   92.939  166.994    3.775
  491.742    0.064    0.440   91.739  165.790    3.812
  491.992    0.131    0.420   98.052  164.795    3.857
  492.242    0.163    0.462   99.967  164.623    3.869
  492.492    0.148    0.453   99.501  165.900    3.861
  492.742    0.138    0.427  101.355  170.386    3.841
  492.992    0.158    0.489  107.484  168.665    3.807
  493.242    0.162    0.530  108.178  165.288    3.742
  493.492    0.192    0.541  105.759  165.326    3.697
  493.742    0.171    0.524  104.496  167.224    3.683
  493.992    0.169    0.506  103.541  169.742    3.713
  494.242    0.179    0.505  103.868  169.675    3.757
  494.492    0.154    0.521  103.706  166.301    3.788
  494.742    0.128    0.540   98.415  163.859    3.838
  494.992    0.056    0.451   97.337  162.549    3.863
  495.242    0.135    0.463   99.984  161.555    3.842
  495.492    0.168    0.501  105.809  161.587    3.802
  495.742    0.183    0.479  109.496  164.108    3.788
  495.992    0.167    0.500  105.609  168.692    3.919
  496.242    0.169    0.453  100.438  174.938    4.179
  496.492    0.126    0.426   95.148  175.386    4.596
  496.742    0.083    0.405   91.627  168.910    5.045
  496.992    0.058    0.362   97.206  167.188    5.492
  497.242    0.068    0.368  103.213  169.914    5.720
  497.492    0.132    0.371   97.984  169.641    5.865
  497.742    0.136    0.355   87.072  168.023    6.191
  497.992    0.135    0.345   77.139  165.681    6.938
  498.242    0.155    0.339  105.500  164.062    7.288
  498.492    0.145    0.324  117.554  162.757    7.385
  498.742    0.118    0.337  126.736  160.516    7.296
  498.992    0.124    0.378  130.729  157.967    7.025
  499.242    0.150    0.401  125.681  157.282    6.730
