~Version Information Block
VERS .                 2.00:  CWLS LOG ASCII STANDARD - VERSION 2.00
WRAP.                  NO:
~Well Information Block
#MNEM.UNIT        Data Type   Information
#---------- ----------------  -----------
STRT.M           130.2000:
STOP.M           354.0000:
STEP.M             0.3000:
NULL.           -999.2500:
COMP.  :COMPANY
WELL.  :WELL
FLD.   :FIELD
LOC.   :LOCATION
CTRY.  :COUNTRY
PROV.  :PROVINCE
SRVC.  :SERVICE COMPANY
DATE.  :LOG DATE
UWI.   00/10-08-083-05W4/0:UNIQUE WELL ID
~Parameter Information Block
#MNEM.UNIT            Value   Description
#---------- ----------------  -----------
PROJECT.             SURMOUNT:  
SET  .                  RAW:  
~Curve Information Block
#MNEM.UNIT          API CODE    Curve Description
#-----------    ------------    -------------------------------------
DEPT.M                      :   DEPTH
DPHI .V/V                   :   DPHI
DT   .us/m                  :   DT
GR   .API                   :   GR
ILD  .Ohmm                  :   ILD
NPHI .V/V                   :   NPHI
PHID .                      :   Created by graphical digitiser entry.
RHOB .gm/c3                 :   RHOB
~A  Depth           DPHI          DT          GR         ILD        NPHI        PHID        RHOB
# ...
155.1000       -999.2500   -999.2500     53.3535     13.5532      0.4136      0.3630   2051.0706
155.4000       -999.2500   -999.2500     45.2055     14.3597      0.4406      0.3713   2037.3722
155.7000       -999.2500   -999.2500     37.8893     14.7903      0.4091      0.3593   2057.2319
156.0000       -999.2500   -999.2500     39.9622     14.7375      0.3656      0.3312   2103.5940
156.3000       -999.2500   -999.2500     47.2227     13.3509      0.3898      0.3252   2113.4041
156.6000       -999.2500   -999.2500     49.8353     12.2176      0.3914      0.3538   2066.2507
156.9000       -999.2500   -999.2500     51.0537     11.6679      0.3921      0.3597   2056.5469
157.2000       -999.2500   -999.2500     55.7385     11.2000      0.4252      0.3361   2095.4749
157.5000       -999.2500   -999.2500     55.4969     11.3592      0.4158      0.3190   2123.6135
157.8000       -999.2500   -999.2500     46.9359     11.9648      0.3887      0.3453   2080.1892
158.1000       -999.2500   -999.2500     40.2788     12.6214      0.4176      0.3454   2080.1626
158.4000       -999.2500   -999.2500     39.7339     12.5666      0.4420      0.3588   2057.9771
158.7000       -999.2500   -999.2500     49.1425     10.4188      0.4486      0.3673   2043.9142
159.0000       -999.2500   -999.2500     60.4849      7.6384      0.4364      0.3657   2046.5386
159.3000       -999.2500   -999.2500     70.2790      5.3819      0.4388      0.3540   2065.8855
159.6000       -999.2500   -999.2500     80.5846      3.8969      0.4847      0.3279   2109.0032
159.9000       -999.2500   -999.2500     92.4831      3.1190      0.5482      0.3062   2144.8091
160.2000       -999.2500   -999.2500     96.1555      2.8882      0.5673      0.3043   2147.9600
160.5000       -999.2500   -999.2500     94.5694      3.1722      0.5440      0.3054   2146.1570
160.8000       -999.2500   -999.2500     91.9850      3.6296      0.5359      0.3017   2152.1904
161.1000       -999.2500   -999.2500     88.4671      4.4004      0.5217      0.2977   2158.8025
161.4000       -999.2500   -999.2500     85.3007      5.5437      0.5297      0.3136   2132.5642
161.7000       -999.2500   -999.2500     82.3352      7.1750      0.5290      0.3325   2101.4214
162.0000       -999.2500   -999.2500     78.7843      9.0478      0.4971      0.3449   2080.8604
162.3000       -999.2500   -999.2500     73.5721     10.8939      0.4478      0.3585   2058.4976
162.6000       -999.2500   -999.2500     67.2813     11.7559      0.4510      0.3640   2049.3203
162.9000       -999.2500   -999.2500     63.7294     12.0587      0.4522      0.3661   2045.8555
163.2000       -999.2500   -999.2500     62.4919     12.3124      0.4354      0.3703   2038.9900
163.5000       -999.2500   -999.2500     61.7778     12.0359      0.4272      0.3760   2029.6746
163.8000       -999.2500   -999.2500     60.5946     11.4965      0.4354      0.3773   2027.3960
164.1000       -999.2500   -999.2500     60.4111     10.9571      0.4297      0.3785   2025.4636
164.4000       -999.2500   -999.2500     60.6267     10.6425      0.4342      0.3767   2028.4425
164.7000       -999.2500   -999.2500     60.5467     10.5970      0.4343      0.3700   2039.5385
165.0000       -999.2500   -999.2500     59.4610     10.6297      0.4462      0.3707   2038.3359
165.3000       -999.2500   -999.2500     57.6680     10.7631      0.4391      0.3633   2050.5657
165.6000       -999.2500   -999.2500     56.6671     10.9505      0.3501      0.3382   2092.0457
165.9000       -999.2500   -999.2500     58.3587     11.1398      0.3637      0.2424   2250.0769
166.2000       -999.2500   -999.2500     61.8553     11.1446      0.4270      0.2653   2212.3025
166.5000       -999.2500   -999.2500     65.5558     11.0440      0.4362      0.3535   2066.6665
166.8000       -999.2500   -999.2500     67.3310     10.9368      0.4623      0.3761   2029.3998
167.1000       -999.2500   -999.2500     67.1233     10.9379      0.4528      0.3668   2044.7456
167.4000       -999.2500   -999.2500     65.5833     10.9960      0.4423      0.3616   2053.2817
167.7000       -999.2500   -999.2500     63.2642     11.0517      0.4465      0.3697   2039.9729
168.0000       -999.2500   -999.2500     61.7257     11.0716      0.4381      0.3724   2035.5134
168.3000       -999.2500   -999.2500     60.7266     11.2577      0.4176      0.3680   2042.7247
168.6000       -999.2500   -999.2500     59.3631     12.0655      0.4053      0.3365   2094.6975
168.9000       -999.2500   -999.2500     58.1570     14.5688      0.4312      0.3139   2132.0593
169.2000       -999.2500   -999.2500     57.2218     17.8556      0.4499      0.3336   2099.5000
169.5000       -999.2500   -999.2500     57.7519     20.0260      0.3907      0.3473   2076.9905
169.8000       -999.2500   -999.2500     60.4613     20.9766      0.2575      0.3011   2153.2378
170.1000       -999.2500   -999.2500     59.3703     19.9230      0.1548      0.1383   2421.7283
170.4000       -999.2500   -999.2500     51.6251     17.8431      0.2411      0.0367   2589.4053
170.7000       -999.2500   -999.2500     51.1139     15.3645      0.3274      0.0577   2554.8730
171.0000       -999.2500   -999.2500     56.7479     13.0306      0.4079      0.1973   2324.4731
171.3000       -999.2500   -999.2500     61.7307     11.7745      0.4165      0.3226   2117.7815
171.6000       -999.2500   -999.2500     63.8936     10.9827      0.4258      0.3524   2068.5798
171.9000       -999.2500   -999.2500     62.7576     10.3157      0.4410      0.3523   2068.6836
172.2000       -999.2500   -999.2500     59.6879     10.0658      0.4534      0.3578   2059.6252
172.5000       -999.2500   -999.2500     59.0421      9.9933      0.4370      0.3621   2052.4692
172.8000       -999.2500   -999.2500     60.5067      9.9208      0.4282      0.3631   2050.9570
173.1000       -999.2500   -999.2500     59.0893      9.8483      0.4405      0.3619   2052.8818
173.4000       -999.2500   -999.2500     57.2281      9.7757      0.4443      0.3642   2048.9978
173.7000       -999.2500   -999.2500     60.2441      9.7009      0.4490      0.3742   2032.6191
174.0000       -999.2500   -999.2500     59.9326      9.6216      0.4430      0.3760   2029.6809
174.3000       -999.2500   -999.2500     57.6320      9.5407      0.4347      0.3710   2037.8436
174.6000       -999.2500   -999.2500     56.2121      9.4598      0.4269      0.3688   2041.5417
174.9000       -999.2500   -999.2500     56.1716      9.3789      0.4546      0.3723   2035.6837
175.2000       -999.2500   -999.2500     57.4831      9.2980      0.4734      0.3725   2035.4028
175.5000       -999.2500   -999.2500     61.0236      9.2171      0.4461      0.3689   2041.3282
175.8000       -999.2500   -999.2500     63.0981      9.1362      0.4409      0.3676   2043.4182
176.1000       -999.2500   -999.2500     63.5885      9.1107      0.4420      0.3705   2038.5952
176.4000       -999.2500   -999.2500     61.8683      9.1158      0.4461      0.3765   2028.7911
176.7000       -999.2500   -999.2500     59.7088      9.1225      0.4345      0.3825   2018.8619
177.0000       -999.2500   -999.2500     58.3214      9.1291      0.4300      0.3784   2025.7194
177.3000       -999.2500   -999.2500     57.6031      9.1358      0.4273      0.3732   2034.2197
177.6000       -999.2500   -999.2500     57.5290      9.1424      0.4224      0.3713   2037.3158
177.9000       -999.2500   -999.2500     58.9419      9.1491      0.4451      0.3710   2037.7972
178.2000       -999.2500   -999.2500     61.3409      9.1558      0.4389      0.3757   2030.1719
178.5000       -999.2500   -999.2500     61.6202      9.1530      0.4415      0.3821   2019.6044
178.8000       -999.2500   -999.2500     59.5549      9.1423      0.4441      0.3741   2032.6898
179.1000       -999.2500   -999.2500     57.7299      9.1300      0.4538      0.3666   2045.0936
179.4000       -999.2500   -999.2500     57.7828      9.1176      0.4453      0.3718   2036.4830
179.7000       -999.2500   -999.2500     58.5763      9.1053      0.4389      0.3836   2017.0824
