~VERSION INFORMATION
 VERS.                 2.0:   CWLS LOG ASCII STANDARD -VERSION 2.0
 WRAP.                  NO:   ONE LINE PER DEPTH STEP
~WELL INFORMATION BLOCK
#MNEM.UNIT           DATA                    DESCRIPTION OF MNEMONIC
#---------    -------------------            -------------------------------
# Generated from Intellog Unique Number	CS_77_79/WELL/3302
WELL.         MEGA ENGINEERING LTD.          : Well_name    - WELL
LOC .         00/11-15-077-11W4/0            : Location     - LOCATION
UWI .         00/11-15-077-11W4/0            : Uwi          - UNIQUE WELL ID
ENTR.         JOETTE                         : Entered      - ENTERED BY
SRVC.         SCHLUMBERGER                   : Scn          - SERVICE COMPANY
DATE.         08-26-92                       : Date         - LOG DATE
STRT.M        275                            : top_depth    - START DEPTH
STOP.M        510                            : bot_depth    - STOP DEPTH
STEP.M        0.25                           : increment    - STEP LENGTH
 NULL. -999.2500:NULL Value
~CURVE INFORMATION BLOCK
#MNEM UNIT       ERCB CURVE CODE    CURVE DESCRIPTION
#-----------   ------------------   ----------------------------------
DEPT.M        00 001 00 00         : DEPTH        - DEPTH
GR  .API      00 310 00 00         : GR           - GAMMA RAY
NPHI.V/V      00 330 00 00         : PHIN         - NEUTRON POROSITY (SANDSTONE)
DPHI.V/V      00 890 00 00         : PHID         - DENSITY POROSITY (SANDSTONE)
ILD .OHMM     00 120 00 00         : RESD         - DEEP RESISTIVITY (DIL)
~PARAMETER INFORMATION
#MNEM.UNIT           DATA             DESCRIPTION OF MNEMONIC
#---------         -----------     ------------------------------
GL  .M        679.49               : gl           - GROUND LEVEL ELEVATION
EREF.M        688.29               : kb           - ELEVATION OF DEPTH REFERENCE
DATM.M        688.29               : datum        - DATUM ELEVATION
TDD .M        521.4                : tdd          - TOTAL DEPTH DRILLER
RUN .         ONE                  : Run          - RUN NUMBER
ENG .         BILL                 : Engineer     - RECORDING ENGINEER
WIT .         JIM                  : Witness      - WITNESSED BY
MUD .         GEL                  : Mud_type     - MUD TYPE
MATR.         SANDSTONE            : Logunit      - NEUTRON MATRIX
TMAX.C        27                   : BHT          - MAXIMUM RECORDED TEMPERATURE
BHTD.M        521.4                : BHTDEP       - MAXIMUM RECORDED TEMPERATURE
MATR.         1                    : LOGUNIT      - NEUTRON MATRIX
RMT .C        12                   : MDTP         - TEMPERATURE OF MUD
NEUT.         1                    : NEUTRON      - NEUTRON TYPE
RESI.         0                    : RESIST       - RESISTIVITY TYPE
RMC .OHMM     2.4                  : RMC          - RESISTIVITY OF MUD CAKE
RMF .OHMM     3.5                  : RMF          - RESISTIVITY OF MUD FILTRATE
SUFT.C        5                    : SUFT         - SURFACE TEMPERATURE
~A  DEPTH       GR     PHIN     PHID     RESD
# ...
  318.500   96.295    0.404    0.287   10.180
  318.750   95.734    0.397    0.287   10.758
  319.000   91.645    0.392    0.285   10.957
  319.250   98.144    0.381    0.265   10.558
  319.500   86.996    0.379    0.273   10.174
  319.750   84.671    0.368    0.298    9.987
  320.000   94.102    0.377    0.298    9.804
  320.250   91.189    0.400    0.286    9.104
  320.500   78.290    0.409    0.269    8.774
  320.750   86.539    0.420    0.258    8.454
  321.000  107.732    0.446    0.257    8.147
  321.250  105.995    0.422    0.246    7.292
  321.500  112.487    0.401    0.231    5.327
  321.750   99.589    0.397    0.258    5.040
  322.000   96.082    0.454    0.260    4.511
  322.250   89.636    0.425    0.255    4.112
  322.500   90.256    0.413    0.250    4.189
  322.750   93.816    0.404    0.258    4.593
  323.000   89.133    0.425    0.270    5.130
  323.250   85.626    0.453    0.289    7.152
  323.500   77.423    0.466    0.324    7.699
  323.750   69.221    0.472    0.371    8.600
  324.000   70.422    0.501    0.394    9.606
  324.250   63.983    0.429    0.363   10.534
  324.500   49.903    0.398    0.355   11.766
  324.750   62.860    0.380    0.359   13.387
  325.000   59.947    0.383    0.355   14.412
  325.250   56.447    0.380    0.354   16.098
  325.500   53.541    0.374    0.361   16.701
  325.750   54.736    0.375    0.364   16.699
  326.000   58.877    0.384    0.360   16.392
  326.250   55.376    0.381    0.358   16.090
  326.500   49.525    0.375    0.358   16.087
  326.750   58.956    0.386    0.365   16.087
  327.000   66.630    0.400    0.371   16.084
  327.250   64.886    0.398    0.371   16.082
  327.500   65.500    0.388    0.359   16.080
  327.750   59.648    0.388    0.359   16.078
  328.000   63.796    0.381    0.368   16.077
  328.250   60.289    0.374    0.377   15.781
  328.500   62.078    0.377    0.374   15.778
  328.750   60.341    0.378    0.358   15.777
  329.000   67.427    0.374    0.355   15.777
  329.250   63.920    0.375    0.357   12.407
  329.500   61.602    0.373    0.353   13.113
  329.750   62.804    0.371    0.348   13.111
  330.000   59.297    0.373    0.344   12.870
  330.250   54.621    0.376    0.346   12.868
  330.500   56.417    0.381    0.347   12.866
  330.750   56.443    0.385    0.353   12.864
  331.000   53.524    0.378    0.360   12.863
  331.250   52.969    0.374    0.365   12.862
  331.500   57.691    0.380    0.357   12.861
  331.750   64.189    0.389    0.349   13.099
  332.000   48.927    0.395    0.339   13.341
  332.250   56.013    0.395    0.346   13.841
  332.500   53.094    0.406    0.356   14.097
  332.750   61.943    0.395    0.361   14.096
  333.000   64.321    0.389    0.334   13.335
  333.250   71.400    0.396    0.321   12.615
  333.500   76.135    0.395    0.322   11.934
  333.750   72.628    0.384    0.329   12.155
  334.000   77.945    0.386    0.338   12.610
  334.250   87.376    0.402    0.333   12.608
  334.500   83.287    0.387    0.333   12.607
  334.750   74.497    0.376    0.332   12.605
  335.000   65.118    0.356    0.324   12.839
  335.250   67.502    0.369    0.333   12.838
  335.500   65.759    0.403    0.348   12.836
  335.750   68.724    0.405    0.352   12.835
  336.000   60.521    0.409    0.361   12.833
  336.250   61.135    0.417    0.365   12.596
  336.500   63.513    0.382    0.369   12.595
  336.750   64.715    0.394    0.370   12.363
  337.000   62.977    0.392    0.357   12.135
  337.250   61.247    0.396    0.343   12.134
  337.500   58.915    0.424    0.335   12.132
  337.750   63.063    0.419    0.336   11.910
  338.000   60.731    0.402    0.339   11.690
  338.250   56.643    0.397    0.347   11.475
  338.500   56.669    0.427    0.345   11.264
  338.750   57.283    0.424    0.345   11.262
  339.000   59.079    0.410    0.350   11.261
  339.250   60.862    0.414    0.359   11.259
  339.500   57.362    0.402    0.363   11.258
  339.750   55.625    0.395    0.356   11.051
  340.000   63.880    0.405    0.351   11.050
  340.250   60.974    0.405    0.345   11.464
  340.500   65.115    0.392    0.306   11.894
  340.750   57.493    0.357    0.257   12.804
  341.000   31.657    0.194    0.180   14.040
  341.250   22.272    0.159    0.046   15.683
  341.500   24.656    0.154    0.035   16.574
  341.750   27.621    0.142    0.013   16.881
  342.000   31.181    0.121    0.010   15.677
  342.250   34.139    0.119    0.082   13.523
  342.500   39.456    0.147    0.217   11.665
  342.750   51.244    0.176    0.247    9.878
  343.000   61.256    0.230    0.278    8.679
  343.250   61.289    0.416    0.339    8.363
  343.500   61.309    0.423    0.353    8.210
  343.750   56.633    0.416    0.348    8.361
  344.000   56.659    0.402    0.344    8.361
  344.250   60.800    0.411    0.344    8.674
  344.500   59.063    0.419    0.349    9.000
  344.750   63.203    0.400    0.360    9.166
  345.000   62.054    0.400    0.373    9.336
  345.250   67.377    0.411    0.371    9.334
  345.500   66.815    0.399    0.368    9.334
  345.750   70.368    0.395    0.371    9.332
  346.000   60.409    0.429    0.374    9.161
  346.250   65.131    0.401    0.363    8.992
  346.500   68.684    0.395    0.349    8.665
  346.750   67.534    0.409    0.342    8.505
  347.000   67.561    0.398    0.337    8.349
  347.250   62.891    0.407    0.335    8.195
  347.500   66.444    0.414    0.337    8.044
  347.750   67.646    0.417    0.279    8.193
  348.000   64.146    0.410    0.222    8.820
  348.250   59.463    0.396    0.195    8.984
  348.500   54.199    0.375    0.195    9.493
  348.750   50.117    0.369    0.286    9.670
  349.000   53.664    0.399    0.318    9.849
  349.250   60.156    0.395    0.346    9.848
  349.500   65.472    0.389    0.353   10.030
  349.750   66.674    0.412    0.360   10.029
  350.000   70.815    0.423    0.358    9.844
  350.250   77.894    0.401    0.345    9.663
  350.500   82.042    0.402    0.326    9.141
  350.750   86.764    0.435    0.313    8.181
  351.000  106.781    0.443    0.300    7.740
  351.250   91.518    0.416    0.326    8.030
  351.500   76.262    0.417    0.347    9.137
  351.750   72.174    0.411    0.355   10.396
  352.000   78.078    0.393    0.333   12.273
  352.250   82.807    0.397    0.309   12.971
  352.500   85.184    0.408    0.307   12.732
  352.750   76.981    0.403    0.338   11.187
  353.000   69.961    0.398    0.344    9.650
  353.250   74.683    0.395    0.314    8.324
  353.500   81.762    0.395    0.305    7.450
  353.750   82.964    0.403    0.297    6.919
  354.000   79.470    0.421    0.300    6.792
  354.250   81.260    0.443    0.313    6.918
  354.500   80.104    0.445    0.320    7.311
  354.750   74.252    0.450    0.327    7.446
  355.000   75.461    0.444    0.327    7.583
  355.250   76.656    0.422    0.329    7.444
  355.500   73.156    0.420    0.332    7.042
  355.750   73.182    0.425    0.332    6.540
  356.000   80.275    0.422    0.324    6.302
  356.250   80.301    0.395    0.321    6.419
  356.500   83.260    0.432    0.316    6.910
  356.750   90.339    0.439    0.305    7.577
  357.000   83.900    0.440    0.298    8.157
  357.250   86.277    0.428    0.305    8.620
  357.500   79.250    0.421    0.337    8.307
  357.750   72.223    0.434    0.354    8.005
  358.000   68.135    0.431    0.361    7.857
  358.250   75.802    0.423    0.352    8.152
  358.500   71.126    0.457    0.327    8.458
  358.750   74.091    0.448    0.323    8.302
  359.000   69.422    0.428    0.312    8.149
  359.250   73.556    0.429    0.308    7.999
  359.500   81.223    0.424    0.296    6.900
  359.750   87.127    0.415    0.289    4.682
  360.000   87.154    0.418    0.287    4.596
  360.250   91.882    0.435    0.266    3.821
  360.500   87.794    0.455    0.263    3.296
  360.750   82.530    0.449    0.267    3.005
  361.000   83.732    0.445    0.268    2.895
  361.250   82.583    0.451    0.262    2.895
  361.500   81.440    0.449    0.251    3.004
  361.750   82.047    0.442    0.244    3.233
