~VERSION INFORMATION
 VERS.                 2.0:   CWLS LOG ASCII STANDARD -VERSION 2.0
 WRAP.                  NO:   ONE LINE PER DEPTH STEP
~WELL INFORMATION BLOCK
#MNEM.UNIT           DATA                    DESCRIPTION OF MNEMONIC
#---------    -------------------            -------------------------------
# Generated from Intellog Unique Number	CS_69_70/WELL/900
WELL.         ET AL HEART LAKE               : Well_name    - WELL
LOC .         00/12-13-069-11W4/0            : Location     - LOCATION
UWI .         00/12-13-069-11W4/0            : Uwi          - UNIQUE WELL ID
ENTR.         SP                             : Entered      - ENTERED BY
SRVC.         SCHLUMBERGER                   : Scn          - SERVICE COMPANY
STRT.M        300                            : top_depth    - START DEPTH
STOP.M        495                            : bot_depth    - STOP DEPTH
STEP.M        0.25                           : increment    - STEP LENGTH
 NULL. -999.2500:NULL Value
~CURVE INFORMATION BLOCK
#MNEM UNIT       ERCB CURVE CODE    CURVE DESCRIPTION
#-----------   ------------------   ----------------------------------
DEPT.M        00 001 00 00         : DEPTH        - DEPTH
ILD .OHMM     00 120 00 00         : RESD         - DEEP RESISTIVITY (DIL)
DPHI.V/V      00 890 00 00         : PHID         - DENSITY POROSITY (LIMESTONE)
NPHI.V/V      00 330 00 00         : PHIN         - NEUTRON POROSITY (LIMESTONE)
GR  .API      00 310 00 00         : GR           - GAMMA RAY
~PARAMETER INFORMATION
#MNEM.UNIT           DATA             DESCRIPTION OF MNEMONIC
#---------         -----------     ------------------------------
GL  .M        617.8                : gl           - GROUND LEVEL ELEVATION
EREF.M        621                  : kb           - ELEVATION OF DEPTH REFERENCE
DATM.M        617.8                : datum        - DATUM ELEVATION
TDD .M        498                  : tdd          - TOTAL DEPTH DRILLER
RUN .         ONE                  : Run          - RUN NUMBER
ENG .         BILL                 : Engineer     - RECORDING ENGINEER
WIT .         JIM                  : Witness      - WITNESSED BY
MUD .         GEL                  : Mud_type     - MUD TYPE
MATR.         LIMESTONE            : Logunit      - NEUTRON MATRIX
TMAX.C        23                   : BHT          - MAXIMUM RECORDED TEMPERATURE
BHTD.M        498                  : BHTDEP       - MAXIMUM RECORDED TEMPERATURE
MATR.         1                    : LOGUNIT      - NEUTRON MATRIX
RMT .C        25                   : MDTP         - TEMPERATURE OF MUD
NEUT.         1                    : NEUTRON      - NEUTRON TYPE
RESI.         0                    : RESIST       - RESISTIVITY TYPE
RMC .OHMM     0.25                 : RMC          - RESISTIVITY OF MUD CAKE
RMF .OHMM     0.25                 : RMF          - RESISTIVITY OF MUD FILTRATE
SUFT.C        15                   : SUFT         - SURFACE TEMPERATURE
~A  DEPTH     RESD     PHID     PHIN       GR
  300.000    3.064    0.023    0.421   96.548
  300.250    3.036    0.143    0.437  101.344
  300.500    3.030    0.184    0.464  100.776
  300.750    3.053    0.203    0.496   98.379
  301.000    3.054    0.201    0.531  101.651
  301.250    3.065    0.197    0.507  108.460
  301.500    3.124    0.195    0.501  110.026
  301.750    3.214    0.201    0.484   99.707
  302.000    3.389    0.206    0.470   99.016
  302.250    3.447    0.199    0.454  103.630
  302.500    3.396    0.192    0.474  107.695
  302.750    3.313    0.187    0.506  105.360
  303.000    3.191    0.186    0.522  101.928
  303.250    3.067    0.189    0.527  105.017
  303.500    2.948    0.192    0.527  107.009
  303.750    2.834    0.201    0.533  108.208
  304.000    2.734    0.208    0.542  109.289
  304.250    2.663    0.214    0.500  108.722
  304.500    2.633    0.216    0.492  107.055
  304.750    2.678    0.220    0.504  104.113
  305.000    2.771    0.208    0.507  101.225
  305.250    2.797    0.183    0.495  102.732
  305.500    2.835    0.181    0.501  105.458
  305.750    2.851    0.189    0.513  104.218
  306.000    2.868    0.203    0.488  102.495
  306.250    2.884    0.209    0.477  100.339
  306.500    2.895    0.209    0.471  100.322
  306.750    2.895    0.213    0.479   98.962
  307.000    2.879    0.224    0.492   96.263
  307.250    2.869    0.203    0.501   94.537
  307.500    2.853    0.202    0.500   97.566
  307.750    2.831    0.217    0.492  100.595
  308.000    2.831    0.195    0.479   99.599
  308.250    2.816    0.185    0.472   99.702
  308.500    2.832    0.187    0.483  101.146
  308.750    2.881    0.204    0.496   99.239
  309.000    2.986    0.218    0.505   84.287
  309.250    3.301    0.249    0.492   71.407
  309.500    3.927    0.279    0.495   65.413
  309.750    4.525    0.303    0.451   67.467
  310.000    5.126    0.220    0.428   67.691
  310.250    5.906    0.167    0.367   67.123
  310.500    6.690    0.139    0.341   68.019
  310.750    6.883    0.190    0.360   77.815
  311.000    6.717    0.266    0.387   83.282
  311.250    6.554    0.282    0.404   85.517
  311.500    6.493    0.263    0.411   85.743
  311.750    6.568    0.249    0.401   88.768
  312.000    6.693    0.238    0.388   90.704
  312.250    6.886    0.234    0.385   92.573
  312.500    6.991    0.225    0.393   94.991
  312.750    6.979    0.221    0.408   99.359
  313.000    6.861    0.215    0.418  103.610
  313.250    6.721    0.208    0.416  107.858
  313.500    6.633    0.207    0.404  109.907
  313.750    6.583    0.202    0.400  110.806
  314.000    6.498    0.197    0.403  109.265
  314.250    6.340    0.193    0.425  116.317
  314.500    6.117    0.200    0.424  116.054
  314.750    5.924    0.195    0.440  111.036
  315.000    5.858    0.187    0.425  107.666
  315.250    6.038    0.206    0.410  103.134
  315.500    6.331    0.216    0.400   97.631
  315.750    6.525    0.236    0.388   97.369
  316.000    6.700    0.257    0.403   93.023
  316.250    6.867    0.235    0.419   82.458
  316.500    6.701    0.261    0.430   73.053
  316.750    6.226    0.275    0.416   68.463
  317.000    6.064    0.282    0.411   65.091
  317.250    6.041    0.298    0.409   60.927
  317.500    6.042    0.307    0.396   59.138
  317.750    6.042    0.292    0.373   60.096
  318.000    6.043    0.255    0.366   65.076
  318.250    5.975    0.229    0.382   71.761
  318.500    5.964    0.206    0.394   75.217
  318.750    5.864    0.188    0.403   77.332
  319.000    5.668    0.196    0.402   73.107
  319.250    5.397    0.237    0.394   71.017
  319.500    5.091    0.275    0.387   86.907
  319.750    4.650    0.235    0.380   95.969
  320.000    4.090    0.209    0.530  104.788
  320.250    3.597    0.197    0.550  112.632
  320.500    3.206    0.193    0.563  118.648
  320.750    2.868    0.209    0.575  109.181
  321.000    2.670    0.221    0.544   94.168
  321.250    2.957    0.251    0.452   85.250
  321.500    3.592    0.246    0.425   82.794
  321.750    4.446    0.237    0.408   77.714
  322.000    5.484    0.229    0.419   73.979
  322.250    6.611    0.223    0.425   73.167
  322.500    7.881    0.228    0.420   71.803
  322.750    8.944    0.232    0.408   71.179
  323.000    8.761    0.232    0.411   75.427
  323.250    8.248    0.221    0.437   89.000
  323.500    7.620    0.216    0.462   97.330
  323.750    7.079    0.235    0.482  103.651
  324.000    6.702    0.250    0.469  106.313
  324.250    6.239    0.256    0.448  106.539
  324.500    6.053    0.236    0.444  105.237
  324.750    5.840    0.214    0.449  104.550
  325.000    5.530    0.196    0.437  104.043
  325.250    5.325    0.182    0.445  103.291
  325.500    5.051    0.182    0.458  104.922
  325.750    4.755    0.197    0.471  109.109
  326.000    4.477    0.207    0.483  113.600
  326.250    4.230    0.217    0.486  114.434
  326.500    3.983    0.202    0.487  113.805
  326.750    3.749    0.192    0.486  116.591
  327.000    3.583    0.178    0.485  120.107
  327.250    3.563    0.175    0.483  121.185
  327.500    3.611    0.190    0.493  118.911
  327.750    3.715    0.217    0.504  106.946
  328.000    3.866    0.251    0.479   88.763
  328.250    4.130    0.279    0.453   72.043
  328.500    4.421    0.301    0.435   66.600
  328.750    4.813    0.331    0.431   67.556
  329.000    5.181    0.322    0.431   76.008
  329.250    5.474    0.305    0.422   83.058
  329.500    5.663    0.298    0.418   86.636
  329.750    5.739    0.297    0.417   89.119
  330.000    5.783    0.294    0.429   91.172
  330.250    5.783    0.292    0.448   92.006
  330.500    5.548    0.284    0.459   90.645
  330.750    5.145    0.272    0.445   92.030
  331.000    4.834    0.264    0.457   96.155
  331.250    4.700    0.265    0.473   98.636
  331.500    4.736    0.290    0.487  101.055
  331.750    4.956    0.305    0.477   98.171
  332.000    5.060    0.321    0.472   95.471
  332.250    5.089    0.319    0.463   94.964
  332.500    5.089    0.309    0.467   96.590
  332.750    5.090    0.306    0.487   96.998
  333.000    5.042    0.307    0.502   96.367
  333.250    4.986    0.305    0.496   95.619
  333.500    4.949    0.304    0.492   95.175
  333.750    4.949    0.309    0.506   93.874
  334.000    5.073    0.312    0.513   92.453
  334.250    5.092    0.301    0.504   90.424
  334.500    5.209    0.297    0.492   90.345
  334.750    5.369    0.294    0.483   93.677
  335.000    5.524    0.307    0.497   98.169
  335.250    5.857    0.312    0.515  101.199
  335.500    5.947    0.290    0.502   96.482
  335.750    6.390    0.273    0.489   94.759
  336.000    6.426    0.262    0.472   94.681
  336.250    6.712    0.275    0.466   95.087
  336.500    6.687    0.296    0.465   94.823
  336.750    6.538    0.311    0.471   94.074
  337.000    6.178    0.321    0.478   93.203
  337.250    5.871    0.304    0.481   92.270
  337.500    5.455    0.293    0.486   91.087
  337.750    5.507    0.287    0.482   90.951
  338.000    5.414    0.282    0.488   91.725
  338.250    5.214    0.279    0.499   93.109
  338.500    5.127    0.287    0.482   94.796
  338.750    5.069    0.290    0.487   95.752
  339.000    5.031    0.289    0.488   96.524
  339.250    4.994    0.280    0.495   97.298
  339.500    4.985    0.274    0.512   98.864
  339.750    4.995    0.275    0.522  101.101
  340.000    5.014    0.267    0.504  102.546
  340.250    5.100    0.258    0.498  100.638
  340.500    5.277    0.251    0.482   89.402
  340.750    5.480    0.274    0.464   81.034
  341.000    5.757    0.292    0.446   71.993
  341.250    5.956    0.289    0.440   67.526
  341.500    6.139    0.282    0.448   73.234
  341.750    6.388    0.260    0.414   80.529
  342.000    6.559    0.233    0.395   85.631
  342.250    6.647    0.243    0.417   88.722
  342.500    6.711    0.277    0.449   81.207
  342.750    6.724    0.299    0.460   75.092
  343.000    6.724    0.313    0.455   72.392
  343.250    6.750    0.319    0.470   74.930
