~VERSION INFORMATION
 VERS.                 2.0:   CWLS LOG ASCII STANDARD -VERSION 2.0
 WRAP.                  NO:   ONE LINE PER DEPTH STEP
~WELL INFORMATION BLOCK
#MNEM.UNIT           DATA                    DESCRIPTION OF MNEMONIC
#---------    -------------------            -------------------------------
# Generated from Intellog Unique Number	CS_73_76/WELL/819
WELL.         NEWPORT PETROLEUMS LTD         : Well_name    - WELL
LOC .         00/10-14-073-10W4/0            : Location     - LOCATION
UWI .         00/10-14-073-10W4/0            : Uwi          - UNIQUE WELL ID
ENTR.         SP                             : Entered      - ENTERED BY
SRVC.         SCHLUMBERGER                   : Scn          - SERVICE COMPANY
STRT.M        300                            : top_depth    - START DEPTH
STOP.M        490                            : bot_depth    - STOP DEPTH
STEP.M        0.25                           : increment    - STEP LENGTH
 NULL. -999.2500:NULL Value
~CURVE INFORMATION BLOCK
#MNEM UNIT       ERCB CURVE CODE    CURVE DESCRIPTION
#-----------   ------------------   ----------------------------------
DEPT.M        00 001 00 00         : DEPTH        - DEPTH
GR  .API      00 310 00 00         : GR           - GAMMA RAY
NPHI.V/V      00 330 00 00         : PHIN         - NEUTRON POROSITY (LIMESTONE)
DPHI.V/V      00 890 00 00         : PHID         - DENSITY POROSITY (LIMESTONE)
ILD .OHMM     00 120 00 00         : RESD         - DEEP RESISTIVITY (DIL)
~PARAMETER INFORMATION
#MNEM.UNIT           DATA             DESCRIPTION OF MNEMONIC
#---------         -----------     ------------------------------
GL  .M        660.4                : gl           - GROUND LEVEL ELEVATION
EREF.M        663.8                : kb           - ELEVATION OF DEPTH REFERENCE
DATM.M        660.4                : datum        - DATUM ELEVATION
TDD .M        610                  : tdd          - TOTAL DEPTH DRILLER
RUN .         ONE                  : Run          - RUN NUMBER
ENG .         BILL                 : Engineer     - RECORDING ENGINEER
WIT .         JIM                  : Witness      - WITNESSED BY
MUD .         GEL                  : Mud_type     - MUD TYPE
MATR.         LIMESTONE            : Logunit      - NEUTRON MATRIX
TMAX.C        23.8                 : BHT          - MAXIMUM RECORDED TEMPERATURE
BHTD.M        610                  : BHTDEP       - MAXIMUM RECORDED TEMPERATURE
MATR.         1                    : LOGUNIT      - NEUTRON MATRIX
RMT .C        25                   : MDTP         - TEMPERATURE OF MUD
NEUT.         1                    : NEUTRON      - NEUTRON TYPE
RESI.         0                    : RESIST       - RESISTIVITY TYPE
RMC .OHMM     0.25                 : RMC          - RESISTIVITY OF MUD CAKE
RMF .OHMM     0.25                 : RMF          - RESISTIVITY OF MUD FILTRATE
SUFT.C        15                   : SUFT         - SURFACE TEMPERATURE
~A  DEPTH       GR     PHIN     PHID     RESD
# ...
  430.500   81.013    0.455    0.206    7.318
  430.750   79.197    0.460    0.186    7.889
  431.000   65.283    0.354    0.128    9.877
  431.250   45.926    0.261    0.038   11.055
  431.500   44.714    0.194    0.041   11.922
  431.750   56.808    0.301    0.093   11.071
  432.000   70.717    0.371    0.139    8.375
  432.250   82.206    0.393    0.164    7.354
  432.500   85.833    0.390    0.195    6.830
  432.750   84.621    0.402    0.205    6.837
  433.000   84.014    0.420    0.206    6.714
  433.250   84.011    0.427    0.205    6.721
  433.500   86.428    0.420    0.205    6.600
  433.750   85.820    0.421    0.208    6.607
  434.000   84.609    0.427    0.212    6.611
  434.250   83.397    0.424    0.214    6.492
  434.500   81.580    0.421    0.217    6.496
  434.750   80.368    0.432    0.219    6.381
  435.000   80.366    0.420    0.207    6.269
  435.250   82.782    0.407    0.208    6.156
  435.500   83.990    0.431    0.213    6.160
  435.750   83.383    0.449    0.223    6.053
  436.000   80.356    0.463    0.242    6.056
  436.250   77.935    0.448    0.250    6.061
  436.500   76.722    0.429    0.235    5.952
  436.750   79.743    0.408    0.233    5.958
  437.000   80.951    0.414    0.257    5.852
  437.250   79.134    0.416    0.270    5.748
  437.500   78.527    0.405    0.262    5.750
  437.750   79.735    0.390    0.229    5.648
  438.000   80.337    0.390    0.213    5.445
  438.250   80.335    0.414    0.193    5.250
  438.500   77.308    0.432    0.189    4.876
  438.750   77.910    0.441    0.203    4.445
  439.000   80.328    0.438    0.218    3.903
  439.250   80.930    0.434    0.229    3.180
  439.500   76.694    0.452    0.235    2.742
  439.750   74.876    0.497    0.262    2.546
  440.000   75.479    0.525    0.286    2.501
  440.250   75.477    0.509    0.289    2.457
  440.500   74.265    0.496    0.296    2.413
  440.750   77.892    0.490    0.285    2.415
  441.000   84.542    0.486    0.277    2.417
  441.250   88.169    0.502    0.255    2.418
  441.500   89.981    0.511    0.242    2.420
  441.750   90.583    0.522    0.247    2.514
  442.000   91.186    0.522    0.251    2.611
  442.250   92.393    0.520    0.255    2.816
  442.500   83.923    0.505    0.252    3.152
  442.750   78.478    0.459    0.242    3.595
  443.000   76.660    0.440    0.232    3.734
  443.250   77.868    0.423    0.228    4.104
  443.500   78.470    0.430    0.225    4.262
  443.750   79.072    0.442    0.219    4.512
  444.000   79.674    0.431    0.213    4.514
  444.250   79.672    0.419    0.208    4.689
  444.500   79.066    0.415    0.204    4.872
  444.750   73.620    0.425    0.229    5.061
  445.000   66.359    0.452    0.268    5.355
  445.250   60.309    0.430    0.275    5.563
  445.500   57.887    0.386    0.236    5.780
  445.750   57.885    0.392    0.236    5.892
  446.000   56.068    0.402    0.266    5.787
  446.250   54.251    0.406    0.284    5.580
  446.500   54.248    0.413    0.285    5.281
  446.750   54.851    0.418    0.273    5.187
  447.000   56.058    0.413    0.272    5.094
  447.250   56.660    0.406    0.274    5.098
  447.500   56.053    0.412    0.275    5.102
  447.750   57.260    0.415    0.271    5.105
  448.000   60.887    0.409    0.274    5.110
  448.250   63.304    0.409    0.272    5.113
  448.500   62.696    0.419    0.265    5.213
  448.750   65.113    0.425    0.256    5.314
  449.000   65.717    0.414    0.255    5.221
  449.250   66.318    0.406    0.260    5.127
  449.500   66.921    0.407    0.247    4.853
  449.750   67.524    0.403    0.234    4.765
  450.000   67.521    0.396    0.241    4.265
  450.250   68.729    0.389    0.245    3.960
  450.500   72.960    0.384    0.238    3.678
  450.750   78.401    0.403    0.235    3.480
  451.000   82.028    0.458    0.233    3.293
  451.250   83.235    0.461    0.233    3.296
  451.500   82.628    0.442    0.230    3.360
  451.750   80.811    0.443    0.230    3.426
  452.000   80.204    0.451    0.226    3.493
  452.250   80.806    0.447    0.229    3.496
  452.500   82.013    0.442    0.239    3.370
  452.750   85.035    0.445    0.238    3.248
  453.000   86.242    0.458    0.240    3.075
  453.250   87.450    0.474    0.240    3.020
  453.500   86.843    0.482    0.234    3.137
  453.750   86.235    0.487    0.231    3.383
  454.000   81.999    0.487    0.215    4.081
  454.250   77.763    0.445    0.198    4.399
  454.500   77.155    0.407    0.184    4.923
  454.750   76.549    0.406    0.200    5.721
  455.000   72.312    0.417    0.214    6.524
  455.250   69.285    0.424    0.209    7.442
  455.500   68.074    0.341    0.134    8.178
  455.750   67.466    0.312    0.091    8.495
  456.000   67.464    0.306    0.111    8.824
  456.250   67.462    0.324    0.164    9.168
  456.500   66.250    0.355    0.200    9.524
  456.750   65.037    0.375    0.228    9.709
  457.000   63.825    0.380    0.248    9.713
  457.250   62.614    0.377    0.255    9.720
  457.500   62.611    0.383    0.250    8.536
  457.750   63.819    0.379    0.240    7.358
  458.000   71.074    0.390    0.227    6.461
  458.250   79.539    0.417    0.234    6.113
  458.500   84.981    0.461    0.250    8.888
  458.750   85.582    0.494    0.267   12.215
  459.000   81.346    0.436    0.285   15.581
  459.250   75.901    0.390    0.291   18.794
  459.500   69.245    0.367    0.284   22.252
  459.750   59.566    0.372    0.283   23.991
  460.000   51.701    0.346    0.284   26.362
  460.250   51.698    0.321    0.289   27.901
  460.500   59.559    0.323    0.287   28.978
  460.750   61.975    0.326    0.287   28.467
  461.000   57.134    0.329    0.288   26.937
  461.250   57.132    0.333    0.272   25.494
  461.500   62.573    0.341    0.265   25.033
  461.750   61.361    0.351    0.257   24.135
  462.000   59.544    0.340    0.257   23.702
  462.250   60.751    0.335    0.261   22.430
  462.500   60.749    0.338    0.264   20.834
  462.750   57.722    0.354    0.266   18.643
  463.000   55.301    0.352    0.272   17.634
  463.250   55.903    0.352    0.277   15.489
  463.500   58.320    0.356    0.284   12.864
  463.750   61.947    0.363    0.279   11.944
  464.000   71.016    0.361    0.266   10.886
  464.250   76.458    0.349    0.248   10.109
  464.500   79.480    0.345    0.232    9.046
  464.750   83.106    0.362    0.228    8.720
  465.000   86.128    0.383    0.226    8.406
  465.250   91.569    0.395    0.227    8.898
  465.500   97.614    0.383    0.226    9.961
  465.750  100.032    0.385    0.225   11.576
  466.000  100.635    0.394    0.238   12.715
  466.250   83.696    0.393    0.251   15.052
  466.500   77.042    0.383    0.264   17.818
  466.750   65.547    0.366    0.260   19.945
  467.000   49.819    0.376    0.271   19.957
  467.250   39.535    0.331    0.282   17.208
  467.500   51.629    0.310    0.276   15.979
  467.750   62.514    0.306    0.236   14.843
  468.000   70.979    0.317    0.224   14.305
  468.250   60.089    0.329    0.261   13.537
  468.500   51.620    0.335    0.282   13.299
  468.750   50.408    0.342    0.290   13.059
  469.000   53.429    0.348    0.277   12.826
  469.250   59.475    0.348    0.266   12.139
  469.500   66.125    0.348    0.250   11.066
  469.750   72.776    0.340    0.236   10.087
  470.000   78.822    0.315    0.215    9.544
  470.250   86.683    0.304    0.199    9.731
  470.500   86.680    0.325    0.168   10.691
  470.750   75.186    0.337    0.187   11.967
  471.000   68.531    0.325    0.205   13.146
  471.250   60.665    0.312    0.220   16.773
  471.500   54.615    0.328    0.233   18.769
  471.750   49.169    0.344    0.254   21.809
  472.000   44.328    0.353    0.269   21.825
  472.250   40.092    0.357    0.280   18.122
  472.500   48.557    0.338    0.288   13.453
  472.750   64.280    0.359    0.269    9.443
  473.000   78.794    0.399    0.205    7.010
  473.250   90.888    0.423    0.153    5.712
  473.500   96.934    0.477    0.153    6.396
  473.750   87.254    0.506    0.168    6.768
