~VERSION INFORMATION
 VERS.                 2.0:   CWLS LOG ASCII STANDARD -VERSION 2.0
 WRAP.                  NO:   ONE LINE PER DEPTH STEP
~WELL INFORMATION BLOCK
#MNEM.UNIT           DATA                    DESCRIPTION OF MNEMONIC
#---------    -------------------            -------------------------------
# Generated from Intellog Unique Number	CW_73_75/WELL/913
WELL.         GULF POC DROWNED 10-15         : Well_name    - WELL
LOC .         00/10-15-075-20W4/0            : Location     - LOCATION
UWI .         00/10-15-075-20W4/0            : Uwi          - UNIQUE WELL ID
ENTR.         JAYE                           : Entered      - ENTERED BY
SRVC.         SCHLUMBERGER                   : Scn          - SERVICE COMPANY
DATE.         18 JAN 77                      : Date         - LOG DATE
STRT.M        292.608                        : top_depth    - START DEPTH
STOP.M        478.608                        : bot_depth    - STOP DEPTH
STEP.M        0.25                           : increment    - STEP LENGTH
 NULL. -999.2500:NULL Value
~CURVE INFORMATION BLOCK
#MNEM UNIT       ERCB CURVE CODE    CURVE DESCRIPTION
#-----------   ------------------   ----------------------------------
DEPT.M        00 001 00 00         : DEPTH        - DEPTH
ILD .OHMM     00 120 00 00         : RESD         - DEEP RESISTIVITY (DIL)
CALI.MM       00 280 01 00         : CAL          - CALIPER
GR  .API      00 310 00 00         : GR           - GAMMA RAY
NPHI.V/V      00 330 00 00         : PHIN         - NEUTRON POROSITY (SANDSTONE)
DPHI.V/V      00 890 00 00         : PHID         - DENSITY POROSITY (SANDSTONE)
~PARAMETER INFORMATION
#MNEM.UNIT           DATA             DESCRIPTION OF MNEMONIC
#---------         -----------     ------------------------------
GL  .M        609.6                : gl           - GROUND LEVEL ELEVATION
EREF.M        613.867              : kb           - ELEVATION OF DEPTH REFERENCE
DATM.M        609.6                : datum        - DATUM ELEVATION
TDD .M        504.444              : tdd          - TOTAL DEPTH DRILLER
RUN .         ONE                  : Run          - RUN NUMBER
MATR.         SANDSTONE            : Logunit      - NEUTRON MATRIX
TMAX.C        13.0556              : BHT          - MAXIMUM RECORDED TEMPERATURE
BHTD.M        504.139              : BHTDEP       - MAXIMUM RECORDED TEMPERATURE
RMT .C        13.3333              : MDTP         - TEMPERATURE OF MUD
MUDD.KG/M     0                    : MWT          - MUD DENSITY
NEUT.         1                    : NEUTRON      - NEUTRON TYPE
RESI.         0                    : RESIST       - RESISTIVITY TYPE
RM  .OHMM     2.61                 : RM           - RESISTIVITY OF MUD
RMC .OHMM     0                    : RMC          - RESISTIVITY OF MUD CAKE
RMF .OHMM     5.13                 : RMF          - RESISTIVITY OF MUD FILTRATE
SUFT.C        -17.7778             : SUFT         - SURFACE TEMPERATURE
~A  DEPTH     RESD      CAL       GR     PHIN     PHID
# ...
  438.608    5.812  178.152   99.161    0.456    0.256
  438.858    6.096  177.540   96.967    0.441    0.248
  439.108    6.232  176.927   95.200    0.431    0.235
  439.358    6.311  176.727   94.411    0.429    0.224
  439.608    6.310  176.530   96.308    0.425    0.217
  439.858    6.333  176.536   95.030    0.430    0.223
  440.108    6.390  176.853   95.951    0.433    0.217
  440.358    6.378  176.963   97.787    0.436    0.218
  440.608    6.226  177.074   99.868    0.446    0.252
  440.858    6.089  177.391  100.728    0.463    0.255
  441.108    5.944  177.502  101.587    0.465    0.252
  441.358    5.878  177.717  103.790    0.451    0.255
  441.608    5.867  177.931  104.344    0.438    0.241
  441.858    5.866  177.525  103.188    0.426    0.239
  442.108    5.876  176.601  103.254    0.423    0.235
  442.358    5.897  175.884  104.052    0.430    0.227
  442.608    5.961  176.098  102.346    0.439    0.238
  442.858    6.038  177.450  101.740    0.448    0.253
  443.108    6.138  178.492  103.454    0.453    0.258
  443.358    6.182  178.706  103.397    0.446    0.260
  443.608    6.238  178.093  101.081    0.438    0.253
  443.858    6.295  177.790   99.497    0.432    0.244
  444.108    6.329  177.385  100.051    0.427    0.234
  444.358    6.363  177.392  103.476    0.425    0.218
  444.608    6.386  177.502  105.618    0.424    0.222
  444.858    6.420  177.510  105.622    0.424    0.231
  445.108    6.455  177.414  105.932    0.428    0.227
  445.358    6.466  177.731  107.097    0.432    0.212
  445.608    6.370  178.152  108.811    0.436    0.216
  445.858    6.162  178.573  110.526    0.440    0.220
  446.108    6.026  179.098  113.401    0.446    0.211
  446.358    5.894  180.035  115.115    0.460    0.206
  446.608    5.872  181.905  113.043    0.457    0.218
  446.858    5.849  180.567  107.489    0.444    0.199
  447.108    5.935  178.818  104.623    0.432    0.185
  447.358    6.044  177.481  109.025    0.424    0.165
  447.608    6.156  176.866  113.610    0.421    0.179
  447.858    6.339  177.184  116.790    0.420    0.199
  448.108    6.575  177.398  111.848    0.418    0.214
  448.358    6.709  177.509  109.592    0.404    0.224
  448.608    6.708  176.793  109.413    0.399    0.237
  448.858    6.548  176.490  112.593    0.410    0.230
  449.108    6.369  176.497  117.606    0.422    0.205
  449.358    6.298  177.952  122.191    0.438    0.213
  449.608    6.462  178.270  124.149    0.451    0.225
  449.858    6.840  176.105  118.413    0.440    0.221
  450.108    7.308  173.320  113.532    0.419    0.221
  450.358    7.442  172.707  109.260    0.402    0.218
  450.608    7.428  172.199  106.211    0.399    0.206
  450.858    7.345  171.998  104.933    0.397    0.199
  451.108    7.467  171.695  103.044    0.388    0.170
  451.358    8.080  171.599  100.727    0.371    0.154
  451.608    9.292  171.504   95.662    0.316    0.169
  451.858   11.229  171.717   83.146    0.288    0.134
  452.108   18.083  172.449   73.195    0.239    0.109
  452.358   20.794  173.077   68.863    0.211    0.077
  452.608   20.525  174.015   72.166    0.195    0.075
  452.858   19.635  174.229   78.828    0.224    0.062
  453.108   16.759  174.339   85.000    0.278    0.088
  453.358   12.927  174.140   92.517    0.317    0.119
  453.608    9.862  173.941  101.682    0.379    0.150
  453.858    8.009  174.878  109.871    0.412    0.182
  454.108    6.899  179.437  114.578    0.413    0.196
  454.358    6.397  180.685  115.193    0.413    0.187
  454.608    6.256  179.969  110.189    0.415    0.199
  454.858    6.210  178.941  106.835    0.418    0.187
  455.108    6.243  177.813  107.266    0.417    0.163
  455.358    6.288  177.612  107.820    0.404    0.169
  455.608    6.416  177.827  108.497    0.389    0.169
  455.858    6.546  176.385  110.944    0.387    0.170
  456.108    6.679  174.119  114.674    0.398    0.188
  456.358    6.728  173.711  113.823    0.395    0.187
  456.608    6.726  173.823  115.049    0.400    0.198
  456.858    6.627  173.831  116.519    0.418    0.193
  457.108    6.566  174.355  114.019    0.431    0.182
  457.358    6.492  174.879  112.436    0.421    0.179
  457.608    6.444  176.747  116.349    0.415    0.163
  457.858    6.384  178.099  120.567    0.411    0.188
  458.108    6.278  179.037  119.350    0.404    0.201
  458.358    6.231  178.839  111.720    0.387    0.200
  458.608    6.196  178.225  106.594    0.377    0.205
  458.858    6.218  177.819  108.248    0.393    0.191
  459.108    6.275  177.308  112.283    0.404    0.204
  459.358    6.343  177.006  115.097    0.405    0.188
  459.608    6.366  176.806  114.979    0.396    0.170
  459.858    6.365  176.400  115.533    0.370    0.179
  460.108    6.271  175.994  115.415    0.370    0.188
  460.358    5.901  174.554  113.404    0.412    0.179
  460.608    4.577  174.250  110.110    0.454    0.181
  460.858    2.981  174.982  106.633    0.511    0.196
  461.108    2.511  175.713  107.126    0.556    0.224
  461.358    2.191  175.720  109.696    0.551    0.295
  461.608    2.024  175.210  112.510    0.546    0.285
  461.858    2.043  174.494  115.079    0.544    0.278
  462.108    2.302  173.467  117.527    0.530    0.267
  462.358    2.731  172.751  118.997    0.517    0.253
  462.608    3.193  172.035  117.597    0.510    0.241
  462.858    3.733  171.629  115.891    0.502    0.228
  463.108    4.479  171.738  112.597    0.487    0.207
  463.358    5.423  172.781  110.647    0.447    0.183
  463.608    6.044  174.338  107.842    0.377    0.155
  463.858    6.258  178.276  110.229    0.359    0.119
  464.108    6.280  179.938  111.638    0.369    0.099
  464.358    5.898  180.980  108.893    0.385    0.112
  464.608    5.612  180.884  109.570    0.370    0.181
  464.858    5.349  179.546  112.383    0.377    0.182
  465.108    5.174  178.002  114.159    0.402    0.188
  465.358    5.173  175.941  107.139    0.421    0.202
  465.608    5.346  174.398   99.815    0.410    0.181
  465.858    5.556  174.094   99.025    0.400    0.140
  466.108    5.969  173.998  101.289    0.391    0.139
  466.358    6.214  173.902  105.936    0.396    0.161
  466.608    6.387  173.910  109.116    0.412    0.149
  466.858    6.457  174.435  111.991    0.419    0.140
  467.108    6.409  174.752  113.949    0.401    0.161
  467.358    6.408  175.276  112.427    0.392    0.187
  467.608    6.454  175.283  113.347    0.395    0.199
  467.858    6.586  175.291  110.237    0.403    0.179
  468.108    6.719  175.505  107.309    0.412    0.178
  468.358    6.780  175.926  107.070    0.416    0.172
  468.608    6.717  176.452  107.868    0.416    0.188
  468.858    6.510  177.183  108.300    0.399    0.202
  469.108    6.285  178.017  107.693    0.384    0.190
  469.358    6.158  179.265  109.469    0.386    0.171
  469.608    5.946  179.893  112.527    0.408    0.173
  469.858    5.751  179.797  116.624    0.409    0.186
  470.108    5.522  179.494  119.376    0.404    0.196
  470.358    5.471  179.295  122.740    0.404    0.181
  470.608    5.592  182.508  125.675    0.406    0.180
  470.858    6.041  184.481  129.467    0.394    0.159
  471.108    6.622  182.833  131.975    0.386    0.142
  471.358    6.645  181.911  134.117    0.396    0.154
  471.608    6.428  182.745  135.404    0.419    0.172
  471.858    6.195  182.131  135.835    0.429    0.188
  472.108    6.081  181.002  138.772    0.424    0.220
  472.358    6.069  180.181  138.654    0.407    0.219
  472.608    6.169  179.671  136.643    0.391    0.187
  472.858    6.376  179.368  131.822    0.382    0.168
  473.108    6.688  181.341  124.497    0.374    0.153
  473.358    7.105  183.106  118.211    0.348    0.149
  473.608    7.453  179.288  118.826    0.287    0.105
  473.858    8.035  179.811  122.190    0.314    0.101
  474.108    8.825  181.680  127.690    0.341    0.100
  474.358   10.000  178.792   93.249    0.312    0.080
  474.608   11.691  175.077   81.343    0.233    0.043
  474.858   13.568  173.739   83.608    0.214    0.034
