~VERSION INFORMATION
 VERS.                 2.0:   CWLS LOG ASCII STANDARD -VERSION 2.0
 WRAP.                  NO:   ONE LINE PER DEPTH STEP
~WELL INFORMATION BLOCK
#MNEM.UNIT           DATA                    DESCRIPTION OF MNEMONIC
#---------    -------------------            -------------------------------
# Generated from Intellog Unique Number	CS_73_76/WELL/3258
WELL.         11-08-075-05W4                 : Well_name    - WELL
LOC .         00/11-08-075-05W4/0            : Location     - LOCATION
UWI .         00/11-08-075-05W4/0            : Uwi          - UNIQUE WELL ID
ENTR.         SP                             : Entered      - ENTERED BY
SRVC.         SCHLUMBERGER                   : Scn          - SERVICE COMPANY
STRT.M        240                            : top_depth    - START DEPTH
STOP.M        480                            : bot_depth    - STOP DEPTH
STEP.M        0.25                           : increment    - STEP LENGTH
 NULL. -999.2500:NULL Value
~CURVE INFORMATION BLOCK
#MNEM UNIT       ERCB CURVE CODE    CURVE DESCRIPTION
#-----------   ------------------   ----------------------------------
DEPT.M        00 001 00 00         : DEPTH        - DEPTH
ILD .OHMM     00 120 00 00         : RESD         - DEEP RESISTIVITY (DIL)
DPHI.V/V      00 890 00 00         : PHID         - DENSITY POROSITY (LIMESTONE)
NPHI.V/V      00 330 00 00         : PHIN         - NEUTRON POROSITY (LIMESTONE)
GR  .API      00 310 00 00         : GR           - GAMMA RAY
~PARAMETER INFORMATION
#MNEM.UNIT           DATA             DESCRIPTION OF MNEMONIC
#---------         -----------     ------------------------------
GL  .M        636.15               : gl           - GROUND LEVEL ELEVATION
EREF.M        639.43               : kb           - ELEVATION OF DEPTH REFERENCE
DATM.M        636.15               : datum        - DATUM ELEVATION
TDD .M        483.5                : tdd          - TOTAL DEPTH DRILLER
RUN .         ONE                  : Run          - RUN NUMBER
ENG .         BILL                 : Engineer     - RECORDING ENGINEER
WIT .         JIM                  : Witness      - WITNESSED BY
MUD .         GEL                  : Mud_type     - MUD TYPE
MATR.         LIMESTONE            : Logunit      - NEUTRON MATRIX
TMAX.C        25                   : BHT          - MAXIMUM RECORDED TEMPERATURE
BHTD.M        483.5                : BHTDEP       - MAXIMUM RECORDED TEMPERATURE
MATR.         1                    : LOGUNIT      - NEUTRON MATRIX
RMT .C        25                   : MDTP         - TEMPERATURE OF MUD
NEUT.         1                    : NEUTRON      - NEUTRON TYPE
RESI.         0                    : RESIST       - RESISTIVITY TYPE
RMC .OHMM     0.25                 : RMC          - RESISTIVITY OF MUD CAKE
RMF .OHMM     0.25                 : RMF          - RESISTIVITY OF MUD FILTRATE
SUFT.C        15                   : SUFT         - SURFACE TEMPERATURE
~A  DEPTH     RESD     PHID     PHIN       GR
# ...
  457.500    5.997    0.187    0.340   97.305
  457.750    5.889    0.176    0.335   96.688
  458.000    5.898    0.165    0.335   97.301
  458.250    5.902    0.170    0.345   96.070
  458.500    5.906    0.152    0.338   95.453
  458.750    5.911    0.143    0.344   96.681
  459.000    5.805    0.155    0.346   99.138
  459.250    5.704    0.170    0.349  102.210
  459.500    5.707    0.175    0.349  102.208
  459.750    5.714    0.181    0.349  105.280
  460.000    5.718    0.166    0.348  101.589
  460.250    5.722    0.154    0.347   99.743
  460.500    5.726    0.153    0.345   99.126
  460.750    5.840    0.145    0.343   99.739
  461.000    5.849    0.154    0.349  103.426
  461.250    5.855    0.155    0.351  105.268
  461.500    5.858    0.148    0.358  103.422
  461.750    5.861    0.154    0.366  104.650
  462.000    5.649    0.153    0.365  105.877
  462.250    4.956    0.145    0.361  105.261
  462.500    4.265    0.149    0.359  100.956
  462.750    3.670    0.158    0.352   94.191
  463.000    2.930    0.169    0.340   85.583
  463.250    2.569    0.248    0.334   70.212
  463.500    2.212    0.305    0.338   44.391
  463.750    2.014    0.334    0.342   30.249
  464.000    1.978    0.335    0.334   27.174
  464.250    1.981    0.327    0.327   25.942
  464.500    1.982    0.319    0.318   27.169
  464.750    1.984    0.310    0.311   28.397
  465.000    2.024    0.303    0.304   30.240
  465.250    2.026    0.301    0.300   34.541
  465.500    2.066    0.298    0.323   38.228
  465.750    2.068    0.298    0.337   43.144
  466.000    2.070    0.312    0.339   48.060
  466.250    2.071    0.313    0.337   56.050
  466.500    2.113    0.304    0.331   65.269
  466.750    2.114    0.291    0.326   76.948
  467.000    2.116    0.298    0.323   83.093
  467.250    2.158    0.310    0.322   67.723
  467.500    2.203    0.298    0.323   46.204
  467.750    2.205    0.293    0.325   40.670
  468.000    2.206    0.277    0.323   36.979
  468.250    2.208    0.249    0.323   33.903
  468.500    2.209    0.232    0.338   32.672
  468.750    2.211    0.263    0.344   32.055
  469.000    2.132    0.275    0.353   30.824
  469.250    2.133    0.293    0.353   29.592
  469.500    2.135    0.295    0.335   29.590
  469.750    2.137    0.279    0.338   30.818
  470.000    2.139    0.253    0.333   32.660
  470.250    2.181    0.233    0.335   33.888
  470.500    2.225    0.202    0.349   36.345
  470.750    2.357    0.191    0.330   39.416
  471.000    2.545    0.225    0.320   41.874
  471.250    2.595    0.229    0.319   43.102
  471.500    2.696    0.231    0.317   39.410
  471.750    2.750    0.245    0.309   38.794
  472.000    2.858    0.263    0.289   40.021
  472.250    3.587    0.249    0.272   41.250
  472.500    4.764    0.191    0.246   43.092
  472.750    7.359    0.000    0.209   43.705
  473.000   13.987    0.000    0.173   44.318
  473.250   27.606    0.000    0.160   45.545
  473.500   40.293    0.000    0.167   47.388
  473.750   43.487    0.000    0.177   49.845
  474.000   38.144    0.000    0.182   51.687
  474.250   31.621    0.006    0.197   57.832
  474.500   27.737    0.022    0.207   62.748
  474.750   25.736    0.013    0.214   63.362
  475.000   22.583    0.002    0.220   63.360
  475.250   21.759    0.012    0.218   60.899
  475.500   20.583    0.012    0.220   62.741
  475.750   20.210    0.004    0.229   65.198
  476.000   19.479    0.000    0.234   67.656
  476.250   18.084    0.002    0.231   66.424
  476.500   16.470    0.033    0.236   66.422
  476.750   15.002    0.052    0.254   74.412
  477.000   13.925    0.043    0.267   82.402
  477.250   13.417    0.042    0.272   87.318
  477.500   13.685    0.071    0.275   86.086
  477.750   13.961    0.080    0.282   89.158
  478.000   14.509    0.066    0.281   91.001
  478.250   15.663    0.042    0.261   89.769
  478.500   17.227    0.027    0.238   88.538
  478.750   18.241    0.012    0.233   87.921
  479.000   20.846    0.010    0.230   87.919
  479.250   21.663    0.006    0.227   89.762
  479.500   22.509    0.000    0.216   93.448
  479.750   23.843    0.000    0.207   94.061
  480.000   24.774    0.000    0.218   93.444
