~VERSION INFORMATION
 VERS.                 2.0:   CWLS LOG ASCII STANDARD -VERSION 2.0
 WRAP.                  NO:   ONE LINE PER DEPTH STEP
~WELL INFORMATION BLOCK
#MNEM.UNIT           DATA                    DESCRIPTION OF MNEMONIC
#---------    -------------------            -------------------------------
# Generated from Intellog Unique Number	CW_70_72/WELL/2908
NULL.         -999.25                        : NULL_VALUE
WELL.         NOVALTA RICHMOND               : Well_name    - WELL              
LOC .         16-01-070-20W4                 : Location     - LOCATION          
UWI .         00/16-01-070-20W4/0            : Uwi          - UNIQUE WELL ID    
ENTR.         MAX                            : Entered      - ENTERED BY        
SRVC.         WELEX                          : Scn          - SERVICE COMPANY   
DATE.         04 OCT 85                      : Date         - LOG DATE
STRT.M        325                            : top_depth    - START DEPTH       
STOP.M        490                            : bot_depth    - STOP DEPTH        
STEP.M        0.25                           : increment    - STEP LENGTH       
~CURVE INFORMATION BLOCK
#MNEM UNIT       ERCB CURVE CODE    CURVE DESCRIPTION
#-----------   ------------------   ----------------------------------
DEPT.M        00 001 00 00         : DEPTH        - DEPTH                       
ILD .OHMM     00 120 00 00         : RESD         - DEEP RESISTIVITY (DIL)      
NPHI.V/V      00 330 00 00         : PHIN         - NEUTRON POROSITY (SANDSTONE)
DPHI.V/V      00 890 00 00         : PHID         - DENSITY POROSITY (SANDSTONE)
CALI.MM       00 280 01 00         : CAL          - CALIPER                     
GR  .API      00 310 00 00         : GR           - GAMMA RAY                   
~PARAMETER INFORMATION       
#MNEM.UNIT           DATA             DESCRIPTION OF MNEMONIC
#---------         -----------     ------------------------------
GL  .M        577.31               : gl           - GROUND LEVEL ELEVATION      
EREF.M        580.3                : kb           - ELEVATION OF DEPTH REFERENCE
DATM.M        577.31               : datum        - DATUM ELEVATION             
TDD .M        555.8                : tdd          - TOTAL DEPTH DRILLER         
RUN .         ONE                  : Run          - RUN NUMBER                  
ENG .         BILL                 : Engineer     - RECORDING ENGINEER          
WIT .         JIM                  : Witness      - WITNESSED BY                
MUD .         GEL                  : Mud_type     - MUD TYPE                    
MATR.         SANDSTONE            : Logunit      - NEUTRON MATRIX              
TMAX.C        25                   : BHT          - MAXIMUM RECORDED TEMPERATURE
BHTD.M        555.8                : BHTDEP       - MAXIMUM RECORDED TEMPERATURE
RMT .C        19                   : MDTP         - TEMPERATURE OF MUD          
MUDD.KG/M     1160                 : MWT          - MUD DENSITY                 
NEUT.         1                    : NEUTRON      - NEUTRON TYPE                
RESI.         0                    : RESIST       - RESISTIVITY TYPE            
RM  .OHMM     4.5                  : RM           - RESISTIVITY OF MUD          
RMC .OHMM     3.5                  : RMC          - RESISTIVITY OF MUD CAKE     
RMF .OHMM     4.4                  : RMF          - RESISTIVITY OF MUD FILTRATE 
SUFT.C        -20                  : SUFT         - SURFACE TEMPERATURE         
~A  DEPTH     RESD     PHIN     PHID      CAL       GR
# ...
  434.500    4.222    0.404    0.212  164.194   89.342
  434.750    4.183    0.395    0.221  163.231   90.542
  435.000    4.145    0.391    0.242  159.814   90.558
  435.250    4.107    0.401    0.230  158.861   92.050
  435.500    4.033    0.418    0.211  160.856   91.769
  435.750    4.033    0.420    0.216  161.871   89.426
  436.000    4.033    0.396    0.233  160.419   85.308
  436.250    3.996    0.381    0.237  158.478   84.439
  436.500    3.996    0.381    0.228  157.522   83.275
  436.750    3.996    0.399    0.211  157.060   82.110
  437.000    4.070    0.409    0.228  156.107   80.356
  437.250    4.183    0.402    0.246  155.636   78.013
  437.500    4.300    0.393    0.261  155.666   83.342
  437.750    4.261    0.409    0.247  155.694   85.427
  438.000    4.183    0.403    0.253  155.718   82.490
  438.250    4.183    0.402    0.244  155.253   93.428
  438.500    4.183    0.418    0.251  154.792  108.796
  438.750    4.261    0.395    0.257  154.823  113.240
  439.000    4.502    0.404    0.241  155.342   86.392
  439.250    4.800    0.384    0.223  155.858   77.553
  439.500    5.119    0.370    0.202  155.885   68.714
  439.750    5.408    0.361    0.192  155.912   57.218
  440.000    5.408    0.363    0.187  155.940   58.418
  440.250    5.119    0.365    0.264  155.970   65.221
  440.500    4.502    0.371    0.286  155.994   67.898
  440.750    4.070    0.420    0.287  155.533   67.324
  441.000    3.747    0.397    0.276  155.068   66.455
  441.250    3.747    0.376    0.278  155.591   66.472
  441.500    3.996    0.386    0.287  155.615   65.898
  441.750    4.300    0.387    0.283  155.642   64.141
  442.000    4.585    0.363    0.189  156.162   61.205
  442.250    5.119    0.349    0.168  156.189   55.615
  442.500    5.662    0.337    0.143  156.220   54.156
  442.750    6.038    0.326    0.127  157.231   62.140
  443.000    6.038    0.327    0.188  157.258   65.408
  443.250    5.119    0.337    0.240  157.286   66.900
  443.500    4.107    0.367    0.276  157.316   68.095
  443.750    3.887    0.374    0.317  157.344   69.882
  444.000    3.612    0.404    0.313  157.371   70.784
  444.250    3.296    0.424    0.303  157.395   70.803
  444.500    3.236    0.411    0.297  157.422   69.343
  444.750    3.206    0.400    0.264  157.449   65.520
  445.000    3.177    0.437    0.279  157.480   67.603
  445.250    3.148    0.431    0.286  157.504   72.346
  445.500    3.148    0.407    0.283  157.535   71.184
  445.750    3.177    0.404    0.294  157.566   71.496
  446.000    3.206    0.400    0.296  157.593   71.805
  446.250    3.265    0.395    0.293  157.620   74.183
  446.500    3.326    0.395    0.277  157.644   75.675
  446.750    3.326    0.378    0.259  157.671   74.509
  447.000    3.450    0.379    0.261  157.706   69.507
  447.250    3.612    0.379    0.258  157.726   73.363
  447.500    3.713    0.369    0.252  158.744   76.038
  447.750    3.887    0.377    0.244  160.247   78.121
  448.000    4.033    0.364    0.238  163.230   83.155
  448.250    4.145    0.366    0.246  166.206   83.760
  448.500    4.261    0.371    0.237  169.677   82.010
  448.750    4.380    0.379    0.233  172.656   82.317
  449.000    4.543    0.386    0.219  173.175   82.633
  449.250    4.627    0.391    0.215  173.206   80.878
  449.500    4.670    0.399    0.216  172.246   81.483
  449.750    4.757    0.406    0.210  171.785   83.862
  450.000    5.205    0.394    0.206  171.572   86.214
  450.250    5.297    0.382    0.206  171.550   88.876
  450.500    5.390    0.386    0.203  171.517   90.938
  450.750    5.435    0.388    0.203  171.488   90.627
  451.000    5.480    0.385    0.195  170.973   89.123
  451.250    5.525    0.388    0.193  170.452   89.706
  451.500    5.571    0.396    0.197  169.432   94.743
  451.750    5.566    0.446    0.207  168.910   97.403
  452.000    5.511    0.409    0.217  169.383   91.740
  452.250    5.357    0.383    0.236  170.837   83.399
  452.500    4.929    0.359    0.179  170.818   76.248
  452.750    4.291    0.410    0.132  171.288   85.746
  453.000    3.842    0.476    0.182  171.754   98.514
  453.250    3.438    0.479    0.251  173.713  105.634
  453.500    3.134    0.485    0.225  174.675  109.483
  453.750    3.047    0.465    0.212  175.145  106.792
  454.000    3.047    0.510    0.228  176.110  105.587
  454.250    2.985    0.486    0.251  178.561  108.542
  454.500    2.983    0.473    0.248  177.538  106.745
  454.750    3.064    0.493    0.252  178.999  104.648
  455.000    3.176    0.515    0.260  179.967  107.606
  455.250    3.509    0.497    0.270  177.953  101.645
  455.500    3.807    0.456    0.217  175.954  101.032
  455.750    4.020    0.423    0.219  173.947   98.339
  456.000    4.401    0.408    0.197  173.425   94.164
  456.250    4.732    0.394    0.162  172.904   93.256
  456.500    4.949    0.403    0.152  172.872   96.511
  456.750    4.991    0.392    0.179  171.356   92.333
  457.000    4.986    0.387    0.187  171.337   80.422
  457.250    4.982    0.390    0.142  170.316   78.623
  457.500    4.888    0.421    0.042  169.303   86.040
  457.750    4.794    0.397    0.095  170.261  100.298
  458.000    4.747    0.381    0.198  173.707  101.767
  458.250    4.830    0.386    0.176  174.177  100.562
  458.500    4.915    0.386    0.173  173.160   97.574
  458.750    4.956    0.384    0.173  172.639   97.259
  459.000    4.956    0.386    0.178  172.613  100.813
  459.250    4.947    0.425    0.169  173.082  101.985
  459.500    5.035    0.411    0.171  173.053  104.052
  459.750    5.077    0.379    0.176  173.520  106.415
  460.000    5.359    0.383    0.184  173.989  108.778
  460.250    5.761    0.382    0.173  173.963  115.303
  460.500    6.193    0.384    0.167  173.445  113.503
  460.750    6.720    0.383    0.182  173.422   92.378
  461.000    7.776    0.378    0.168  172.898   69.174
  461.250    8.209    0.369    0.098  170.893   63.506
  461.500    9.154    0.363    0.169  169.374   69.736
  461.750   10.025    0.362    0.195  168.856   70.610
  462.000   11.179    0.353    0.206  169.326   68.218
  462.250   11.482    0.341    0.183  169.796   69.689
  462.500   10.857    0.341    0.168  171.745   67.295
  462.750    8.393    0.347    0.154  172.713   74.712
  463.000    6.854    0.350    0.139  172.684   96.993
  463.250    6.192    0.354    0.154  171.674  101.732
  463.500    5.696    0.372    0.169  171.133   98.746
  463.750    5.434    0.373    0.158  170.126   97.539
  464.000    5.332    0.377    0.153  171.098  101.389
  464.250    5.328    0.364    0.148  172.555   90.375
  464.500    5.421    0.365    0.137  172.526   90.356
  464.750    5.567    0.374    0.143  172.999   93.912
  465.000    5.615    0.364    0.126  172.976   92.705
  465.250    5.714    0.356    0.137  172.950   88.226
  465.500    5.813    0.355    0.142  172.924   87.023
  465.750    5.971    0.355    0.153  172.924   87.010
  466.000    5.964    0.353    0.146  172.371   88.776
  466.250    5.906    0.349    0.133  172.348   91.141
  466.500    5.793    0.346    0.149  172.322   92.905
  466.750    5.632    0.351    0.162  172.296   91.407
  467.000    5.474    0.372    0.175  172.267   92.579
  467.250    5.321    0.358    0.169  172.244  100.295
  467.500    5.268    0.355    0.168  172.218  104.142
  467.750    5.263    0.356    0.183  172.189  106.208
  468.000    5.355    0.362    0.201  172.160  105.895
  468.250    5.551    0.379    0.178  172.141  103.204
  468.500    5.913    0.380    0.176  172.112  100.511
  468.750    6.300    0.375    0.199  172.112   97.524
  469.000    6.898    0.372    0.172  172.060   82.049
  469.250    7.216    0.353    0.148  172.034   82.922
  469.500    7.343    0.340    0.146  172.005   84.987
  469.750    7.269    0.342    0.114  171.979   82.893
  470.000    6.875    0.348    0.083  172.449   82.877
  470.250    6.267    0.349    0.124  172.423   89.400
  470.500    5.358    0.349    0.172  172.896   88.493
  470.750    4.666    0.354    0.189  172.870   90.558
