~VERSION INFORMATION
 VERS.                 2.0:   CWLS LOG ASCII STANDARD -VERSION 2.0
 WRAP.                  NO:   ONE LINE PER DEPTH STEP
~WELL INFORMATION BLOCK
#MNEM.UNIT           DATA                    DESCRIPTION OF MNEMONIC
#---------    -------------------            -------------------------------
# Generated from Intellog Unique Number	CW_70_72/WELL/1057
NULL.         -999.25                        : NULL_VALUE
WELL.         MIKAS AMOCO CALLING LAKE 11-12 : Well_name    - WELL              
LOC .         11-12-072-20W4                 : Location     - LOCATION          
UWI .         00/11-12-072-20W4/0            : Uwi          - UNIQUE WELL ID    
ENTR.         JAYE                           : Entered      - ENTERED BY        
SRVC.         SCHLUMBERGER                   : Scn          - SERVICE COMPANY   
DATE.         24 FEB 73                      : Date         - LOG DATE          
STRT.M        316.992                        : top_depth    - START DEPTH       
STOP.M        518.242                        : bot_depth    - STOP DEPTH        
STEP.M        0.25                           : increment    - STEP LENGTH       
~CURVE INFORMATION BLOCK
#MNEM UNIT       ERCB CURVE CODE    CURVE DESCRIPTION
#-----------   ------------------   ----------------------------------
DEPT.M        00 001 00 00         : DEPTH        - DEPTH                       
DPHI.V/V      00 890 00 00         : PHID         - DENSITY POROSITY (SANDSTONE)
NPHI.V/V      00 330 00 00         : PHIN         - NEUTRON POROSITY (SANDSTONE)
GR  .API      00 310 00 00         : GR           - GAMMA RAY                   
CALI.MM       00 280 01 00         : CAL          - CALIPER                     
ILD .OHMM     00 120 00 00         : RESD         - DEEP RESISTIVITY (DLL)      
~PARAMETER INFORMATION       
#MNEM.UNIT           DATA             DESCRIPTION OF MNEMONIC
#---------         -----------     ------------------------------
GL  .M        594.055              : gl           - GROUND LEVEL ELEVATION      
EREF.M        597.408              : kb           - ELEVATION OF DEPTH REFERENCE
DATM.M        594.055              : datum        - DATUM ELEVATION             
TDD .M        542.544              : tdd          - TOTAL DEPTH DRILLER         
RUN .         ONE                  : Run          - RUN NUMBER                  
ENG .         LYE                  : Engineer     - RECORDING ENGINEER          
WIT .         COVENEY/BOUPLAND     : Witness      - WITNESSED BY                
BASE.         R.D.                 : Branch       - HOME BASE OF LOGGING UNIT   
MUD .         GEL CHEM             : Mud_type     - MUD TYPE                    
MATR.         SANDSTONE            : Logunit      - NEUTRON MATRIX              
TMAX.C        28.8889              : BHT          - MAXIMUM RECORDED TEMPERATURE
BHTD.M        542.239              : BHTDEP       - MAXIMUM RECORDED TEMPERATURE
RMT .C        18.8889              : MDTP         - TEMPERATURE OF MUD          
MUDD.KG/M     1104                 : MWT          - MUD DENSITY                 
NEUT.         1                    : NEUTRON      - NEUTRON TYPE                
RESI.         1                    : RESIST       - RESISTIVITY TYPE            
RM  .OHMM     4.29                 : RM           - RESISTIVITY OF MUD          
RMC .OHMM     0                    : RMC          - RESISTIVITY OF MUD CAKE     
RMF .OHMM     5.03                 : RMF          - RESISTIVITY OF MUD FILTRATE 
SUFT.C        -17.7778             : SUFT         - SURFACE TEMPERATURE         
~A  DEPTH     PHID     PHIN       GR      CAL     RESD
# ...
  353.492    0.198    0.462   86.438  156.399    3.898
  353.742    0.210    0.476   89.879  156.849    4.473
  353.992    0.230    0.488   85.992  158.229    5.020
  354.242    0.268    0.509   82.655  159.923    5.391
  354.492    0.273    0.485   81.151  160.888    5.510
  354.742    0.281    0.474   80.320  158.857    5.415
  354.992    0.280    0.469   79.546  154.137    5.084
  355.242    0.281    0.473   78.713  153.969    4.812
  355.492    0.295    0.473   79.284  156.177    4.683
  355.742    0.299    0.480   81.017  158.694    4.642
  355.992    0.298    0.481   82.870  160.182    4.615
  356.242    0.282    0.455   85.028  160.527    4.608
  356.492    0.251    0.443   85.966  161.908    4.606
  356.742    0.232    0.455   86.173  163.191    4.651
  356.992    0.245    0.468   88.332  163.947    4.770
  357.242    0.248    0.483   88.718  164.606    4.884
  357.492    0.260    0.488   85.809  164.954    4.974
  357.742    0.272    0.494   83.694  165.402    5.068
  357.992    0.247    0.515   83.472  165.964    5.135
  358.242    0.224    0.506   85.386  165.793    5.222
  358.492    0.244    0.475   89.805  165.313    5.301
  358.742    0.267    0.472   93.308  164.625    5.354
  358.992    0.254    0.485   87.896  164.146    5.353
  359.242    0.269    0.503   84.862  163.667    5.323
  359.492    0.258    0.520   87.208  163.282    5.331
  359.742    0.250    0.492   90.037  162.814    5.339
  359.992    0.255    0.481   87.192  162.428    5.355
  360.242    0.266    0.495   83.484  162.256    5.336
  360.492    0.236    0.483   78.864  162.190    5.334
  360.742    0.202    0.472   80.171  161.917    5.333
  360.992    0.189    0.465   84.160  161.852    5.341
  361.242    0.171    0.443   89.373  161.785    5.366
  361.492    0.213    0.450   95.442  169.063    5.420
  361.742    0.183    0.456   99.864  176.440    5.436
  361.992    0.184    0.494  101.900  190.956    5.398
  362.242    0.196    0.512  104.364  186.960    5.260
  362.492    0.205    0.538  108.968  179.037    5.039
  362.742    0.220    0.558  110.029  172.454    4.698
  362.992    0.234    0.547  109.866  170.012    4.417
  363.242    0.210    0.532  107.993  170.353    4.112
  363.492    0.221    0.523  102.702  171.945    3.947
  363.742    0.210    0.513   96.005  168.981    3.911
  363.992    0.210    0.505   88.087  164.983    3.904
  364.242    0.231    0.493   77.421  162.228    3.950
  364.492    0.271    0.457   57.961  159.575    4.009
  364.742    0.298    0.424   50.592  161.784    4.084
  364.992    0.308    0.423   49.088  165.860    4.160
  365.242    0.300    0.423   48.681  166.209    4.223
  365.492    0.301    0.417   47.175  162.724    4.288
  365.742    0.316    0.407   46.833  156.350    4.322
  365.992    0.322    0.397   47.585  153.907    4.358
  366.242    0.324    0.438   48.525  153.011    4.379
  366.492    0.326    0.446   48.547  155.323    4.378
  366.742    0.330    0.426   49.484  158.979    4.370
  366.992    0.337    0.416   51.521  161.395    4.352
  367.242    0.321    0.407   51.848  163.501    4.322
  367.492    0.302    0.412   47.227  164.161    4.284
  367.742    0.299    0.427   47.677  164.194    4.233
  367.992    0.315    0.444   49.961  164.132    4.195
  368.242    0.318    0.438   51.447  164.164    4.151
  368.492    0.330    0.441   51.653  165.235    4.102
  368.742    0.340    0.427   50.575  166.414    4.038
  368.992    0.341    0.404   48.764  166.867    4.009
  369.242    0.337    0.421   50.373  166.696    4.007
  369.492    0.328    0.431   52.353  165.909    4.048
  369.742    0.331    0.430   53.715  164.803    4.060
  369.992    0.335    0.435   55.020  161.009    4.052
  370.242    0.329    0.445   55.409  154.532    4.065
  370.492    0.339    0.463   52.926  155.602    4.064
  370.742    0.350    0.450   50.993  163.913    4.070
  370.992    0.345    0.436   50.160  155.681    4.055
  371.242    0.329    0.443   49.450  154.575    4.026
  371.492    0.342    0.453   49.960  153.893    4.039
  371.742    0.338    0.434   50.532  153.516    4.016
  371.992    0.320    0.422   53.240  152.725    4.002
  372.242    0.319    0.413   56.745  152.451    3.981
  372.492    0.341    0.427   55.849  152.282    3.945
  372.742    0.347    0.448   55.507  153.350    3.905
  372.992    0.354    0.468   55.530  158.044    3.884
  373.242    0.343    0.487   56.281  162.111    3.870
  373.492    0.350    0.524   57.098  155.220    3.854
  373.742    0.365    0.547   60.172  158.051    3.808
  373.992    0.365    0.539   62.273  162.431    3.761
  374.242    0.338    0.489   64.309  162.570    3.722
  374.492    0.336    0.458   67.200  162.302    3.703
  374.742    0.333    0.445   61.909  161.506    3.708
  374.992    0.319    0.446   56.373  157.511    3.713
  375.242    0.307    0.456   52.363  155.481    3.840
  375.492    0.294    0.461   48.110  155.003    4.040
  375.742    0.275    0.455   47.216  155.037    4.473
  375.992    0.289    0.444   51.024  155.075    5.196
  376.242    0.308    0.394   53.917  155.005    5.644
  376.492    0.313    0.420   54.427  155.561    6.165
  376.742    0.308    0.442   53.779  157.979    6.216
  376.992    0.320    0.460   54.776  159.976    6.182
  377.242    0.346    0.462   55.898  162.498    5.134
  377.492    0.347    0.459   54.456  164.090    4.579
  377.742    0.346    0.444   51.912  164.332    4.212
  377.992    0.350    0.451   52.056  163.746    3.994
  378.242    0.342    0.460   52.933  161.300    3.827
  378.492    0.329    0.467   53.625  158.031    3.685
  378.742    0.340    0.478   54.259  156.211    3.603
  378.992    0.337    0.501   55.196  155.520    3.572
  379.242    0.328    0.496   53.996  155.245    3.529
  379.492    0.316    0.476   51.698  155.384    3.516
  379.742    0.350    0.478   50.375  155.833    3.521
  379.992    0.333    0.491   49.358  156.298    3.526
  380.242    0.340    0.477   49.199  156.846    3.530
  380.492    0.327    0.473   50.076  157.708    3.548
  380.742    0.332    0.490   51.195  158.671    3.559
  380.992    0.352    0.483   55.432  159.432    3.577
  381.242    0.350    0.475   56.004  161.124    3.581
  381.492    0.331    0.462   55.353  164.057    3.611
  381.742    0.344    0.470   56.230  153.855    3.623
  381.992    0.359    0.503   57.474  154.415    3.635
  382.242    0.351    0.493   57.984  155.792    3.644
  382.492    0.330    0.485   57.335  157.282    3.649
  382.742    0.332    0.481   58.394  158.246    3.656
  382.992    0.344    0.463   60.553  158.695    3.672
  383.242    0.335    0.446   61.311  159.048    3.690
  383.492    0.355    0.461   61.088  159.292    3.689
  383.742    0.345    0.481   60.681  160.255    3.702
  383.992    0.352    0.492   59.786  164.330    3.712
  384.242    0.341    0.486   58.160  165.807    3.736
  384.492    0.331    0.458   58.122  163.984    3.748
  384.742    0.330    0.444   57.531  161.745    3.760
  384.992    0.333    0.493   59.874  158.682    3.752
  385.242    0.336    0.496   60.750  159.336    3.745
  385.492    0.335    0.481   58.941  162.477    3.737
  385.742    0.312    0.458   57.253  156.204    3.742
  385.992    0.329    0.469   56.664  158.414    3.735
  386.242    0.323    0.481   56.502  162.276    3.728
  386.492    0.327    0.492   57.257  165.005    3.733
  386.742    0.328    0.497   59.110  163.903    3.745
  386.992    0.326    0.482   61.086  157.838    3.763
  387.242    0.343    0.470   59.398  155.909    3.769
  387.492    0.318    0.454   58.442  155.635    3.774
  387.742    0.294    0.447   59.870  156.915    3.772
  387.992    0.308    0.468   61.907  159.330    3.764
  388.242    0.317    0.482   61.257  162.368    3.782
  388.492    0.317    0.468   60.304  163.644    3.794
  388.742    0.310    0.462   62.949  163.791    3.793
  388.992    0.296    0.459   63.276  163.310    3.811
  389.242    0.263    0.440   62.383  163.031    3.883
  389.492    0.214    0.407   62.587  163.897    4.134
  389.742    0.163    0.263   61.938  163.624    4.941
