~VERSION INFORMATION
 VERS.                 2.0:   CWLS LOG ASCII STANDARD -VERSION 2.0
 WRAP.                  NO:   ONE LINE PER DEPTH STEP
~WELL INFORMATION BLOCK
#MNEM.UNIT           DATA                    DESCRIPTION OF MNEMONIC
#---------    -------------------            -------------------------------
# Generated from Intellog Unique Number	CC_84_87/WELL/2331
NULL.         -999.25                        : NULL_VALUE
WELL.         COSEKA ET AL SALESKI           : Well_name    - WELL              
LOC .         11-24-087-17W4                 : Location     - LOCATION          
UWI .         00/11-24-087-17W400            : Uwi          - UNIQUE WELL ID    
ENTR.         JHS                            : Entered      - ENTERED BY        
SRVC.         COMPUTALOG                     : Scn          - SERVICE COMPANY   
DATE.         02 FEB 82                      : Date         - LOG DATE
STRT.M        100                            : top_depth    - START DEPTH       
STOP.M        217.901                        : bot_depth    - STOP DEPTH        
STEP.M        0.3                            : increment    - STEP LENGTH       
~CURVE INFORMATION BLOCK
#MNEM UNIT       ERCB CURVE CODE    CURVE DESCRIPTION
#-----------   ------------------   ----------------------------------
DEPT.M        00 001 00 00         : DEPTH        - DEPTH                       
ILD .OHMM     00 120 00 00         : RESD         - DEEP RESISTIVITY (DIL)      
GR  .API      00 310 00 00         : GR           - GAMMA RAY                   
NPHI.V/V      00 330 00 00         : PHIN         - NEUTRON POROSITY (LIMESTONE)
DPHI.V/V      00 890 00 00         : PHID         - DENSITY POROSITY (LIMESTONE)
~PARAMETER INFORMATION       
#MNEM.UNIT           DATA             DESCRIPTION OF MNEMONIC
#---------         -----------     ------------------------------
GL  .M        510.2                : gl           - GROUND LEVEL ELEVATION      
EREF.M        513.7                : kb           - ELEVATION OF DEPTH REFERENCE
DATM.M        513.7                : datum        - DATUM ELEVATION             
TDD .M        226                  : tdd          - TOTAL DEPTH DRILLER         
RUN .         ONE                  : Run          - RUN NUMBER                  
ENG .         BILL                 : Engineer     - RECORDING ENGINEER          
WIT .         JIM                  : Witness      - WITNESSED BY                
MUD .         GEL                  : Mud_type     - MUD TYPE                    
MATR.         LIMESTONE            : Logunit      - NEUTRON MATRIX              
TMAX.C        24                   : BHT          - MAXIMUM RECORDED TEMPERATURE
BHTD.M        226                  : BHTDEP       - MAXIMUM RECORDED TEMPERATURE
MATR.         1                    : LOGUNIT      - NEUTRON MATRIX              
RMT .C        25                   : MDTP         - TEMPERATURE OF MUD          
NEUT.         1                    : NEUTRON      - NEUTRON TYPE                
RESI.         0                    : RESIST       - RESISTIVITY TYPE            
RMC .OHMM     0.25                 : RMC          - RESISTIVITY OF MUD CAKE     
RMF .OHMM     0.25                 : RMF          - RESISTIVITY OF MUD FILTRATE 
SUFT.C        15                   : SUFT         - SURFACE TEMPERATURE         
~A  DEPTH     RESD       GR     PHIN     PHID
# ...
  152.201    9.852   92.223    0.447    0.226
  152.501   10.042   92.221    0.337    0.219
  152.801    9.667   97.219    0.342    0.215
  153.101    9.485   99.718    0.409    0.221
  153.401   10.436   92.217    0.471    0.224
  153.701   12.393   79.716    0.457    0.194
  154.001   12.876   73.464    0.291    0.111
  154.301   11.705   77.837    0.266    0.132
  154.601    9.310   84.711    0.322    0.179
  154.901    6.604   92.834    0.409    0.195
  155.201    6.358   99.082    0.385    0.243
  155.501    6.481  105.330    0.407    0.325
  155.801    7.407  116.578    0.544    0.363
  156.101    9.315  116.577    0.470    0.324
  156.401   11.062   98.451    0.406    0.250
  156.701   11.714   95.949    0.381    0.212
  157.001   11.941   97.823    0.373    0.212
  157.301   11.716   99.696    0.373    0.221
  157.601   10.651  101.569    0.376    0.220
  157.901   10.652   97.193    0.393    0.215
  158.201   10.858   96.567    0.395    0.205
  158.501   10.860  100.315    0.420    0.188
  158.801   11.283  102.188    0.373    0.190
  159.101   11.284  102.811    0.344    0.201
  159.401   10.862  109.060    0.376    0.199
  159.701   10.658  114.058    0.470    0.193
  160.001   11.726  115.306    0.467    0.190
  160.301   13.925  115.930    0.414    0.186
  160.601   15.031   96.554    0.487    0.170
  160.901   15.322   86.553    0.436    0.134
  161.201   13.929   89.676    0.379    0.175
  161.501   13.667  103.424    0.363    0.207
  161.801   13.931  110.297    0.369    0.199
  162.101   15.925  107.170    0.374    0.193
  162.401   17.521  100.294    0.427    0.202
  162.701   18.555   92.793    0.422    0.211
  163.001   18.913   84.667    0.328    0.176
  163.301   21.211   89.665    0.335    0.190
  163.601   22.895   92.163    0.396    0.232
  163.901   23.788   81.537    0.256    0.180
  164.201   22.899   73.410    0.210    0.062
  164.501   19.659   74.034    0.243    0.088
  164.801   14.489   77.157    0.322    0.193
  165.101   15.344   82.780    0.354    0.273
  165.401   15.941   81.529    0.374    0.286
  165.701   15.943   84.652    0.381    0.255
  166.001   15.643   98.400    0.320    0.176
  166.301   16.253  102.149    0.333    0.191
  166.601   17.212   91.523    0.389    0.252
  166.901   22.060   94.021    0.414    0.248
  167.201   28.820   94.019    0.435    0.242
  167.501   32.319   86.518    0.513    0.243
  167.801   31.711   70.267    0.478    0.173
  168.101   29.384   72.140    0.175    0.062
  168.401   27.752   85.263    0.232    0.060
  168.701   25.715   87.761    0.335    0.180
  169.001   25.716   83.385    0.445    0.181
  169.301   22.937   69.009    0.383    0.112
  169.601   19.691   80.882    0.221    0.075
  169.901   19.321   97.130    0.353    0.137
  170.201   18.958   84.004    0.434    0.194
  170.501   19.324   81.502    0.376    0.179
  170.801   17.235   84.626    0.287    0.088
  171.101   15.668   90.874    0.342    0.114
  171.401   13.975   98.997    0.389    0.204
  171.701   13.453  103.370    0.363    0.205
  172.001   13.454  110.243    0.368    0.200
  172.301   14.802  111.492    0.373    0.195
  172.601   14.803  100.241    0.342    0.157
  172.901   14.525  102.114    0.352    0.148
  173.201   13.459  111.487    0.358    0.173
  173.501   12.711  109.610    0.406    0.189
  173.801   12.236  110.234    0.390    0.155
  174.101   12.714  112.107    0.360    0.135
  174.401   13.464  113.981    0.358    0.160
  174.701   15.390  113.979    0.410    0.191
  175.001   17.258  107.103    0.443    0.181
  175.301   17.932   99.602    0.484    0.178
  175.601   17.262   93.975    0.475    0.076
  175.901   16.303   99.598    0.396    0.016
  176.201   14.540   99.597    0.389    0.118
  176.501   12.969  100.220    0.385    0.196
  176.801   12.725  107.718    0.374    0.204
  177.101   14.270  113.342    0.342    0.190
  177.401   14.826  112.090    0.338    0.183
  177.701   15.701  110.213    0.376    0.173
  178.001   17.276  107.712    0.366    0.173
  178.301   17.277  102.085    0.352    0.193
  178.601   16.631  104.584    0.357    0.201
  178.901   16.633  107.082    0.329    0.202
  179.201   17.615  105.206    0.322    0.201
  179.501   18.301  108.329    0.361    0.195
  179.801   21.323  111.453    0.378    0.200
  180.101   21.735  103.951    0.404    0.195
  180.401   20.139   97.075    0.344    0.159
  180.701   17.290  101.448    0.260    0.171
  181.001   16.644  112.696    0.363    0.202
  181.301   16.331  118.944    0.389    0.179
  181.601   16.332  120.193    0.404    0.165
  181.901   16.334  114.566    0.420    0.178
  182.201   16.650  105.815    0.415    0.194
  182.501   16.029  115.188    0.383    0.196
  182.801   14.852  119.561    0.389    0.193
  183.101   14.027  114.560    0.399    0.193
  183.401   11.157  110.808    0.376    0.205
  183.701    9.397  112.057    0.361    0.195
  184.001    9.046  117.055    0.378    0.186
  184.301    9.765  124.554    0.389    0.188
  184.601   10.950  127.052    0.421    0.185
  184.901   13.770  117.676    0.482    0.191
  185.201   14.863   93.925    0.494    0.161
  185.501   14.584   88.298    0.334    0.050
  185.801   13.513   97.046    0.311    0.107
  186.101   10.748  107.045    0.368    0.176
  186.401    9.227  116.418    0.339    0.174
  186.701    8.715  120.166    0.361    0.168
  187.001    8.716  120.790    0.390    0.171
  187.301    8.716  123.288    0.405    0.184
  187.601    9.590  125.161    0.374    0.191
  187.901   10.352  110.785    0.404    0.181
  188.201    9.777  115.783    0.440    0.169
  188.501    9.593  124.531    0.429    0.164
  188.801   10.159  127.030    0.412    0.169
  189.101   10.758  125.153    0.399    0.170
  189.401   12.776  128.901    0.384    0.164
  189.701   15.463  128.900    0.368    0.176
  190.001   18.717  118.274    0.366    0.185
  190.301   19.079  108.273    0.363    0.175
  190.601   18.366  104.521    0.276    0.055
  190.901   17.018  112.644    0.270    0.070
  191.201   15.770  113.893    0.347    0.153
  191.501   15.771  112.641    0.338    0.169
  191.801   15.772  113.889    0.360    0.157
  192.101   15.476  115.763    0.360    0.120
  192.401   15.776  118.261    0.302    0.108
  192.701   16.081  118.259    0.317    0.147
  193.001   16.392  115.133    0.368    0.180
  193.301   18.382   99.507    0.432    0.217
  193.601   21.416   97.631    0.334    0.170
  193.901   21.418  101.379    0.267    0.132
  194.201   20.229  109.501    0.267    0.148
  194.501   19.473  110.750    0.302    0.178
  194.801   17.703  108.874    0.316    0.185
  195.101   17.041  104.497    0.360    0.195
  195.401   16.094  103.871    0.370    0.185
  195.701   16.096  101.994    0.380    0.171
  196.001   16.408  106.992    0.373    0.181
  196.301   16.409   99.491    0.358    0.178
  196.601   16.101   98.865    0.353    0.176
  196.901   16.102  102.613    0.389    0.178
  197.201   16.730  100.736    0.429    0.181
  197.501   16.732   96.985    0.390    0.163
  197.801   15.504   99.484    0.335    0.094
  198.101   12.098  108.856    0.325    0.101
  198.401   10.386  118.855    0.350    0.140
  198.701    9.264  125.103    0.384    0.170
  199.001    8.749  123.227    0.424    0.168
  199.301   11.002   78.851    0.393    0.185
  199.601   14.931   42.601    0.365    0.240
  199.901   21.873   34.474    0.330    0.277
  200.201   36.620   36.348    0.329    0.272
  200.501   60.151   41.346    0.364    0.267
  200.801   84.813   43.219    0.396    0.286
  201.101  108.708   42.593    0.425    0.303
  201.401  117.337   41.966    0.405    0.283
  201.701  139.340   44.464    0.396    0.267
  202.001  159.273   45.713    0.424    0.283
  202.301  168.671   49.461    0.378    0.287
  202.601  175.247   48.210    0.371    0.283
  202.901  168.703   48.833    0.430    0.281
  203.201  162.397   51.957    0.463    0.277
  203.501  147.640   50.705    0.366    0.272
  203.801  136.801   52.578    0.344    0.271
  204.101  126.763   56.327    0.376    0.278
