~VERSION INFORMATION
 VERS.                 2.0:   CWLS LOG ASCII STANDARD -VERSION 2.0
 WRAP.                  NO:   ONE LINE PER DEPTH STEP
~WELL INFORMATION BLOCK
#MNEM.UNIT           DATA                    DESCRIPTION OF MNEMONIC
#---------    -------------------            -------------------------------
# Generated from Intellog Unique Number	CS_73_76/WELL/3253
WELL.         HOME LIESMER                   : Well_name    - WELL
LOC .         00/10-34-075-07W4/0            : Location     - LOCATION
UWI .         00/10-34-075-07W4/0            : Uwi          - UNIQUE WELL ID
ENTR.         SP                             : Entered      - ENTERED BY
SRVC.         SCHLUMBERGER                   : Scn          - SERVICE COMPANY
STRT.M        222.504                        : top_depth    - START DEPTH
STOP.M        438.754                        : bot_depth    - STOP DEPTH
STEP.M        0.25                           : increment    - STEP LENGTH
 NULL. -999.2500:NULL Value
~CURVE INFORMATION BLOCK
#MNEM UNIT       ERCB CURVE CODE    CURVE DESCRIPTION
#-----------   ------------------   ----------------------------------
DEPT.M        00 001 00 00         : DEPTH        - DEPTH
GR  .API      00 310 00 00         : GR           - GAMMA RAY
DPHI.V/V      00 890 00 00         : PHID         - DENSITY POROSITY (SANDSTONE)
NPHI.V/V      00 330 00 00         : PHIN         - NEUTRON POROSITY (SANDSTONE)
ILD .OHMM     00 120 00 00         : RESD         - DEEP RESISTIVITY (DIL)
~PARAMETER INFORMATION
#MNEM.UNIT           DATA             DESCRIPTION OF MNEMONIC
#---------         -----------     ------------------------------
GL  .M        624.764              : gl           - GROUND LEVEL ELEVATION
EREF.M        628.025              : kb           - ELEVATION OF DEPTH REFERENCE
DATM.M        624.764              : datum        - DATUM ELEVATION
TDD .M        518.16               : tdd          - TOTAL DEPTH DRILLER
RUN .         ONE                  : Run          - RUN NUMBER
ENG .         BILL                 : Engineer     - RECORDING ENGINEER
WIT .         JIM                  : Witness      - WITNESSED BY
MUD .         GEL                  : Mud_type     - MUD TYPE
MATR.         SANDSTONE            : Logunit      - NEUTRON MATRIX
TMAX.C        20.5556              : BHT          - MAXIMUM RECORDED TEMPERATURE
BHTD.M        518.16               : BHTDEP       - MAXIMUM RECORDED TEMPERATURE
MATR.         1                    : LOGUNIT      - NEUTRON MATRIX
RMT .C        25                   : MDTP         - TEMPERATURE OF MUD
NEUT.         1                    : NEUTRON      - NEUTRON TYPE
RESI.         0                    : RESIST       - RESISTIVITY TYPE
RMC .OHMM     0.25                 : RMC          - RESISTIVITY OF MUD CAKE
RMF .OHMM     0.25                 : RMF          - RESISTIVITY OF MUD FILTRATE
SUFT.C        15                   : SUFT         - SURFACE TEMPERATURE
~A  DEPTH       GR     PHID     PHIN     RESD
# ...
  353.004   47.544   -0.000    0.104   15.222
  353.254   47.989    0.000    0.121   17.215
  353.504   49.577   -0.000    0.144   13.882
  353.754   51.827   -0.000    0.175   11.054
  354.004   53.928    0.055    0.207    9.973
  354.254   54.102    0.137    0.240    8.770
  354.504   53.473    0.206    0.279    7.685
  354.754   54.509    0.282    0.340    7.331
  355.004   56.420    0.293    0.417    6.915
  355.254   57.725    0.282    0.417    6.642
  355.504   57.330    0.281    0.417    6.557
  355.754   57.477    0.297    0.419    6.521
  356.004   58.915    0.286    0.429    6.510
  356.254   60.527    0.287    0.439    6.644
  356.504   62.202    0.290    0.440    6.633
  356.754   63.073    0.286    0.434    6.620
  357.004   64.418    0.282    0.425    6.761
  357.254   64.874    0.279    0.420    6.743
  357.504   62.705    0.283    0.411    6.849
  357.754   60.335    0.284    0.405    6.864
  358.004   58.438    0.288    0.414    6.864
  358.254   58.459    0.292    0.429    6.940
  358.504   58.537    0.297    0.432    7.365
  358.754   57.269    0.267    0.428    7.666
  359.004   55.132    0.217    0.366    8.161
  359.254   52.231    0.183    0.302    8.453
  359.504   55.379    0.173    0.311    8.566
  359.754   58.769    0.231    0.360    8.234
  360.004   59.849    0.299    0.440    7.734
  360.254   60.891    0.300    0.472    7.374
  360.504   60.891    0.298    0.481    7.239
  360.754   61.616    0.298    0.455    7.099
  361.004   61.552    0.296    0.438    7.095
  361.254   61.160    0.292    0.418    7.141
  361.504   59.765    0.276    0.417    7.218
  361.754   57.767    0.268    0.414    7.218
  362.004   57.110    0.262    0.424    7.224
  362.254   58.603    0.278    0.447    7.082
  362.504   60.331    0.289    0.461    7.094
  362.754   60.552    0.278    0.458    6.938
  363.004   61.622    0.275    0.450    6.824
  363.254   62.924    0.277    0.438    6.815
  363.504   64.194    0.276    0.426    6.813
  363.754   65.260    0.276    0.429    6.699
  364.004   65.529    0.278    0.435    6.677
  364.254   66.572    0.292    0.448    6.667
  364.504   66.826    0.302    0.454    6.539
  364.754   70.525    0.296    0.444    6.502
  365.004   74.452    0.287    0.435    6.424
  365.254   78.581    0.263    0.430    6.225
  365.504   81.803    0.218    0.434    6.038
  365.754   82.825    0.202    0.444    5.855
  366.004   83.152    0.191    0.455    5.669
  366.254   84.174    0.186    0.454    5.632
  366.504   86.319    0.177    0.447    5.630
  366.754   87.925    0.167    0.439    5.670
  367.004   90.198    0.159    0.438    5.853
  367.254   90.659    0.173    0.441    5.941
  367.504   90.823    0.196    0.447    6.114
  367.754   90.179    0.200    0.460    6.168
  368.004   90.611    0.189    0.464    6.202
  368.254   91.667    0.196    0.466    6.170
  368.504   92.041    0.202    0.478    6.045
  368.754   91.686    0.206    0.482    6.043
  369.004   91.579    0.197    0.482    6.039
  369.254   92.634    0.194    0.476    6.036
  369.504   92.385    0.196    0.471    6.033
  369.754   91.315    0.200    0.466    6.026
  370.004   89.348    0.214    0.461    5.654
  370.254   86.410    0.225    0.453    5.307
  370.504   84.175    0.236    0.447    4.992
  370.754   82.648    0.228    0.442    4.777
  371.004   81.875    0.218    0.442    4.632
  371.254   81.935    0.236    0.442    4.728
  371.504   84.195    0.250    0.448    4.917
  371.754   88.752    0.257    0.455    5.342
  372.004   92.686    0.219    0.445    5.866
  372.254   94.529    0.189    0.436    6.532
  372.504   93.063    0.185    0.424    6.164
  372.754   89.520    0.215    0.425    5.618
  373.004   86.243    0.240    0.464    5.141
  373.254   83.908    0.261    0.492    4.484
  373.504   85.100    0.240    0.496    4.025
  373.754   83.506    0.219    0.479    3.736
  374.004   80.796    0.222    0.487    3.294
  374.254   79.789    0.228    0.525    3.012
  374.504   81.192    0.234    0.567    2.674
  374.754   85.065    0.248    0.563    2.411
  375.004   86.988    0.242    0.559    2.266
  375.254   86.600    0.235    0.552    2.192
  375.504   86.777    0.229    0.544    2.194
  375.754   88.598    0.223    0.536    2.216
  376.004   88.001    0.228    0.538    2.239
  376.254   87.947    0.237    0.545    2.272
  376.504   90.581    0.216    0.536    2.320
  376.754   93.232    0.206    0.519    2.315
  377.004   95.015    0.214    0.524    2.310
  377.254   93.482    0.207    0.528    2.360
  377.504   94.268    0.193    0.525    2.402
  377.754   92.653    0.184    0.518    2.603
  378.004   90.170    0.176    0.462    2.757
  378.254   87.687    0.180    0.447    3.038
  378.504   88.004    0.193    0.439    3.422
  378.754   89.047    0.180    0.433    4.067
  379.004   89.083    0.168    0.424    4.712
  379.254   86.918    0.147    0.418    5.487
  379.504   87.941    0.075    0.403    6.074
  379.754   90.422    0.058    0.390    5.890
  380.004   94.134    0.094    0.404    5.399
  380.254   99.451    0.158    0.424    4.727
  380.504  100.946    0.174    0.442    4.400
  380.754   97.790    0.179    0.459    4.131
  381.004   94.414    0.179    0.476    4.089
  381.254   92.501    0.176    0.459    4.139
  381.504   90.879    0.172    0.449    4.175
  381.754   91.390    0.167    0.449    4.314
  382.004   93.057    0.162    0.446    4.278
  382.254   94.011    0.168    0.454    4.145
  382.504   94.418    0.171    0.465    3.916
  382.754   96.465    0.167    0.463    3.374
  383.004  100.144    0.165    0.454    3.058
  383.254  101.161    0.171    0.452    2.663
  383.504  101.090    0.177    0.451    2.386
  383.754  101.763    0.183    0.457    2.081
  384.004  100.104    0.186    0.472    1.841
  384.254   96.900    0.170    0.482    1.688
  384.504   97.607    0.159    0.490    1.609
  384.754   96.294    0.174    0.495    1.605
  385.004   96.458    0.179    0.496    1.697
  385.254   98.054    0.160    0.497    1.880
  385.504   99.860    0.159    0.493    2.115
  385.754   99.249    0.168    0.492    2.444
  386.004   97.733    0.150    0.500    2.702
  386.254   96.749    0.167    0.502    3.003
  386.504   96.488    0.176    0.491    3.318
  386.754   97.484    0.187    0.493    3.409
  387.004   98.130    0.175    0.506    3.515
  387.254   94.080    0.179    0.515    3.623
  387.504   91.431    0.167    0.510    3.776
  387.754   90.209    0.161    0.481    4.017
  388.004   88.174    0.166    0.465    4.255
  388.254   87.712    0.131    0.457    4.865
  388.504   84.850   -0.004    0.439    5.346
  388.754   86.096    0.030    0.401    6.357
  389.004   89.367    0.103    0.375    7.049
  389.254   91.904    0.147    0.390    7.612
  389.504   90.381    0.172    0.395    7.828
  389.754   81.476    0.176    0.402    8.288
  390.004   68.563    0.174    0.413    8.986
  390.254   56.321    0.170    0.427    9.845
  390.504   42.125    0.195    0.437   14.017
  390.754   37.665    0.239    0.416   20.518
  391.004   35.487    0.263    0.407   24.780
  391.254   33.150    0.274    0.418   28.256
  391.504   32.255    0.276    0.423   30.812
  391.754   31.860    0.273    0.423   33.447
  392.004   32.307    0.270    0.397   35.365
  392.254   32.194    0.264    0.382   35.405
  392.504   32.932    0.265    0.402   32.550
  392.754   32.886    0.269    0.416   28.437
  393.004   32.475    0.268    0.412   22.852
  393.254   31.470    0.261    0.389   19.184
  393.504   30.492    0.264    0.373   15.539
  393.754   29.870    0.266    0.359   12.567
  394.004   29.878    0.258    0.371   11.155
  394.254   30.506    0.259    0.379    9.635
  394.504   30.474    0.261    0.384    9.172
  394.754   31.269    0.268    0.376    8.504
  395.004   32.830    0.270    0.368    8.294
  395.254   34.123    0.265    0.366    7.926
  395.504   37.073    0.249    0.360    7.946
  395.754   44.361    0.219    0.345    7.945
  396.004   58.242    0.157    0.325    7.944
  396.254   72.826    0.100    0.290    7.941
