~VERSION INFORMATION
 VERS.                 2.0:   CWLS LOG ASCII STANDARD -VERSION 2.0
 WRAP.                  NO:   ONE LINE PER DEPTH STEP
~WELL INFORMATION BLOCK
#MNEM.UNIT           DATA                    DESCRIPTION OF MNEMONIC
#---------    -------------------            -------------------------------
# Generated from Intellog Unique Number	CS_69_70/WELL/887
WELL.         BRALORNE RESOURCES LIMITED     : Well_name    - WELL
LOC .         00/11-15-069-10W4/0            : Location     - LOCATION
UWI .         00/11-15-069-10W4/0            : Uwi          - UNIQUE WELL ID
ENTR.         SP                             : Entered      - ENTERED BY
SRVC.         SCHLUMBERGER                   : Scn          - SERVICE COMPANY
STRT.M        381                            : top_depth    - START DEPTH
STOP.M        600.25                         : bot_depth    - STOP DEPTH
STEP.M        0.25                           : increment    - STEP LENGTH
 NULL. -999.2500:NULL Value
~CURVE INFORMATION BLOCK
#MNEM UNIT       ERCB CURVE CODE    CURVE DESCRIPTION
#-----------   ------------------   ----------------------------------
DEPT.M        00 001 00 00         : DEPTH        - DEPTH
GR  .API      00 310 00 00         : GR           - GAMMA RAY
DPHI.V/V      00 890 00 00         : PHID         - DENSITY POROSITY (SANDSTONE)
NPHI.V/V      00 330 00 00         : PHIN         - NEUTRON POROSITY (SANDSTONE)
ILD .OHMM     00 120 00 00         : RESD         - DEEP RESISTIVITY (DIL)
~PARAMETER INFORMATION
#MNEM.UNIT           DATA             DESCRIPTION OF MNEMONIC
#---------         -----------     ------------------------------
GL  .M        708.05               : gl           - GROUND LEVEL ELEVATION
EREF.M        712.47               : kb           - ELEVATION OF DEPTH REFERENCE
DATM.M        708.05               : datum        - DATUM ELEVATION
TDD .M        605.638              : tdd          - TOTAL DEPTH DRILLER
RUN .         ONE                  : Run          - RUN NUMBER
ENG .         BILL                 : Engineer     - RECORDING ENGINEER
WIT .         JIM                  : Witness      - WITNESSED BY
MUD .         GEL                  : Mud_type     - MUD TYPE
MATR.         SANDSTONE            : Logunit      - NEUTRON MATRIX
TMAX.C        15.5556              : BHT          - MAXIMUM RECORDED TEMPERATURE
BHTD.M        605.638              : BHTDEP       - MAXIMUM RECORDED TEMPERATURE
MATR.         1                    : LOGUNIT      - NEUTRON MATRIX
RMT .C        25                   : MDTP         - TEMPERATURE OF MUD
NEUT.         1                    : NEUTRON      - NEUTRON TYPE
RESI.         0                    : RESIST       - RESISTIVITY TYPE
RMC .OHMM     0.25                 : RMC          - RESISTIVITY OF MUD CAKE
RMF .OHMM     0.25                 : RMF          - RESISTIVITY OF MUD FILTRATE
SUFT.C        15                   : SUFT         - SURFACE TEMPERATURE
~A  DEPTH       GR     PHID     PHIN     RESD
# ...
  468.000   80.050    0.347    0.457    7.499
  468.250   83.148    0.339    0.466    7.364
  468.500   86.138    0.328    0.477    7.198
  468.750   88.354    0.318    0.485    7.224
  469.000   89.895    0.308    0.476    7.540
  469.250   86.819    0.302    0.470    8.058
  469.500   81.337    0.313    0.461    8.466
  469.750   78.759    0.322    0.454    8.926
  470.000   76.903    0.315    0.464    9.363
  470.250   75.097    0.317    0.468    9.767
  470.500   76.666    0.319    0.450   10.133
  470.750   73.636    0.308    0.438   10.420
  471.000   72.244    0.300    0.436   10.609
  471.250   71.263    0.296    0.426   10.799
  471.500   72.328    0.303    0.420   10.870
  471.750   74.386    0.308    0.418   10.891
  472.000   76.160    0.307    0.423   10.966
  472.250   77.503    0.318    0.430   11.004
  472.500   74.509    0.318    0.439   11.042
  472.750   71.173    0.307    0.444   10.981
  473.000   71.073    0.302    0.434   10.917
  473.250   72.388    0.302    0.426   10.210
  473.500   72.682    0.297    0.430    9.389
  473.750   74.002    0.313    0.443    8.636
  474.000   76.621    0.323    0.454    8.019
  474.250   79.932    0.311    0.472    7.411
  474.500   84.242    0.314    0.476    6.988
  474.750   85.855    0.307    0.470    6.821
  475.000   84.661    0.299    0.464    6.709
  475.250   83.440    0.313    0.452    6.822
  475.500   82.233    0.326    0.452    7.448
  475.750   81.335    0.332    0.469    8.238
  476.000   80.081    0.338    0.483    9.351
  476.250   76.879    0.312    0.496   10.508
  476.500   74.527    0.271    0.525   11.797
  476.750   72.953    0.185    0.309   12.794
  477.000   70.909    0.091    0.271   12.278
  477.250   68.515    0.103    0.248   10.967
  477.500   66.991    0.207    0.313    9.694
  477.750   68.316    0.288    0.383    8.732
  478.000   71.019    0.319    0.425    8.136
  478.250   74.198    0.335    0.467    7.951
  478.500   77.246    0.324    0.462    7.835
  478.750   79.952    0.314    0.445    7.739
  479.000   81.004    0.295    0.432    7.680
  479.250   80.427    0.269    0.416    7.608
  479.500   80.504    0.287    0.438    7.571
  479.750   81.572    0.312    0.454    7.539
  480.000   81.608    0.328    0.465    7.528
  480.250   82.138    0.342    0.457    7.535
  480.500   82.145    0.338    0.449    7.548
  480.750   81.762    0.337    0.445    7.602
  481.000   81.447    0.325    0.446    7.602
  481.250   80.988    0.319    0.453    7.620
  481.500   81.084    0.315    0.455    7.609
  481.750   83.037    0.322    0.461    7.598
  482.000   85.588    0.312    0.462    7.589
  482.250   88.768    0.293    0.453    7.599
  482.500   90.496    0.269    0.454    7.681
  482.750   90.486    0.246    0.461    7.847
  483.000   91.667    0.218    0.462    8.026
  483.250   93.318    0.210    0.442    8.214
  483.500   94.160    0.230    0.426    8.532
  483.750   94.997    0.218    0.414    8.866
  484.000   95.576    0.195    0.404    9.184
  484.250   96.392    0.203    0.401    9.473
  484.500   96.628    0.214    0.412    9.741
  484.750   95.373    0.220    0.422    9.969
  485.000   93.909    0.226    0.425   10.171
  485.250   92.873    0.219    0.412   10.221
  485.500   91.970    0.208    0.402   10.217
  485.750   91.133    0.207    0.399   10.135
  486.000   90.511    0.210    0.410    9.997
  486.250   90.958    0.210    0.416    9.828
  486.500   92.341    0.209    0.421    9.534
  486.750   93.870    0.214    0.416    9.101
  487.000   95.989    0.226    0.411    8.705
  487.250   97.531    0.213    0.411    8.095
  487.500   97.994    0.196    0.419    7.617
  487.750   98.681    0.198    0.429    7.160
  488.000   99.073    0.220    0.435    6.889
  488.250   99.666    0.220    0.445    6.668
  488.500  100.706    0.223    0.450    6.492
  488.750  101.711    0.232    0.457    6.451
  489.000  101.619    0.226    0.470    6.540
  489.250  101.665    0.218    0.483    6.685
  489.500  102.325    0.216    0.466    6.854
  489.750  103.026    0.207    0.468    6.971
  490.000  103.371    0.200    0.482    7.091
  490.250  103.328    0.215    0.478    7.161
  490.500  102.295    0.226    0.473    7.132
  490.750  102.458    0.233    0.480    7.036
  491.000  104.025    0.213    0.480    6.809
  491.250  105.608    0.218    0.466    6.441
  491.500  107.561    0.220    0.450    5.908
  491.750  108.578    0.216    0.441    5.346
  492.000  109.379    0.210    0.447    4.748
  492.250  109.330    0.199    0.448    4.314
  492.500  107.975    0.198    0.467    3.895
  492.750  107.904    0.227    0.489    3.628
  493.000  108.596    0.237    0.508    3.664
  493.250  108.925    0.243    0.530    3.373
  493.500  109.181    0.246    0.548    3.198
  493.750  109.568    0.230    0.541    3.173
  494.000  109.683    0.219    0.522    3.267
  494.250  110.029    0.207    0.505    3.412
  494.500  109.587    0.191    0.507    3.566
  494.750  108.430    0.198    0.519    3.756
  495.000  107.148    0.221    0.531    3.968
  495.250  105.103    0.231    0.528    4.223
  495.500  102.546    0.243    0.488    4.548
  495.750  100.978    0.248    0.450    4.942
  496.000  100.366    0.234    0.430    5.407
  496.250  100.723    0.229    0.436    5.824
  496.500  100.878    0.224    0.450    6.118
  496.750   98.706    0.236    0.463    6.300
  497.000   93.621    0.251    0.477    6.304
  497.250   90.406    0.267    0.471    6.089
  497.500   89.398    0.279    0.456    5.905
  497.750   90.641    0.286    0.445    5.562
  498.000   91.935    0.250    0.451    5.295
  498.250   92.553    0.238    0.463    5.121
  498.500   92.174    0.246    0.473    5.074
  498.750   89.156    0.262    0.476    5.197
  499.000   83.489    0.277    0.467    5.413
  499.250   79.811    0.290    0.460    5.653
  499.500   82.069    0.306    0.454    5.845
  499.750   84.432    0.316    0.460    6.023
  500.000   86.466    0.306    0.471    6.191
  500.250   88.616    0.287    0.485    6.205
  500.500   89.079    0.274    0.496    6.034
  500.750   81.930    0.281    0.488    5.869
  501.000   76.220    0.290    0.453    5.786
  501.250   76.767    0.297    0.435    5.819
  501.500   78.078    0.300    0.438    6.130
  501.750   78.308    0.273    0.447    6.561
  502.000   77.120    0.208    0.457    7.119
  502.250   73.074    0.140    0.463    7.524
  502.500   68.378    0.107    0.442    7.551
  502.750   73.212    0.089    0.292    6.523
  503.000   79.045    0.136    0.372    6.565
  503.250   81.631    0.182    0.421    6.853
  503.500   77.007    0.234    0.401    7.078
  503.750   72.337    0.176    0.337    7.171
  504.000   71.363    0.123    0.298    6.638
  504.250   76.377    0.096    0.316    6.137
  504.500   80.170    0.132    0.360    5.524
  504.750   82.817    0.189    0.410    5.053
  505.000   85.531    0.228    0.435    4.777
  505.250   87.928    0.244    0.453    4.580
  505.500   89.550    0.257    0.466    4.461
  505.750   90.575    0.264    0.479    4.394
  506.000   89.803    0.258    0.471    4.340
  506.250   89.741    0.254    0.469    4.343
  506.500   91.888    0.258    0.473    4.382
  506.750   92.722    0.256    0.475    4.411
  507.000   93.582    0.258    0.468    4.454
  507.250   93.174    0.264    0.463    4.488
  507.500   91.225    0.258    0.475    4.500
  507.750   91.181    0.256    0.486    4.510
  508.000   93.721    0.245    0.467    4.539
  508.250   95.810    0.233    0.473    4.599
  508.500   96.964    0.240    0.474    4.670
  508.750   97.103    0.238    0.463    4.728
  509.000   96.236    0.229    0.452    4.781
  509.250   99.174    0.231    0.446    4.828
  509.500  101.384    0.226    0.442    4.880
  509.750  102.557    0.217    0.451    4.968
  510.000  100.060    0.221    0.453    5.061
  510.250   98.823    0.230    0.437    5.112
  510.500   99.542    0.232    0.423    5.127
  510.750  100.015    0.233    0.427    5.081
  511.000  100.499    0.224    0.446    4.987
  511.250  101.003    0.217    0.449    4.832
