~VERSION INFORMATION
 VERS.                 2.0:   CWLS LOG ASCII STANDARD -VERSION 2.0
 WRAP.                  NO:   ONE LINE PER DEPTH STEP
~WELL INFORMATION BLOCK
#MNEM.UNIT           DATA                    DESCRIPTION OF MNEMONIC
#---------    -------------------            -------------------------------
# Generated from Intellog Unique Number	CS_77_79/WELL/1015
WELL.         H. B. LEISMER                  : Well_name    - WELL
LOC .         00/12-30-078-11W4/0            : Location     - LOCATION
UWI .         00/12-30-078-11W4/0            : Uwi          - UNIQUE WELL ID
ENTR.         JHS                            : Entered      - ENTERED BY
SRVC.         SCHLUMBERGER                   : Scn          - SERVICE COMPANY
STRT.M        245                            : top_depth    - START DEPTH
STOP.M        485                            : bot_depth    - STOP DEPTH
STEP.M        0.25                           : increment    - STEP LENGTH
 NULL. -999.2500:NULL Value
~CURVE INFORMATION BLOCK
#MNEM UNIT       ERCB CURVE CODE    CURVE DESCRIPTION
#-----------   ------------------   ----------------------------------
DEPT.M        00 001 00 00         : DEPTH        - DEPTH
DPHI.V/V      00 890 00 00         : PHID         - DENSITY POROSITY (LIMESTONE)
NPHI.V/V      00 330 00 00         : PHIN         - NEUTRON POROSITY (LIMESTONE)
GR  .API      00 310 00 00         : GR           - GAMMA RAY
ILD .OHMM     00 120 00 00         : RESD         - DEEP RESISTIVITY (DIL)
RHOB.KG/M3    00 350 00 00         : DENS         - BULK DENSITY
~PARAMETER INFORMATION
#MNEM.UNIT           DATA             DESCRIPTION OF MNEMONIC
#---------         -----------     ------------------------------
GL  .M        683                  : gl           - GROUND LEVEL ELEVATION
EREF.M        687.9                : kb           - ELEVATION OF DEPTH REFERENCE
DATM.M        687.9                : datum        - DATUM ELEVATION
TDD .M        488                  : tdd          - TOTAL DEPTH DRILLER
RUN .         ONE                  : Run          - RUN NUMBER
ENG .         BILL                 : Engineer     - RECORDING ENGINEER
WIT .         JIM                  : Witness      - WITNESSED BY
MUD .         GEL                  : Mud_type     - MUD TYPE
MATR.         LIMESTONE            : Logunit      - NEUTRON MATRIX
TMAX.C        27.8                 : BHT          - MAXIMUM RECORDED TEMPERATURE
BHTD.M        488                  : BHTDEP       - MAXIMUM RECORDED TEMPERATURE
MATR.         1                    : LOGUNIT      - NEUTRON MATRIX
RMT .C        25                   : MDTP         - TEMPERATURE OF MUD
NEUT.         1                    : NEUTRON      - NEUTRON TYPE
RESI.         0                    : RESIST       - RESISTIVITY TYPE
RMC .OHMM     0.25                 : RMC          - RESISTIVITY OF MUD CAKE
RMF .OHMM     0.25                 : RMF          - RESISTIVITY OF MUD FILTRATE
SUFT.C        15                   : SUFT         - SURFACE TEMPERATURE
~A  DEPTH     PHID     PHIN       GR     RESD     DENS
# ...
  427.500    0.232    0.478   85.200    5.049 2313.860
  427.750    0.238    0.480   85.209    5.659 2303.390
  428.000    0.218    0.479   80.920    6.588 2337.080
  428.250    0.207    0.434   72.944    7.247 2356.060
  428.500    0.197    0.396   70.498    6.722 2372.920
  428.750    0.216    0.409   72.974    5.567 2341.440
  429.000    0.233    0.422   77.290    4.523 2312.050
  429.250    0.218    0.442   82.838    3.676 2337.330
  429.500    0.219    0.461   86.540    3.410 2335.280
  429.750    0.226    0.488   86.556    3.412 2322.710
  430.000    0.245    0.504   89.646    3.479 2291.220
  430.250    0.231    0.492   90.270    3.826 2314.410
  430.500    0.234    0.504   87.825    4.130 2310.250
  430.750    0.247    0.493   87.841    4.292 2287.170
  431.000    0.237    0.488   87.858    4.295 2304.040
  431.250    0.225    0.457   84.798    4.298 2325.110
  431.500    0.214    0.451   82.354    4.220 2344.080
  431.750    0.224    0.467   81.755    4.303 2327.310
  432.000    0.245    0.486   82.382    4.471 2291.630
  432.250    0.229    0.479   83.012    5.012 2319.000
  432.500    0.216    0.460   83.027    5.618 2340.070
  432.750    0.211    0.459   82.430    5.950 2348.530
  433.000    0.204    0.455   83.054    5.954 2361.200
  433.250    0.193    0.446   83.068    5.957 2380.170
  433.500    0.174    0.452   81.854    5.962 2411.760
  433.750    0.161    0.472   83.096    6.078 2434.930
  434.000    0.190    0.476   77.579    6.317 2384.520
  434.250    0.214    0.456   78.821    6.817 2344.620
  434.500    0.210    0.450   81.910    7.937 2350.980
  434.750    0.219    0.446   78.237    9.596 2336.320
  435.000    0.232    0.431   73.333   10.962 2313.250
  435.250    0.236    0.414   68.429   12.288 2307.000
  435.500    0.238    0.413   69.677   13.774 2302.820
  435.750    0.254    0.410   72.147   14.865 2275.540
  436.000    0.261    0.397   69.087   16.984 2262.980
  436.250    0.253    0.387   63.568   20.531 2277.740
  436.500    0.275    0.410   56.820   26.777 2239.940
  436.750    0.279    0.430   51.305   32.995 2233.690
  437.000    0.293    0.421   51.315   36.293 2208.510
  437.250    0.310    0.401   54.407   31.810 2179.130
  437.500    0.304    0.390   58.113   25.361 2189.690
  437.750    0.299    0.390   61.814   22.230 2198.150
  438.000    0.293    0.414   64.898   19.854 2208.710
  438.250    0.269    0.406   68.601   16.442 2250.810
  438.500    0.256    0.412   69.230   13.875 2271.880
  438.750    0.244    0.430   71.704   11.709 2292.950
  439.000    0.234    0.418   76.023    9.882 2309.820
  439.250    0.246    0.416   80.340    8.827 2288.850
  439.500    0.213    0.418   87.732    8.189 2345.660
  439.750    0.195    0.439   91.433    8.349 2377.250
  440.000    0.208    0.439   91.447    9.720 2354.180
  440.250    0.214    0.452   93.308   12.439 2343.710
  440.500    0.217    0.438   92.094   16.532 2339.550
  440.750    0.229    0.432   83.499   22.819 2318.580
  441.000    0.240    0.432   70.604   31.499 2299.700
  441.250    0.265    0.440   60.167   35.307 2257.700
  441.500    0.283    0.417   52.805   32.757 2226.220
  441.750    0.287    0.398   50.360   27.125 2219.960
  442.000    0.289    0.386   54.678   20.051 2215.800
  442.250    0.277    0.390   63.302   16.604 2236.880
  442.500    0.255    0.379   67.001   14.829 2274.770
  442.750    0.199    0.375   73.780   13.499 2369.430
  443.000    0.183    0.397   76.256   13.255 2396.810
  443.250    0.236    0.397   76.881   13.775 2306.460
  443.500    0.226    0.399   75.666   14.588 2323.330
  443.750    0.217    0.441   72.606   16.353 2338.090
  444.000    0.230    0.460   70.162   19.036 2317.110
  444.250    0.263    0.422   68.950   25.784 2260.400
  444.500    0.262    0.406   68.348   36.963 2262.550
  444.750    0.252    0.451   65.288   47.301 2279.420
  445.000    0.350    0.455   60.386   54.034 2111.270
  445.250    0.329    0.418   61.629   52.060 2147.060
  445.500    0.322    0.414   70.251   43.934 2159.730
  445.750    0.333    0.434   69.036   39.992 2140.860
  446.000    0.321    0.413   62.286   43.170 2161.930
  446.250    0.302    0.408   61.687   44.023 2193.510
  446.500    0.287    0.403   62.317   43.214 2218.790
  446.750    0.270    0.394   54.953   41.634 2248.270
  447.000    0.280    0.392   43.901   36.497 2231.510
  447.250    0.287    0.366   38.999   33.216 2218.940
  447.500    0.272    0.342   47.618   26.487 2244.220
  447.750    0.260    0.344   57.471   21.520 2265.300
  448.000    0.260    0.369   60.560   17.487 2265.340
  448.250    0.264    0.387   62.417   14.757 2259.080
  448.500    0.262    0.360   67.963   12.455 2261.240
  448.750    0.228    0.347   74.740   10.917 2320.150
  449.000    0.207    0.362   78.443   10.517 2355.940
  449.250    0.192    0.377   81.530   10.724 2381.220
  449.500    0.189    0.391   84.008   10.935 2387.580
  449.750    0.181    0.390   84.636   11.805 2400.250
  450.000    0.166    0.398   82.804   12.741 2425.530
  450.250    0.182    0.389   76.670   13.494 2398.250
  450.500    0.206    0.410   71.152   13.757 2358.340
  450.750    0.236    0.410   69.936   13.508 2305.830
  451.000    0.236    0.390   67.491   13.265 2305.880
  451.250    0.225    0.378   66.280   12.778 2324.850
  451.500    0.214    0.392   73.669   12.312 2343.830
  451.750    0.203    0.410   75.526   12.794 2362.800
  452.000    0.194    0.392   76.156   13.550 2377.570
  452.250    0.197    0.376   75.556   14.081 2373.420
  452.500    0.213    0.362   74.345   14.360 2346.130
  452.750    0.228    0.384   73.129   14.368 2320.940
  453.000    0.229    0.418   75.600   14.379 2318.900
  453.250    0.236    0.417   83.611   14.384 2306.330
  453.500    0.245    0.396   87.923   14.393 2291.660
  453.750    0.246    0.409   94.699   13.870 2289.600
  454.000    0.227    0.398  102.091   13.618 2321.190
  454.250    0.213    0.386  109.483   13.625 2346.480
  454.500    0.211    0.382  115.031   13.894 2348.620
  454.750    0.224    0.381  116.274   13.642 2327.650
  455.000    0.233    0.410  120.594   12.655 2310.870
  455.250    0.222    0.399  118.762   12.191 2329.860
  455.500    0.224    0.404  124.309   11.970 2327.800
  455.750    0.215    0.413  134.159   12.677 2342.570
  456.000    0.207    0.404  143.395   15.918 2355.230
  456.250    0.200    0.416  134.188   19.614 2367.890
  456.500    0.188    0.429  115.760   21.172 2388.970
  456.750    0.186    0.420  101.637   21.183 2391.120
  457.000    0.232    0.419   87.511   21.197 2313.370
  457.250    0.263    0.408   72.155   21.618 2260.860
  457.500    0.279    0.393   69.098   22.891 2233.580
  457.750    0.245    0.378   77.105   26.148 2290.390
  458.000    0.217    0.406   81.421   33.463 2338.800
  458.250    0.218    0.405   82.664   45.323 2336.750
  458.500    0.231    0.405   75.302   51.779 2315.780
  458.750    0.255    0.427   67.324   49.892 2273.770
  459.000    0.310    0.410   64.266   49.912 2179.210
  459.250    0.298    0.410   64.282   53.874 2200.280
  459.500    0.293    0.398   67.983   51.907 2208.740
  459.750    0.282    0.380   67.997   47.250 2227.730
  460.000    0.278    0.362   60.635   44.665 2234.070
  460.250    0.297    0.377   55.116   43.032 2202.580
  460.500    0.305    0.389   58.205   45.577 2187.910
  460.750    0.291    0.394   61.295   51.083 2213.200
  461.000    0.282    0.413   57.621   62.948 2227.960
  461.250    0.271    0.424   52.102   88.546 2246.940
  461.500    0.282    0.426   46.582  117.683 2228.060
  461.750    0.306    0.429   41.063  147.784 2186.060
  462.000    0.319    0.410   37.392  150.703 2165.080
  462.250    0.308    0.406   35.560  139.819 2184.060
  462.500    0.310    0.417   32.499  137.253 2179.910
  462.750    0.320    0.429   31.284  156.813 2163.130
  463.000    0.323    0.396   28.840  166.050 2156.880
  463.250    0.330    0.376   31.316  148.322 2146.410
  463.500    0.328    0.384   33.789   99.745 2148.570
  463.750    0.326    0.402   34.419   41.789 2152.830
