~VERSION INFORMATION
 VERS.                 2.0:   CWLS LOG ASCII STANDARD -VERSION 2.0
 WRAP.                  NO:   ONE LINE PER DEPTH STEP
~WELL INFORMATION BLOCK
#MNEM.UNIT           DATA                    DESCRIPTION OF MNEMONIC
#---------    -------------------            -------------------------------
# Generated from Intellog Unique Number	CW_76_78/WELL/2819
NULL.         -999.25                        : NULL_VALUE
WELL.         ATKINSON MARTEN HILLS 11-30    : Well_name    - WELL              
LOC .         00/11-30-078-22W4/0            : Location     - LOCATION          
UWI .         00/11-30-078-22W4/0            : Uwi          - UNIQUE WELL ID    
ENTR.         JJ                             : Entered      - ENTERED BY        
SRVC.         SCHLUMBERGER                   : Scn          - SERVICE COMPANY   
DATE.         23 JAN 73                      : Date         - LOG DATE          
STRT.M        335.28                         : top_depth    - START DEPTH       
STOP.M        463.28                         : bot_depth    - STOP DEPTH        
STEP.M        0.25                           : increment    - STEP LENGTH       
~CURVE INFORMATION BLOCK
#MNEM UNIT       ERCB CURVE CODE    CURVE DESCRIPTION
#-----------   ------------------   ----------------------------------
DEPT.M        00 001 00 00         : DEPTH        - DEPTH                       
ILD .OHMM     00 120 00 00         : RESD         - DEEP RESISTIVITY (DIL)      
GR  .API      00 310 00 00         : GR           - GAMMA RAY                   
DPHI.V/V      00 890 00 00         : PHID         - DENSITY POROSITY (SANDSTONE)
~PARAMETER INFORMATION       
#MNEM.UNIT           DATA             DESCRIPTION OF MNEMONIC
#---------         -----------     ------------------------------
GL  .M        565.099              : gl           - GROUND LEVEL ELEVATION      
EREF.M        569.062              : kb           - ELEVATION OF DEPTH REFERENCE
DATM.M        565.099              : datum        - DATUM ELEVATION             
TDD .M        467.868              : tdd          - TOTAL DEPTH DRILLER         
RUN .         ONE                  : Run          - RUN NUMBER                  
ENG .         MACIJUK              : Engineer     - RECORDING ENGINEER          
WIT .         DEAN                 : Witness      - WITNESSED BY                
BASE.         EDM                  : Branch       - HOME BASE OF LOGGING UNIT   
MUD .         GEL                  : Mud_type     - MUD TYPE                    
MATR.         SANDSTONE            : Logunit      - NEUTRON MATRIX              
TMAX.C        18.8889              : BHT          - MAXIMUM RECORDED TEMPERATURE
BHTD.M        468.478              : BHTDEP       - MAXIMUM RECORDED TEMPERATURE
RMT .C        16.6667              : MDTP         - TEMPERATURE OF MUD          
MUDD.KG/M     1068                 : MWT          - MUD DENSITY                 
NEUT.         1                    : NEUTRON      - NEUTRON TYPE                
RESI.         0                    : RESIST       - RESISTIVITY TYPE            
RM  .OHMM     2.43                 : RM           - RESISTIVITY OF MUD          
RMC .OHMM     0                    : RMC          - RESISTIVITY OF MUD CAKE     
RMF .OHMM     0                    : RMF          - RESISTIVITY OF MUD FILTRATE 
SUFT.C        5                    : SUFT         - SURFACE TEMPERATURE         
~A  DEPTH     RESD       GR     PHID
# ...
  389.530   16.395   64.548    0.225
  389.780   16.517   63.455    0.211
  390.030   16.844   65.237    0.223
  390.280   17.206   66.592    0.233
  390.530   17.430   67.822    0.220
  390.780   17.451   68.871    0.200
  391.030   17.294   66.980    0.187
  391.280   17.153   62.825    0.221
  391.530   16.878   62.036    0.243
  391.780   16.574   65.900    0.266
  392.030   16.215   64.132    0.271
  392.280   15.674   63.284    0.261
  392.530   15.055   63.964    0.240
  392.780   14.691   65.992    0.236
  393.030   14.595   66.488    0.240
  393.280   14.759   68.884    0.251
  393.530   15.203   72.871    0.244
  393.780   15.508   70.797    0.237
  394.030   15.267   69.764    0.249
  394.280   15.169   70.199    0.231
  394.530   15.635   71.431    0.197
  394.780   16.264   72.663    0.171
  395.030   16.666   66.916    0.163
  395.280   16.888   65.883    0.182
  395.530   16.693   66.195    0.203
  395.780   16.250   70.000    0.203
  396.030   15.123   78.027    0.179
  396.280   13.636   81.523    0.196
  396.530   12.309   84.837    0.177
  396.780   11.286   89.804    0.178
  397.030   10.746   91.281    0.189
  397.280   10.567   90.615    0.201
  397.530   10.770   91.479    0.184
  397.780   11.132   95.038    0.148
  398.030   11.540   96.269    0.147
  398.280   11.703   88.869    0.174
  398.530   11.724   80.060    0.190
  398.780   11.709   79.946    0.194
  399.030   11.631   83.013    0.188
  399.280   11.574   89.571    0.172
  399.530   11.493   84.743    0.151
  399.780   11.516   79.363    0.156
  400.030   11.596   82.983    0.172
  400.280   11.660   90.704    0.186
  400.530   11.566   85.323    0.199
  400.780   11.363   82.086    0.179
  401.030   10.984   87.665    0.168
  401.280   10.528   87.549    0.160
  401.530   10.342   88.660    0.145
  401.780   10.145   90.931    0.144
  402.030   10.169   86.715    0.159
  402.280   10.316   83.293    0.176
  402.530   10.532   85.198    0.193
  402.780   10.961   84.043    0.206
  403.030   11.365   79.642    0.215
  403.280   11.666   80.200    0.213
  403.530   12.133   82.963    0.197
  403.780   12.677   84.746    0.179
  404.030   13.246   82.305    0.159
  404.280   13.425   80.782    0.160
  404.530   13.571   77.850    0.157
  404.780   13.511   81.592    0.143
  405.030   12.208   88.702    0.119
  405.280   11.162   95.321    0.094
  405.530   11.167   99.002    0.057
  405.780   12.212   86.091    0.012
  406.030   15.454   73.793    0.010
  406.280   22.945   59.841    0.043
  406.530   27.722   55.746    0.095
  406.780   28.144   72.774    0.116
  407.030   25.106   85.332    0.142
  407.280   20.500   92.442    0.158
  407.530   16.598   98.817    0.184
  407.780   13.397  101.272    0.186
  408.030   12.052  103.116    0.182
  408.280   11.772  102.695    0.176
  408.530   11.855   95.785    0.169
  408.780   12.742   89.241    0.163
  409.030   14.316   84.841    0.162
  409.280   15.586   81.481    0.168
  409.530   16.936   78.549    0.177
  409.780   18.106   78.190    0.192
  410.030   18.470   81.258    0.192
  410.280   18.474   83.347    0.178
  410.530   18.301   83.845    0.164
  410.780   18.159   83.300    0.152
  411.030   17.917   81.655    0.153
  411.280   17.520   76.703    0.166
  411.530   17.157   78.976    0.194
  411.780   16.938   83.208    0.165
  412.030   16.075   84.073    0.151
  412.280   15.290   82.856    0.140
  412.530   14.507   82.618    0.112
  412.780   13.726   81.952    0.149
  413.030   12.862   80.368    0.175
  413.280   12.159   86.683    0.172
  413.530   11.639   91.342    0.150
  413.780   11.744   89.206    0.170
  414.030   12.347   77.825    0.218
  414.280   13.899   67.854    0.243
  414.530   16.880   61.127    0.251
  414.780   22.338   55.318    0.239
  415.030   29.325   53.244    0.252
  415.280   29.070   50.925    0.263
  415.530   36.665   45.299    0.274
  415.780   47.922   39.981    0.299
  416.030   57.546   38.458    0.300
  416.280   63.728   37.852    0.285
  416.530   68.720   35.657    0.278
  416.780   70.885   34.071    0.272
  417.030   68.396   33.406    0.263
  417.280   63.506   33.841    0.261
  417.530   58.791   32.134    0.269
  417.780   51.071   30.612    0.266
  418.030   40.928   32.088    0.266
  418.280   30.480   33.565    0.277
  418.530   27.121   31.307    0.293
  418.780   24.688   32.232    0.290
  419.030   22.519   35.974    0.281
  419.280   20.751   38.676    0.268
  419.530   19.685   38.378    0.263
  419.780   18.802   38.140    0.250
  420.030   18.338   40.657    0.261
  420.280   17.981   42.501    0.269
  420.530   18.121   41.285    0.263
  420.780   18.584   41.782    0.248
  421.030   19.210   45.647    0.232
  421.280   19.107   48.715    0.243
  421.530   18.025   51.538    0.260
  421.780   16.840   51.547    0.270
  422.030   16.233   49.961    0.249
  422.280   15.572   52.479    0.197
  422.530   15.275   57.017    0.177
  422.780   14.851   58.310    0.136
  423.030   14.167   58.563    0.095
  423.280   13.044   59.182    0.091
  423.530   11.937   70.087    0.123
  423.780    9.804   77.625    0.162
  424.030    8.398   87.062    0.198
  424.280    8.403   90.681    0.221
  424.530   10.073   79.975    0.246
  424.780   12.486   69.573    0.258
  425.030   25.864   57.091    0.264
  425.280   36.246   48.711    0.257
  425.530   41.962   51.351    0.233
  425.780   43.975   50.930    0.214
  426.030   42.950   53.571    0.178
  426.280   36.373   59.271    0.158
  426.530   27.802   65.585    0.157
  426.780   21.931   70.735    0.184
  427.030   21.005   78.701    0.234
  427.280   22.174   68.975    0.257
  427.530   30.604   58.329    0.285
  427.780   37.586   49.582    0.299
  428.030   47.962   39.915    0.278
  428.280   95.117   40.107    0.278
  428.530  152.664   41.154    0.276
  428.780  190.626   40.489    0.272
  429.030  188.820   41.843    0.267
  429.280  180.620   41.545    0.253
  429.530  162.029   39.959    0.249
  429.780  133.045   38.498    0.241
  430.030  114.853   38.873    0.242
  430.280  100.457   42.003    0.252
  430.530   87.860   46.176    0.258
  430.780   76.862   48.017    0.254
  431.030   67.063   50.964    0.247
  431.280   59.862   53.787    0.244
  431.530   52.061   54.775    0.241
  431.780   46.459   54.292    0.236
  432.030   42.056   54.238    0.230
  432.280   39.051   54.857    0.222
  432.530   37.045   55.967    0.213
  432.780   36.240   56.955    0.204
  433.030   35.833   58.003    0.201
  433.280   34.827   59.111    0.192
  433.530   34.221   60.834    0.184
  433.780   33.215   61.392    0.198
  434.030   32.608   62.379    0.195
  434.280   31.603   64.039    0.189
  434.530   30.596   65.699    0.199
  434.780   29.790   66.380    0.199
  435.030   30.383   71.285    0.175
  435.280   23.425   70.742    0.150
  435.530   20.850   71.790    0.121
  435.780   17.877   75.349    0.146
  436.030   15.222   79.948    0.148
  436.280   13.664   76.649    0.143
  436.530   12.425   57.432    0.149
  436.780   11.764   63.378    0.140
  437.030   11.880   73.671    0.116
  437.280   12.655   80.108    0.130
  437.530   13.071   77.912    0.115
  437.780   12.011   76.511    0.126
  438.030   11.271   74.007    0.117
  438.280   11.088   69.546    0.127
  438.530   11.543   67.104    0.140
  438.780   12.298   58.969    0.219
  439.030   13.730   51.139    0.283
  439.280   15.023   38.106    0.428
  439.530   15.897   37.256    0.425
  439.780   15.994   41.978    0.322
  440.030   11.984   49.332    0.303
  440.280   10.505   63.115    0.289
  440.530    8.947   74.878    0.309
  440.780    7.768   81.375    0.290
  441.030    6.988   86.464    0.271
  441.280    7.463   86.716    0.240
  441.530    6.742   84.090    0.206
  441.780    6.261   79.812    0.174
  442.030    5.979   90.656    0.153
  442.280    5.936   98.990    0.141
  442.530    5.952   92.324    0.167
  442.780    6.030   82.107    0.203
  443.030    6.246   83.033    0.229
  443.280    6.561   89.164    0.242
  443.530    6.957   94.008    0.197
