~VERSION INFORMATION
 VERS.                 2.0:   CWLS LOG ASCII STANDARD -VERSION 2.0
 WRAP.                  NO:   ONE LINE PER DEPTH STEP
~WELL INFORMATION BLOCK
#MNEM.UNIT           DATA                    DESCRIPTION OF MNEMONIC
#---------    -------------------            -------------------------------
# Generated from Intellog Unique Number	CW_70_72/WELL/1057
NULL.         -999.25                        : NULL_VALUE
WELL.         MIKAS AMOCO CALLING LAKE 11-12 : Well_name    - WELL              
LOC .         11-12-072-20W4                 : Location     - LOCATION          
UWI .         00/11-12-072-20W4/0            : Uwi          - UNIQUE WELL ID    
ENTR.         JAYE                           : Entered      - ENTERED BY        
SRVC.         SCHLUMBERGER                   : Scn          - SERVICE COMPANY   
DATE.         24 FEB 73                      : Date         - LOG DATE          
STRT.M        316.992                        : top_depth    - START DEPTH       
STOP.M        518.242                        : bot_depth    - STOP DEPTH        
STEP.M        0.25                           : increment    - STEP LENGTH       
~CURVE INFORMATION BLOCK
#MNEM UNIT       ERCB CURVE CODE    CURVE DESCRIPTION
#-----------   ------------------   ----------------------------------
DEPT.M        00 001 00 00         : DEPTH        - DEPTH                       
DPHI.V/V      00 890 00 00         : PHID         - DENSITY POROSITY (SANDSTONE)
NPHI.V/V      00 330 00 00         : PHIN         - NEUTRON POROSITY (SANDSTONE)
GR  .API      00 310 00 00         : GR           - GAMMA RAY                   
CALI.MM       00 280 01 00         : CAL          - CALIPER                     
ILD .OHMM     00 120 00 00         : RESD         - DEEP RESISTIVITY (DLL)      
~PARAMETER INFORMATION       
#MNEM.UNIT           DATA             DESCRIPTION OF MNEMONIC
#---------         -----------     ------------------------------
GL  .M        594.055              : gl           - GROUND LEVEL ELEVATION      
EREF.M        597.408              : kb           - ELEVATION OF DEPTH REFERENCE
DATM.M        594.055              : datum        - DATUM ELEVATION             
TDD .M        542.544              : tdd          - TOTAL DEPTH DRILLER         
RUN .         ONE                  : Run          - RUN NUMBER                  
ENG .         LYE                  : Engineer     - RECORDING ENGINEER          
WIT .         COVENEY/BOUPLAND     : Witness      - WITNESSED BY                
BASE.         R.D.                 : Branch       - HOME BASE OF LOGGING UNIT   
MUD .         GEL CHEM             : Mud_type     - MUD TYPE                    
MATR.         SANDSTONE            : Logunit      - NEUTRON MATRIX              
TMAX.C        28.8889              : BHT          - MAXIMUM RECORDED TEMPERATURE
BHTD.M        542.239              : BHTDEP       - MAXIMUM RECORDED TEMPERATURE
RMT .C        18.8889              : MDTP         - TEMPERATURE OF MUD          
MUDD.KG/M     1104                 : MWT          - MUD DENSITY                 
NEUT.         1                    : NEUTRON      - NEUTRON TYPE                
RESI.         1                    : RESIST       - RESISTIVITY TYPE            
RM  .OHMM     4.29                 : RM           - RESISTIVITY OF MUD          
RMC .OHMM     0                    : RMC          - RESISTIVITY OF MUD CAKE     
RMF .OHMM     5.03                 : RMF          - RESISTIVITY OF MUD FILTRATE 
SUFT.C        -17.7778             : SUFT         - SURFACE TEMPERATURE         
~A  DEPTH     PHID     PHIN       GR      CAL     RESD
  316.992    0.250    0.580  106.883  172.819    2.727
  317.242    0.246    0.582  107.030  167.478    2.670
  317.492    0.236    0.587  106.684  161.415    2.642
  317.742    0.230    0.596  104.140  160.415    2.663
  317.992    0.233    0.603  100.618  165.622    2.760
  318.242    0.249    0.587   97.221  171.866    2.811
  318.492    0.240    0.560   93.944  180.279    2.858
  318.742    0.209    0.584   93.538  181.557    2.877
  318.992    0.242    0.607   94.844  180.561    2.901
  319.242    0.264    0.568   92.483  186.700    2.866
  319.492    0.253    0.563   88.902  186.529    2.718
  319.742    0.264    0.532   85.747  177.362    2.595
  319.992    0.244    0.451   82.471  168.401    2.590
  320.242    0.161    0.419   88.906  164.409    2.753
  320.492    0.205    0.437   94.790  163.406    3.132
  320.742    0.246    0.411  100.003  166.861    3.521
  320.992    0.232    0.427  103.629  170.520    3.986
  321.242    0.213    0.443   99.011  175.828    4.324
  321.492    0.186    0.455   94.145  181.962    4.472
  321.742    0.207    0.471   90.747  177.348    4.533
  321.992    0.237    0.440   88.387  172.832    4.432
  322.242    0.224    0.452   84.990  168.945    4.319
  322.492    0.233    0.487   79.882  166.703    4.173
  322.742    0.245    0.506   73.366  164.467    4.033
  322.992    0.222    0.468   66.304  162.649    4.018
  323.242    0.207    0.466   67.549  162.261    4.170
  323.492    0.201    0.470   72.273  162.309    4.401
  323.742    0.184    0.452   76.692  162.133    4.647
  323.992    0.207    0.440   78.973  162.070    4.847
  324.242    0.226    0.443   81.132  162.099    4.997
  324.492    0.238    0.464   83.660  162.242    5.013
  324.742    0.244    0.508   84.597  162.287    4.901
  324.992    0.235    0.518   90.298  162.326    4.640
  325.242    0.237    0.500   88.427  162.356    4.319
  325.492    0.245    0.491   83.807  162.603    4.123
  325.742    0.255    0.501   83.462  162.433    3.911
  325.992    0.251    0.508   81.040  162.361    3.798
  326.242    0.286    0.502   80.330  162.291    3.764
  326.492    0.288    0.494   82.430  162.538    3.731
  326.742    0.283    0.481   84.283  163.403    3.705
  326.992    0.255    0.483   86.932  166.748    3.642
  327.242    0.241    0.494   89.824  172.368    3.561
  327.492    0.215    0.516   92.532  180.679    3.458
  327.742    0.220    0.508   93.715  176.062    3.342
  327.992    0.226    0.448   96.973  164.517    3.307
  328.242    0.239    0.423   94.857  162.386    3.369
  328.492    0.219    0.416   90.726  164.800    3.514
  328.742    0.209    0.423   94.168  169.493    3.812
  328.992    0.203    0.436   94.617  174.283    4.184
  329.242    0.209    0.428   90.975  176.387    4.531
  329.492    0.237    0.397   88.129  168.052    4.735
  329.742    0.255    0.377   85.034  162.916    4.865
  329.992    0.247    0.385   80.841  162.021    4.956
  330.242    0.245    0.394   77.259  161.748    5.014
  330.492    0.254    0.397   73.617  161.579    5.046
  330.742    0.263    0.408   69.852  161.929    5.053
  330.992    0.301    0.436   65.354  161.963    4.992
  331.242    0.319    0.418   64.522  162.103    4.607
  331.492    0.305    0.416   65.825  160.897    4.179
  331.742    0.294    0.428   71.893  158.865    3.773
  331.992    0.289    0.432   77.657  158.697    3.517
  332.242    0.285    0.430   80.182  159.973    3.393
  332.492    0.276    0.428   81.609  161.772    3.346
  332.742    0.258    0.422   82.914  162.434    3.408
  332.992    0.242    0.404   84.401  161.849    3.568
  333.242    0.243    0.418   86.683  160.848    3.767
  333.492    0.253    0.428   88.173  160.470    3.936
  333.742    0.262    0.442   90.758  160.408    4.112
  333.992    0.271    0.457   95.299  160.863    4.275
  334.242    0.279    0.463  100.268  161.616    4.407
  334.492    0.278    0.470  105.176  162.895    4.467
  334.742    0.263    0.487  111.061  164.485    4.412
  334.992    0.188    0.522  116.519  166.279    4.120
  335.242    0.159    0.568  117.519  168.484    3.650
  335.492    0.171    0.595  116.623  172.244    3.250
  335.742    0.189    0.606  116.461  177.868    2.944
  335.992    0.213    0.609  120.515  176.042    2.712
  336.242    0.203    0.601  120.842  167.601    2.598
  336.492    0.186    0.581  123.917  167.325    2.532
  336.742    0.222    0.564  119.541  170.050    2.480
  336.992    0.216    0.554  120.907  175.468    2.438
  337.242    0.191    0.545  125.387  176.123    2.437
  337.492    0.232    0.533  121.135  173.992    2.512
  337.742    0.218    0.503  113.340  174.442    2.643
  337.992    0.204    0.469  109.268  172.722    2.877
  338.242    0.185    0.461  108.740  170.172    3.245
  338.492    0.204    0.468  109.617  173.725    3.834
  338.742    0.227    0.479  111.533  175.212    4.339
  338.992    0.219    0.501  113.814  179.901    4.854
  339.242    0.250    0.543  105.774  182.319    5.089
  339.492    0.299    0.554   96.208  169.632    4.859
  339.742    0.275    0.510   87.373  160.879    4.866
  339.992    0.256    0.469   87.089  156.985    5.120
  340.242    0.254    0.424   90.165  154.644    5.582
  340.492    0.259    0.396   90.188  154.059    5.934
  340.742    0.250    0.380   88.806  154.409    6.096
  340.992    0.222    0.393   89.132  154.966    6.063
  341.242    0.238    0.408   91.290  156.238    5.959
  341.492    0.226    0.423   93.634  158.035    5.847
  341.742    0.241    0.433   94.084  159.208    5.728
  341.992    0.257    0.464   89.586  159.452    5.668
  342.242    0.268    0.485   81.972  158.868    5.636
  342.492    0.260    0.491   79.919  157.561    5.587
  342.742    0.270    0.472   79.268  156.666    5.567
  342.992    0.274    0.489   79.046  159.914    5.574
  343.242    0.250    0.525   78.640  163.360    5.601
  343.492    0.251    0.530   79.455  163.500    5.647
  343.742    0.251    0.539   80.271  161.265    5.694
  343.992    0.261    0.554   76.570  159.439    5.550
  344.242    0.272    0.531   74.576  158.027    5.317
  344.492    0.290    0.510   75.941  157.967    5.025
  344.742    0.302    0.497   79.444  158.520    4.725
  344.992    0.308    0.489   82.458  159.178    4.519
  345.242    0.306    0.493   81.015  159.629    4.426
  345.492    0.291    0.510   79.999  160.282    4.462
  345.742    0.294    0.521   80.449  160.736    4.538
  345.992    0.287    0.501   81.935  161.081    4.622
  346.242    0.289    0.477   84.398  161.323    4.660
  346.492    0.268    0.452   88.147  162.085    4.604
  346.742    0.250    0.472   93.116  163.569    4.456
  346.992    0.210    0.507   98.513  167.124    4.240
  347.242    0.216    0.526  103.970  171.814    4.118
  347.492    0.233    0.516  106.741  173.298    4.075
  347.742    0.248    0.483  104.807  171.163    4.088
  347.992    0.255    0.456  103.485  168.923    4.178
  348.242    0.228    0.458  109.372  167.621    4.322
  348.492    0.228    0.476  115.745  167.240    4.469
  348.742    0.212    0.463  119.737  167.897    4.631
  348.992    0.224    0.470  123.484  170.214    4.765
  349.242    0.203    0.491  117.825  173.142    4.846
  349.492    0.200    0.510  107.342  177.936    4.779
  349.742    0.222    0.509   96.919  169.596    4.745
  349.992    0.226    0.463   99.568  169.426    4.908
  350.242    0.234    0.439  104.597  171.428    5.059
  350.492    0.248    0.442  105.657  169.810    5.066
  350.742    0.254    0.528  108.367  169.848    4.481
  350.992    0.233    0.570  115.107  171.849    3.889
  351.242    0.161    0.597  116.291  177.885    3.274
  351.492    0.190    0.569  117.655  182.376    2.862
  351.742    0.214    0.555  121.281  182.097    2.667
  351.992    0.225    0.577  125.028  173.962    2.582
  352.242    0.214    0.595  115.645  180.411    2.630
  352.492    0.228    0.567  107.604  178.693    2.758
  352.742    0.252    0.524   99.503  172.110    2.936
  352.992    0.267    0.493   90.303  164.079    3.207
  353.242    0.255    0.474   86.721  158.221    3.509
