~VERSION INFORMATION
 VERS.                 2.0:   CWLS LOG ASCII STANDARD -VERSION 2.0
 WRAP.                  NO:   ONE LINE PER DEPTH STEP
~WELL INFORMATION BLOCK
#MNEM.UNIT           DATA                    DESCRIPTION OF MNEMONIC
#---------    -------------------            -------------------------------
# Generated from Intellog Unique Number	CX_WELLS/WELL/2964
WELL.         ATCOR HANGINGSTONE             : Well_name    - WELL
LOC .         00/12-12-082-11W4/0            : Location     - LOCATION
UWI .         00/12-12-082-11W400            : Uwi          - UNIQUE WELL ID
ENTR.         T                              : Entered      - ENTERED BY
SRVC.         SCHLUMBERGER                   : Scn          - SERVICE COMPANY
STRT.M        260                            : top_depth    - START DEPTH
STOP.M        485                            : bot_depth    - STOP DEPTH
STEP.M        0.25                           : increment    - STEP LENGTH
 NULL. -999.2500:NULL Value
~CURVE INFORMATION BLOCK
#MNEM UNIT       ERCB CURVE CODE    CURVE DESCRIPTION
#-----------   ------------------   ----------------------------------
DEPT.M        00 001 00 00         : DEPTH        - DEPTH
GR  .API      00 310 00 00         : GR           - GAMMA RAY
NPHI.V/V      00 330 00 00         : PHIN         - NEUTRON POROSITY (SANDSTONE)
DPHI.V/V      00 890 00 00         : PHID         - DENSITY POROSITY (SANDSTONE)
ILD .OHMM     00 120 00 00         : RESD         - DEEP RESISTIVITY (OTHER)
~PARAMETER INFORMATION
#MNEM.UNIT           DATA             DESCRIPTION OF MNEMONIC
#---------         -----------     ------------------------------
GL  .M        705                  : gl           - GROUND LEVEL ELEVATION
EREF.M        706.4                : kb           - ELEVATION OF DEPTH REFERENCE
DATM.M        706.4                : datum        - DATUM ELEVATION
TDD .M        497                  : tdd          - TOTAL DEPTH DRILLER
RUN .         ONE                  : Run          - RUN NUMBER
ENG .         BILL                 : Engineer     - RECORDING ENGINEER
WIT .         JIM                  : Witness      - WITNESSED BY
MUD .         GEL                  : Mud_type     - MUD TYPE
MATR.         SANDSTONE            : Logunit      - NEUTRON MATRIX
TMAX.C        20                   : BHT          - MAXIMUM RECORDED TEMPERATURE
BHTD.M        496                  : BHTDEP       - MAXIMUM RECORDED TEMPERATURE
MATR.         1                    : LOGUNIT      - NEUTRON MATRIX
RMT .C        20                   : MDTP         - TEMPERATURE OF MUD
NEUT.         1                    : NEUTRON      - NEUTRON TYPE
RESI.         7                    : RESIST       - RESISTIVITY TYPE
RMC .OHMM     2.3                  : RMC          - RESISTIVITY OF MUD CAKE
RMF .OHMM     9.7                  : RMF          - RESISTIVITY OF MUD FILTRATE
SUFT.C        4                    : SUFT         - SURFACE TEMPERATURE
~A  DEPTH       GR     PHIN     PHID     RESD
  260.000   99.864    0.508    0.250    3.791
  260.250   95.141    0.501    0.255    4.014
  260.500   96.348    0.496    0.257    4.168
  260.750   98.168    0.485    0.261    4.410
  261.000   97.004    0.477    0.262    4.580
  261.250   95.834    0.474    0.263    4.672
  261.500   94.075    0.472    0.261    4.588
  261.750   89.345    0.471    0.258    4.592
  262.000   84.615    0.461    0.256    4.512
  262.250   84.052    0.454    0.252    4.689
  262.500   86.454    0.451    0.250    4.870
  262.750   87.667    0.461    0.247    5.059
  263.000   85.315    0.486    0.246    4.702
  263.250   82.361    0.516    0.253    4.291
  263.500   79.414    0.516    0.269    4.375
  263.750   72.901    0.486    0.318    6.826
  264.000   65.199    0.341    0.315   11.264
  264.250   59.881    0.332    0.313   14.612
  264.500   61.683    0.346    0.310   16.343
  264.750   65.280    0.367    0.319   17.288
  265.000   68.276    0.389    0.327   18.642
  265.250   71.867    0.402    0.331   19.004
  265.500   74.870    0.409    0.330   19.027
  265.750   77.272    0.412    0.326   18.695
  266.000   79.074    0.417    0.326   17.703
  266.250   76.126    0.424    0.325   16.154
  266.500   72.591    0.434    0.315   15.012
  266.750   70.232    0.438    0.306   14.480
  267.000   72.641    0.420    0.315   14.494
  267.250   76.232    0.404    0.309   13.981
  267.500   80.423    0.397    0.300   12.757
  267.750   78.064    0.393    0.295   12.773
  268.000   73.928    0.403    0.309   13.767
  268.250   67.415    0.433    0.408   15.116
  268.500   70.412    0.474    0.471   16.600
  268.750   77.569    0.558    0.467   18.914
  269.000   81.760    0.526    0.441   20.386
  269.250   84.763    0.498    0.338   21.565
  269.500   85.970    0.428    0.336   21.994
  269.750   87.778    0.424    0.338   21.225
  270.000   90.781    0.413    0.342   19.725
  270.250   92.582    0.404    0.351   18.335
  270.500   94.390    0.413    0.362   15.823
  270.750   95.009    0.424    0.367   13.409
  271.000   99.201    0.444    0.373   11.154
  271.250   98.631    0.446    0.285    9.629
  271.500   96.278    0.423    0.252    8.790
  271.750   93.331    0.406    0.231    8.633
  272.000   91.573    0.391    0.212    9.137
  272.250   95.170    0.393    0.196   10.034
  272.500   94.600    0.396    0.193   10.615
  272.750   89.864    0.392    0.194   11.229
  273.000   85.728    0.385    0.196   12.568
  273.250   76.838    0.392    0.210   13.295
  273.500   70.331    0.402    0.227   14.063
  273.750   69.167    0.401    0.249   14.887
  274.000   72.163    0.388    0.265   14.898
  274.250   73.971    0.381    0.269   15.191
  274.500   73.996    0.371    0.267   15.489
  274.750   73.426    0.370    0.273   15.507
  275.000   72.857    0.376    0.289   15.522
  275.250   68.126    0.395    0.223   15.533
  275.500   64.585    0.408    0.242   15.548
  275.750   61.044    0.401    0.257   15.853
  276.000   61.663    0.396    0.275   15.868
  276.250   62.876    0.388    0.300   16.184
  276.500   65.879    0.376    0.318   16.498
  276.750   67.680    0.366    0.314   16.822
  277.000   69.488    0.358    0.302   16.842
  277.250   72.491    0.361    0.271   16.854
  277.500   75.494    0.366    0.257   16.874
  277.750   77.295    0.372    0.242   16.284
  278.000   78.509    0.378    0.236   15.993
  278.250   80.329    0.381    0.244   15.147
  278.500   80.936    0.390    0.248   14.611
  278.750   81.555    0.382    0.252   14.628
  279.000   78.013    0.375    0.261   14.635
  279.250   76.261    0.382    0.254   14.649
  279.500   76.292    0.396    0.237   14.394
  279.750   76.899    0.401    0.227   14.143
  280.000   79.895    0.371    0.217   13.897
  280.250   84.087    0.365    0.207   12.924
  280.500   87.684    0.361    0.195   12.466
  280.750   91.275    0.364    0.191   12.022
  281.000   93.671    0.380    0.196   11.178
  281.250   90.129    0.398    0.206   11.188
  281.500   75.295    0.414    0.219   11.408
  281.750   72.354    0.420    0.244   11.632
  282.000   71.778    0.412    0.271   12.085
  282.250   70.615    0.410    0.278   12.549
  282.500   68.862    0.406    0.292   12.793
  282.750   67.104    0.406    0.299   13.291
  283.000   64.751    0.404    0.292   13.805
  283.250   62.392    0.400    0.274   14.342
  283.500   61.228    0.393    0.269   14.901
  283.750   65.420    0.385    0.274   14.912
  284.000   70.794    0.382    0.279   14.929
  284.250   75.573    0.384    0.271   14.662
  284.500   81.542    0.385    0.253   14.411
  284.750   78.595    0.385    0.246   14.160
  285.000   63.761    0.400    0.282   14.704
  285.250   50.115    0.392    0.314   15.852
  285.500   45.391    0.373    0.332   16.773
  285.750   43.633    0.373    0.331   18.770
  286.000   46.629    0.376    0.327   19.850
  286.250   51.403    0.381    0.333   20.618
  286.500   63.321    0.371    0.341   17.802
  286.750   69.883    0.368    0.333   16.544
  287.000   74.081    0.371    0.319   14.820
  287.250   75.288    0.376    0.308   13.035
  287.500   77.096    0.381    0.299   12.342
  287.750   78.303    0.375    0.288   12.125
  288.000   81.306    0.365    0.274   11.914
  288.250   82.520    0.360    0.266   11.931
  288.500   81.362    0.362    0.256   11.945
  288.750   79.003    0.370    0.244   12.174
  289.000   75.468    0.372    0.246   12.413
  289.250   74.892    0.363    0.258   12.425
  289.500   79.077    0.355    0.237   11.343
  289.750   82.674    0.357    0.221   10.936
  290.000   85.665    0.365    0.214    9.798
  290.250   95.205    0.371    0.219    8.614
  290.500  111.278    0.375    0.229    6.779
  290.750  115.463    0.430    0.249    7.307
  291.000  111.327    0.472    0.262    8.964
  291.250   95.898    0.485    0.274   11.629
  291.500   89.980    0.443    0.287   13.249
  291.750   88.816    0.424    0.305   15.100
  292.000   88.246    0.414    0.313   16.275
  292.250   87.676    0.404    0.302   16.905
  292.500   87.707    0.398    0.296   16.917
  292.750   87.726    0.398    0.298   16.026
  293.000   86.568    0.404    0.305   15.175
  293.250   85.404    0.412    0.311   14.907
  293.500   84.246    0.420    0.311   13.857
  293.750   86.642    0.430    0.278   12.881
  294.000   97.365    0.425    0.250   11.119
  294.250  101.557    0.399    0.206    9.422
  294.500  103.359    0.404    0.190    8.598
  294.750  103.396    0.411    0.178    9.269
  295.000  104.009    0.424    0.164    9.625
  295.250  104.033    0.421    0.160   10.375
  295.500   98.709    0.414    0.189   11.182
  295.750  101.111    0.404    0.202   12.988
  296.000  101.736    0.405    0.255   13.484
  296.250   98.195    0.412    0.284   14.809
  296.500   93.465    0.422    0.281   15.378
  296.750   88.728    0.432    0.289   15.683
  297.000   83.404    0.429    0.301   15.995
  297.250   83.429    0.427    0.318   16.007
  297.500   84.048    0.428    0.307   16.026
  297.750   88.239    0.422    0.282   16.340
  298.000   94.207    0.416    0.277   14.911
  298.250   94.833    0.414    0.280   14.379
  298.500   93.663    0.418    0.276   13.616
  298.750   90.716    0.418    0.266   13.382
  299.000   87.775    0.422    0.266   13.395
  299.250   85.422    0.424    0.274   13.407
  299.500   84.258    0.425    0.281   13.423
  299.750   85.478    0.425    0.288   13.433
  300.000   87.279    0.421    0.286   13.448
  300.250   89.081    0.418    0.271   13.458
  300.500   92.084    0.419    0.256   12.985
  300.750   96.275    0.423    0.249   11.848
  301.000  100.454    0.429    0.238   11.216
  301.250  105.828    0.436    0.236   10.235
  301.500  110.608    0.444    0.239    9.514
  301.750  113.016    0.441    0.239    9.009
  302.000  108.874    0.433    0.236    8.854
  302.250  101.773    0.427    0.244    9.197
  302.500   95.848    0.436    0.274   10.284
  302.750   86.957    0.448    0.285   12.617
  303.000   82.227    0.455    0.305   14.924
  303.250   83.440    0.444    0.323   15.787
