~VERSION INFORMATION
 VERS.                 2.0:   CWLS LOG ASCII STANDARD -VERSION 2.0
 WRAP.                  NO:   ONE LINE PER DEPTH STEP
~WELL INFORMATION BLOCK
#MNEM.UNIT           DATA                    DESCRIPTION OF MNEMONIC
#---------    -------------------            -------------------------------
# Generated from Intellog Unique Number	CS_77_79/WELL/929
WELL.         HOME OIL COMPANY LIMITED       : Well_name    - WELL
LOC .         00/10-04-077-07W4/0            : Location     - LOCATION
UWI .         00/10-04-077-07W4/0            : Uwi          - UNIQUE WELL ID
ENTR.         SP                             : Entered      - ENTERED BY
SRVC.         SCHLUMBERGER                   : Scn          - SERVICE COMPANY
STRT.M        140                            : top_depth    - START DEPTH
STOP.M        375                            : bot_depth    - STOP DEPTH
STEP.M        0.25                           : increment    - STEP LENGTH
 NULL. -999.2500:NULL Value
~CURVE INFORMATION BLOCK
#MNEM UNIT       ERCB CURVE CODE    CURVE DESCRIPTION
#-----------   ------------------   ----------------------------------
DEPT.M        00 001 00 00         : DEPTH        - DEPTH
DPHI.V/V      00 890 00 00         : PHID         - DENSITY POROSITY (LIMESTONE)
NPHI.V/V      00 330 00 00         : PHIN         - NEUTRON POROSITY (LIMESTONE)
GR  .API      00 310 00 00         : GR           - GAMMA RAY
ILD .OHMM     00 120 00 00         : RESD         - DEEP RESISTIVITY (DIL)
~PARAMETER INFORMATION
#MNEM.UNIT           DATA             DESCRIPTION OF MNEMONIC
#---------         -----------     ------------------------------
GL  .M        565.97               : gl           - GROUND LEVEL ELEVATION
EREF.M        569.42               : kb           - ELEVATION OF DEPTH REFERENCE
DATM.M        565.97               : datum        - DATUM ELEVATION
TDD .M        385                  : tdd          - TOTAL DEPTH DRILLER
RUN .         ONE                  : Run          - RUN NUMBER
ENG .         BILL                 : Engineer     - RECORDING ENGINEER
WIT .         JIM                  : Witness      - WITNESSED BY
MUD .         GEL                  : Mud_type     - MUD TYPE
MATR.         LIMESTONE            : Logunit      - NEUTRON MATRIX
TMAX.C        5                    : BHT          - MAXIMUM RECORDED TEMPERATURE
BHTD.M        385                  : BHTDEP       - MAXIMUM RECORDED TEMPERATURE
MATR.         1                    : LOGUNIT      - NEUTRON MATRIX
RMT .C        25                   : MDTP         - TEMPERATURE OF MUD
NEUT.         1                    : NEUTRON      - NEUTRON TYPE
RESI.         0                    : RESIST       - RESISTIVITY TYPE
RMC .OHMM     0.25                 : RMC          - RESISTIVITY OF MUD CAKE
RMF .OHMM     0.25                 : RMF          - RESISTIVITY OF MUD FILTRATE
SUFT.C        15                   : SUFT         - SURFACE TEMPERATURE
~A  DEPTH     PHID     PHIN       GR     RESD
# ...
  183.500    0.213    0.436  103.473    8.825
  183.750    0.216    0.460  101.061    8.348
  184.000    0.195    0.426   97.439    8.044
  184.250    0.143    0.414   97.447    8.044
  184.500    0.112    0.440  102.900    8.194
  184.750    0.161    0.455  105.323    8.347
  185.000    0.198    0.437  104.725    8.823
  185.250    0.233    0.420   96.871    9.678
  185.500    0.247    0.414   95.667    9.859
  185.750    0.241    0.404   99.303   10.230
  186.000    0.234    0.400  106.571   10.230
  186.250    0.238    0.418  110.208    9.677
  186.500    0.240    0.436  112.027    8.985
  186.750    0.243    0.436  113.245    8.499
  187.000    0.250    0.441  111.437    8.343
  187.250    0.249    0.454  106.605    8.984
  187.500    0.253    0.454  100.564    9.855
  187.750    0.257    0.451   97.546   10.418
  188.000    0.263    0.461   93.924   11.013
  188.250    0.270    0.470   98.166   11.218
  188.500    0.258    0.473   97.571   11.218
  188.750    0.250    0.467   96.970   11.217
  189.000    0.255    0.456   99.400   11.217
  189.250    0.263    0.450  100.008   11.639
  189.500    0.263    0.440   92.158   12.304
  189.750    0.276    0.432   89.743   12.768
  190.000    0.285    0.427   88.538   13.249
  190.250    0.298    0.422   89.150   13.248
  190.500    0.288    0.426   93.999   12.531
  190.750    0.276    0.430   97.635   12.531
  191.000    0.260    0.431   98.849   11.853
  191.250    0.274    0.446   99.461   11.422
  191.500    0.262    0.461   94.631   11.006
  191.750    0.244    0.474   91.612   10.605
  192.000    0.234    0.485   84.363   11.005
  192.250    0.281    0.477   79.531   13.001
  192.500    0.295    0.456   72.885   15.645
  192.750    0.310    0.443   66.843   18.481
  193.000    0.317    0.427   61.405   19.901
  193.250    0.322    0.427   63.831   19.901
  193.500    0.320    0.431   74.123   15.073
  193.750    0.320    0.445   87.436   10.800
  194.000    0.283    0.468   94.096    8.974
  194.250    0.265    0.490   82.007    8.180
  194.500    0.285    0.439   71.731    8.973
  194.750    0.299    0.426   63.271   11.000
  195.000    0.277    0.418   62.067   13.237
  195.250    0.275    0.415   60.263   17.475
  195.500    0.279    0.421   59.663   20.265
  195.750    0.294    0.428   58.463   23.069
  196.000    0.303    0.415   57.863   26.260
  196.250    0.295    0.403   57.267   29.345
  196.500    0.303    0.412   56.669   32.190
  196.750    0.312    0.423   55.465   34.664
  197.000    0.320    0.426   54.866   35.311
  197.250    0.311    0.412   53.666   37.326
  197.500    0.319    0.399   53.067   38.733
  197.750    0.317    0.393   54.284   40.944
  198.000    0.324    0.393   56.107   42.487
  198.250    0.325    0.407   57.929   43.279
  198.500    0.326    0.423   58.539   44.909
  198.750    0.328    0.435   56.733   45.748
  199.000    0.324    0.436   54.926   46.601
  199.250    0.333    0.428   54.933   46.598
  199.500    0.320    0.413   55.548   47.467
  199.750    0.324    0.418   55.553   47.466
  200.000    0.330    0.423   55.561   47.463
  200.250    0.342    0.433   54.962   46.591
  200.500    0.339    0.435   54.363   46.589
  200.750    0.327    0.428   54.369   46.586
  201.000    0.340    0.417   55.587   46.585
  201.250    0.332    0.411   58.620   45.727
  201.500    0.325    0.410   58.021   45.726
  201.750    0.326    0.422   55.611   44.884
  202.000    0.346    0.428   55.010   44.059
  202.250    0.342    0.436   56.230   43.249
  202.500    0.329    0.428   58.656   42.454
  202.750    0.333    0.416   59.872   41.673
  203.000    0.329    0.408   61.087   40.156
  203.250    0.335    0.414   62.306   39.417
  203.500    0.346    0.419   61.710   38.692
  203.750    0.327    0.413   61.716   37.980
  204.000    0.325    0.408   61.721   37.281
  204.250    0.326    0.404   60.520   37.280
  204.500    0.355    0.411   59.921   36.594
  204.750    0.350    0.417   61.742   36.593
  205.000    0.328    0.418   63.566   35.920
  205.250    0.339    0.410   64.177   35.259
  205.500    0.349    0.416   64.789   35.258
  205.750    0.353    0.420   62.983   34.609
  206.000    0.351    0.430   61.779   33.973
  206.250    0.350    0.435   60.579   33.971
  206.500    0.353    0.431   61.190   33.970
  206.750    0.327    0.399   61.196   33.968
  207.000    0.300    0.351   59.390   33.967
  207.250    0.249    0.331   58.790   34.600
  207.500    0.263    0.373   60.008   34.599
  207.750    0.300    0.421   61.227   35.244
  208.000    0.335    0.415   61.233   35.243
  208.250    0.351    0.403   60.635   34.594
  208.500    0.350    0.420   60.039   34.593
  208.750    0.328    0.432   60.044   34.591
  209.000    0.332    0.427   61.263   33.955
  209.250    0.335    0.418   62.479   33.954
  209.500    0.321    0.415   63.089   33.329
  209.750    0.297    0.403   59.471   33.951
  210.000    0.264    0.392   57.661   33.949
  210.250    0.115    0.320   52.831   37.241
  210.500    0.081    0.241   50.416   41.616
  210.750    0.143    0.229   51.029   48.260
  211.000    0.192    0.303   54.065   51.968
  211.250    0.266    0.400   55.279   51.966
  211.500    0.322    0.447   54.077   44.808
  211.750    0.354    0.463   53.476   40.844
  212.000    0.359    0.476   54.091   35.218
  212.250    0.357    0.468   54.700   32.702
  212.500    0.353    0.485   55.918   32.100
  212.750    0.349    0.471   55.924   30.931
  213.000    0.347    0.456   54.118   30.362
  213.250    0.346    0.462   52.916   30.361
  213.500    0.347    0.445   53.529   30.360
  213.750    0.343    0.434   54.139   30.359
  214.000    0.335    0.443   55.359   30.924
  214.250    0.346    0.460   56.575   30.924
  214.500    0.344    0.463   56.580   31.500
  214.750    0.342    0.451   57.798   31.499
  215.000    0.347    0.444   59.014   32.086
  215.250    0.350    0.434   60.231   32.085
  215.500    0.336    0.448   60.237   32.683
  215.750    0.340    0.461   59.640   32.681
  216.000    0.346    0.463   60.253   33.291
  216.250    0.342    0.455   62.683   33.289
  216.500    0.346    0.445   63.293   33.287
  216.750    0.336    0.439   63.902   33.286
  217.000    0.335    0.443   63.306   33.285
  217.250    0.326    0.425   62.708   33.283
  217.500    0.318    0.419   62.111   33.282
  217.750    0.330    0.425   62.721   33.281
  218.000    0.326    0.432   64.543   33.279
  218.250    0.318    0.434   70.601   32.667
  218.500    0.311    0.460   75.446   27.144
  218.750    0.297    0.484   78.476   20.182
  219.000    0.288    0.492   78.484   14.195
  219.250    0.297    0.504   73.049   10.361
  219.500    0.302    0.468   70.634    7.994
  219.750    0.313    0.447   67.013    7.287
  220.000    0.309    0.427   67.624    8.933
  220.250    0.286    0.408   76.707   10.950
  220.500    0.267    0.435   79.736   12.466
  220.750    0.258    0.440   76.720   12.465
  221.000    0.251    0.442   79.752   11.791
  221.250    0.231    0.438   83.993   10.748
  221.500    0.247    0.426   85.816   10.357
  221.750    0.273    0.423   87.032    9.616
  222.000    0.241    0.422   89.459    9.096
  222.250    0.233    0.432   91.280    8.139
  222.500    0.243    0.440   93.103    7.843
  222.750    0.248    0.429   94.318    7.419
  223.000    0.245    0.418   95.538    7.557
  223.250    0.244    0.411   93.728    7.557
  223.500    0.249    0.423   89.500    7.557
  223.750    0.244    0.453   87.088    6.888
  224.000    0.246    0.482   90.725    6.050
  224.250    0.255    0.503   93.153    5.314
  224.500    0.242    0.521   94.975    4.755
  224.750    0.258    0.533   94.376    4.025
  225.000    0.262    0.555   93.174    3.536
  225.250    0.272    0.546   94.389    3.223
  225.500    0.284    0.515   96.214    3.283
  225.750    0.276    0.513   96.218    3.737
  226.000    0.288    0.523   93.807    3.950
  226.250    0.303    0.498   93.209    4.414
  226.500    0.334    0.465   93.822    4.666
  226.750    0.299    0.487   93.829    4.933
