~VERSION INFORMATION
 VERS.                 2.0:   CWLS LOG ASCII STANDARD -VERSION 2.0
 WRAP.                  NO:   ONE LINE PER DEPTH STEP
~WELL INFORMATION BLOCK
#MNEM.UNIT           DATA                    DESCRIPTION OF MNEMONIC
#---------    -------------------            -------------------------------
# Generated from Intellog Unique Number	CN_91_93/WELL/1170
WELL.         MIAMI OIL PRODUCERS            : Well_name    - WELL
LOC .         00/11-29-091-19W4/0            : Location     - LOCATION
UWI .         00/11-29-091-19W4/0            : Uwi          - UNIQUE WELL ID
ENTR.         JOETTE                         : Entered      - ENTERED BY
SRVC.         SCHLUMBERGER                   : Scn          - SERVICE COMPANY
DATE.         01/15/92                       : Date         - LOG DATE
STRT.F        650                            : top_depth    - START DEPTH
STOP.F        900.164                        : bot_depth    - STOP DEPTH
STEP.F        0.82                           : increment    - STEP LENGTH
 NULL. -999.2500:NULL Value
~CURVE INFORMATION BLOCK
#MNEM UNIT       ERCB CURVE CODE    CURVE DESCRIPTION
#-----------   ------------------   ----------------------------------
DEPT.F        00 001 00 00         : DEPTH        - DEPTH
GR  .API      00 310 00 00         : GR           - GAMMA RAY
CALI.IN       00 280 01 00         : CAL          - CALIPER
NPHI.V/V      00 330 00 00         : PHIN         - NEUTRON POROSITY (SANDSTONE)
DPHI.V/V      00 890 00 00         : PHID         - DENSITY POROSITY (SANDSTONE)
ILD .OHMM     00 120 00 00         : RESD         - DEEP RESISTIVITY (DIL)
~PARAMETER INFORMATION
#MNEM.UNIT           DATA             DESCRIPTION OF MNEMONIC
#---------         -----------     ------------------------------
GL  .F        1710                 : gl           - GROUND LEVEL ELEVATION
EREF.F        1721                 : kb           - ELEVATION OF DEPTH REFERENCE
DATM.F        1710                 : datum        - DATUM ELEVATION
TDD .F        1044                 : tdd          - TOTAL DEPTH DRILLER
RUN .         ONE                  : Run          - RUN NUMBER
ENG .         BILL                 : Engineer     - RECORDING ENGINEER
WIT .         JIM                  : Witness      - WITNESSED BY
MUD .         GEL                  : Mud_type     - MUD TYPE
MATR.         SANDSTONE            : Logunit      - NEUTRON MATRIX
TMAX.F        47                   : BHT          - MAXIMUM RECORDED TEMPERATURE
BHTD.F        1044                 : BHTDEP       - MAXIMUM RECORDED TEMPERATURE
RMT .F        47                   : MDTP         - TEMPERATURE OF MUD
MUDD.LB/G     9.8                  : MWT          - MUD DENSITY
NEUT.         1                    : NEUTRON      - NEUTRON TYPE
RESI.         0                    : RESIST       - RESISTIVITY TYPE
RM  .OHMM     7.42                 : RM           - RESISTIVITY OF MUD
RMC .OHMM     7.42                 : RMC          - RESISTIVITY OF MUD CAKE
RMF .OHMM     7.42                 : RMF          - RESISTIVITY OF MUD FILTRATE
SUFT.F        39.2                 : SUFT         - SURFACE TEMPERATURE
~A  DEPTH       GR      CAL     PHIN     PHID     RESD
# ...
  769.751   60.454    6.839    0.307    0.183   38.328
  770.571   59.059    6.806    0.321    0.200   41.320
  771.391   57.996    6.806    0.328    0.189   44.559
  772.211   58.966    6.823    0.317    0.188   46.315
  773.031   58.187    6.827    0.332    0.195   47.692
  773.852   57.100    6.834    0.347    0.196   47.378
  774.672   54.831    6.840    0.350    0.203   44.176
  775.492   57.007    6.848    0.329    0.164   39.714
  776.312   59.171    6.834    0.290    0.149   31.179
  777.133   62.234    6.840    0.303    0.153   23.177
  777.953   65.580    6.840    0.319    0.167   19.033
  778.773   80.489    6.836    0.332    0.169   15.215
  779.593   94.807    6.859    0.368    0.162   14.055
  780.413   92.242    6.906    0.389    0.163   13.466
  781.234   88.483    7.090    0.400    0.155   14.137
  782.054   87.704    6.901    0.388    0.173   15.094
  782.874   82.763    6.846    0.302    0.188   17.026
  783.694   66.874    6.755    0.284    0.205   20.455
  784.514   61.378    6.682    0.288    0.206   23.065
  785.335   61.166    6.669    0.277    0.186   26.742
  786.155   62.148    6.657    0.276    0.172   29.083
  786.975   63.721    6.663    0.301    0.205   31.638
  787.795   62.941    6.670    0.330    0.227   33.174
  788.615   62.741    6.681    0.339    0.232   35.463
  789.436   65.201    6.683    0.342    0.228   36.517
  790.256   65.320    6.651    0.342    0.228   36.928
  791.076   66.881    6.651    0.339    0.227   37.389
  791.896   67.875    6.667    0.333    0.193   40.284
  792.717   77.145    6.690    0.331    0.182   45.030
  793.537   79.628    6.697    0.362    0.198   49.851
  794.357   83.270    6.703    0.394    0.245   56.759
  795.177   84.548    6.690    0.392    0.259   62.289
  795.997   80.517    6.678    0.409    0.262   68.358
  796.818   76.167    6.683    0.432    0.264   76.411
  797.638   63.246    6.690    0.418    0.268   82.376
  798.458   52.394    6.697    0.405    0.268   84.087
  799.278   51.319    6.704    0.399    0.270   83.533
  800.098   53.471    6.731    0.400    0.276   80.032
  800.919   49.133    6.758    0.412    0.274   74.624
  801.739   46.864    6.783    0.417    0.259   67.696
  802.559   51.121    6.771    0.406    0.241   56.624
  803.379   55.650    6.776    0.388    0.249   40.229
  804.199   61.077    6.763    0.389    0.255   29.905
  805.020   66.221    6.809    0.370    0.243   21.246
  805.840   70.454    7.171    0.360    0.247   16.082
  806.660   80.622    7.297    0.378    0.219   12.063
  807.480   81.899    7.184    0.399    0.238    9.468
  808.301   79.630    7.054    0.393    0.240    9.752
  809.121   74.701    6.882    0.416    0.258   11.104
  809.941   67.999    6.770    0.380    0.226   12.072
  810.761   61.001    7.014    0.370    0.222   14.649
  811.581   64.938    7.100    0.395    0.211   14.976
  812.402   65.045    7.027    0.431    0.190   17.637
  813.222   59.513    6.816    0.371    0.194   20.815
  814.042   54.288    6.508    0.332    0.187   25.480
  814.862   57.942    6.456    0.358    0.201   28.993
  815.682   62.471    6.364    0.425    0.188   34.529
  816.503   58.441    6.310    0.445    0.202   43.812
  817.323   51.726    6.633    0.425    0.176   54.593
  818.143   44.716    6.758    0.396    0.169   66.807
  818.963   39.492    6.707    0.423    0.152   76.019
  819.783   34.846    6.693    0.443    0.147   87.314
  820.604   30.508    6.738    0.418    0.152  102.151
  821.424   27.057    6.648    0.391    0.152  116.201
  822.244   22.719    6.554    0.411    0.128  139.646
  823.064   20.450    6.482    0.421    0.111  167.822
  823.885   18.476    6.272    0.391    0.120  194.571
  824.705   17.094    6.515    0.402    0.131  209.632
  825.525   17.189    6.620    0.419    0.156  200.907
  826.345   17.308    6.609    0.331    0.132  160.562
  827.165   20.347    6.614    0.256    0.104  104.169
  827.986   24.025    6.621    0.216    0.009   61.753
  828.806   27.088    6.666    0.221    0.016   36.597
  829.626   31.013    6.811    0.227    0.023   27.204
  830.446   61.007    6.917    0.235    0.040   18.147
  831.266   77.701    6.864    0.241    0.083   16.758
  832.087   81.343    6.813    0.245    0.113   15.207
  832.907   93.580    6.877    0.255    0.155   13.551
  833.727  108.477    7.180    0.277    0.213   12.080
  834.547  107.106    6.832    0.341    0.169   11.159
  835.367  112.238    6.818    0.350    0.110   10.496
  836.188  104.341    6.884    0.369    0.104   10.624
  837.008   96.161    7.147    0.387    0.118   11.347
  837.828   92.698    7.292    0.423    0.090   12.452
  838.648   86.882    7.239    0.391    0.019   14.298
  839.469   71.585    6.851    0.200   -0.043   18.642
  840.289   44.453    6.740    0.177   -0.045   26.137
  841.109   46.026    6.766    0.182   -0.049   45.130
  841.929   49.680    6.833    0.182   -0.039   55.227
  842.749   53.937    6.878    0.186   -0.033   51.995
  843.570   55.794    6.885    0.187   -0.031   48.451
  844.390   55.310    6.872    0.193   -0.031   43.967
  845.210   57.770    6.839    0.198   -0.024   35.468
  846.030   63.209    6.846    0.207   -0.032   33.971
  846.850   67.749    6.846    0.234   -0.014   29.740
  847.671   71.391    6.860    0.277    0.017   25.322
  848.491   76.251    6.865    0.308    0.016   22.363
  849.311   71.594    6.873    0.329    0.005   19.220
  850.131   63.993    6.880    0.340    0.015   19.267
  850.951   46.343    6.885    0.281    0.023   24.001
  851.772   32.819    6.892    0.220    0.017   29.907
  852.592   14.566    6.898    0.177    0.020   39.705
  853.412    9.034    6.787    0.163    0.009   66.118
  854.232    8.858    6.714    0.141   -0.033 1320.350
  855.052   10.419    6.722    0.155   -0.009 1383.590
  855.873   12.016    6.729    0.174    0.002 1412.750
  856.693   13.293    6.736    0.183    0.024 1415.780
  857.513   14.275    6.736    0.193    0.054 1446.500
  858.333   14.678    6.748    0.205    0.072 1436.100
  859.154   12.705    6.677    0.223    0.071 1401.470
  859.974   12.209    6.721    0.210    0.037 1392.240
  860.794   13.203    6.650    0.195    0.049 1395.650
  861.614   12.399    6.656    0.193    0.056 1411.790
  862.434    8.960    6.861    0.202    0.064 1428.560
  863.255    7.566    6.866    0.201    0.055 1418.720
  864.075    7.377    6.754    0.183    0.019 1448.620
  864.895    8.667    6.505    0.189    0.021 1448.620
  865.715    9.956    6.551    0.203    0.018 1457.500
  866.535   10.926    6.551    0.215    0.030 1433.100
  867.356   12.819    6.625    0.209    0.058 1411.270
  868.176   14.084    6.651    0.235    0.096 1389.340
  868.996   15.386    6.656    0.254    0.144 1430.650
  869.816   15.765    6.644    0.295    0.182 1408.850
  870.636   14.087    6.651    0.351    0.151 1438.100
  871.457   12.421    6.657    0.334    0.093 1305.000
  872.277   13.119    6.683    0.304    0.049 1052.420
  873.097   18.239    6.690    0.206    0.001  601.516
  873.917   26.326    6.676    0.196   -0.026  252.645
  874.737   36.198    6.684    0.197   -0.027  100.474
  875.558   49.026    6.672    0.207   -0.019   77.466
  876.378   55.931    6.657    0.245    0.026   64.776
  877.198   58.119    6.645    0.262    0.019   58.251
  878.018   56.429    6.632    0.262    0.013   59.478
  878.839   52.387    6.599    0.256   -0.006   70.813
  879.659   42.717    6.610    0.230    0.006   89.041
  880.479   35.707    6.612    0.207   -0.008  116.090
  881.299   28.118    6.637    0.194   -0.028  125.152
  882.119   27.031    6.684    0.186   -0.026  114.636
  882.940   32.163    6.710    0.199   -0.035  103.962
  883.760   51.800    6.697    0.210   -0.037   89.352
  884.580   64.345    6.684    0.227   -0.022   78.198
  885.400   67.395    6.652    0.229   -0.014   69.666
  886.220   64.252    6.657    0.211   -0.029   67.987
  887.041   58.412    6.705    0.204   -0.023   75.973
  887.861   56.462    6.790    0.212   -0.029   70.222
  888.681   53.874    6.855    0.218   -0.036   59.235
