~VERSION INFORMATION
 VERS.                 2.0:   CWLS LOG ASCII STANDARD -VERSION 2.0
 WRAP.                  NO:   ONE LINE PER DEPTH STEP
~WELL INFORMATION BLOCK
#MNEM.UNIT           DATA                    DESCRIPTION OF MNEMONIC
#---------    -------------------            -------------------------------
# Generated from Intellog Unique Number	CW_70_72/WELL/1040
NULL.         -999.25                        : NULL_VALUE
WELL.         BRASCAN AMOCO MEYER 10-18      : Well_name    - WELL              
LOC .         10-18-071-25W4                 : Location     - LOCATION          
UWI .         00/10-18-071-25W4/0            : Uwi          - UNIQUE WELL ID    
ENTR.         JAYE                           : Entered      - ENTERED BY        
SRVC.         SCHLUMBERGER                   : Scn          - SERVICE COMPANY   
DATE.         25 NOV 73                      : Date         - LOG DATE          
STRT.M        435.864                        : top_depth    - START DEPTH       
STOP.M        646.114                        : bot_depth    - STOP DEPTH        
STEP.M        0.25                           : increment    - STEP LENGTH       
~CURVE INFORMATION BLOCK
#MNEM UNIT       ERCB CURVE CODE    CURVE DESCRIPTION
#-----------   ------------------   ----------------------------------
DEPT.M        00 001 00 00         : DEPTH        - DEPTH                       
DPHI.V/V      00 890 00 00         : PHID         - DENSITY POROSITY (SANDSTONE)
NPHI.V/V      00 330 00 00         : PHIN         - NEUTRON POROSITY (SANDSTONE)
GR  .API      00 310 00 00         : GR           - GAMMA RAY                   
CALI.MM       00 280 01 00         : CAL          - CALIPER                     
ILD .OHMM     00 120 00 00         : RESD         - DEEP RESISTIVITY (DIL)      
~PARAMETER INFORMATION       
#MNEM.UNIT           DATA             DESCRIPTION OF MNEMONIC
#---------         -----------     ------------------------------
GL  .M        609.905              : gl           - GROUND LEVEL ELEVATION      
EREF.M        612.953              : kb           - ELEVATION OF DEPTH REFERENCE
DATM.M        609.905              : datum        - DATUM ELEVATION             
TDD .M        644.652              : tdd          - TOTAL DEPTH DRILLER         
RUN .         ONE                  : Run          - RUN NUMBER                  
MATR.         SANDSTONE            : Logunit      - NEUTRON MATRIX              
TMAX.C        28.8889              : BHT          - MAXIMUM RECORDED TEMPERATURE
BHTD.M        645.566              : BHTDEP       - MAXIMUM RECORDED TEMPERATURE
RMT .C        20                   : MDTP         - TEMPERATURE OF MUD          
MUDD.KG/M     0                    : MWT          - MUD DENSITY                 
NEUT.         1                    : NEUTRON      - NEUTRON TYPE                
RESI.         0                    : RESIST       - RESISTIVITY TYPE            
RM  .OHMM     2.72                 : RM           - RESISTIVITY OF MUD          
RMC .OHMM     0                    : RMC          - RESISTIVITY OF MUD CAKE     
RMF .OHMM     2.56                 : RMF          - RESISTIVITY OF MUD FILTRATE 
SUFT.C        0                    : SUFT         - SURFACE TEMPERATURE         
~A  DEPTH     PHID     PHIN       GR      CAL     RESD
# ...
  618.364    0.158    0.368   75.956  161.718    2.759
  618.614    0.197    0.357   54.581  159.394    2.302
  618.864    0.255    0.332   42.237  158.706    2.270
  619.114    0.217    0.324   48.439  158.018    2.542
  619.364    0.210    0.342   71.306  157.542    3.309
  619.614    0.165    0.404   80.538  156.960    4.569
  619.864    0.130    0.432   88.256  156.892    5.660
  620.114    0.088    0.381   90.273  157.338    6.031
  620.364    0.067    0.357   80.415  157.673    5.786
  620.614    0.052    0.333   81.830  157.909    5.520
  620.864    0.092    0.370   86.878  158.763    4.596
  621.114    0.148    0.393   91.929  160.542    3.792
  621.364    0.134    0.432   94.615  164.784    3.044
  621.614    0.149    0.463   96.148  170.668    2.688
  621.864    0.222    0.450   97.865  174.499    2.432
  622.114    0.243    0.428   95.217  175.864    2.228
  622.364    0.189    0.423   96.269  167.479    2.019
  622.614    0.176    0.489  102.953  161.663    1.860
  622.864    0.165    0.500  117.215  159.544    1.730
  623.114    0.167    0.496  118.993  158.551    1.635
  623.364    0.188    0.488  100.103  157.969    1.610
  623.614    0.220    0.473   84.486  157.591    1.608
  623.864    0.272    0.460   56.871  157.006    1.654
  624.114    0.288    0.454   61.437  155.090    1.711
  624.364    0.288    0.438   69.759  152.556    1.790
  624.614    0.240    0.410   78.565  150.948    1.911
  624.864    0.195    0.407   89.371  150.365    2.043
  625.114    0.168    0.464   94.908  150.095    2.157
  625.364    0.156    0.478   95.835  150.432    2.269
  625.614    0.181    0.489   98.704  151.185    2.368
  625.864    0.201    0.494  101.632  152.550    2.496
  626.114    0.204    0.505   98.379  155.561    2.634
  626.364    0.216    0.523   94.822  157.541    2.812
  626.614    0.226    0.543   95.569  154.189    2.893
  626.864    0.205    0.496  105.042  150.529    2.922
  627.114    0.187    0.468  112.700  149.435    2.887
  627.364    0.186    0.455  118.051  149.055    2.874
  627.614    0.188    0.433  125.830  148.681    2.956
  627.864    0.179    0.419  128.758  148.718    3.104
  628.114    0.125    0.411  123.019  149.775    3.331
  628.364    0.114    0.403  113.040  150.735    3.675
  628.614    0.120    0.395  110.695  152.199    4.099
  628.864    0.142    0.378  111.444  154.691    4.641
  629.114    0.169    0.329  109.583  157.495    5.054
  629.364    0.152    0.304   98.511  152.706    4.391
  629.614    0.168    0.288   84.773  153.047    3.656
  629.864    0.133    0.338   86.250  155.134    3.205
  630.114    0.125    0.360   96.993  157.628    2.800
  630.364    0.135    0.370  101.862  160.438    2.579
  630.614    0.158    0.337   98.791  162.315    2.784
  630.864    0.134    0.275   87.295  164.301    3.746
  631.114    0.104    0.235   76.891  160.428    6.840
  631.364    0.073    0.195   68.547  151.224    9.709
  631.614    0.084    0.206   66.204  149.106   11.257
  631.864    0.133    0.215   65.496  148.932   13.101
  632.114    0.165    0.206   66.122  150.095   14.533
  632.364    0.119    0.187   61.292  153.412   15.173
  632.614    0.089    0.170   50.160  158.266   12.405
  632.864    0.062    0.198   49.150  155.839    9.115
  633.114    0.006    0.214   53.231  152.482    7.932
  633.364    0.040    0.229   54.824  156.622    5.861
  633.614    0.067    0.263   55.330  160.454    4.543
  633.864    0.096    0.286   54.924  161.305    3.860
  634.114    0.103    0.299   55.672  159.491    3.511
  634.364    0.080    0.292   58.176  147.825    3.343
  634.614    0.101    0.294   61.832  146.015    3.220
  634.864    0.078    0.304   63.184  146.045    3.175
  635.114    0.051    0.291   64.112  146.386    3.303
  635.364    0.043    0.288   66.921  149.701    3.455
  635.614    0.036    0.291   70.637  156.509    3.742
  635.864    0.065    0.298   73.141  157.258    4.221
  636.114    0.076    0.325   74.374  155.650    4.572
  636.364    0.083    0.334   74.331  152.913    4.756
  636.614    0.095    0.333   69.624  151.920    4.830
  636.864    0.116    0.329   73.219  153.289    4.861
  637.114    0.083    0.314   70.634  157.016    4.856
  637.364    0.063    0.273   68.409  159.204    4.922
  637.614    0.078    0.254   70.612  158.214    5.371
  637.864    0.090    0.226   72.087  155.266    7.335
  638.114    0.041    0.191   69.013  151.501    9.053
  638.364    0.003    0.170   45.096  148.663   12.757
  638.614   -0.012    0.126   28.811  147.155   14.845
  638.864   -0.011    0.101   25.499  146.575   16.590
  639.114   -0.011    0.082   23.881  147.634   18.886
  639.364   -0.006    0.066   22.567  152.696   22.221
  639.614    0.001    0.057   22.286  156.421   22.485
  639.864    0.013    0.057   22.122  159.533   22.670
  640.114    0.017    0.059   22.566  159.874   23.026
  640.364    0.011    0.060   22.584  157.032   23.428
  640.614   -0.013    0.063   22.120  150.398   23.663
  640.864   -0.014    0.068   20.989  149.407   24.345
  641.114   -0.016    0.076   20.098  148.720   27.409
  641.364   -0.018    0.082   19.330  147.933   34.016
  641.614   -0.019    0.084   18.864  148.070   39.880
  641.864   -0.017    0.083   18.520  149.233   41.788
  642.114   -0.014    0.081   17.934  149.568   42.911
  642.364   -0.002    0.074   17.953  147.759   44.152
  642.614    0.033    0.066   20.519  146.048   45.254
  642.864    0.051    0.059   24.174  145.664   46.220
  643.114    0.061    0.055   28.679  145.700   46.600
  643.364    0.063    0.042   31.184  146.450   46.720
  643.614    0.067    0.025   33.627  148.745   46.764
  643.864    0.072   -0.001   34.736  151.241   46.711
  644.114    0.077   -0.010   33.365  153.834   46.839
  644.364    0.080   -0.011   31.808  158.897   47.053
  644.614    0.079   -0.010   31.402  148.156   47.345
  644.864    0.083   -0.007   31.966  147.678   47.391
  645.114    0.086    0.003   33.138  147.505   47.514
  645.364    0.088    0.012   34.127  147.437   47.643
  645.614    0.090    0.013   34.934  147.470   47.065
  645.864    0.093    0.034   34.834  147.914   46.076
  646.114    0.094    0.024   34.185  148.252   45.192
