~VERSION INFORMATION
 VERS.                 2.0:   CWLS LOG ASCII STANDARD -VERSION 2.0
 WRAP.                  NO:   ONE LINE PER DEPTH STEP
~WELL INFORMATION BLOCK
#MNEM.UNIT           DATA                    DESCRIPTION OF MNEMONIC
#---------    -------------------            -------------------------------
# Generated from Intellog Unique Number	CS_73_76/WELL/4865
WELL.         ANDERSON EXPLORATION LTD.      : Well_name    - WELL
LOC .         00/14-33-076-03W4/0            : Location     - LOCATION
UWI .         00/14-33-076-03W4/0            : Uwi          - UNIQUE WELL ID
ENTR.         JO                             : Entered      - ENTERED BY
SRVC.         COMPUTALOG                     : Scn          - SERVICE COMPANY
DATE.         05/25/92                       : Date         - LOG DATE
STRT.M        200                            : top_depth    - START DEPTH
STOP.M        465                            : bot_depth    - STOP DEPTH
STEP.M        0.25                           : increment    - STEP LENGTH
 NULL. -999.2500:NULL Value
~CURVE INFORMATION BLOCK
#MNEM UNIT       ERCB CURVE CODE    CURVE DESCRIPTION
#-----------   ------------------   ----------------------------------
DEPT.M        00 001 00 00         : DEPTH        - DEPTH
ILD .OHMM     00 120 00 00         : RESD         - DEEP RESISTIVITY (DIL)
DPHI.V/V      00 890 00 00         : PHID         - DENSITY POROSITY (SANDSTONE)
NPHI.V/V      00 330 00 00         : PHIN         - NEUTRON POROSITY (SANDSTONE)
GR  .API      00 310 00 00         : GR           - GAMMA RAY
~PARAMETER INFORMATION
#MNEM.UNIT           DATA             DESCRIPTION OF MNEMONIC
#---------         -----------     ------------------------------
GL  .M        584.6                : gl           - GROUND LEVEL ELEVATION
EREF.M        588.2                : kb           - ELEVATION OF DEPTH REFERENCE
DATM.M        588.2                : datum        - DATUM ELEVATION
TDD .M        471.2                : tdd          - TOTAL DEPTH DRILLER
RUN .         ONE                  : Run          - RUN NUMBER
ENG .         BILL                 : Engineer     - RECORDING ENGINEER
WIT .         JIM                  : Witness      - WITNESSED BY
MUD .         GEL                  : Mud_type     - MUD TYPE
MATR.         SANDSTONE            : Logunit      - NEUTRON MATRIX
TMAX.C        20                   : BHT          - MAXIMUM RECORDED TEMPERATURE
BHTD.M        471.2                : BHTDEP       - MAXIMUM RECORDED TEMPERATURE
MATR.         1                    : LOGUNIT      - NEUTRON MATRIX
RMT .C        16                   : MDTP         - TEMPERATURE OF MUD
NEUT.         1                    : NEUTRON      - NEUTRON TYPE
RESI.         0                    : RESIST       - RESISTIVITY TYPE
RMC .OHMM     2.7                  : RMC          - RESISTIVITY OF MUD CAKE
RMF .OHMM     3.4                  : RMF          - RESISTIVITY OF MUD FILTRATE
SUFT.C        15                   : SUFT         - SURFACE TEMPERATURE
~A  DEPTH     RESD     PHID     PHIN       GR
# ...
  417.500    2.816    0.350    0.381   43.346
  417.750    2.816    0.339    0.380   38.044
  418.000    2.816    0.334    0.375   47.485
  418.250    2.816    0.338    0.372   58.695
  418.500    2.816    0.341    0.376   60.470
  418.750    2.816    0.338    0.372   54.580
  419.000    2.816    0.331    0.374   48.689
  419.250    2.816    0.328    0.377   44.566
  419.500    2.870    0.342    0.372   47.521
  419.750    2.870    0.349    0.361   46.937
  420.000    2.870    0.342    0.365   39.276
  420.250    2.870    0.328    0.370   41.051
  420.500    2.870    0.333    0.375   46.365
  420.750    2.816    0.346    0.377   43.421
  421.000    2.816    0.356    0.372   36.940
  421.250    2.764    0.349    0.360   33.999
  421.500    2.713    0.341    0.365   36.362
  421.750    2.713    0.344    0.390   40.495
  422.000    2.713    0.354    0.391   47.578
  422.250    2.713    0.361    0.391   54.070
  422.500    2.713    0.349    0.380   64.101
  422.750    2.713    0.337    0.373   47.596
  423.000    2.764    0.327    0.371   44.062
  423.250    2.816    0.322    0.378   45.250
  423.500    2.924    0.316    0.388   48.203
  423.750    2.980    0.309    0.393   51.156
  424.000    2.980    0.321    0.387   55.290
  424.250    2.980    0.337    0.376   54.707
  424.500    2.980    0.340    0.363   43.508
  424.750    2.980    0.336    0.356   39.386
  425.000    2.924    0.333    0.381   42.930
  425.250    2.870    0.333    0.383   46.474
  425.500    2.870    0.332    0.371   46.480
  425.750    2.816    0.327    0.367   44.126
  426.000    2.816    0.328    0.372   44.132
  426.250    2.764    0.340    0.372   44.727
  426.500    2.764    0.341    0.364   40.015
  426.750    2.764    0.333    0.376   42.380
  427.000    2.713    0.328    0.387   62.436
  427.250    2.713    0.345    0.382   61.852
  427.500    2.713    0.368    0.373   45.935
  427.750    2.662    0.367    0.361   38.275
  428.000    2.662    0.373    0.381   37.101
  428.250    2.662    0.380    0.388   37.109
  428.500    2.662    0.359    0.388   36.524
  428.750    2.613    0.354    0.385   34.759
  429.000    2.613    0.343    0.384   34.765
  429.250    2.564    0.335    0.383   39.490
  429.500    2.517    0.337    0.379   43.032
  429.750    2.470    0.346    0.373   47.757
  430.000    2.470    0.358    0.361   46.583
  430.250    2.424    0.361    0.358   39.514
  430.500    2.379    0.359    0.379   36.571
  430.750    2.379    0.354    0.383   38.346
  431.000    2.335    0.352    0.378   37.171
  431.250    2.291    0.358    0.364   33.048
  431.500    2.249    0.363    0.348   34.825
  431.750    2.166    0.359    0.341   38.367
  432.000    2.166    0.357    0.344   38.373
  432.250    2.126    0.353    0.358   34.842
  432.500    2.126    0.357    0.377   34.258
  432.750    2.166    0.363    0.360   33.084
  433.000    2.166    0.363    0.348   33.679
  433.250    2.207    0.359    0.342   33.095
  433.500    2.249    0.353    0.350   33.101
  433.750    2.424    0.358    0.344   33.105
  434.000    2.613    0.365    0.340   30.754
  434.250    2.816    0.371    0.338   28.990
  434.500    3.093    0.359    0.332   27.227
  434.750    3.334    0.337    0.327   28.412
  435.000    3.594    0.306    0.319   31.368
  435.250    3.802    0.195    0.306   34.910
  435.500    4.176    0.172    0.292   39.634
  435.750    7.331    0.144    0.271   45.536
  436.000    9.012    0.136    0.246   54.979
  436.250   10.276    0.137    0.219   49.086
  436.500   11.077    0.138    0.217   41.425
  436.750   10.871    0.138    0.226   36.714
  437.000   10.669    0.142    0.242   37.310
  437.250    9.898    0.153    0.301   38.494
  437.500    8.844    0.171    0.346   44.987
  437.750    8.205    0.179    0.404   53.248
  438.000    7.612    0.165    0.432   79.201
  438.250    7.470    0.133    0.468  114.000
  438.500    7.470    0.093    0.504  106.931
  438.750    7.331    0.060    0.516  101.628
  439.000    7.470    0.037    0.514   92.198
  439.250    7.756   -0.056    0.485   88.667
  439.500    8.052   -0.089    0.454   87.493
  439.750    8.360   -0.090    0.407   87.499
  440.000    8.844   -0.099    0.370   86.916
  440.250    9.182    0.133    0.340   85.743
  440.500    9.533    0.147    0.322   82.209
  440.750    9.898    0.149    0.300   78.086
  441.000    9.898    0.144    0.285   71.605
  441.250   10.085    0.139    0.277   61.586
  441.500   10.085    0.137    0.273   54.516
  441.750   10.276    0.159    0.269   54.522
  442.000   10.085    0.159    0.264   55.708
  442.250   10.085    0.138    0.256   58.071
  442.500    9.898    0.135    0.239   59.846
  442.750    9.714    0.138    0.217   58.671
  443.000    9.714    0.144    0.212   49.241
  443.250    9.714    0.138    0.217   42.172
  443.500    9.714    0.130    0.218   41.589
  443.750    9.898    0.131    0.215   41.592
  444.000    9.898    0.134    0.212   40.420
  444.250   10.085    0.131    0.208   39.245
  444.500   10.276    0.123    0.206   38.072
  444.750   10.669    0.118    0.203   37.488
  445.000   10.669    0.120    0.202   38.673
  445.250   10.871    0.126    0.202   38.679
  445.500   10.669    0.136    0.203   36.326
  445.750   10.471    0.134    0.206   35.742
  446.000   10.276    0.130    0.207   36.928
  446.250    9.898    0.124    0.207   39.294
  446.500    9.714    0.126    0.207   40.477
  446.750    9.533    0.126    0.207   41.663
  447.000    9.356    0.130    0.207   41.669
  447.250    9.182    0.142    0.207   39.904
  447.500    9.012    0.166    0.207   35.782
  447.750    9.012    0.177    0.211   32.249
  448.000    9.012    0.168    0.217   31.665
  448.250    9.012    0.166    0.222   31.671
  448.500    9.012    0.166    0.222   32.266
  448.750    9.012    0.162    0.221   32.862
  449.000   10.085    0.160    0.218   33.457
  449.250    9.533    0.147    0.214   34.053
  449.500   10.276    0.142    0.208   35.239
  449.750   10.471    0.148    0.206   35.246
  450.000   11.077    0.145    0.208   35.839
  450.250   11.286    0.142    0.219   35.844
  450.500   11.500    0.139    0.224   34.671
  450.750   11.500    0.141    0.234   35.856
  451.000   11.500    0.158    0.253   38.220
  451.250   11.500    0.161    0.266   47.073
  451.500   11.077    0.160    0.265   55.925
  451.750   11.077    0.160    0.263   60.060
  452.000   10.669    0.158    0.256   56.526
  452.250   10.276    0.157    0.255   57.123
  452.500   10.276    0.156    0.259   60.077
  452.750   10.276    0.156    0.274   64.211
  453.000   10.276    0.153    0.297   66.574
  453.250   10.669    0.152    0.308   70.119
  453.500   16.424    0.155    0.320   73.073
  453.750   18.729    0.151    0.306   60.104
  454.000   29.935    0.143    0.212   42.418
  454.250   31.080    0.133    0.200   34.758
  454.500   35.441    0.115    0.177   29.456
  454.750   41.179    0.127    0.153   30.642
  455.000   39.663    0.148    0.148   33.007
  455.250   38.202    0.156    0.143   36.550
  455.500   36.112    0.133    0.137   41.273
  455.750   44.388    0.050    0.127   42.458
  456.000   53.546    0.033    0.118   33.618
  456.250   65.817    0.019    0.116   25.957
  456.500   70.946    0.018    0.120   18.297
  456.750   63.394    0.019    0.126   17.714
  457.000   55.593    0.017    0.132   20.080
  457.250   51.575    0.014    0.131   22.445
  457.500   57.718    0.010    0.126   23.628
  457.750   72.289    0.008    0.122   24.224
  458.000   82.433    0.003    0.116   20.103
  458.250   99.442    0.002    0.097   16.569
  458.500   99.442    0.002    0.083   14.806
  458.750   97.594    0.007    0.086   15.402
  459.000   97.594    0.008    0.086   17.768
  459.250  103.243    0.005    0.083   18.361
  459.500  111.288    0.003    0.081   18.956
  459.750  126.904   -0.003    0.076   17.194
  460.000  134.250   -0.010    0.073   16.609
  460.250  136.792   -0.026    0.070   14.850
  460.500  134.250   -0.037    0.064   14.852
  460.750  131.755   -0.044    0.062   14.268
