~VERSION INFORMATION
 VERS.                 2.0:   CWLS LOG ASCII STANDARD -VERSION 2.0
 WRAP.                  NO:   ONE LINE PER DEPTH STEP
~WELL INFORMATION BLOCK
#MNEM.UNIT           DATA                    DESCRIPTION OF MNEMONIC
#---------    -------------------            -------------------------------
# Generated from Intellog Unique Number	CW_73_75/WELL/2980
WELL.         PINNACLE ET AL MARTENH 15-24   : Well_name    - WELL
LOC .         00/15-24-074-02W5/0            : Location     - LOCATION
UWI .         00/15-24-074-02W5/0            : Uwi          - UNIQUE WELL ID
ENTR.         J                              : Entered      - ENTERED BY
SRVC.         SCHLUMBERGER                   : Scn          - SERVICE COMPANY
DATE.         20 JAN 89                      : Date         - LOG DATE
STRT.M        400                            : top_depth    - START DEPTH
STOP.M        615                            : bot_depth    - STOP DEPTH
STEP.M        0.25                           : increment    - STEP LENGTH
 NULL. -999.2500:NULL Value
~CURVE INFORMATION BLOCK
#MNEM UNIT       ERCB CURVE CODE    CURVE DESCRIPTION
#-----------   ------------------   ----------------------------------
DEPT.M        00 001 00 00         : DEPTH        - DEPTH
ILD .OHMM     00 120 00 00         : RESD         - DEEP RESISTIVITY (DIL)
CALI.MM       00 280 01 00         : CAL          - CALIPER
GR  .API      00 310 00 00         : GR           - GAMMA RAY
NPHI.V/V      00 330 00 00         : PHIN         - NEUTRON POROSITY (SANDSTONE)
DPHI.V/V      00 890 00 00         : PHID         - DENSITY POROSITY (SANDSTONE)
~PARAMETER INFORMATION
#MNEM.UNIT           DATA             DESCRIPTION OF MNEMONIC
#---------         -----------     ------------------------------
GL  .M        670.3                : gl           - GROUND LEVEL ELEVATION
EREF.M        673.7                : kb           - ELEVATION OF DEPTH REFERENCE
DATM.M        670.3                : datum        - DATUM ELEVATION
TDD .M        624.2                : tdd          - TOTAL DEPTH DRILLER
RUN .         ONE                  : Run          - RUN NUMBER
ENG .         ZACHYSTAL            : Engineer     - RECORDING ENGINEER
WIT .         COX                  : Witness      - WITNESSED BY
BASE.         SLAVE LAKE           : Branch       - HOME BASE OF LOGGING UNIT
MUD .         POLYMER              : Mud_type     - MUD TYPE
MATR.         SANDSTONE            : Logunit      - NEUTRON MATRIX
TMAX.C        36                   : BHT          - MAXIMUM RECORDED TEMPERATURE
BHTD.M        619.3                : BHTDEP       - MAXIMUM RECORDED TEMPERATURE
RMT .C        16                   : MDTP         - TEMPERATURE OF MUD
MUDD.KG/M     1045                 : MWT          - MUD DENSITY
NEUT.         1                    : NEUTRON      - NEUTRON TYPE
RESI.         0                    : RESIST       - RESISTIVITY TYPE
RM  .OHMM     7.4                  : RM           - RESISTIVITY OF MUD
RMC .OHMM     0.25                 : RMC          - RESISTIVITY OF MUD CAKE
RMF .OHMM     2.1                  : RMF          - RESISTIVITY OF MUD FILTRATE
SUFT.C        -17.7778             : SUFT         - SURFACE TEMPERATURE
~A  DEPTH     RESD      CAL       GR     PHIN     PHID
  400.000    2.448  225.046   84.684    0.507    0.274
  400.250    2.462  228.207   83.049    0.505    0.261
  400.500    2.467  231.165   84.763    0.521    0.272
  400.750    2.495  235.544   85.868    0.512    0.274
  401.000    2.468  235.357   85.270    0.511    0.279
  401.250    2.433  233.751   83.696    0.506    0.291
  401.500    2.398  234.982   82.488    0.489    0.302
  401.750    2.363  236.114   81.888    0.502    0.310
  402.000    2.333  236.638   82.933    0.518    0.313
  402.250    2.317  236.958   87.630    0.534    0.301
  402.500    2.296  238.698   92.144    0.515    0.298
  402.750    2.296  240.642   90.328    0.519    0.308
  403.000    2.305  241.470   87.476    0.532    0.321
  403.250    2.314  236.107   90.529    0.530    0.311
  403.500    2.340  232.166   92.426    0.498    0.290
  403.750    2.393  231.573   90.792    0.501    0.290
  404.000    2.469  232.807   86.479    0.517    0.347
  404.250    2.553  229.779   81.131    0.532    0.400
  404.500    2.639  224.823   79.496    0.525    0.459
  404.750    2.714  215.404   78.228    0.409    0.451
  405.000    2.857  204.866   77.993    0.396    0.395
  405.250    2.932  195.343   81.169    0.424    0.224
  405.500    2.859  189.171   82.944    0.447    0.218
  405.750    2.838  190.607   82.223    0.442    0.232
  406.000    2.902  196.811   80.406    0.385    0.244
  406.250    3.006  194.190   76.701    0.394    0.244
  406.500    3.177  189.742   72.267    0.421    0.242
  406.750    3.370  188.742   72.215    0.447    0.316
  407.000    3.509  197.179   73.747    0.456    0.389
  407.250    3.478  212.719   72.660    0.490    0.425
  407.500    3.256  232.824   71.696    0.523    0.452
  407.750    2.901  236.087   72.497    0.541    0.381
  408.000    2.613  228.798   74.454    0.556    0.355
  408.250    2.397  219.681   77.752    0.519    0.371
  408.500    2.294  212.291   81.048    0.475    0.332
  408.750    2.402  204.899   72.292    0.408    0.283
  409.000    2.794  199.439   67.310    0.396    0.252
  409.250    3.315  197.322   63.422    0.387    0.247
  409.500    4.051  196.324   56.004    0.391    0.244
  409.750    5.014  195.526   47.795    0.405    0.241
  410.000    6.218  194.933   43.848    0.415    0.250
  410.250    6.818  194.748   43.552    0.421    0.259
  410.500    7.193  194.560   45.632    0.428    0.276
  410.750    7.247  194.070   47.955    0.439    0.290
  411.000    6.847  193.374   48.694    0.436    0.306
  411.250    6.398  192.884   50.530    0.415    0.317
  411.500    5.763  192.389   50.418    0.398    0.312
  411.750    5.326  192.105   48.297    0.414    0.305
  412.000    4.833  192.119   48.916    0.426    0.303
  412.250    4.475  192.336   51.968    0.423    0.287
  412.500    4.189  192.453   53.317    0.430    0.265
  412.750    3.958  192.773   53.267    0.439    0.304
  413.000    3.816  192.993   52.667    0.443    0.324
  413.250    3.761  193.515   50.607    0.434    0.334
  413.500    3.803  194.140   49.216    0.360    0.319
  413.750    4.163  195.576   49.468    0.277    0.256
  414.000    4.985  198.231   47.286    0.205    0.160
  414.250    5.829  201.188   44.800    0.211    0.078
  414.500    6.533  203.132   41.765    0.254    0.067
  414.750    7.500  199.395   40.496    0.340    0.103
  415.000    7.912  194.742   42.576    0.401    0.246
  415.250    7.023  190.191   46.482    0.433    0.287
  415.500    5.888  190.106   48.196    0.435    0.311
  415.750    4.768  191.848   48.144    0.425    0.323
  416.000    4.278  193.791   46.814    0.425    0.330
  416.250    3.998  195.938   45.180    0.444    0.333
  416.500    3.840  197.677   45.250    0.439    0.335
  416.750    3.778  193.941   47.391    0.424    0.333
  417.000    3.724  189.694   51.175    0.406    0.329
  417.250    3.677  189.202   58.673    0.427    0.300
  417.500    3.684  192.972   64.161    0.454    0.291
  417.750    3.753  193.089   65.875    0.475    0.299
  418.000    3.902  189.859   58.031    0.421    0.308
  418.250    3.982  187.642   51.526    0.421    0.317
  418.500    3.983  188.063   44.900    0.430    0.327
  418.750    3.984  188.791   39.552    0.437    0.339
  419.000    3.985  188.907   38.953    0.408    0.345
  419.250    3.942  188.821   40.180    0.413    0.332
  419.500    3.928  188.532   44.694    0.420    0.318
  419.750    3.929  187.939   49.696    0.417    0.308
  420.000    3.915  188.362   53.724    0.402    0.297
  420.250    3.894  188.581   57.690    0.393    0.285
  420.500    3.909  189.002   62.022    0.408    0.277
  420.750    3.939  190.336   65.076    0.430    0.274
  421.000    3.954  196.135   58.084    0.450    0.281
  421.250    3.955  196.963   52.067    0.441    0.276
  421.500    3.941  195.965   47.144    0.413    0.227
  421.750    3.935  194.966   43.988    0.419    0.234
  422.000    3.907  194.171   46.616    0.410    0.321
  422.250    3.836  194.288   45.834    0.401    0.338
  422.500    3.781  194.912   43.895    0.397    0.337
  422.750    3.713  194.927   45.306    0.407    0.327
  423.000    3.755  194.842   48.723    0.423    0.317
  423.250    3.910  195.061   52.690    0.426    0.315
  423.500    4.050  195.685   54.345    0.406    0.312
  423.750    4.195  196.106   53.196    0.417    0.298
  424.000    4.266  196.528   50.892    0.430    0.293
  424.250    4.267  196.849   48.893    0.431    0.299
  424.500    4.197  196.052   50.303    0.406    0.308
  424.750    4.137  195.256   54.270    0.367    0.303
  425.000    3.974  196.794   59.270    0.383    0.290
  425.250    3.838  201.275   69.386    0.405    0.293
  425.500    3.620  203.422   83.884    0.447    0.311
  425.750    3.376  198.872   94.122    0.507    0.261
  426.000    3.334  195.845   76.598    0.358    0.265
  426.250    3.589  194.743   47.933    0.347    0.286
  426.500    4.045  193.847   33.819    0.340    0.317
  426.750    4.291  193.761   40.038    0.337    0.289
  427.000    4.518  193.674   48.631    0.361    0.266
  427.250    4.819  193.893   60.513    0.380    0.260
  427.500    4.811  194.518   69.776    0.376    0.267
  427.750    4.795  195.447   68.263    0.373    0.267
  428.000    4.920  196.172   64.133    0.372    0.274
  428.250    5.287  196.189   66.029    0.386    0.276
  428.500    5.660  196.205   63.788    0.398    0.260
  428.750    5.734  195.509   50.950    0.377    0.271
  429.000    5.683  194.411   54.978    0.365    0.287
  429.250    5.429  195.338   66.798    0.382    0.244
  429.500    5.092  196.776   75.453    0.396    0.220
  429.750    4.714  197.196   76.254    0.389    0.245
  430.000    4.373  196.806   77.237    0.399    0.257
  430.250    4.042  196.519   83.091    0.399    0.236
  430.500    3.833  197.245   81.761    0.350    0.233
  430.750    3.764  197.158   74.526    0.350    0.245
  431.000    3.792  195.753   70.578    0.382    0.250
  431.250    3.821  194.450   75.640    0.402    0.240
  431.500    3.843  193.757   85.147    0.439    0.251
  431.750    3.872  193.163   84.670    0.450    0.255
  432.000    3.944  192.264   80.662    0.434    0.265
  432.250    4.055  192.281   77.078    0.402    0.274
  432.500    4.131  194.224   76.602    0.378    0.278
  432.750    3.825  199.516   80.141    0.420    0.268
  433.000    3.414  198.113   88.004    0.460    0.242
  433.250    3.075  197.417   98.059    0.492    0.230
  433.500    2.847  206.565  104.887    0.506    0.257
  433.750    2.579  213.378  105.261    0.513    0.302
  434.000    2.375  208.118  106.063    0.535    0.332
  434.250    2.273  201.438  105.585    0.533    0.341
  434.500    2.265  195.061   97.376    0.505    0.283
  434.750    2.497  193.556   90.872    0.458    0.254
  435.000    2.793  193.367   85.888    0.438    0.256
  435.250    3.137  194.094   81.637    0.432    0.293
  435.500    3.446  199.385   83.472    0.455    0.363
  435.750    3.682  211.780   79.951    0.457    0.464
  436.000    3.899  199.823   71.376    0.438    0.403
  436.250    3.979  194.665   62.984    0.405    0.323
