~VERSION INFORMATION
 VERS.                 2.0:   CWLS LOG ASCII STANDARD -VERSION 2.0
 WRAP.                  NO:   ONE LINE PER DEPTH STEP
~WELL INFORMATION BLOCK
#MNEM.UNIT           DATA                    DESCRIPTION OF MNEMONIC
#---------    -------------------            -------------------------------
# Generated from Intellog Unique Number	CW_79_81/WELL/927
WELL.         14-14-079-22W4                 : Well_name    - WELL
LOC .         00/14-14-079-22W4/0            : Location     - LOCATION
UWI .         00/14-14-079-22W4/0            : Uwi          - UNIQUE WELL ID
ENTR.         MAX                            : Entered      - ENTERED BY
SRVC.         SCHLUMBERGER                   : Scn          - SERVICE COMPANY
STRT.M        220                            : top_depth    - START DEPTH
STOP.M        432                            : bot_depth    - STOP DEPTH
STEP.M        0.25                           : increment    - STEP LENGTH
 NULL. -999.2500:NULL Value
~CURVE INFORMATION BLOCK
#MNEM UNIT       ERCB CURVE CODE    CURVE DESCRIPTION
#-----------   ------------------   ----------------------------------
DEPT.M        00 001 00 00         : DEPTH        - DEPTH
ILD .OHMM     00 120 00 00         : RESD         - DEEP RESISTIVITY (DIL)
NPHI.V/V      00 330 00 00         : PHIN         - NEUTRON POROSITY (SANDSTONE)
DPHI.V/V      00 890 00 00         : PHID         - DENSITY POROSITY (SANDSTONE)
CALI.MM       00 280 01 00         : CAL          - CALIPER
GR  .API      00 310 00 00         : GR           - GAMMA RAY
~PARAMETER INFORMATION
#MNEM.UNIT           DATA             DESCRIPTION OF MNEMONIC
#---------         -----------     ------------------------------
GL  .M        570.7                : gl           - GROUND LEVEL ELEVATION
EREF.M        574.1                : kb           - ELEVATION OF DEPTH REFERENCE
DATM.M        570.7                : datum        - DATUM ELEVATION
TDD .M        441                  : tdd          - TOTAL DEPTH DRILLER
RUN .         ONE                  : Run          - RUN NUMBER
ENG .         BILL                 : Engineer     - RECORDING ENGINEER
WIT .         JIM                  : Witness      - WITNESSED BY
MUD .         GEL                  : Mud_type     - MUD TYPE
MATR.         SANDSTONE            : Logunit      - NEUTRON MATRIX
TMAX.C        32                   : BHT          - MAXIMUM RECORDED TEMPERATURE
BHTD.M        441                  : BHTDEP       - MAXIMUM RECORDED TEMPERATURE
RMT .C        17                   : MDTP         - TEMPERATURE OF MUD
MUDD.KG/M     1140                 : MWT          - MUD DENSITY
NEUT.         1                    : NEUTRON      - NEUTRON TYPE
RESI.         0                    : RESIST       - RESISTIVITY TYPE
RM  .OHMM     8.8                  : RM           - RESISTIVITY OF MUD
RMC .OHMM     0                    : RMC          - RESISTIVITY OF MUD CAKE
RMF .OHMM     10.7                 : RMF          - RESISTIVITY OF MUD FILTRATE
SUFT.C        -5                   : SUFT         - SURFACE TEMPERATURE
~A  DEPTH     RESD     PHIN     PHID      CAL       GR
# ...
  402.500   19.201    0.374    0.124  227.340   70.633
  402.750   15.395    0.370    0.112  227.334   75.300
  403.000   11.362    0.388    0.165  227.328   81.168
  403.250    9.804    0.407    0.180  227.817   87.631
  403.500    9.803    0.418    0.190  227.808   90.217
  403.750   11.997    0.429    0.201  227.803   87.131
  404.000   15.951    0.405    0.218  227.797   82.592
  404.250   19.885    0.379    0.227  228.286   77.435
  404.500   25.720    0.364    0.198  228.775   72.874
  404.750   37.837    0.346    0.194  228.769   67.397
  405.000   42.240    0.303    0.146  228.763   65.248
  405.250   43.410    0.317    0.090  228.755   66.039
  405.500   35.127    0.355    0.085  228.748   71.015
  405.750   20.412    0.388    0.151  228.748   78.667
  406.000   13.741    0.418    0.172  228.735   87.211
  406.250   12.303    0.419    0.181  228.728   96.351
  406.500   11.965    0.416    0.182  228.720   96.855
  406.750   12.875    0.401    0.182  228.715   93.780
  407.000   14.374    0.385    0.198  228.212   88.326
  407.250   15.900    0.385    0.217  228.205   79.007
  407.500   19.461    0.380    0.248  228.197   72.958
  407.750   23.385    0.359    0.273  228.687   67.504
  408.000   41.731    0.363    0.273  229.177   63.548
  408.250   52.024    0.392    0.264  229.169   60.771
  408.500   57.548    0.396    0.258  229.164   62.740
  408.750   59.684    0.379    0.249  229.653   64.742
  409.000   56.990    0.379    0.246  230.142   65.830
  409.250   54.417    0.385    0.242  230.137   66.357
  409.500   51.012    0.381    0.229  230.129   68.326
  409.750   48.707    0.374    0.217  230.122   70.031
  410.000   46.507    0.370    0.207  230.116   70.844
  410.250   43.595    0.363    0.198  230.604   71.040
  410.500   40.493    0.350    0.188  231.094   70.961
  410.750   34.307    0.323    0.160  231.088   71.157
  411.000   29.065    0.293    0.141  231.082   72.268
  411.250   26.506    0.296    0.138  231.075   74.854
  411.500   23.084    0.334    0.162  231.068   78.629
  411.750   19.557    0.368    0.178  231.059   83.011
  412.000   18.673    0.370    0.168  231.054   87.678
  412.250   17.995    0.369    0.163  231.046   91.156
  412.500   17.340    0.371    0.169  230.544   92.244
  412.750   15.960    0.375    0.171  230.538   94.533
  413.000   12.795    0.382    0.166  230.033   96.844
  413.250   11.144    0.394    0.167  229.529  100.608
  413.500    8.533    0.399    0.177  229.522  103.800
  413.750    8.073    0.417    0.185  229.517  107.587
  414.000    8.071    0.427    0.190  229.509  110.470
  414.250    8.071    0.398    0.196  229.006  105.611
  414.500    8.369    0.383    0.159  228.007   93.604
  414.750   11.867    0.374    0.149  227.503   83.096
  415.000   13.248    0.359    0.142  227.503   68.412
  415.250   15.204    0.337    0.127  227.489   61.472
  415.500   18.954    0.328    0.109  227.482   55.126
  415.750   20.775    0.322    0.113  226.980   49.969
  416.000   24.734    0.323    0.115  226.972   45.407
  416.250   25.421    0.336    0.126  226.966   40.857
  416.500   24.497    0.374    0.152  226.959   34.808
  416.750   22.546    0.409    0.174  227.945   34.696
  417.000   14.495    0.440    0.268  228.434   38.494
  417.250   11.947    0.560    0.327  228.428   45.243
  417.500   10.501    0.581    0.387  228.421   55.583
  417.750   10.595    0.521    0.295  228.415   67.100
  418.000   10.790    0.482    0.274  228.407   73.849
  418.250   10.207    0.486    0.272  228.396   64.827
  418.500    9.481    0.567    0.307  228.394   65.927
  418.750    8.488    0.556    0.325  228.387   72.092
  419.000    7.392    0.530    0.301  228.877   80.934
  419.250    7.323    0.508    0.270  228.869  103.763
  419.500    7.666    0.490    0.248  228.863  100.996
  419.750    7.666    0.464    0.243  228.857   95.542
  420.000    9.125    0.465    0.255  228.849   89.494
  420.250   10.376    0.466    0.251  229.338   89.106
  420.500   11.691    0.446    0.250  229.829   88.124
  420.750   11.581    0.433    0.250  230.318   82.076
  421.000   11.160    0.446    0.257  230.311   74.540
  421.250   11.683    0.469    0.285  229.807   61.046
  421.500   14.431    0.466    0.297  229.305   59.172
  421.750   19.906    0.429    0.294  225.822   63.234
  422.000   30.661    0.400    0.292  219.360   57.494
  422.250   43.877    0.374    0.296  215.382   47.568
  422.500   48.536    0.387    0.296  213.885   45.694
  422.750   52.713    0.401    0.298  217.354   50.064
  423.000   55.684    0.433    0.306  223.304   55.932
  423.250   56.188    0.436    0.304  225.285   63.265
  423.500   56.175    0.442    0.306  226.271   64.067
  423.750   55.137    0.453    0.299  226.761   63.107
  424.000   53.133    0.435    0.300  226.753   60.913
  424.250   48.900    0.421    0.289  226.746   60.239
  424.500   43.379    0.403    0.266  226.741   60.149
  424.750   30.297    0.391    0.251  226.734   60.642
  425.000   27.125    0.389    0.231  226.230   61.135
  425.250   24.963    0.388    0.225  226.224   61.629
  425.500   26.862    0.392    0.230  226.216   61.550
  425.750   33.182    0.407    0.248  225.711   61.471
  426.000   41.750    0.403    0.294  225.706   60.763
  426.250   46.183    0.397    0.301  225.700   60.090
  426.500   47.459    0.415    0.306  225.693   62.092
  426.750   47.887    0.432    0.312  225.686   69.745
  427.000   47.003    0.435    0.313  225.679   71.416
  427.250   44.470    0.435    0.310  225.671   72.824
  427.500   36.316    0.433    0.296  225.666   76.313
  427.750   28.324    0.445    0.274  225.658   79.494
  428.000   16.308    0.470    0.244  225.651   85.065
  428.250   12.602    0.501    0.258  225.644   95.988
  428.500    9.920    0.511    0.265  225.637   98.574
  428.750    9.471    0.488    0.263  225.134   97.283
  429.000    9.471    0.456    0.268  223.639   96.301
  429.250    9.466    0.431    0.260  222.639   98.006
  429.500    9.729    0.434    0.209  224.119  105.350
  429.750   10.091    0.447    0.148  227.092  112.110
  430.000   10.564    0.486    0.139  229.569  119.168
  430.250   11.685    0.423    0.136  230.556  111.038
  430.500   12.925    0.418    0.119  230.549  105.275
  430.750   13.284    0.430    0.105  230.541  103.390
  431.000   13.528    0.438    0.095  230.536  102.419
  431.250   13.648    0.437    0.086  230.527   95.776
  431.500   13.772    0.430    0.076  230.521   94.199
  431.750   13.768    0.425    0.092  230.514   93.800
  432.000   13.638    0.429    0.103  230.012   93.115
