~VERSION INFORMATION
 VERS.                 2.0:   CWLS LOG ASCII STANDARD -VERSION 2.0
 WRAP.                  NO:   ONE LINE PER DEPTH STEP
~WELL INFORMATION BLOCK
#MNEM.UNIT           DATA                    DESCRIPTION OF MNEMONIC
#---------    -------------------            -------------------------------
# Generated from Intellog Unique Number	CC_80_83/WELL/2351
NULL.         -999.25                        : NULL_VALUE
WELL.         HOMESTEAD ET AL COWPAR         : Well_name    - WELL
LOC .         10-13-081-05W4                 : Location     - LOCATION          
UWI .         00/10-13-081-05W4/0            : Uwi          - UNIQUE WELL ID    
ENTR.         DW                             : Entered      - ENTERED BY        
SRVC.         SCHLUMBERGER                   : Scn          - SERVICE COMPANY   
DATE.         24 FEB 78                      : Date         - LOG DATE
STRT.M        60.96                          : top_depth    - START DEPTH       
STOP.M        289.559                        : bot_depth    - STOP DEPTH        
STEP.M        0.3048                         : increment    - STEP LENGTH       
~CURVE INFORMATION BLOCK
#MNEM UNIT       ERCB CURVE CODE    CURVE DESCRIPTION
#-----------   ------------------   ----------------------------------
DEPT.M        00 001 00 00         : DEPTH        - DEPTH                       
DPHI.V/V      00 890 00 00         : PHID         - DENSITY POROSITY (LIMESTONE)
NPHI.V/V      00 330 00 00         : PHIN         - NEUTRON POROSITY (LIMESTONE)
GR  .API      00 310 00 00         : GR           - GAMMA RAY                   
ILD .OHMM     00 120 00 00         : RESD         - DEEP RESISTIVITY (DIL)      
~PARAMETER INFORMATION       
#MNEM.UNIT           DATA             DESCRIPTION OF MNEMONIC
#---------         -----------     ------------------------------
GL  .M        465.734              : gl           - GROUND LEVEL ELEVATION      
EREF.M        468.782              : kb           - ELEVATION OF DEPTH REFERENCE
DATM.M        468.782              : datum        - DATUM ELEVATION             
TDD .M        299.923              : tdd          - TOTAL DEPTH DRILLER         
RUN .         ONE                  : Run          - RUN NUMBER                  
ENG .         BILL                 : Engineer     - RECORDING ENGINEER          
WIT .         JIM                  : Witness      - WITNESSED BY                
MUD .         GEL                  : Mud_type     - MUD TYPE                    
MATR.         LIMESTONE            : Logunit      - NEUTRON MATRIX              
TMAX.C        25                   : BHT          - MAXIMUM RECORDED TEMPERATURE
BHTD.M        299.923              : BHTDEP       - MAXIMUM RECORDED TEMPERATURE
MATR.         1                    : LOGUNIT      - NEUTRON MATRIX              
RMT .C        25                   : MDTP         - TEMPERATURE OF MUD          
NEUT.         1                    : NEUTRON      - NEUTRON TYPE                
RESI.         0                    : RESIST       - RESISTIVITY TYPE            
RMC .OHMM     0.25                 : RMC          - RESISTIVITY OF MUD CAKE     
RMF .OHMM     0.25                 : RMF          - RESISTIVITY OF MUD FILTRATE 
SUFT.C        15                   : SUFT         - SURFACE TEMPERATURE         
~A  DEPTH     PHID     PHIN       GR     RESD
   60.960    0.384    0.513   75.000   22.738
   61.265    0.400    0.505   82.105   21.902
   61.570    0.358    0.458   79.716   21.497
   61.874    0.348    0.442   73.180   20.709
   62.179    0.326    0.451   63.674   20.705
   62.484    0.318    0.434   58.914   20.318
   62.789    0.314    0.413   62.461   20.313
   63.094    0.307    0.407   66.600   19.565
   63.398    0.307    0.418   68.958   19.203
   63.703    0.334    0.431   61.827   18.847
   64.008    0.358    0.454   48.169   18.839
   64.313    0.349    0.457   46.377   19.186
   64.618    0.318    0.399   42.803   19.177
   64.922    0.320    0.382   33.891   19.171
   65.227    0.334    0.375   29.133   19.166
   65.532    0.324    0.410   34.456   19.161
   65.837    0.354    0.463   49.867   18.804
   66.142    0.363    0.469   61.720   18.116
   66.446    0.353    0.464   64.673   17.453
   66.751    0.351    0.461   67.626   16.814
   67.056    0.327    0.463   68.797   16.199
   67.361    0.344    0.457   72.343   14.763
   67.666    0.347    0.455   77.671   13.707
   67.970    0.332    0.453   83.586   13.204
   68.275    0.359    0.476   86.542   13.698
   68.580    0.409    0.558   81.782   14.211
   68.885    0.482    0.600   63.973   16.168
   69.190    0.478    0.616   53.280   17.084
   69.494    0.349    0.454   49.707   17.398
   69.799    0.333    0.438   49.695   17.718
   70.104    0.321    0.461   46.121   17.387
   70.409    0.373    0.475   47.294   17.061
   70.714    0.340    0.455   44.316   16.746
   71.018    0.329    0.442   46.673   16.132
   71.323    0.319    0.450   53.186   15.833
   71.628    0.331    0.471   60.292   14.166
   71.933    0.331    0.498   70.957   11.990
   72.238    0.324    0.502   82.215   10.929
   72.542    0.322    0.520   90.505    9.423
   72.847    0.330    0.542   92.274    8.588
   73.152    0.314    0.570   93.442    7.974
   73.457    0.338    0.585   99.364    7.682
   73.762    0.258    0.489  101.724    7.679
   74.066    0.242    0.479   99.337    7.820
   74.371    0.266    0.487   95.172    7.963
   74.676    0.271    0.489   95.158    8.109
   74.981    0.278    0.491   92.771    8.729
   75.286    0.277    0.495   88.606    9.396
   75.591    0.271    0.487   84.439   10.691
   75.895    0.276    0.430   81.460   11.723
   76.200    0.251    0.412   82.634   12.618
   76.505    0.231    0.408   79.060   13.088
   76.810    0.218    0.419   79.047   13.085
   77.115    0.211    0.424   78.442   13.081
   77.419    0.261    0.424   71.310   12.837
   77.724    0.258    0.407   72.481   12.597
   78.029    0.238    0.410   77.806   12.136
   78.334    0.255    0.424   81.353   11.909
   78.638    0.243    0.442   83.121   11.688
   78.943    0.261    0.448   84.291   11.685
   79.248    0.278    0.445   82.499   12.121
   79.553    0.283    0.430   76.555   13.047
   79.858    0.284    0.423   70.016   14.044
   80.162    0.295    0.442   65.850   14.302
   80.467    0.292    0.500   63.462   14.298
   80.772    0.283    0.479   65.823   13.773
   81.077    0.272    0.449   71.741   13.516
   81.382    0.281    0.446   77.657   13.265
   81.686    0.282    0.446   80.019   13.261
   81.991    0.276    0.443   80.006   12.775
   82.296    0.264    0.427   77.619   12.082
   82.601    0.254    0.432   85.320   11.639
   82.906    0.247    0.485   95.387   11.637
   83.210    0.238    0.502   97.157   11.850
   83.515    0.239    0.426   93.584   12.292
   83.820    0.239    0.422   84.672   12.751
   84.125    0.265    0.449   82.284   12.748
   84.430    0.305    0.477   85.831   12.744
   84.734    0.288    0.497  100.054   12.277
   85.039    0.258    0.472  101.822   11.828
   85.344    0.257    0.453  101.216   10.981
   85.649    0.239    0.465   97.640   10.195
   85.954    0.257    0.491   92.881    9.465
   86.258    0.285    0.460   91.684    9.119
   86.563    0.254    0.484  111.247    8.466
   86.868    0.237    0.507  112.417    8.308
   87.173    0.208    0.491  111.218    8.461
   87.478    0.234    0.484  107.647    9.108
   87.782    0.271    0.478  104.073   10.362
   88.087    0.282    0.464   99.316   11.362
   88.392    0.289    0.460   93.367   12.231
   88.697    0.297    0.467   92.169   12.226
   89.002    0.255    0.444   95.121   11.352
   89.306    0.250    0.448  115.869    9.970
   89.611    0.266    0.464  118.823    9.429
   89.916    0.237    0.484  118.214    9.253
   90.221    0.231    0.492  117.019    9.424
   90.526    0.252    0.487  115.816    9.775
   90.831    0.283    0.500  114.025   10.329
   91.135    0.296    0.519  106.893   11.325
   91.440    0.317    0.482   95.610   11.750
   91.745    0.333    0.489   92.630   12.882
   92.050    0.330    0.492   92.613   13.364
   92.355    0.286    0.453   89.044   13.607
   92.659    0.288    0.452  100.300   13.604
   92.964    0.290    0.465  107.407   13.106
   93.269    0.282    0.482  110.360   13.103
   93.574    0.266    0.491  110.342   12.392
   93.879    0.217    0.509  110.333   11.937
   94.183    0.217    0.519  107.352   11.716
   94.488    0.222    0.486  102.592   11.496
   94.793    0.240    0.496   98.426   11.494
   95.098    0.256    0.480   91.888   11.073
   95.403    0.268    0.456   85.350   10.867
   95.707    0.280    0.470   74.063   11.273
   96.012    0.316    0.461   66.932   12.134
   96.317    0.362    0.456   60.987   13.061
   96.622    0.352    0.478   56.227   13.548
   96.927    0.332    0.499   56.215   13.795
   97.231    0.319    0.484   59.167   13.540
   97.536    0.306    0.514   63.899   13.044
   97.841    0.326    0.515   69.223   12.801
   98.146    0.290    0.484   75.143   12.107
   98.451    0.278    0.468   79.281   11.449
   98.755    0.290    0.469   83.420   11.236
   99.060    0.284    0.462   84.001   11.443
   99.365    0.279    0.451   78.649   12.316
   99.670    0.270    0.459   75.076   12.776
   99.975    0.226    0.471   80.402   12.774
  100.279    0.188    0.497   79.202   13.249
  100.584    0.138    0.519   65.545   13.245
  100.889    0.117    0.538   54.260   13.241
  101.194    0.150    0.401   50.094   12.756
  101.499    0.298    0.425   63.130   12.518
  101.803    0.331    0.463   58.371   12.516
  102.108    0.352    0.475   56.578   12.982
  102.413    0.336    0.471   60.124   13.718
  102.718    0.344    0.466   61.299   14.230
  103.023    0.346    0.458   61.280   14.224
  103.327    0.335    0.461   60.677   14.221
  103.632    0.261    0.452   60.070   13.701
  103.937    0.238    0.441   61.838   13.697
  104.242    0.303    0.466   64.787   13.194
  104.547    0.361    0.489   64.185   13.191
  104.851    0.348    0.470   58.237   12.944
  105.156    0.370    0.462   55.255   13.182
  105.461    0.390    0.469   55.244   13.423
  105.766    0.374    0.479   54.634   13.420
  106.071    0.366    0.495   54.028   13.416
  106.375    0.377    0.505   54.609   12.688
  106.680    0.385    0.503   54.001   12.222
  106.985    0.356    0.463   52.800   12.219
  107.290    0.350    0.465   52.197   12.216
  107.595    0.362    0.469   54.555   12.441
  107.899    0.379    0.475   56.915   12.667
  108.204    0.363    0.505   55.716   12.664
  108.509    0.359    0.523   50.958   12.429
  108.814    0.356    0.466   47.386   12.197
  109.119    0.361    0.464   50.339   12.191
  109.423    0.373    0.484   56.851   12.415
  109.728    0.375    0.472   55.056   12.879
  110.033    0.361    0.451   52.672   13.117
  110.338    0.340    0.469   59.184   13.110
  110.643    0.355    0.489   60.950   13.107
  110.947    0.334    0.477   57.373   12.862
  111.252    0.334    0.480   56.175   12.621
  111.557    0.357    0.474   56.753   12.388
  111.862    0.372    0.453   57.333   12.156
  112.167    0.371    0.454   56.729   11.931
  112.471    0.363    0.465   55.530   11.928
  112.776    0.349    0.479   56.107   11.922
  113.081    0.340    0.484   57.876   11.919
  113.386    0.342    0.489   60.829   11.916
  113.691    0.354    0.495   59.627   11.269
