~VERSION INFORMATION
 VERS.                 2.0:   CWLS LOG ASCII STANDARD -VERSION 2.0
 WRAP.                  NO:   ONE LINE PER DEPTH STEP
~WELL INFORMATION BLOCK
#MNEM.UNIT           DATA                    DESCRIPTION OF MNEMONIC
#---------    -------------------            -------------------------------
# Generated from Intellog Unique Number	CW_70_72/WELL/1072
NULL.         -999.25                        : NULL_VALUE
WELL.         CABRE ET AL MITSUE 16-07       : Well_name    - WELL              
LOC .         16-07-072-03W5                 : Location     - LOCATION          
UWI .         00/16-07-072-03W5/0            : Uwi          - UNIQUE WELL ID    
ENTR.         JAYE                           : Entered      - ENTERED BY        
SRVC.         COMPUTALOG                     : Scn          - SERVICE COMPANY   
DATE.         21 DEC 84                      : Date         - LOG DATE          
STRT.M        500                            : top_depth    - START DEPTH       
STOP.M        710                            : bot_depth    - STOP DEPTH        
STEP.M        0.25                           : increment    - STEP LENGTH       
~CURVE INFORMATION BLOCK
#MNEM UNIT       ERCB CURVE CODE    CURVE DESCRIPTION
#-----------   ------------------   ----------------------------------
DEPT.M        00 001 00 00         : DEPTH        - DEPTH                       
DPHI.V/V      00 890 00 00         : PHID         - DENSITY POROSITY (SANDSTONE)
NPHI.V/V      00 330 00 00         : PHIN         - NEUTRON POROSITY (SANDSTONE)
GR  .API      00 310 00 00         : GR           - GAMMA RAY                   
CALI.MM       00 280 01 00         : CAL          - CALIPER                     
ILD .OHMM     00 120 00 00         : RESD         - DEEP RESISTIVITY (DIL)      
~PARAMETER INFORMATION       
#MNEM.UNIT           DATA             DESCRIPTION OF MNEMONIC
#---------         -----------     ------------------------------
GL  .M        694.7                : gl           - GROUND LEVEL ELEVATION      
EREF.M        699.4                : kb           - ELEVATION OF DEPTH REFERENCE
DATM.M        694.7                : datum        - DATUM ELEVATION             
TDD .M        724                  : tdd          - TOTAL DEPTH DRILLER         
RUN .         ONE                  : Run          - RUN NUMBER                  
BASE.         EDM                  : Branch       - HOME BASE OF LOGGING UNIT   
MUD .         GEL CHEN             : Mud_type     - MUD TYPE                    
MATR.         SANDSTONE            : Logunit      - NEUTRON MATRIX              
TMAX.C        32                   : BHT          - MAXIMUM RECORDED TEMPERATURE
BHTD.M        720.7                : BHTDEP       - MAXIMUM RECORDED TEMPERATURE
RMT .C        20                   : MDTP         - TEMPERATURE OF MUD          
MUDD.KG/M     1100                 : MWT          - MUD DENSITY                 
NEUT.         1                    : NEUTRON      - NEUTRON TYPE                
RESI.         0                    : RESIST       - RESISTIVITY TYPE            
RM  .OHMM     5                    : RM           - RESISTIVITY OF MUD          
RMC .OHMM     3.4                  : RMC          - RESISTIVITY OF MUD CAKE     
RMF .OHMM     6.7                  : RMF          - RESISTIVITY OF MUD FILTRATE 
SUFT.C        0                    : SUFT         - SURFACE TEMPERATURE         
~A  DEPTH     PHID     PHIN       GR      CAL     RESD
# ...
  573.000    0.294    0.368   68.116  149.333    2.729
  573.250    0.271    0.355   73.218  149.985    3.006
  573.500    0.242    0.334   79.138  151.474    3.206
  573.750    0.205    0.309   82.544  153.172    3.236
  574.000    0.217    0.341   81.930  153.509    3.144
  574.250    0.242    0.374   76.290  153.323    3.047
  574.500    0.266    0.364   72.096  152.410    2.909
  574.750    0.254    0.345   73.682  151.907    2.710
  575.000    0.227    0.347   76.584  151.410    2.549
  575.250    0.230    0.362   71.763  151.327    2.470
  575.500    0.262    0.367   66.312  151.247    2.386
  575.750    0.307    0.374   57.720  151.163    2.322
  576.000    0.311    0.391   55.097  150.876    2.260
  576.250    0.298    0.381   57.309  150.373    2.221
  576.500    0.282    0.370   61.408  149.352    2.195
  576.750    0.300    0.361   64.939  148.433    2.185
  577.000    0.322    0.360   67.529  148.144    2.168
  577.250    0.337    0.371   66.098  148.062    2.158
  577.500    0.339    0.364   62.281  147.771    2.162
  577.750    0.336    0.351   61.792  147.584    2.165
  578.000    0.332    0.340   62.686  147.403    2.163
  578.250    0.329    0.352   64.647  147.424    2.175
  578.500    0.334    0.370   66.231  147.557    2.187
  578.750    0.333    0.375   65.492  147.891    2.194
  579.000    0.321    0.361   60.167  148.227    2.214
  579.250    0.317    0.360   56.098  148.356    2.243
  579.500    0.323    0.380   59.004  148.278    2.268
  579.750    0.330    0.374   62.913  148.196    2.306
  580.000    0.330    0.359   65.627  148.009    2.349
  580.250    0.332    0.348   66.833  147.617    2.398
  580.500    0.332    0.336   67.729  147.641    2.438
  580.750    0.324    0.331   67.679  147.663    2.465
  581.000    0.311    0.350   61.663  148.113    2.473
  581.250    0.312    0.361   58.161  148.552    2.468
  581.500    0.321    0.375   58.992  148.787    2.425
  581.750    0.325    0.396   62.838  149.228    2.387
  582.000    0.328    0.401   64.484  149.456    2.355
  582.250    0.335    0.391   57.840  149.586    2.335
  582.500    0.339    0.390   59.678  149.817    2.339
  582.750    0.335    0.405   62.579  150.159    2.370
  583.000    0.330    0.415   63.788  150.179    2.414
  583.250    0.324    0.400   63.806  149.997    2.459
  583.500    0.318    0.383   63.820  149.916    2.544
  583.750    0.312    0.380   64.459  150.042    2.622
  584.000    0.304    0.379   65.416  150.277    2.712
  584.250    0.292    0.359   66.749  150.403    2.827
  584.500    0.268    0.354   68.270  150.429    2.958
  584.750    0.253    0.378   61.563  150.241    3.143
  585.000    0.276    0.395   63.714  150.061    3.358
  585.250    0.298    0.391   66.805  149.973    3.700
  585.500    0.285    0.380   65.061  149.998    4.243
  585.750    0.184    0.354   62.941  150.861    5.093
  586.000    0.156    0.329   61.069  152.349    6.713
  586.250    0.096    0.191   57.252  155.409    7.554
  586.500    0.065    0.164   50.671  159.935    7.406
  586.750    0.036    0.193   52.068  157.865    6.515
  587.000    0.134    0.296   56.290  154.333    5.433
  587.250    0.175    0.335   59.319  152.573    4.573
  587.500    0.250    0.365   60.464  151.550    3.895
  587.750    0.266    0.394   61.798  150.949    3.505
  588.000    0.280    0.385   58.923  150.446    3.315
  588.250    0.290    0.372   57.870  150.259    3.352
  588.500    0.298    0.358   59.832  149.660    3.555
  588.750    0.303    0.357   60.473  149.893    4.014
  589.000    0.293    0.368   58.981  150.230    4.568
  589.250    0.263    0.341   57.803  150.359    5.228
  589.500    0.178    0.321   57.375  150.591    6.194
  589.750    0.159    0.286   58.457  151.139    7.116
  590.000    0.152    0.270   58.346  151.893    8.397
  590.250    0.143    0.258   54.592  153.385    9.629
  590.500    0.129    0.241   51.718  154.139   10.731
  590.750    0.108    0.224   49.657  154.583   11.079
  591.000    0.087    0.206   49.547  155.024   10.906
  591.250    0.068    0.194   51.194  155.151   10.120
  591.500    0.077    0.210   55.355  155.491    8.884
  591.750    0.096    0.275   57.631  155.516    7.551
  592.000    0.136    0.293   57.581  155.643    6.430
  592.250    0.155    0.307   57.783  155.770    5.454
  592.500    0.172    0.325   60.121  155.691    4.716
  592.750    0.199    0.341   64.219  155.401    4.054
  593.000    0.225    0.349   64.299  155.109    3.580
  593.250    0.262    0.362   64.123  154.713    3.247
  593.500    0.287    0.383   65.016  153.797    3.035
  593.750    0.302    0.374   66.789  153.296    2.909
  594.000    0.310    0.361   66.867  153.007    2.752
  594.250    0.311    0.368   63.048  153.136    2.563
  594.500    0.306    0.378   62.309  153.473    2.387
  594.750    0.282    0.374   66.469  154.230    2.173
  595.000    0.221    0.381   74.211  155.406    1.978
  595.250    0.195    0.395   80.191  156.684    1.781
  595.500    0.186    0.412   86.864  159.115    1.633
  595.750    0.220    0.430   92.468  162.594    1.545
  596.000    0.250    0.460   88.589  166.491    1.467
  596.250    0.251    0.481   85.398  167.145    1.419
  596.500    0.246    0.489   88.303  162.666    1.371
  596.750    0.265    0.497   93.719  164.155    1.339
  597.000    0.282    0.474   92.414  166.168    1.321
  597.250    0.283    0.464   89.602  168.810    1.310
  597.500    0.277    0.471   90.559  168.731    1.300
  597.750    0.297    0.460   95.346  169.903    1.301
  598.000    0.308    0.429   96.617  171.603    1.318
  598.250    0.295    0.434   93.868  170.788    1.330
  598.500    0.268    0.446   92.940  167.567    1.358
  598.750    0.275    0.462   92.451  166.337    1.410
  599.000    0.298    0.479   91.210  165.626    1.562
  599.250    0.318    0.490   89.401  165.126    1.868
  599.500    0.275    0.432   88.601  164.736    2.205
  599.750    0.201    0.393   90.500  164.650    2.637
  600.000    0.170    0.375   90.261  164.470    3.257
  600.250    0.177    0.383   86.255  164.387    3.671
  600.500    0.177    0.395   87.906  164.303    3.813
  600.750    0.178    0.405   91.183  163.908    3.877
  601.000    0.178    0.396   91.137  163.410    3.921
  601.250    0.177    0.392   93.159  162.701    3.978
  601.500    0.180    0.385   99.831  161.571    4.155
  601.750    0.204    0.371   94.946  158.245    4.331
  602.000    0.277    0.324   85.728  154.083    4.371
  602.250    0.357    0.237   80.403  151.906    4.328
  602.500    0.400    0.247   73.193  150.780    4.203
  602.750    0.343    0.338   72.956  150.492    3.976
  603.000    0.286    0.389   78.938  151.248    3.826
  603.250    0.250    0.394   88.437  152.215    3.737
  603.500    0.213    0.397   96.178  153.179    3.664
  603.750    0.206    0.408   90.979  155.091    3.628
  604.000    0.234    0.396   86.281  156.995    3.633
  604.250    0.231    0.368   92.892  158.379    3.645
  604.500    0.217    0.360   91.461  156.308    3.679
  604.750    0.204    0.385   88.210  154.451    3.684
  605.000    0.223    0.385   87.846  154.057    3.696
  605.250    0.216    0.376   88.930  154.077    3.709
  605.500    0.209    0.412   91.644  154.626    3.750
  605.750    0.203    0.432   95.366  155.278    3.792
  606.000    0.204    0.415   98.519  155.825    3.885
  606.250    0.200    0.396  101.674  156.895    4.136
  606.500    0.185    0.381   92.958  158.177    4.294
  606.750    0.177    0.359   89.830  158.619    4.277
  607.000    0.172    0.344   90.096  158.223    4.234
  607.250    0.172    0.352   89.985  156.992    3.847
  607.500    0.175    0.370   86.230  155.549    3.469
  607.750    0.231    0.381   82.288  154.001    3.052
  608.000    0.246    0.381   78.408  151.304    2.763
  608.250    0.266    0.394   73.019  147.666    2.642
  608.500    0.277    0.419   77.305  146.223    2.542
  608.750    0.301    0.420   83.663  145.724    2.488
  609.000    0.313    0.410   76.642  145.748    2.454
  609.250    0.310    0.401   71.444  146.087    2.448
