~VERSION INFORMATION
 VERS.                 2.0:   CWLS LOG ASCII STANDARD -VERSION 2.0
 WRAP.                  NO:   ONE LINE PER DEPTH STEP
~WELL INFORMATION BLOCK
#MNEM.UNIT           DATA                    DESCRIPTION OF MNEMONIC
#---------    -------------------            -------------------------------
# Generated from Intellog Unique Number	CS_71_72/WELL/852
WELL.         BVX ET AL CALLING LAKE         : Well_name    - WELL
LOC .         00/10-09-071-16W4/0            : Location     - LOCATION
UWI .         00/10-09-071-16W4/0            : Uwi          - UNIQUE WELL ID
ENTR.         SP                             : Entered      - ENTERED BY
SRVC.         SCHLUMBERGER                   : Scn          - SERVICE COMPANY
STRT.M        285                            : top_depth    - START DEPTH
STOP.M        477                            : bot_depth    - STOP DEPTH
STEP.M        0.25                           : increment    - STEP LENGTH
 NULL. -999.2500:NULL Value
~CURVE INFORMATION BLOCK
#MNEM UNIT       ERCB CURVE CODE    CURVE DESCRIPTION
#-----------   ------------------   ----------------------------------
DEPT.M        00 001 00 00         : DEPTH        - DEPTH
ILD .OHMM     00 120 00 00         : RESD         - DEEP RESISTIVITY (DIL)
DPHI.V/V      00 890 00 00         : PHID         - DENSITY POROSITY (LIMESTONE)
NPHI.V/V      00 330 00 00         : PHIN         - NEUTRON POROSITY (LIMESTONE)
GR  .API      00 310 00 00         : GR           - GAMMA RAY
~PARAMETER INFORMATION
#MNEM.UNIT           DATA             DESCRIPTION OF MNEMONIC
#---------         -----------     ------------------------------
GL  .M        590.14               : gl           - GROUND LEVEL ELEVATION
EREF.M        593.79               : kb           - ELEVATION OF DEPTH REFERENCE
DATM.M        590.14               : datum        - DATUM ELEVATION
TDD .M        479                  : tdd          - TOTAL DEPTH DRILLER
RUN .         ONE                  : Run          - RUN NUMBER
ENG .         BILL                 : Engineer     - RECORDING ENGINEER
WIT .         JIM                  : Witness      - WITNESSED BY
MUD .         GEL                  : Mud_type     - MUD TYPE
MATR.         LIMESTONE            : Logunit      - NEUTRON MATRIX
TMAX.C        23                   : BHT          - MAXIMUM RECORDED TEMPERATURE
BHTD.M        479                  : BHTDEP       - MAXIMUM RECORDED TEMPERATURE
MATR.         1                    : LOGUNIT      - NEUTRON MATRIX
RMT .C        25                   : MDTP         - TEMPERATURE OF MUD
NEUT.         1                    : NEUTRON      - NEUTRON TYPE
RESI.         0                    : RESIST       - RESISTIVITY TYPE
RMC .OHMM     0.25                 : RMC          - RESISTIVITY OF MUD CAKE
RMF .OHMM     0.25                 : RMF          - RESISTIVITY OF MUD FILTRATE
SUFT.C        15                   : SUFT         - SURFACE TEMPERATURE
~A  DEPTH     RESD     PHID     PHIN       GR
# ...
  328.500    4.847    0.241    0.402   94.037
  328.750    4.872    0.243    0.397   95.914
  329.000    4.916    0.253    0.409   94.603
  329.250    4.979    0.265    0.430   90.280
  329.500    5.109    0.264    0.444   88.790
  329.750    5.343    0.243    0.422   90.974
  330.000    5.577    0.224    0.400   91.440
  330.250    5.670    0.221    0.395   89.389
  330.500    5.697    0.229    0.402   87.894
  330.750    5.653    0.241    0.389   90.259
  331.000    5.431    0.259    0.379   93.484
  331.250    5.139    0.275    0.370   96.396
  331.500    4.955    0.287    0.367   97.666
  331.750    4.925    0.299    0.365   99.538
  332.000    4.976    0.307    0.364   97.307
  332.250    4.985    0.307    0.388   91.764
  332.500    5.020    0.304    0.385   84.993
  332.750    5.074    0.298    0.379   80.067
  333.000    5.101    0.281    0.374   73.481
  333.250    5.137    0.266    0.371   83.018
  333.500    5.096    0.257    0.369   88.452
  333.750    4.989    0.250    0.372   92.900
  334.000    4.747    0.241    0.377   94.963
  334.250    4.518    0.233    0.379   98.307
  334.500    4.235    0.237    0.398  100.799
  334.750    4.153    0.243    0.422  102.490
  335.000    4.199    0.248    0.438  106.017
  335.250    4.382    0.239    0.454  108.445
  335.500    4.627    0.231    0.439  109.344
  335.750    4.986    0.223    0.413  108.458
  336.000    5.264    0.217    0.397  107.023
  336.250    5.453    0.213    0.386  107.795
  336.500    5.703    0.218    0.390  106.361
  336.750    5.864    0.220    0.395   96.645
  337.000    6.016    0.221    0.399   91.412
  337.250    6.025    0.225    0.388   92.488
  337.500    6.000    0.235    0.381   92.098
  337.750    5.818    0.251    0.376   85.753
  338.000    5.632    0.266    0.374   79.968
  338.250    5.431    0.282    0.384   74.365
  338.500    5.197    0.354    0.427   74.213
  338.750    4.918    0.355    0.416   75.049
  339.000    4.636    0.351    0.366   71.408
  339.250    4.217    0.353    0.330   66.781
  339.500    3.886    0.353    0.329   63.385
  339.750    3.595    0.353    0.342   61.767
  340.000    3.415    0.351    0.351   62.719
  340.250    3.256    0.347    0.351   61.900
  340.500    3.152    0.344    0.349   59.545
  340.750    3.039    0.345    0.350   58.599
  341.000    3.009    0.349    0.352   58.760
  341.250    2.990    0.352    0.354   60.078
  341.500    2.977    0.356    0.356   61.282
  341.750    2.987    0.359    0.359   63.098
  342.000    3.014    0.361    0.364   65.343
  342.250    3.024    0.363    0.370   57.404
  342.500    3.028    0.363    0.378   54.684
  342.750    3.009    0.365    0.384   55.702
  343.000    2.979    0.368    0.380   57.392
  343.250    2.938    0.369    0.373   58.594
  343.500    2.921    0.370    0.377   59.612
  343.750    2.907    0.369    0.382   60.263
  344.000    2.901    0.365    0.375   60.110
  344.250    2.911    0.363    0.369   58.188
  344.500    2.909    0.361    0.364   56.015
  344.750    2.907    0.360    0.360   54.763
  345.000    2.911    0.366    0.363   55.169
  345.250    2.915    0.364    0.371   57.533
  345.500    2.930    0.352    0.383   59.289
  345.750    2.934    0.346    0.379   59.817
  346.000    2.932    0.338    0.372   56.051
  346.250    2.932    0.332    0.364   55.168
  346.500    2.936    0.330    0.360   56.799
  346.750    2.945    0.328    0.368   57.876
  347.000    2.938    0.326    0.390   58.956
  347.250    2.942    0.326    0.391   60.213
  347.500    2.957    0.333    0.371   61.414
  347.750    2.956    0.339    0.357   62.860
  348.000    2.948    0.343    0.379   64.126
  348.250    2.947    0.345    0.417   65.145
  348.500    2.940    0.348    0.438   63.833
  348.750    2.933    0.347    0.436   59.145
  349.000    2.925    0.347    0.437   54.463
  349.250    2.919    0.347    0.443   49.777
  349.500    2.928    0.348    0.447   50.427
  349.750    2.916    0.350    0.417   53.221
  350.000    2.919    0.353    0.392   55.465
  350.250    2.912    0.350    0.376   57.637
  350.500    2.911    0.347    0.374   58.233
  350.750    2.914    0.341    0.387   58.517
  351.000    2.914    0.337    0.382   56.040
  351.250    2.906    0.340    0.372   55.525
  351.500    2.899    0.341    0.391   55.622
  351.750    2.893    0.339    0.402   55.964
  352.000    2.880    0.335    0.395   56.062
  352.250    2.884    0.329    0.392   54.503
  352.500    2.883    0.325    0.398   52.572
  352.750    2.870    0.321    0.397   51.693
  353.000    2.863    0.319    0.387   50.996
  353.250    2.862    0.322    0.380   51.214
  353.500    2.860    0.325    0.377   51.680
  353.750    2.864    0.330    0.378   52.024
  354.000    2.868    0.338    0.380   52.483
  354.250    2.856    0.341    0.379   53.630
  354.500    2.838    0.351    0.378   56.056
  354.750    2.821    0.360    0.375   57.380
  355.000    2.824    0.369    0.374   57.602
  355.250    2.813    0.368    0.378   54.878
  355.500    2.795    0.364    0.379   54.056
  355.750    2.778    0.364    0.373   55.254
  356.000    2.755    0.370    0.375   56.087
  356.250    2.739    0.380    0.388   55.882
  356.500    2.721    0.390    0.400   54.016
  356.750    2.710    0.390    0.402   52.889
  357.000    2.709    0.379    0.394   51.330
  357.250    2.707    0.372    0.386   48.300
  357.500    2.706    0.359    0.402   48.336
  357.750    2.704    0.350    0.402   51.008
  358.000    2.702    0.349    0.391   53.065
  358.250    2.795    0.352    0.383   54.022
  358.500    2.794    0.354    0.375   51.302
  358.750    2.803    0.361    0.373   52.191
  359.000    2.801    0.367    0.372   51.497
  359.250    2.789    0.366    0.372   49.266
  359.500    2.809    0.366    0.378   46.848
  359.750    2.781    0.371    0.376   45.965
  360.000    2.811    0.382    0.374   47.535
  360.250    2.880    0.386    0.402   49.960
  360.500    2.938    0.386    0.415   51.893
  360.750    3.015    0.382    0.402   53.161
  361.000    3.054    0.378    0.379   56.126
  361.250    3.099    0.371    0.370   56.913
  361.500    3.132    0.367    0.376   59.583
  361.750    3.142    0.364    0.387   62.136
  362.000    3.141    0.363    0.387   64.739
  362.250    3.126    0.362    0.382   64.353
  362.500    3.132    0.358    0.380   64.145
  362.750    3.136    0.355    0.381   65.408
  363.000    3.163    0.353    0.388   68.077
  363.250    3.180    0.351    0.394   69.767
  363.500    3.245    0.346    0.404   69.685
  363.750    3.305    0.338    0.414   65.489
  364.000    3.360    0.330    0.411   61.721
  364.250    3.371    0.324    0.409   59.678
  364.500    3.401    0.319    0.408   62.351
  364.750    3.406    0.307    0.413   69.920
  365.000    3.372    0.296    0.417   73.825
  365.250    3.326    0.275    0.408   78.579
  365.500    3.232    0.258    0.402   81.625
  365.750    3.134    0.247    0.403   86.873
  366.000    3.062    0.251    0.417   92.851
  366.250    2.958    0.275    0.433   93.566
  366.500    2.886    0.299    0.445   89.981
  366.750    2.835    0.310    0.426   87.017
  367.000    2.844    0.317    0.390   83.248
  367.250    2.892    0.323    0.387   81.325
  367.500    3.176    0.329    0.396   80.566
  367.750    3.636    0.329    0.401   80.787
  368.000    4.438    0.327    0.409   84.132
  368.250    5.072    0.330    0.418   88.277
  368.500    5.840    0.332    0.411   92.968
  368.750    6.698    0.329    0.403   95.947
  369.000    7.468    0.320    0.398   97.154
  369.250    7.899    0.311    0.396   92.040
  369.500    8.480    0.312    0.392   84.472
  369.750    8.886    0.317    0.386   84.690
  370.000    9.293    0.320    0.376   83.258
  370.250    9.866    0.320    0.366   77.040
  370.500   10.222    0.320    0.369   70.270
  370.750   10.770    0.321    0.399   65.338
  371.000   11.347    0.322    0.421   77.884
  371.250   11.821    0.326    0.411   86.443
  371.500   12.156    0.327    0.407   80.533
  371.750   12.591    0.330    0.413   73.635
