~VERSION INFORMATION
 VERS.                 2.0:   CWLS LOG ASCII STANDARD -VERSION 2.0
 WRAP.                  NO:   ONE LINE PER DEPTH STEP
~WELL INFORMATION BLOCK
#MNEM.UNIT           DATA                    DESCRIPTION OF MNEMONIC
#---------    -------------------            -------------------------------
# Generated from Intellog Unique Number	CS_71_72/WELL/885
WELL.         TEE PEE PETROLEUMS             : Well_name    - WELL
LOC .         00/11-04-071-18W4/0            : Location     - LOCATION
UWI .         00/11-04-071-18W4/0            : Uwi          - UNIQUE WELL ID
ENTR.         SP                             : Entered      - ENTERED BY
SRVC.         SCHLUMBERGER                   : Scn          - SERVICE COMPANY
STRT.M        295.656                        : top_depth    - START DEPTH
STOP.M        520.906                        : bot_depth    - STOP DEPTH
STEP.M        0.25                           : increment    - STEP LENGTH
 NULL. -999.2500:NULL Value
~CURVE INFORMATION BLOCK
#MNEM UNIT       ERCB CURVE CODE    CURVE DESCRIPTION
#-----------   ------------------   ----------------------------------
DEPT.M        00 001 00 00         : DEPTH        - DEPTH
GR  .API      00 310 00 00         : GR           - GAMMA RAY
DPHI.V/V      00 890 00 00         : PHID         - DENSITY POROSITY (SANDSTONE)
NPHI.V/V      00 330 00 00         : PHIN         - NEUTRON POROSITY (SANDSTONE)
ILD .OHMM     00 120 00 00         : RESD         - DEEP RESISTIVITY (DIL)
~PARAMETER INFORMATION
#MNEM.UNIT           DATA             DESCRIPTION OF MNEMONIC
#---------         -----------     ------------------------------
GL  .M        575.462              : gl           - GROUND LEVEL ELEVATION
EREF.M        579.12               : kb           - ELEVATION OF DEPTH REFERENCE
DATM.M        575.462              : datum        - DATUM ELEVATION
TDD .M        543.154              : tdd          - TOTAL DEPTH DRILLER
RUN .         ONE                  : Run          - RUN NUMBER
ENG .         BILL                 : Engineer     - RECORDING ENGINEER
WIT .         JIM                  : Witness      - WITNESSED BY
MUD .         GEL                  : Mud_type     - MUD TYPE
MATR.         SANDSTONE            : Logunit      - NEUTRON MATRIX
TMAX.C        24.4444              : BHT          - MAXIMUM RECORDED TEMPERATURE
BHTD.M        543.154              : BHTDEP       - MAXIMUM RECORDED TEMPERATURE
MATR.         1                    : LOGUNIT      - NEUTRON MATRIX
RMT .C        25                   : MDTP         - TEMPERATURE OF MUD
NEUT.         1                    : NEUTRON      - NEUTRON TYPE
RESI.         0                    : RESIST       - RESISTIVITY TYPE
RMC .OHMM     0.25                 : RMC          - RESISTIVITY OF MUD CAKE
RMF .OHMM     0.25                 : RMF          - RESISTIVITY OF MUD FILTRATE
SUFT.C        15                   : SUFT         - SURFACE TEMPERATURE
~A  DEPTH       GR     PHID     PHIN     RESD
# ...
  426.156   84.945    0.265    0.420    4.021
  426.406   85.970    0.276    0.425    3.975
  426.656   86.868    0.287    0.432    3.970
  426.906   86.359    0.292    0.438    3.957
  427.156   85.088    0.293    0.437    3.949
  427.406   84.671    0.296    0.436    3.994
  427.656   87.100    0.251    0.449    4.080
  427.906   92.213    0.227    0.438    4.266
  428.156   98.451    0.219    0.405    4.281
  428.406  108.546    0.233    0.408    4.129
  428.656  113.676    0.258    0.437    3.729
  428.906  113.336    0.282    0.512    3.281
  429.156  109.706    0.289    0.532    2.948
  429.406  107.017    0.291    0.529    2.749
  429.656  106.452    0.269    0.526    2.655
  429.906  104.723    0.252    0.532    2.643
  430.156  102.777    0.203    0.545    2.648
  430.406  103.305    0.145    0.532    2.658
  430.656  110.022    0.121    0.491    2.641
  430.906  115.270    0.177    0.495    2.619
  431.156  116.700    0.253    0.517    2.553
  431.406  117.488    0.301    0.531    2.485
  431.656  118.375    0.300    0.539    2.455
  431.906  118.197    0.280    0.530    2.472
  432.156  116.580    0.271    0.515    2.531
  432.406  114.144    0.263    0.503    2.646
  432.656  110.494    0.276    0.499    2.815
  432.906  106.751    0.283    0.491    2.994
  433.156  104.136    0.235    0.483    3.169
  433.406  103.856    0.214    0.477    3.367
  433.656  104.809    0.209    0.463    3.532
  433.906  106.596    0.225    0.457    3.667
  434.156  108.522    0.230    0.466    3.762
  434.406  110.855    0.226    0.472    3.838
  434.656  112.623    0.252    0.463    3.840
  434.906  112.267    0.261    0.456    3.846
  435.156  108.890    0.272    0.454    3.899
  435.406   97.863    0.270    0.451    4.177
  435.656   88.985    0.250    0.440    4.806
  435.906   79.324    0.215    0.418    5.718
  436.156   72.234    0.138    0.389    6.712
  436.406   67.743    0.107    0.339    8.086
  436.656   68.680    0.124    0.310    9.265
  436.906   71.553    0.211    0.375   10.175
  437.156   74.206    0.269    0.414   10.746
  437.406   76.807    0.297    0.438   11.097
  437.656   77.566    0.279    0.437   11.111
  437.906   77.636    0.247    0.435   10.844
  438.156   77.645    0.179    0.334   11.094
  438.406   78.075    0.137    0.285   11.781
  438.656   83.443    0.126    0.273   11.970
  438.906   93.903    0.183    0.326   10.576
  439.156  101.188    0.213    0.387    8.766
  439.406  105.250    0.229    0.428    6.554
  439.656  103.404    0.244    0.453    5.398
  439.906  103.107    0.229    0.466    4.707
  440.156  103.423    0.215    0.465    4.333
  440.406   99.960    0.207    0.459    4.217
  440.656   98.564    0.225    0.455    4.171
  440.906  100.102    0.242    0.451    4.152
  441.156  100.312    0.237    0.448    4.175
  441.406   97.646    0.215    0.444    4.209
  441.656   96.753    0.212    0.440    4.261
  441.906  100.987    0.178    0.434    4.315
  442.156  103.108    0.186    0.429    4.358
  442.406  104.256    0.198    0.425    4.391
  442.656  105.996    0.200    0.435    4.409
  442.906  107.821    0.207    0.441    4.418
  443.156  109.378    0.232    0.441    4.390
  443.406  107.285    0.240    0.446    4.329
  443.656  104.355    0.235    0.458    4.226
  443.906  100.412    0.209    0.454    4.181
  444.156   97.752    0.190    0.444    4.218
  444.406  104.510    0.172    0.433    4.248
  444.656  111.368    0.178    0.427    4.262
  444.906  116.298    0.208    0.426    4.237
  445.156  117.953    0.244    0.435    4.173
  445.406  116.963    0.241    0.444    4.080
  445.656  113.759    0.237    0.450    3.972
  445.906  111.014    0.243    0.455    3.861
  446.156  111.554    0.243    0.442    3.834
  446.406  112.483    0.233    0.430    3.876
  446.656  112.775    0.223    0.422    3.936
  446.906  111.282    0.216    0.419    4.004
  447.156  106.464    0.207    0.420    4.082
  447.406  101.153    0.194    0.419    4.152
  447.656   99.317    0.161    0.414    4.229
  447.906   99.511    0.138    0.409    4.275
  448.156  101.064    0.158    0.404    4.275
  448.406  104.049    0.183    0.399    4.234
  448.656  106.005    0.205    0.415    4.163
  448.906  108.322    0.198    0.431    4.045
  449.156  107.885    0.200    0.441    3.894
  449.406  106.761    0.230    0.451    3.795
  449.656  107.739    0.240    0.451    3.526
  449.906  113.485    0.257    0.444    3.180
  450.156  120.453    0.279    0.452    2.749
  450.406  121.862    0.290    0.478    2.545
  450.656  119.806    0.307    0.509    2.355
  450.906  113.497    0.304    0.525    2.196
  451.156  106.133    0.278    0.538    2.198
  451.406   98.228    0.234    0.553    2.216
  451.656   92.635    0.176    0.551    2.351
  451.906   92.338    0.165    0.509    2.563
  452.156   98.124    0.203    0.470    2.575
  452.406   93.548    0.214    0.476    2.834
  452.656   89.731    0.201    0.487    3.099
  452.906   89.708    0.187    0.482    3.355
  453.156   93.560    0.189    0.467    3.503
  453.406   98.377    0.199    0.453    3.584
  453.656  100.068    0.251    0.444    3.625
  453.906  101.928    0.262    0.438    3.636
  454.156  101.992    0.257    0.435    3.589
  454.406   99.652    0.257    0.441    3.452
  454.656   94.360    0.254    0.460    3.358
  454.906   87.512    0.239    0.476    3.335
  455.156   80.994    0.179    0.479    3.520
  455.406   79.293    0.130    0.397    3.811
  455.656   80.301    0.150    0.378    4.143
  455.906   84.496    0.188    0.379    4.490
  456.156   90.834    0.222    0.401    4.705
  456.406   95.257    0.245    0.404    4.568
  456.656   99.628    0.261    0.405    4.145
  456.906  105.039    0.255    0.418    3.733
  457.156  109.286    0.249    0.429    3.438
  457.406  112.371    0.240    0.441    3.157
  457.656  111.298    0.247    0.460    2.896
  457.906  105.456    0.266    0.469    2.743
  458.156   99.301    0.264    0.478    2.593
  458.406   96.562    0.205    0.496    2.494
  458.656   99.081    0.195    0.514    2.460
  458.906  102.831    0.169    0.503    2.531
  459.156  103.925    0.203    0.472    2.667
  459.406  104.120    0.225    0.449    2.842
  459.656  104.421    0.240    0.466    3.051
  459.906  105.953    0.253    0.479    3.223
  460.156  107.119    0.234    0.482    3.343
  460.406  106.901    0.185    0.480    3.384
  460.656  106.146    0.209    0.481    3.381
  460.906  105.267    0.223    0.479    3.358
  461.156  103.257    0.230    0.478    3.344
  461.406  100.409    0.236    0.476    3.429
  461.656   97.125    0.229    0.475    3.541
  461.906   96.816    0.216    0.465    3.604
  462.156  100.894    0.174    0.433    3.634
  462.406  105.158    0.188    0.433    3.671
  462.656  108.412    0.202    0.451    3.651
  462.906  112.735    0.202    0.472    3.549
  463.156  114.242    0.175    0.478    3.328
  463.406  111.967    0.265    0.483    3.004
  463.656  113.083    0.268    0.493    2.750
  463.906  112.970    0.258    0.498    2.607
  464.156  110.862    0.250    0.496    2.548
  464.406  108.624    0.248    0.494    2.572
  464.656  106.422    0.266    0.490    2.607
  464.906  108.399    0.256    0.485    2.733
  465.156  111.764    0.245    0.482    2.806
  465.406  113.183    0.255    0.477    2.817
  465.656  110.006    0.265    0.484    2.771
  465.906  103.541    0.249    0.502    2.731
  466.156   98.898    0.244    0.488    2.775
  466.406  104.161    0.233    0.452    2.917
  466.656  111.591    0.209    0.428    3.035
  466.906  118.711    0.246    0.432    3.111
  467.156  125.399    0.250    0.447    2.980
  467.406  127.401    0.251    0.467    2.760
  467.656  128.368    0.255    0.500    2.568
  467.906  127.552    0.246    0.513    2.446
  468.156  124.683    0.254    0.527    2.380
  468.406  121.519    0.234    0.519    2.377
  468.656  117.286    0.222    0.498    2.477
  468.906  113.001    0.209    0.479    2.579
  469.156  120.852    0.219    0.382    2.765
  469.406  128.641    0.200    0.351    2.952
