~VERSION INFORMATION
 VERS.                 2.0:   CWLS LOG ASCII STANDARD -VERSION 2.0
 WRAP.                  NO:   ONE LINE PER DEPTH STEP
~WELL INFORMATION BLOCK
#MNEM.UNIT           DATA                    DESCRIPTION OF MNEMONIC
#---------    -------------------            -------------------------------
# Generated from Intellog Unique Number	CW_76_78/WELL/993
WELL.         GULF POC DROWNED 11-03         : Well_name    - WELL
LOC .         00/11-03-077-21W4/0            : Location     - LOCATION
UWI .         00/11-03-077-21W4/0            : Uwi          - UNIQUE WELL ID
ENTR.         os                             : Entered      - ENTERED BY
SRVC.         SCHLUMBERGER                   : Scn          - SERVICE COMPANY
DATE.         FEB 1978                       : Date         - LOG DATE
STRT.M        417.576                        : top_depth    - START DEPTH
STOP.M        609.576                        : bot_depth    - STOP DEPTH
STEP.M        0.25                           : increment    - STEP LENGTH
 NULL. -999.2500:NULL Value
~CURVE INFORMATION BLOCK
#MNEM UNIT       ERCB CURVE CODE    CURVE DESCRIPTION
#-----------   ------------------   ----------------------------------
DEPT.M        00 001 00 00         : DEPTH        - DEPTH
ILD .OHMM     00 120 00 00         : RESD         - DEEP RESISTIVITY (DIL)
NPHI.V/V      00 330 00 00         : PHIN         - NEUTRON POROSITY (SANDSTONE)
DPHI.V/V      00 890 00 00         : PHID         - DENSITY POROSITY (SANDSTONE)
GR  .API      00 310 00 00         : GR           - GAMMA RAY
CALI.MM       00 280 01 00         : CAL          - CALIPER
~PARAMETER INFORMATION
#MNEM.UNIT           DATA             DESCRIPTION OF MNEMONIC
#---------         -----------     ------------------------------
GL  .M        745.541              : gl           - GROUND LEVEL ELEVATION
EREF.M        749.503              : kb           - ELEVATION OF DEPTH REFERENCE
DATM.M        749.503              : datum        - DATUM ELEVATION
TDD .M        622.706              : tdd          - TOTAL DEPTH DRILLER
RUN .         ONE                  : Run          - RUN NUMBER
ENG .         GUNN                 : Engineer     - RECORDING ENGINEER
WIT .         ROZENHART            : Witness      - WITNESSED BY
BASE.         EDMONTON             : Branch       - HOME BASE OF LOGGING UNIT
MUD .         GEL CHEM             : Mud_type     - MUD TYPE
MATR.         SANDSTONE            : Logunit      - NEUTRON MATRIX
TMAX.C        26.1111              : BHT          - MAXIMUM RECORDED TEMPERATURE
BHTD.M        623.011              : BHTDEP       - MAXIMUM RECORDED TEMPERATURE
RMT .C        20                   : MDTP         - TEMPERATURE OF MUD
MUDD.KG/M     1116                 : MWT          - MUD DENSITY
NEUT.         1                    : NEUTRON      - NEUTRON TYPE
RESI.         0                    : RESIST       - RESISTIVITY TYPE
RM  .OHMM     5.37                 : RM           - RESISTIVITY OF MUD
RMC .OHMM     0.25                 : RMC          - RESISTIVITY OF MUD CAKE
RMF .OHMM     0.25                 : RMF          - RESISTIVITY OF MUD FILTRATE
SUFT.C        4.5                  : SUFT         - SURFACE TEMPERATURE
~A  DEPTH     RESD     PHIN     PHID       GR      CAL
# ...
  563.576    5.403    0.433    0.240   65.127  156.720
  563.826    5.406    0.437    0.228   63.452  156.864
  564.076    5.438    0.430    0.221   63.656  157.199
  564.326    5.523    0.436    0.211   62.767  157.555
  564.576    5.682    0.434    0.196   57.578  157.582
  564.826    5.978    0.402    0.184   49.597  157.418
  565.076    6.664    0.289    0.117   52.286  157.550
  565.326    7.090    0.284    0.048   59.461  157.699
  565.576    7.363    0.337    0.084   64.636  157.730
  565.826    7.217    0.409    0.108   69.077  157.969
  566.076    6.839    0.418    0.149   73.281  158.415
  566.326    6.152    0.417    0.175   73.788  158.554
  566.576    5.534    0.429    0.177   75.085  158.078
  566.826    5.455    0.446    0.185   75.649  158.220
  567.076    5.467    0.458    0.163   75.671  158.766
  567.326    5.510    0.455    0.166   73.757  159.321
  567.576    5.544    0.445    0.183   74.137  159.762
  567.826    5.556    0.441    0.185   71.919  160.418
  568.076    5.548    0.432    0.169   73.336  160.863
  568.326    5.551    0.428    0.145   75.418  161.215
  568.576    5.553    0.430    0.150   78.043  161.961
  568.826    5.525    0.458    0.187   78.308  163.024
  569.076    5.486    0.468    0.179   76.813  163.682
  569.326    5.417    0.452    0.206   75.318  161.250
  569.576    5.350    0.451    0.179   73.221  159.033
  569.826    5.372    0.452    0.195   70.089  158.965
  570.076    5.414    0.442    0.183   67.565  158.178
  570.326    5.488    0.432    0.169   69.835  158.019
  570.576    5.572    0.421    0.184   69.125  157.435
  570.826    5.649    0.423    0.178   67.938  156.142
  571.076    5.704    0.423    0.175   67.655  155.143
  571.326    5.760    0.419    0.207   69.554  154.052
  571.576    5.784    0.422    0.224   77.210  153.675
  571.826    5.744    0.425    0.190   80.991  154.430
  572.076    5.682    0.432    0.185   80.708  156.115
  572.326    5.663    0.429    0.197   80.487  156.761
  572.576    5.697    0.433    0.175   75.600  157.211
  572.826    5.841    0.445    0.160   70.106  157.864
  573.076    5.997    0.358    0.141   66.491  157.383
  573.326    6.526    0.342    0.116   66.817  155.474
  573.576    6.956    0.372    0.106   70.536  153.453
  573.826    7.278    0.387    0.133   74.192  153.597
  574.076    7.253    0.397    0.151   77.306  154.864
  574.326    7.003    0.411    0.149   76.780  156.246
  574.576    6.613    0.423    0.154   75.469  156.684
  574.826    6.482    0.417    0.168   73.551  154.870
  575.076    6.533    0.408    0.172   72.300  152.444
  575.326    6.585    0.396    0.172   73.719  154.943
  575.576    6.575    0.385    0.136   74.407  156.824
  575.826    6.554    0.396    0.131   75.515  157.584
  576.076    6.680    0.403    0.140   73.053  157.207
  576.326    6.898    0.380    0.159   68.953  156.938
  576.576    7.327    0.368    0.155   65.823  156.359
  576.826    7.665    0.336    0.128   61.056  154.447
  577.076    7.974    0.302    0.050   63.869  154.590
  577.326    8.359    0.322    0.023   66.795  155.961
  577.576    8.828    0.336    0.058   67.362  157.125
  577.826    9.031    0.359    0.088   65.629  156.852
  578.076    8.657    0.354    0.089   66.802  156.880
  578.326    8.436    0.350    0.068   68.458  156.209
  578.576    7.776    0.357    0.120   68.539  156.755
  578.826    7.507    0.368    0.149   70.865  157.094
  579.076    7.181    0.414    0.170   72.643  156.923
  579.326    6.844    0.425    0.176   71.878  157.075
  579.576    6.487    0.416    0.159   72.932  157.104
  579.826    6.170    0.410    0.134   75.439  157.653
  580.076    5.740    0.418    0.116   77.581  159.021
  580.326    5.637    0.437    0.140   79.054  160.595
  580.576    5.618    0.430    0.168   76.289  158.586
  580.826    5.600    0.422    0.174   78.614  159.756
  581.076    5.612    0.430    0.182   79.483  160.917
  581.326    5.625    0.460    0.168   79.807  161.263
  581.576    5.638    0.449    0.155   80.559  160.988
  581.826    5.609    0.423    0.146   79.852  160.409
  582.076    5.528    0.405    0.137   79.872  160.030
  582.326    5.439    0.394    0.164   77.530  160.580
  582.576    5.360    0.394    0.165   77.491  162.265
  582.826    5.156    0.407    0.159   77.512  163.737
  583.076    4.905    0.411    0.166   76.928  164.900
  583.326    4.737    0.408    0.154   76.830  166.374
  583.576    4.634    0.408    0.173   76.849  167.337
  583.826    4.508    0.415    0.182   77.478  168.092
  584.076    4.024    0.422    0.153   76.955  168.124
  584.326    3.520    0.435    0.176   79.158  165.901
  584.576    2.983    0.476    0.177   79.179  165.013
  584.826    2.485    0.536    0.232   76.230  165.980
  585.076    2.040    0.547    0.259   78.012  164.988
  585.326    1.794    0.582    0.245   70.213  164.509
  585.576    1.593    0.575    0.217   68.839  166.290
  585.826    1.597    0.533    0.225   65.891  168.589
  586.076    1.760    0.512    0.217   55.730  166.468
  586.326    2.270    0.426    0.199   50.602  162.399
  586.576    2.889    0.359    0.170   52.319  160.789
  586.826    4.308    0.338    0.130   56.647  161.142
  587.076    6.319    0.350    0.084   58.668  160.360
  587.326    7.340    0.372    0.089   63.053  159.782
  587.576    7.008    0.389    0.100   66.047  159.606
  587.826    5.873    0.405    0.165   69.160  160.258
  588.076    5.185    0.405    0.172   71.541  162.453
  588.326    4.385    0.400    0.152   76.592  164.642
  588.576    3.702    0.402    0.179   79.586  163.453
  588.826    3.386    0.430    0.171   78.574  164.207
  589.076    3.432    0.457    0.157   73.507  167.625
  589.326    3.913    0.447    0.171   69.648  167.355
  589.576    4.329    0.414    0.168   66.037  163.594
  589.826    5.881    0.394    0.162   65.813  158.705
  590.076    6.947    0.367    0.186   66.382  155.966
  590.326    7.687    0.351    0.180   73.614  157.231
  590.576    7.563    0.361    0.159   83.392  159.116
  590.826    7.302    0.395    0.138   92.931  160.897
  591.076    6.869    0.416    0.124  101.802  164.628
  591.326    6.019    0.421    0.141  106.851  165.695
  591.576    5.445    0.423    0.140  101.055  162.148
  591.826    5.336    0.405    0.140   72.590  157.974
  592.076    5.349    0.408    0.152   74.736  158.002
  592.326    5.322    0.415    0.141   78.755  158.447
  592.576    5.364    0.438    0.121   76.897  158.906
  592.826    5.549    0.445    0.153   68.070  158.831
  593.076    5.763    0.358    0.180   60.395  154.247
  593.326    6.412    0.325    0.190   55.446  152.236
  593.576    7.504    0.309    0.182   56.498  153.087
  593.826    9.131    0.300    0.158   55.307  154.770
  594.076   11.175    0.297    0.117   57.273  155.833
  594.326   11.757    0.294    0.100   56.263  155.970
  594.576   11.850    0.290    0.083   56.587  158.068
  594.826   10.780    0.285    0.073   58.913  158.199
  595.076    9.972    0.305    0.107   61.658  157.414
  595.326    9.557    0.314    0.137   66.043  157.451
  595.576    9.210    0.338    0.151   70.979  158.320
  595.826    8.378    0.344    0.135   74.513  159.079
  596.076    7.896    0.357    0.128   77.381  158.908
  596.326    7.553    0.370    0.123   79.888  159.138
  596.576    7.320    0.370    0.115   81.972  158.868
  596.826    7.018    0.374    0.119   83.688  158.905
  597.076    6.954    0.387    0.122   83.408  159.047
  597.326    6.791    0.395    0.126   83.731  159.081
  597.576    6.681    0.400    0.152   86.182  159.126
  597.826    6.622    0.402    0.162   84.870  158.942
  598.076    6.526    0.394    0.146   76.704  157.958
  598.326    6.480    0.369    0.133   63.333  155.221
  598.576    6.507    0.345    0.158   64.445  152.904
  598.826    6.633    0.341    0.164   69.981  153.344
  599.076    6.786    0.367    0.185   70.487  154.405
  599.326    6.968    0.404    0.212   74.027  153.106
  599.576    7.277    0.413    0.206   76.046  152.423
  599.826    7.362    0.421    0.171   78.370  153.490
