~VERSION INFORMATION
 VERS.                 2.0:   CWLS LOG ASCII STANDARD -VERSION 2.0
 WRAP.                  NO:   ONE LINE PER DEPTH STEP
~WELL INFORMATION BLOCK
#MNEM.UNIT           DATA                    DESCRIPTION OF MNEMONIC
#---------    -------------------            -------------------------------
# Generated from Intellog Unique Number	CS_67_68/WELL/842
WELL.         CANADA-CITIES SERVICE LTD      : Well_name    - WELL
LOC .         00/11-25-068-14W4/0            : Location     - LOCATION
UWI .         00/11-25-068-14W4/0            : Uwi          - UNIQUE WELL ID
ENTR.         SP                             : Entered      - ENTERED BY
SRVC.         SCHLUMBERGER                   : Scn          - SERVICE COMPANY
STRT.M        259.08                         : top_depth    - START DEPTH
STOP.M        456.830                        : bot_depth    - STOP DEPTH
STEP.M        0.25                           : increment    - STEP LENGTH
 NULL. -999.2500:NULL Value
~CURVE INFORMATION BLOCK
#MNEM UNIT       ERCB CURVE CODE    CURVE DESCRIPTION
#-----------   ------------------   ----------------------------------
DEPT.M        00 001 00 00         : DEPTH        - DEPTH
GR  .API      00 310 00 00         : GR           - GAMMA RAY
DPHI.V/V      00 890 00 00         : PHID         - DENSITY POROSITY (SANDSTONE)
NPHI.V/V      00 330 00 00         : PHIN         - NEUTRON POROSITY (SANDSTONE)
ILD .OHMM     00 120 00 00         : RESD         - DEEP RESISTIVITY (DIL)
~PARAMETER INFORMATION
#MNEM.UNIT           DATA             DESCRIPTION OF MNEMONIC
#---------         -----------     ------------------------------
GL  .M        552.907              : gl           - GROUND LEVEL ELEVATION
EREF.M        555.346              : kb           - ELEVATION OF DEPTH REFERENCE
DATM.M        552.907              : datum        - DATUM ELEVATION
TDD .M        458.114              : tdd          - TOTAL DEPTH DRILLER
RUN .         ONE                  : Run          - RUN NUMBER
ENG .         BILL                 : Engineer     - RECORDING ENGINEER
WIT .         JIM                  : Witness      - WITNESSED BY
MUD .         GEL                  : Mud_type     - MUD TYPE
MATR.         SANDSTONE            : Logunit      - NEUTRON MATRIX
TMAX.C        14.4444              : BHT          - MAXIMUM RECORDED TEMPERATURE
BHTD.M        458.114              : BHTDEP       - MAXIMUM RECORDED TEMPERATURE
MATR.         1                    : LOGUNIT      - NEUTRON MATRIX
RMT .C        25                   : MDTP         - TEMPERATURE OF MUD
NEUT.         1                    : NEUTRON      - NEUTRON TYPE
RESI.         0                    : RESIST       - RESISTIVITY TYPE
RMC .OHMM     0.25                 : RMC          - RESISTIVITY OF MUD CAKE
RMF .OHMM     0.25                 : RMF          - RESISTIVITY OF MUD FILTRATE
SUFT.C        15                   : SUFT         - SURFACE TEMPERATURE
~A  DEPTH       GR     PHID     PHIN     RESD
# ...
  346.080   82.995    0.225    0.460    4.004
  346.330   83.415    0.212    0.464    4.139
  346.580   83.040    0.214    0.463    4.259
  346.830   82.623    0.221    0.481    4.352
  347.080   81.636    0.223    0.477    4.412
  347.330   79.748    0.217    0.481    4.364
  347.580   78.268    0.216    0.479    4.366
  347.830   79.404    0.210    0.468    4.381
  348.080   83.060    0.202    0.461    4.392
  348.330   80.391    0.216    0.451    4.439
  348.580   78.215    0.229    0.467    4.344
  348.830   77.435    0.247    0.478    3.929
  349.080   76.207    0.269    0.489    3.219
  349.330   73.958    0.284    0.499    2.839
  349.580   75.178    0.303    0.490    2.731
  349.830   78.220    0.306    0.485    2.674
  350.080   80.678    0.290    0.482    2.797
  350.330   82.654    0.279    0.471    2.967
  350.580   82.348    0.267    0.472    3.172
  350.830   83.277    0.266    0.476    3.308
  351.080   86.050    0.269    0.466    3.356
  351.330   85.085    0.266    0.464    3.364
  351.580   81.269    0.255    0.485    3.302
  351.830   79.465    0.264    0.506    3.188
  352.080   79.451    0.268    0.491    3.107
  352.330   81.000    0.257    0.487    3.408
  352.580   81.335    0.250    0.485    3.481
  352.830   81.317    0.251    0.485    3.512
  353.080   80.922    0.249    0.500    3.497
  353.330   79.950    0.246    0.507    3.435
  353.580   77.942    0.256    0.493    3.241
  353.830   76.074    0.270    0.480    3.087
  354.080   74.160    0.289    0.488    2.994
  354.330   73.359    0.290    0.498    3.087
  354.580   75.087    0.285    0.478    3.282
  354.830   77.125    0.278    0.479    3.618
  355.080   74.887    0.260    0.463    4.217
  355.330   70.349    0.245    0.441    4.954
  355.580   66.532    0.217    0.375    5.766
  355.830   64.894    0.119    0.265    6.360
  356.080   66.244    0.127    0.277    6.766
  356.330   72.540    0.197    0.355    6.595
  356.580   74.945    0.228    0.407    5.756
  356.830   74.705    0.243    0.438    4.890
  357.080   72.924    0.255    0.450    4.573
  357.330   68.694    0.138    0.433    4.695
  357.580   61.302    0.062    0.269    5.164
  357.830   58.750    0.028    0.255    5.607
  358.080   68.737    0.051    0.268    6.245
  358.330   76.552    0.085    0.326    6.677
  358.580   84.231    0.154    0.419    6.487
  358.830   84.094    0.207    0.465    5.542
  359.080   84.872    0.206    0.460    5.232
  359.330   86.806    0.208    0.449    4.813
  359.580   88.212    0.219    0.441    4.374
  359.830   88.731    0.228    0.472    4.162
  360.080   89.031    0.227    0.494    4.004
  360.330   88.171    0.225    0.511    3.927
  360.580   87.650    0.227    0.502    3.835
  360.830   88.514    0.215    0.488    3.784
  361.080   90.006    0.213    0.474    3.796
  361.330   92.163    0.211    0.467    3.810
  361.580   94.434    0.216    0.472    3.815
  361.830   96.651    0.211    0.475    3.837
  362.080   98.505    0.218    0.476    3.852
  362.330   98.691    0.222    0.483    3.899
  362.580   96.637    0.223    0.475    3.892
  362.830   92.618    0.248    0.464    3.669
  363.080   85.772    0.275    0.466    3.066
  363.330   81.212    0.433    0.521    2.853
  363.580   81.245    0.524    0.568    2.518
  363.830   82.623    0.526    0.599    2.263
  364.080   83.903    0.408    0.583    2.056
  364.330   91.102    0.406    0.581    2.001
  364.580   95.643    0.369    0.571    2.055
  364.830   98.632    0.201    0.537    2.200
  365.080   98.774    0.223    0.526    2.417
  365.330   96.656    0.235    0.508    2.609
  365.580   95.052    0.224    0.488    2.826
  365.830   94.554    0.217    0.497    2.993
  366.080   94.831    0.220    0.496    3.196
  366.330   91.957    0.231    0.488    3.523
  366.580   89.483    0.246    0.480    3.733
  366.830   89.379    0.236    0.476    3.834
  367.080   90.083    0.220    0.470    3.853
  367.330   90.004    0.220    0.476    3.766
  367.580   88.458    0.230    0.483    3.712
  367.830   86.308    0.223    0.491    3.757
  368.080   81.158    0.228    0.506    3.468
  368.330   80.081    0.238    0.503    3.114
  368.580   80.653    0.256    0.486    2.901
  368.830   78.758    0.262    0.473    2.752
  369.080   73.270    0.247    0.476    2.677
  369.330   67.625    0.250    0.465    2.684
  369.580   67.102    0.258    0.470    2.733
  369.830   68.750    0.279    0.482    2.737
  370.080   68.493    0.304    0.469    2.710
  370.330   63.691    0.293    0.456    2.581
  370.580   59.184    0.288    0.453    2.460
  370.830   54.867    0.286    0.464    2.335
  371.080   52.264    0.291    0.478    2.273
  371.330   49.947    0.314    0.480    2.304
  371.580   48.567    0.313    0.468    2.495
  371.830   47.446    0.311    0.457    2.647
  372.080   46.042    0.184    0.394    3.416
  372.330   44.076    0.022    0.340    6.127
  372.580   41.915    0.012    0.170   10.619
  372.830   41.842    0.014    0.148   15.822
  373.080   43.332    0.025    0.171   18.329
  373.330   44.390    0.138    0.181   17.939
  373.580   46.932    0.217    0.208    8.995
  373.830   48.201    0.250    0.285    5.249
  374.080   49.555    0.278    0.371    3.872
  374.330   49.981    0.307    0.463    3.246
  374.580   50.140    0.328    0.439    2.687
  374.830   49.855    0.328    0.426    2.416
  375.080   49.408    0.334    0.416    2.158
  375.330   49.138    0.323    0.423    2.071
  375.580   49.005    0.329    0.427    2.011
  375.830   49.157    0.332    0.427    2.012
  376.080   49.160    0.330    0.426    1.994
  376.330   48.018    0.326    0.438    1.986
  376.580   47.560    0.325    0.450    1.998
  376.830   47.775    0.324    0.449    2.006
  377.080   48.847    0.320    0.439    2.005
  377.330   50.153    0.320    0.438    2.032
  377.580   51.176    0.323    0.433    2.042
  377.830   51.964    0.331    0.427    2.048
  378.080   52.409    0.326    0.436    2.054
  378.330   52.652    0.322    0.450    2.055
  378.580   52.820    0.328    0.461    2.062
  378.830   52.774    0.324    0.465    2.087
  379.080   53.021    0.315    0.471    2.122
  379.330   53.993    0.313    0.472    2.156
  379.580   56.031    0.325    0.461    2.205
  379.830   57.953    0.331    0.460    2.261
  380.080   59.608    0.326    0.469    2.417
  380.330   60.891    0.331    0.470    2.523
  380.580   60.923    0.330    0.461    2.633
  380.830   59.800    0.325    0.453    2.739
  381.080   58.693    0.333    0.450    2.821
  381.330   58.910    0.324    0.461    2.755
  381.580   59.661    0.317    0.476    2.459
  381.830   61.103    0.327    0.481    2.263
  382.080   62.988    0.331    0.477    2.174
  382.330   65.028    0.332    0.472    2.146
  382.580   67.054    0.333    0.468    2.147
  382.830   68.878    0.325    0.466    2.177
  383.080   70.392    0.310    0.468    2.233
  383.330   72.195    0.300    0.478    2.283
  383.580   73.910    0.304    0.491    2.378
  383.830   75.646    0.289    0.501    2.468
  384.080   77.051    0.275    0.491    2.593
  384.330   77.663    0.264    0.481    2.724
  384.580   76.786    0.266    0.480    2.796
  384.830   76.455    0.284    0.497    2.909
  385.080   77.525    0.298    0.508    2.925
  385.330   78.634    0.295    0.503    2.870
  385.580   79.204    0.291    0.496    2.811
  385.830   78.986    0.284    0.493    2.803
  386.080   76.130    0.282    0.490    2.885
  386.330   74.410    0.290    0.514    3.008
  386.580   77.521    0.290    0.509    3.130
  386.830   79.875    0.282    0.493    3.268
  387.080   82.958    0.278    0.502    3.404
  387.330   84.858    0.287    0.513    3.531
  387.580   86.270    0.280    0.500    3.669
  387.830   87.945    0.272    0.492    3.762
  388.080   87.591    0.261    0.506    3.817
  388.330   89.773    0.260    0.519    3.778
  388.580   91.878    0.273    0.538    3.523
  388.830   93.143    0.294    0.552    3.153
  389.080   93.463    0.319    0.563    2.921
  389.330   93.104    0.296    0.552    2.826
