~VERSION INFORMATION
 VERS.                 2.0:   CWLS LOG ASCII STANDARD -VERSION 2.0
 WRAP.                  NO:   ONE LINE PER DEPTH STEP
~WELL INFORMATION BLOCK
#MNEM.UNIT           DATA                    DESCRIPTION OF MNEMONIC
#---------    -------------------            -------------------------------
# Generated from Intellog Unique Number	CS_71_72/WELL/1040
WELL.         BVX SUNDANCE LYLE              : Well_name    - WELL
LOC .         00/10-23-072-17W4/0            : Location     - LOCATION
UWI .         00/10-23-072-17W4/0            : Uwi          - UNIQUE WELL ID
ENTR.         TIM                            : Entered      - ENTERED BY
SRVC.         SCHLUMBERGER                   : Scn          - SERVICE COMPANY
STRT.M        243.84                         : top_depth    - START DEPTH
STOP.M        432.84                         : bot_depth    - STOP DEPTH
STEP.M        0.25                           : increment    - STEP LENGTH
 NULL. -999.2500:NULL Value
~CURVE INFORMATION BLOCK
#MNEM UNIT       ERCB CURVE CODE    CURVE DESCRIPTION
#-----------   ------------------   ----------------------------------
DEPT.M        00 001 00 00         : DEPTH        - DEPTH
ILD .OHMM     00 120 00 00         : RESD         - DEEP RESISTIVITY (DIL)
DPHI.V/V      00 890 00 00         : PHID         - DENSITY POROSITY (SANDSTONE)
GR  .API      00 310 00 00         : GR           - GAMMA RAY
~PARAMETER INFORMATION
#MNEM.UNIT           DATA             DESCRIPTION OF MNEMONIC
#---------         -----------     ------------------------------
GL  .M        560.832              : gl           - GROUND LEVEL ELEVATION
EREF.M        563.88               : kb           - ELEVATION OF DEPTH REFERENCE
DATM.M        563.88               : datum        - DATUM ELEVATION
TDD .M        434.645              : tdd          - TOTAL DEPTH DRILLER
RUN .         ONE                  : Run          - RUN NUMBER
ENG .         BILL                 : Engineer     - RECORDING ENGINEER
WIT .         JIM                  : Witness      - WITNESSED BY
MUD .         GEL                  : Mud_type     - MUD TYPE
MATR.         SANDSTONE            : Logunit      - NEUTRON MATRIX
TMAX.C        26.6667              : BHT          - MAXIMUM RECORDED TEMPERATURE
BHTD.M        434.34               : BHTDEP       - MAXIMUM RECORDED TEMPERATURE
RMT .C        17                   : MDTP         - TEMPERATURE OF MUD
MUDD.KG/M     9041.66              : MWT          - MUD DENSITY
NEUT.         1                    : NEUTRON      - NEUTRON TYPE
RESI.         0                    : RESIST       - RESISTIVITY TYPE
RM  .OHMM     3.1                  : RM           - RESISTIVITY OF MUD
RMC .OHMM     3.7                  : RMC          - RESISTIVITY OF MUD CAKE
RMF .OHMM     2.5                  : RMF          - RESISTIVITY OF MUD FILTRATE
SUFT.C        4                    : SUFT         - SURFACE TEMPERATURE
~A  DEPTH     RESD     PHID       GR
# ...
  298.090    5.492    0.349   59.562
  298.340    5.499    0.348   59.033
  298.590    5.433    0.347   58.524
  298.840    5.443    0.344   57.975
  299.090    5.454    0.336   56.858
  299.340    5.464    0.330   56.349
  299.590    5.395    0.336   56.408
  299.840    5.408    0.343   56.487
  300.090    5.415    0.342   55.959
  300.340    5.425    0.335   55.430
  300.590    5.357    0.332   55.529
  300.840    5.288    0.337   56.176
  301.090    5.220    0.340   56.902
  301.340    5.153    0.346   57.549
  301.590    5.085    0.353   58.275
  301.840    5.095    0.364   58.334
  302.090    5.029    0.371   57.845
  302.340    5.039    0.372   57.904
  302.590    5.049    0.372   57.376
  302.840    5.059    0.372   57.455
  303.090    4.991    0.371   56.926
  303.340    5.003    0.369   57.005
  303.590    5.008    0.359   57.064
  303.840    5.019    0.354   57.182
  304.090    4.952    0.355   56.634
  304.340    4.884    0.356   56.713
  304.590    4.894    0.355   56.792
  304.840    4.907    0.350   56.890
  305.090    4.833    0.348   56.969
  305.340    4.848    0.348   57.656
  305.590    4.780    0.341   57.715
  305.840    4.790    0.340   57.794
  306.090    4.802    0.349   57.873
  306.340    4.807    0.348   57.952
  306.590    4.741    0.338   57.423
  306.840    4.754    0.341   56.934
  307.090    4.680    0.340   57.013
  307.340    4.690    0.339   58.307
  307.590    4.624    0.340   58.994
  307.840    4.632    0.340   59.053
  308.090    4.566    0.338   59.760
  308.340    4.579    0.343   59.839
  308.590    4.589    0.347   59.898
  308.840    4.520    0.345   59.997
  309.090    4.530    0.333   60.076
  309.340    4.540    0.317   60.155
  309.590    4.550    0.304   60.253
  309.840    4.561    0.296   60.312
  310.090    4.568    0.293   61.039
  310.340    4.581    0.291   61.686
  310.590    4.588    0.289   63.588
  310.840    4.599    0.291   65.510
  311.090    4.693    0.299   66.197
  311.340    4.703    0.307   66.296
  311.590    4.713    0.308   66.355
  311.840    4.723    0.308   67.061
  312.090    4.733    0.304   67.748
  312.340    4.665    0.301   68.435
  312.590    4.675    0.302   69.121
  312.840    4.682    0.300   69.200
  313.090    4.619    0.298   69.299
  313.340    4.545    0.290   69.358
  313.590    4.476    0.275   70.084
  313.840    4.570    0.252   70.751
  314.090    4.659    0.234   71.418
  314.340    4.746    0.218   72.733
  314.590    4.680    0.198   74.635
  314.840    4.453    0.185   76.557
  315.090    4.382    0.210   78.439
  315.340    4.156    0.230   81.557
  315.590    3.854    0.240   84.067
  315.840    3.627    0.247   87.224
  316.090    3.480    0.242   87.283
  316.340    3.490    0.239   87.970
  316.590    3.419    0.244   87.441
  316.840    3.437    0.250   86.305
  317.090    3.523    0.254   85.168
  317.340    3.531    0.264   84.051
  317.590    3.546    0.287   82.934
  317.840    3.554    0.303   82.366
  318.090    3.643    0.317   80.622
  318.340    3.574    0.334   78.270
  318.590    3.584    0.344   71.663
  318.840    3.597    0.352   63.822
  319.090    3.602    0.351   59.646
  319.340    3.612    0.345   59.765
  319.590    3.701    0.339   60.452
  319.840    3.713    0.325   61.118
  320.090    3.802    0.324   61.237
  320.340    3.813    0.324   61.296
  320.590    3.904    0.326   61.355
  320.840    3.912    0.327   61.474
  321.090    4.003    0.329   60.925
  321.340    4.011    0.333   60.396
  321.590    3.945    0.337   59.260
  321.840    3.952    0.341   58.711
  322.090    3.889    0.343   58.182
  322.340    3.899    0.345   57.673
  322.590    3.828    0.347   59.007
  322.840    3.840    0.348   59.674
  323.090    3.848    0.351   59.734
  323.340    3.861    0.354   60.420
  323.590    3.868    0.357   59.892
  323.840    3.881    0.357   58.775
  324.090    3.891    0.361   58.226
  324.340    3.904    0.370   57.090
  324.590    3.909    0.372   57.776
  324.840    3.919    0.374   59.090
  325.090    3.937    0.364   60.405
  325.340    3.944    0.356   60.464
  325.590    3.954    0.355   60.563
  325.840    3.962    0.353   60.622
  326.090    3.972    0.349   59.525
  326.340    3.985    0.342   59.584
  326.590    3.995    0.340   59.075
  326.840    4.008    0.335   58.526
  327.090    4.013    0.331   58.586
  327.340    4.025    0.326   59.292
  327.590    4.038    0.331   59.371
  327.840    4.048    0.335   59.470
  328.090    4.056    0.338   60.156
  328.340    4.066    0.342   60.255
  328.590    4.076    0.344   60.294
  328.840    4.086    0.345   60.413
  329.090    4.096    0.347   60.452
  329.340    4.188    0.353   59.355
  329.590    4.195    0.356   58.787
  329.840    4.208    0.345   58.278
  330.090    4.297    0.322   58.357
  330.340    4.389    0.312   59.063
  330.590    4.396    0.306   59.142
  330.840    4.485    0.296   58.614
  331.090    4.810    0.284   58.692
  331.340    5.372    0.259   56.948
  331.590    6.251    0.229   54.596
  331.840    7.207    0.180   52.244
  332.090    8.716    0.151   51.695
  332.340    9.910    0.139   49.951
  332.590   10.474    0.154   50.638
  332.840    9.537    0.168   52.560
  333.090    7.654    0.211   53.834
  333.340    6.403    0.233   56.992
  333.590    5.705    0.255   58.266
  333.840    5.084    0.276   58.973
  334.090    4.698    0.310   59.660
  334.340    4.236    0.317   60.954
  334.590    4.010    0.308   61.033
  334.840    3.862    0.320   61.720
  335.090    3.799    0.325   61.799
  335.340    3.730    0.328   61.878
  335.590    3.735    0.330   61.976
  335.840    3.748    0.335   61.447
  336.090    3.679    0.338   61.507
  336.340    3.689    0.337   61.586
  336.590    3.699    0.335   61.684
  336.840    3.633    0.333   62.351
  337.090    3.646    0.333   63.038
  337.340    3.651    0.333   64.980
  337.590    3.664    0.323   67.470
  337.840    3.595    0.321   66.941
  338.090    3.605    0.321   63.393
  338.340    3.615    0.316   63.472
  338.590    3.547    0.326   65.963
  338.840    3.557    0.333   68.472
  339.090    3.569    0.339   71.630
  339.340    3.577    0.336   71.101
  339.590    3.514    0.331   68.749
  339.840    3.519    0.323   67.593
  340.090    3.531    0.315   65.848
  340.340    3.544    0.313   64.731
  340.590    3.549    0.309   64.791
  340.840    3.564    0.305   64.301
  341.090    3.572    0.297   64.341
  341.340    3.585    0.292   64.439
  341.590    3.592    0.301   63.911
  341.840    3.605    0.306   63.990
  342.090    3.615    0.309   63.441
  342.340    3.546    0.308   61.736
  342.590    3.554    0.305   61.188
  342.840    3.569    0.307   60.031
  343.090    3.574    0.311   59.522
  343.340    3.511    0.309   60.248
  343.590    3.521    0.313   60.308
  343.840    3.528    0.315   61.582
  344.090    3.544    0.312   62.877
  344.340    3.549    0.315   64.779
  344.590    3.480    0.329   66.681
  344.840    3.490    0.330   69.251
  345.090    3.500    0.318   69.918
  345.340    3.510    0.309   70.624
  345.590    3.521    0.305   70.663
  345.840    3.531    0.305   70.742
  346.090    3.543    0.305   70.861
  346.340    3.554    0.301   70.920
  346.590    3.564    0.301   70.979
  346.840    3.574    0.307   70.490
  347.090    3.584    0.307   70.569
  347.340    3.594    0.299   70.020
  347.590    3.609    0.303   70.139
  347.840    3.617    0.305   70.178
  348.090    3.708    0.307   70.257
  348.340    3.713    0.288   70.356
  348.590    3.726    0.288   69.827
  348.840    3.734    0.289   69.886
  349.090    3.744    0.286   69.985
  349.340    3.762    0.289   70.064
  349.590    3.772    0.288   70.143
  349.840    3.779    0.283   71.457
  350.090    3.787    0.280   72.124
  350.340    3.721    0.282   74.026
  350.590    3.731    0.283   75.929
  350.840    3.662    0.279   77.850
  351.090    3.594    0.277   80.380
  351.340    3.446    0.270   82.910
  351.590    3.141    0.264   84.165
  351.840    2.834    0.257   87.322
  352.090    2.529    0.248   91.067
