~VERSION INFORMATION
 VERS.                 2.0:   CWLS LOG ASCII STANDARD -VERSION 2.0
 WRAP.                  NO:   ONE LINE PER DEPTH STEP
~WELL INFORMATION BLOCK
#MNEM.UNIT           DATA                    DESCRIPTION OF MNEMONIC
#---------    -------------------            -------------------------------
# Generated from Intellog Unique Number	CW_70_72/WELL/1033
NULL.         -999.25                        : NULL_VALUE
WELL.         CHIEFCO ET AL SMITH 10-09      : Well_name    - WELL              
LOC .         10-09-071-26W4                 : Location     - LOCATION          
UWI .         00/10-09-071-26W4/0            : Uwi          - UNIQUE WELL ID    
ENTR.         JAYE                           : Entered      - ENTERED BY        
SRVC.         SCHLUMBERGER                   : Scn          - SERVICE COMPANY   
DATE.         7 JAN 76                       : Date         - LOG DATE          
STRT.M        432.816                        : top_depth    - START DEPTH       
STOP.M        691.816                        : bot_depth    - STOP DEPTH        
STEP.M        0.25                           : increment    - STEP LENGTH       
~CURVE INFORMATION BLOCK
#MNEM UNIT       ERCB CURVE CODE    CURVE DESCRIPTION
#-----------   ------------------   ----------------------------------
DEPT.M        00 001 00 00         : DEPTH        - DEPTH                       
DPHI.V/V      00 890 00 00         : PHID         - DENSITY POROSITY (SANDSTONE)
NPHI.V/V      00 330 00 00         : PHIN         - NEUTRON POROSITY (SANDSTONE)
GR  .API      00 310 00 00         : GR           - GAMMA RAY                   
CALI.MM       00 280 01 00         : CAL          - CALIPER                     
ILD .OHMM     00 120 00 00         : RESD         - DEEP RESISTIVITY (DLL)      
~PARAMETER INFORMATION       
#MNEM.UNIT           DATA             DESCRIPTION OF MNEMONIC
#---------         -----------     ------------------------------
GL  .M        622.365              : gl           - GROUND LEVEL ELEVATION      
EREF.M        625.45               : kb           - ELEVATION OF DEPTH REFERENCE
DATM.M        622.365              : datum        - DATUM ELEVATION             
TDD .M        708.965              : tdd          - TOTAL DEPTH DRILLER         
RUN .         ONE                  : Run          - RUN NUMBER                  
ENG .         MCDONALD             : Engineer     - RECORDING ENGINEER          
WIT .         GARDINER             : Witness      - WITNESSED BY                
BASE.         EDM                  : Branch       - HOME BASE OF LOGGING UNIT   
MUD .         GEL CHEM             : Mud_type     - MUD TYPE                    
MATR.         SANDSTONE            : Logunit      - NEUTRON MATRIX              
TMAX.C        28.3333              : BHT          - MAXIMUM RECORDED TEMPERATURE
BHTD.M        709.27               : BHTDEP       - MAXIMUM RECORDED TEMPERATURE
RMT .C        21.6667              : MDTP         - TEMPERATURE OF MUD          
MUDD.KG/M     0                    : MWT          - MUD DENSITY                 
NEUT.         1                    : NEUTRON      - NEUTRON TYPE                
RESI.         1                    : RESIST       - RESISTIVITY TYPE            
RM  .OHMM     3.34                 : RM           - RESISTIVITY OF MUD          
RMC .OHMM     2.63                 : RMC          - RESISTIVITY OF MUD CAKE     
RMF .OHMM     2.81                 : RMF          - RESISTIVITY OF MUD FILTRATE 
SUFT.C        0                    : SUFT         - SURFACE TEMPERATURE         
~A  DEPTH     PHID     PHIN       GR      CAL     RESD
# ...
  578.816    0.142    0.435   94.618  186.978    4.507
  579.066    0.138    0.421   95.591  187.082    4.455
  579.316    0.133    0.411   98.266  187.083    4.404
  579.566    0.115    0.405   95.166  186.878    4.323
  579.816    0.101    0.420   97.355  186.776    4.219
  580.066    0.112    0.436  100.212  186.674    4.104
  580.316    0.133    0.421  102.340  186.572    3.969
  580.566    0.154    0.398  103.617  186.368    3.896
  580.816    0.146    0.391   98.026  186.266    3.880
  581.066    0.132    0.400   95.231  185.958    3.905
  581.316    0.118    0.407   93.651  185.753    4.025
  581.566    0.117    0.408   92.072  185.343    4.141
  581.816    0.135    0.413   88.486  184.520    4.331
  582.066    0.124    0.419   85.387  183.801    4.571
  582.316    0.100    0.408   80.647  183.184    4.859
  582.566    0.117    0.393   77.123  182.568    5.155
  582.816    0.154    0.388   73.051  181.848    5.431
  583.066    0.138    0.386   68.068  180.820    5.857
  583.316    0.146    0.376   64.240  179.792    6.468
  583.566    0.148    0.351   63.268  179.073    6.875
  583.816    0.102    0.324   62.964  178.251    7.216
  584.066    0.055    0.294   63.330  177.531    7.615
  584.316    0.114    0.316   63.270  177.017    8.080
  584.566    0.148    0.375   62.115  176.298    8.667
  584.816    0.143    0.342   59.320  176.093    9.315
  585.066    0.110    0.298   54.155  176.094   10.360
  585.316    0.068    0.278   53.973  176.198   11.525
  585.566    0.006    0.270   56.101  175.890   13.487
  585.816    0.035    0.295   60.356  175.686   13.260
  586.066    0.091    0.318   62.848  175.584   11.779
  586.316    0.119    0.339   64.551  175.585   10.387
  586.566    0.112    0.350   66.192  175.792    9.260
  586.816    0.112    0.354   63.640  175.690    8.225
  587.066    0.126    0.366   61.574  175.382    7.240
  587.316    0.142    0.379   63.094  174.765    6.730
  587.566    0.161    0.390   65.830  174.252    6.187
  587.816    0.173    0.404   67.654  173.841    5.782
  588.066    0.189    0.414   69.356  173.225    5.336
  588.316    0.178    0.418   69.843  172.917    4.959
  588.566    0.191    0.414   70.816  172.609    4.737
  588.816    0.216    0.407   73.005  172.404    4.908
  589.066    0.190    0.390   70.878  172.406    5.246
  589.316    0.157    0.364   64.619  173.127    5.669
  589.566    0.123    0.339   61.580  173.745    5.982
  589.816    0.094    0.352   63.222  174.570    5.957
  590.066    0.120    0.368   65.471  174.674    5.339
  590.316    0.138    0.423   68.389  174.366    4.883
  590.566    0.165    0.414   71.368  174.264    4.489
  590.816    0.195    0.394   73.617  174.265    4.127
  591.066    0.224    0.421   75.381  174.060    3.850
  591.316    0.203    0.442   74.895  173.958    3.618
  591.566    0.213    0.430   73.315  173.651    3.487
  591.816    0.205    0.412   74.106  173.652    3.447
  592.066    0.190    0.403   76.052  173.550    3.457
  592.316    0.182    0.402   77.389  173.345    3.474
  592.566    0.174    0.398   77.390  173.140    3.548
  592.816    0.176    0.390   78.059  172.935    3.612
  593.066    0.172    0.391   78.728  172.936    3.689
  593.316    0.174    0.392   76.966  173.143    3.761
  593.566    0.165    0.380   77.635  173.144    3.828
  593.816    0.172    0.377   80.918  173.454    3.896
  594.066    0.160    0.372   83.593  173.764    3.957
  594.316    0.147    0.370   83.715  173.971    3.998
  594.566    0.154    0.371   82.743  174.280    4.018
  594.816    0.154    0.380   80.920  174.384    4.067
  595.066    0.156    0.384   81.346  174.385    4.116
  595.316    0.135    0.371   81.590  174.386    4.227
  595.566    0.147    0.359   79.646  174.284    4.349
  595.816    0.146    0.352   78.309  174.491    4.474
  596.066    0.131    0.348   80.680  174.904    4.562
  596.316    0.143    0.359   83.173  175.729    4.668
  596.566    0.136    0.357   85.848  176.861    4.776
  596.816    0.127    0.345   88.826  179.230    4.835
  597.066    0.132    0.346   91.258  180.980    4.903
  597.316    0.144    0.359   91.745  182.010    4.990
  597.566    0.132    0.358   93.751  182.629    5.106
  597.816    0.113    0.350   95.210  183.042    5.282
  598.066    0.087    0.341   85.243  183.454    5.484
  598.316    0.080    0.353   76.310  183.661    5.840
  598.566    0.084    0.376   65.856  183.353    6.519
  598.816    0.100    0.374   59.901  182.840    7.134
  599.066    0.106    0.360   58.990  182.738    7.611
  599.316    0.093    0.338   59.294  183.151    8.003
  599.566    0.080    0.315   63.124  183.563    8.160
  599.816    0.056    0.318   69.932  183.873    7.475
  600.066    0.069    0.333   74.612  183.771    6.664
  600.316    0.093    0.351   79.597  183.875    6.205
  600.566    0.118    0.364   83.183  183.979    5.830
  600.816    0.096    0.371   85.250  183.980    5.569
  601.066    0.091    0.383   87.621  183.878    5.387
  601.316    0.110    0.392   91.815  183.879    5.472
  601.566    0.126    0.397   95.584  183.983    5.620
  601.816    0.128    0.393   91.452  183.881    5.952
  602.066    0.130    0.390   86.408  183.882    6.258
  602.316    0.086    0.366   78.447  183.883    6.300
  602.566    0.070    0.329   70.424  183.678    6.206
  602.816    0.058    0.301   80.089  183.371    6.080
  603.066    0.048    0.396   89.145  183.166    5.935
  603.316    0.068    0.414   93.947  183.064    5.741
  603.566    0.101    0.409   95.406  182.962    5.413
  603.816    0.122    0.390   93.280  183.066    5.246
  604.066    0.132    0.379   91.579  183.170    5.093
  604.316    0.118    0.387   90.607  183.377    4.989
  604.566    0.101    0.416   91.094  183.481    4.933
  604.816    0.120    0.409   92.188  183.482    4.984
  605.066    0.113    0.398   93.891  183.380    5.081
  605.316    0.124    0.386   95.654  183.381    5.134
  605.566    0.106    0.375   96.992  183.279    5.244
  605.816    0.098    0.369   95.837  183.177    5.376
  606.066    0.092    0.379   94.622  182.972    5.551
  606.316    0.115    0.373   94.380  182.767    5.773
  606.566    0.103    0.394   93.955  182.666    6.026
  606.816    0.129    0.386   92.193  182.152    6.224
  607.066    0.108    0.371   88.851  181.639    6.556
  607.316    0.093    0.347   84.415  181.331    6.769
  607.566    0.078    0.324   85.266  181.126    6.852
  607.816    0.059    0.368   89.157  180.818    6.848
  608.066    0.077    0.384   92.682  180.716    6.794
  608.316    0.113    0.368   91.954  180.614    6.753
  608.566    0.086    0.342   84.661  180.718    6.689
  608.816    0.077    0.357   85.999  180.925    6.661
  609.066    0.071    0.336   87.883  180.926    6.645
  609.316    0.046    0.304   87.762  181.030    6.605
  609.566    0.032    0.281   90.376  181.340    6.541
  609.816    0.115    0.315   96.685  182.578    6.467
  610.066    0.104    0.339   98.834  182.805    6.292
  610.316    0.090    0.345   94.456  182.725    6.191
  610.566    0.067    0.346   91.544  182.959    5.972
  610.816    0.105    0.341   92.109  183.394    5.708
  611.066    0.117    0.338   94.439  183.734    5.426
  611.316    0.133    0.335   97.138  184.994    5.418
  611.566    0.120    0.334  100.205  185.842    5.569
  611.816    0.104    0.343  105.463  186.800    5.884
  612.066    0.094    0.357  111.089  187.135    6.126
  612.316    0.080    0.372  103.786  186.743    6.460
  612.566    0.060    0.355   95.076  183.878    6.825
  612.816    0.048    0.321   88.136  181.835    6.188
  613.066    0.093    0.319   88.944  181.656    4.885
  613.316    0.100    0.330   89.813  183.020    3.685
  613.566    0.128    0.357   92.511  186.970    3.012
  613.816    0.143    0.453   97.223  191.642    2.557
  614.066    0.151    0.524  102.607  198.587    2.184
  614.316    0.208    0.542  106.096  215.965    1.983
  614.566    0.175    0.529  108.733  226.525    1.927
  614.816    0.146    0.516  104.478  209.611    1.974
  615.066    0.132    0.515  104.065  204.986    2.104
