~VERSION INFORMATION
 VERS.                 2.0:   CWLS LOG ASCII STANDARD -VERSION 2.0
 WRAP.                  NO:   ONE LINE PER DEPTH STEP
~WELL INFORMATION BLOCK
#MNEM.UNIT           DATA                    DESCRIPTION OF MNEMONIC
#---------    -------------------            -------------------------------
# Generated from Intellog Unique Number	CW_79_81/WELL/2488
WELL.         13-10-081-21W4                 : Well_name    - WELL
LOC .         00/13-10-081-21W4/0            : Location     - LOCATION
UWI .         00/13-10-081-21W4/0            : Uwi          - UNIQUE WELL ID
ENTR.         MAX                            : Entered      - ENTERED BY
SRVC.         SCHLUMBERGER                   : Scn          - SERVICE COMPANY
STRT.M        215                            : top_depth    - START DEPTH
STOP.M        440                            : bot_depth    - STOP DEPTH
STEP.M        0.25                           : increment    - STEP LENGTH
 NULL. -999.2500:NULL Value
~CURVE INFORMATION BLOCK
#MNEM UNIT       ERCB CURVE CODE    CURVE DESCRIPTION
#-----------   ------------------   ----------------------------------
DEPT.M        00 001 00 00         : DEPTH        - DEPTH
ILD .OHMM     00 120 00 00         : RESD         - DEEP RESISTIVITY (DIL)
NPHI.V/V      00 330 00 00         : PHIN         - NEUTRON POROSITY (SANDSTONE)
DPHI.V/V      00 890 00 00         : PHID         - DENSITY POROSITY (SANDSTONE)
GR  .API      00 310 00 00         : GR           - GAMMA RAY
CALI.MM       00 280 01 00         : CAL          - CALIPER
~PARAMETER INFORMATION
#MNEM.UNIT           DATA             DESCRIPTION OF MNEMONIC
#---------         -----------     ------------------------------
GL  .M        599.6                : gl           - GROUND LEVEL ELEVATION
EREF.M        603.9                : kb           - ELEVATION OF DEPTH REFERENCE
DATM.M        599.6                : datum        - DATUM ELEVATION
TDD .M        448.25               : tdd          - TOTAL DEPTH DRILLER
RUN .         ONE                  : Run          - RUN NUMBER
ENG .         BILL                 : Engineer     - RECORDING ENGINEER
WIT .         JIM                  : Witness      - WITNESSED BY
MUD .         GEL                  : Mud_type     - MUD TYPE
MATR.         SANDSTONE            : Logunit      - NEUTRON MATRIX
TMAX.C        28.6                 : BHT          - MAXIMUM RECORDED TEMPERATURE
BHTD.M        448.25               : BHTDEP       - MAXIMUM RECORDED TEMPERATURE
MATR.         1                    : LOGUNIT      - NEUTRON MATRIX
RMT .C        15                   : MDTP         - TEMPERATURE OF MUD
NEUT.         1                    : NEUTRON      - NEUTRON TYPE
RESI.         0                    : RESIST       - RESISTIVITY TYPE
RMC .OHMM     9.82                 : RMC          - RESISTIVITY OF MUD CAKE
RMF .OHMM     4.93                 : RMF          - RESISTIVITY OF MUD FILTRATE
SUFT.C        -15                  : SUFT         - SURFACE TEMPERATURE
~A  DEPTH     RESD     PHIN     PHID       GR      CAL
  215.000    2.812    0.533    0.251   84.875  255.465
  215.250    2.836    0.520    0.256   82.394  260.074
  215.500    2.860    0.514    0.266   83.349  259.815
  215.750    2.874    0.521    0.268   86.245  255.840
  216.000    2.888    0.534    0.261   89.680  247.968
  216.250    2.939    0.523    0.262   92.054  235.607
  216.500    2.965    0.510    0.264   93.072  235.632
  216.750    2.990    0.508    0.253   93.088  234.056
  217.000    3.033    0.513    0.247   92.023  232.183
  217.250    3.059    0.518    0.244   89.758  231.013
  217.500    3.057    0.516    0.245   86.954  230.741
  217.750    3.043    0.498    0.258   84.354  230.766
  218.000    3.071    0.478    0.258   80.872  230.793
  218.250    3.258    0.463    0.280   72.969  231.620
  218.500    3.944    0.445    0.298   64.707  231.249
  218.750    5.245    0.416    0.293   55.484  225.877
  219.000    7.537    0.391    0.278   45.724  218.704
  219.250   12.819    0.417    0.311   37.014  219.936
  219.500   19.989    0.445    0.330   37.781  219.964
  219.750   33.598    0.442    0.345   38.038  219.988
  220.000   42.764    0.438    0.341   37.754  220.014
  220.250   46.699    0.438    0.335   37.529  219.840
  220.500   52.503    0.445    0.333   37.425  219.566
  220.750   63.571    0.459    0.331   36.813  219.593
  221.000   73.145    0.449    0.337   36.081  219.624
  221.250   69.552    0.444    0.334   37.054  218.851
  221.500   59.596    0.437    0.334   37.671  218.380
  221.750   53.177    0.435    0.335   38.048  218.204
  222.000   50.130    0.439    0.333   38.303  218.225
  222.250   47.456    0.437    0.323   38.563  218.260
  222.500   49.758    0.435    0.316   38.577  218.288
  222.750   58.304    0.438    0.323   38.351  217.909
  223.000   63.337    0.439    0.329   37.588  217.834
  223.250   63.656    0.439    0.326   36.764  217.862
  223.500   59.556    0.431    0.315   36.359  217.890
  223.750   52.087    0.401    0.303   36.857  218.003
  224.000   50.594    0.375    0.275   36.877  218.444
  224.250   56.844    0.321    0.228   35.930  222.072
  224.500   62.940    0.305    0.226   34.266  223.299
  224.750   62.522    0.322    0.231   33.802  222.526
  225.000   56.911    0.348    0.226   35.198  221.153
  225.250   55.744    0.334    0.223   38.156  221.582
  225.500   68.301    0.319    0.227   39.668  221.607
  225.750   85.790    0.323    0.226   39.686  221.638
  226.000  101.960    0.327    0.224   40.062  222.262
  226.250  118.567    0.326    0.227   40.917  223.085
  226.500  137.763    0.320    0.229   42.071  223.809
  226.750  158.628    0.307    0.215   42.849  223.825
  227.000  170.212    0.303    0.201   41.867  221.773
  227.250  170.405    0.303    0.209   39.723  221.395
  227.500  151.399    0.303    0.217   39.377  221.020
  227.750  112.846    0.310    0.228   39.993  220.848
  228.000   82.141    0.321    0.240   40.789  220.876
  228.250   68.687    0.318    0.241   40.998  220.988
  228.500   76.012    0.284    0.238   40.766  221.430
  228.750   77.207    0.293    0.223   41.019  222.264
  229.000   68.847    0.323    0.234   44.154  222.487
  229.250   57.656    0.351    0.246   48.249  222.709
  229.500   46.188    0.370    0.248   52.103  222.936
  229.750   33.075    0.393    0.255   55.144  222.485
  230.000   25.555    0.418    0.296   54.657  222.093
  230.250   23.244    0.447    0.320   53.713  222.117
  230.500   21.637    0.459    0.328   54.748  221.543
  230.750   20.127    0.456    0.329   55.123  220.970
  231.000   18.855    0.443    0.326   53.999  220.696
  231.250   18.314    0.429    0.322   52.339  220.893
  231.500   18.194    0.435    0.320   52.354  221.756
  231.750   18.215    0.432    0.316   52.850  224.582
  232.000   18.139    0.433    0.320   52.987  226.508
  232.250   17.898    0.435    0.329   53.482  225.932
  232.500   17.298    0.436    0.336   54.575  223.756
  232.750   15.129    0.431    0.330   56.584  223.388
  233.000   11.606    0.427    0.328   59.349  223.416
  233.250    9.206    0.432    0.311   63.444  223.443
  233.500    7.866    0.440    0.295   65.558  224.069
  233.750    7.347    0.440    0.282   64.734  224.097
  234.000    7.459    0.430    0.283   61.811  223.425
  234.250    8.355    0.422    0.312   60.132  223.051
  234.500    9.919    0.427    0.297   63.646  223.076
  234.750   11.383    0.411    0.263   67.739  223.108
  235.000   10.810    0.413    0.252   75.432  224.631
  235.250    8.854    0.430    0.235   81.448  227.457
  235.500    7.247    0.455    0.216   83.506  229.686
  235.750    6.757    0.478    0.242   81.823  226.967
  236.000    6.563    0.469    0.294   79.338  223.246
  236.250    6.864    0.452    0.311   70.956  222.867
  236.500    7.724    0.445    0.319   62.933  222.795
  236.750    9.041    0.441    0.322   58.870  222.620
  237.000   10.680    0.436    0.320   59.367  222.344
  237.250   12.451    0.428    0.306   62.774  222.464
  237.500   12.660    0.413    0.275   66.539  222.903
  237.750   11.777    0.405    0.251   69.675  222.932
  238.000   10.894    0.410    0.229   71.730  222.955
  238.250    9.669    0.428    0.221   73.904  222.979
  238.500    8.365    0.448    0.228   76.618  223.005
  238.750    7.303    0.451    0.245   80.016  222.952
  239.000    7.042    0.450    0.257   82.533  222.563
  239.250    7.153    0.436    0.257   79.909  222.592
  239.500    7.546    0.416    0.284   72.966  222.617
  239.750    8.097    0.402    0.297   67.943  222.841
  240.000    8.605    0.400    0.287   67.600  223.666
  240.250    8.607    0.415    0.266   72.814  226.364
  240.500    7.990    0.440    0.234   80.830  229.724
  240.750    6.738    0.474    0.247   87.082  230.553
  241.000    6.313    0.462    0.254   91.177  233.175
  241.250    6.298    0.441    0.265   92.035  237.800
  241.500    6.505    0.425    0.277   90.072  241.330
  241.750    6.858    0.405    0.276   87.559  237.445
  242.000    7.416    0.397    0.266   89.325  237.884
  242.250    7.928    0.394    0.265   89.100  239.510
  242.500    8.206    0.409    0.252   86.355  239.037
  242.750    8.457    0.419    0.247   81.811  233.664
  243.000    8.831    0.417    0.254   76.609  225.193
  243.250    9.467    0.411    0.263   72.260  220.028
  243.500    9.925    0.410    0.270   72.025  220.050
  243.750    9.861    0.416    0.265   74.922  220.480
  244.000    9.640    0.414    0.252   73.677  220.603
  244.250    9.339    0.408    0.242   72.133  220.630
  244.500    9.049    0.399    0.241   72.509  220.559
  244.750    8.854    0.394    0.244   75.457  220.186
  245.000    8.798    0.393    0.257   75.724  220.214
  245.250    8.743    0.393    0.255   73.341  220.240
  245.500    8.691    0.389    0.250   71.315  220.265
  245.750    8.669    0.393    0.246   72.409  220.292
  246.000    8.663    0.404    0.244   76.683  220.319
  246.250    8.600    0.408    0.242   81.652  220.263
  246.500    8.547    0.397    0.241   82.421  219.877
  246.750    8.434    0.399    0.243   83.392  219.901
  247.000    8.274    0.415    0.239   86.706  219.927
  247.250    7.922    0.432    0.224   91.640  220.152
  247.500    7.385    0.450    0.206   97.774  221.877
  247.750    6.550    0.482    0.210  105.241  227.760
  248.000    5.603    0.502    0.196  106.507  229.037
  248.250    4.870    0.524    0.209  107.005  229.458
  248.500    4.238    0.540    0.231  105.879  230.186
  248.750    3.811    0.549    0.258  102.654  231.012
  249.000    3.584    0.547    0.279   98.112  231.736
  249.250    3.589    0.531    0.284   93.141  231.501
  249.500    3.880    0.510    0.295   87.410  228.194
  249.750    5.250    0.459    0.264   84.547  227.824
  250.000    6.667    0.428    0.260   85.101  241.844
  250.250    7.778    0.427    0.276   86.437  243.071
  250.500    8.300    0.448    0.296   86.694  233.004
  250.750    8.036    0.474    0.298   83.942  241.575
  251.000    7.350    0.496    0.313   79.708  240.353
  251.250    7.094    0.504    0.335   72.047  239.580
