~VERSION INFORMATION
 VERS.                 2.0:   CWLS LOG ASCII STANDARD -VERSION 2.0
 WRAP.                  NO:   ONE LINE PER DEPTH STEP
~WELL INFORMATION BLOCK
#MNEM.UNIT           DATA                    DESCRIPTION OF MNEMONIC
#---------    -------------------            -------------------------------
# Generated from Intellog Unique Number	CW_76_78/WELL/2821
WELL.         TENN AMOCO A1 MCMULLEN 11-35   : Well_name    - WELL
LOC .         00/11-35-077-01W5/0            : Location     - LOCATION
UWI .         00/11-35-077-01W5/0            : Uwi          - UNIQUE WELL ID
ENTR.         JJ                             : Entered      - ENTERED BY
SRVC.         SCHLUMBERGER                   : Scn          - SERVICE COMPANY
DATE.         13 FEB 71                      : Date         - LOG DATE
STRT.M        445.008                        : top_depth    - START DEPTH
STOP.M        573.008                        : bot_depth    - STOP DEPTH
STEP.M        0.25                           : increment    - STEP LENGTH
 NULL. -999.2500:NULL Value
~CURVE INFORMATION BLOCK
#MNEM UNIT       ERCB CURVE CODE    CURVE DESCRIPTION
#-----------   ------------------   ----------------------------------
DEPT.M        00 001 00 00         : DEPTH        - DEPTH
DELT.US/F     00 520 00 00         : DELT         - SONIC TRAVEL TIME
GR  .API      00 310 00 00         : GR           - GAMMA RAY
CALI.MM       00 280 01 00         : CAL          - CALIPER
ILD .OHMM     00 120 00 00         : RESD         - DEEP RESISTIVITY (DIL)
~PARAMETER INFORMATION
#MNEM.UNIT           DATA             DESCRIPTION OF MNEMONIC
#---------         -----------     ------------------------------
GL  .M        624.23               : gl           - GROUND LEVEL ELEVATION
EREF.M        628.543              : kb           - ELEVATION OF DEPTH REFERENCE
DATM.M        624.23               : datum        - DATUM ELEVATION
TDD .M        585.216              : tdd          - TOTAL DEPTH DRILLER
RUN .         ONE                  : Run          - RUN NUMBER
ENG .         BUETON               : Engineer     - RECORDING ENGINEER
BASE.         EDM                  : Branch       - HOME BASE OF LOGGING UNIT
MUD .         FRESH GEL            : Mud_type     - MUD TYPE
MATR.         SANDSTONE            : Logunit      - NEUTRON MATRIX
TMAX.C        30                   : BHT          - MAXIMUM RECORDED TEMPERATURE
BHTD.M        585.521              : BHTDEP       - MAXIMUM RECORDED TEMPERATURE
RMT .C        12.7778              : MDTP         - TEMPERATURE OF MUD
MUDD.KG/M     1140                 : MWT          - MUD DENSITY
NEUT.         1                    : NEUTRON      - NEUTRON TYPE
RESI.         0                    : RESIST       - RESISTIVITY TYPE
RM  .OHMM     4.9                  : RM           - RESISTIVITY OF MUD
RMC .OHMM     4.56                 : RMC          - RESISTIVITY OF MUD CAKE
RMF .OHMM     5.4                  : RMF          - RESISTIVITY OF MUD FILTRATE
SUFT.C        5                    : SUFT         - SURFACE TEMPERATURE
~A  DEPTH     DELT       GR      CAL     RESD
  445.008  385.418   68.074  224.479    3.099
  445.258  382.167   69.390  219.874    2.984
  445.508  385.282   73.398  219.841    2.815
  445.758  388.058   68.053  220.922    2.737
  446.008  387.240   70.483  223.367    2.710
  446.258  386.418   71.921  227.458    2.638
  446.508  392.213   71.954  222.245    2.566
  446.758  390.407   73.022  223.851    2.507
  447.008  392.011   75.929  225.161    2.419
  447.258  388.501   74.441  228.842    2.363
  447.508  395.999   70.258  226.824    2.359
  447.758  402.842   69.192  219.750    2.434
  448.008  399.270   69.353  215.665    2.531
  448.258  382.392   67.436  219.764    2.594
  448.508  381.968   65.695  219.199    2.698
  448.758  377.535   60.413  215.947    2.818
  449.008  368.860   56.352  215.398    2.954
  449.258  366.727   54.987  215.766    3.061
  449.508  368.325   55.933  216.758    3.097
  449.758  370.193   59.400  217.117    3.236
  450.008  372.771   62.058  218.429    3.461
  450.258  372.150   65.147  219.931    3.888
  450.508  330.776   65.973  222.269    4.403
  450.758  267.389   59.472  221.495    5.015
  451.008  244.754   51.623  221.558    5.926
  451.258  291.293   52.821  223.801    6.620
  451.508  330.042   58.481  224.474    7.143
  451.758  330.336   62.672  224.228    6.159
  452.008  315.101   64.478  223.975    5.384
  452.258  311.593   64.511  224.347    4.916
  452.508  344.111   62.594  225.545    4.779
  452.758  354.759   64.341  226.427    4.729
  453.008  343.969   65.776  226.898    4.672
  453.258  342.759   66.055  227.383    4.609
  453.508  339.442   64.500  227.944    4.559
  453.758  334.427   66.616  227.599    4.509
  454.008  332.567   64.886  227.450    4.436
  454.258  348.645   62.407  228.129    4.322
  454.508  366.619   62.442  228.612    4.105
  454.758  363.178   66.701  228.871    3.903
  455.008  358.754   69.233  228.314    3.670
  455.258  361.929   66.767  225.470    3.564
  455.508  377.095   66.070  223.044    3.489
  455.758  390.818   70.500  226.206    3.464
  456.008  389.141   74.568  228.230    3.488
  456.258  370.960   74.973  229.440    3.660
  456.508  363.122   70.057  229.382    3.813
  456.758  356.081   66.242  229.467    3.891
  457.008  346.413   66.163  229.193    3.850
  457.258  359.743   69.496  227.808    3.664
  457.508  375.888   72.953  226.622    3.471
  457.758  389.544   72.921  225.343    3.350
  458.008  383.938   73.382  224.672    3.276
  458.258  384.493   74.649  223.091    3.251
  458.508  388.969   74.681  222.111    3.268
  458.758  391.565   73.677  221.852    3.364
  459.008  399.712   68.824  222.342    3.331
  459.258  393.784   61.338  223.320    3.226
  459.508  386.738   62.415  225.028    3.095
  459.758  395.215   70.334  234.300    2.991
  460.008  400.032   79.231  236.633    3.026
  460.258  406.088   86.288  227.076    3.105
  460.508  411.745   92.317  220.409    3.198
  460.758  417.934   84.774  220.271    3.504
  461.008  414.693   77.532  224.253    4.521
  461.258  390.874   70.360  227.628    4.979
  461.508  376.161   66.237  228.619    5.359
  461.758  389.885   65.849  227.633    5.615
  462.008  404.528   65.704  223.139    6.083
  462.258  417.524   65.611  219.795    6.647
  462.508  423.248   65.524  220.366    7.430
  462.758  406.844   64.825  223.021    7.921
  463.008  385.583   62.297  224.015    8.428
  463.258  363.069   56.101  225.311    8.341
  463.508  367.822   57.477  226.705    8.258
  463.758  375.446   60.751  227.903    8.259
  464.008  378.691   62.434  226.828    8.476
  464.258  339.740   62.045  226.380    9.160
  464.508  267.312   63.117  226.119   10.555
  464.758  247.752   60.588  225.151   12.265
  465.008  240.374   56.291  223.547   15.134
  465.258  234.968   54.794  222.475   19.094
  465.508  225.831   53.851  222.115   19.876
  465.758  214.462   54.004  222.806   19.069
  466.008  233.750   55.877  223.472   15.488
  466.258  257.300   59.335  224.360   12.487
  466.508  313.076   62.237  225.373   10.164
  466.758  335.843   63.198  225.625    8.663
  467.008  338.427   62.123  225.891    7.891
  467.258  305.962   59.536  226.156    7.735
  467.508  282.081   58.833  226.525    7.752
  467.758  288.268   61.078  229.383    7.830
  468.008  322.625   64.531  228.815    7.806
  468.258  345.783   67.862  225.270    7.233
  468.508  361.853   70.767  224.186    6.484
  468.758  371.585   67.505  224.759    5.966
  469.008  378.036   64.116  226.690    5.546
  469.258  380.687   68.006  227.578    5.271
  469.508  382.023   68.405  227.730    4.908
  469.758  384.021   67.343  227.679    4.706
  470.008  380.053   66.401  226.502    4.642
  470.258  363.312   66.006  225.223    4.634
  470.508  344.996   65.426  225.480    4.618
  470.758  336.054   67.543  226.882    4.649
  471.008  339.688   70.023  227.976    4.736
  471.258  350.195   69.327  228.555    4.930
  471.508  365.883   69.174  228.730    5.163
  471.758  374.358   71.348  229.191    5.395
  472.008  377.527   72.238  229.771    5.606
  472.258  380.176   71.239  230.344    5.685
  472.508  380.742   73.291  231.127    5.635
  472.758  378.080   69.776  231.086    5.418
  473.008  375.955   71.646  231.164    5.006
  473.258  374.344   75.295  231.432    4.610
  473.508  374.040   77.891  231.376    4.376
  473.758  374.528   82.146  231.015    4.361
  474.008  374.887   78.203  228.493    4.449
  474.258  374.001   77.142  226.267    4.592
  474.508  372.918   73.934  224.361    4.778
  474.758  372.884   67.920  224.222    4.941
  475.008  376.383   71.194  226.657    5.011
  475.258  376.086   73.187  228.783    5.116
  475.508  362.687   69.493  229.264    5.196
  475.758  333.229   70.514  229.831    5.165
  476.008  331.564   71.400  229.375    5.043
  476.258  348.103   72.290  228.305    4.928
  476.508  362.213   72.567  226.605    4.741
  476.758  361.250   72.542  225.324    4.444
  477.008  363.588   77.527  224.853    4.234
  477.258  369.970   79.463  224.623    4.129
  477.508  375.631   80.160  224.473    4.071
  477.758  379.856   80.325  224.527    4.015
  478.008  382.962   76.383  224.799    4.048
  478.258  374.998   79.050  225.165    4.039
  478.508  371.295   80.363  225.635    3.989
  478.758  371.324   77.896  226.833    3.860
  479.008  372.073   75.972  228.543    3.761
  479.258  374.588   79.067  229.844    3.610
  479.508  375.733   82.949  230.532    3.576
  479.758  374.313   88.422  230.167    3.574
  480.008  372.578   84.251  227.958    3.607
  480.258  371.309   78.470  225.550    3.664
  480.508  368.981   71.542  224.656    3.792
  480.758  365.473   76.222  223.789    3.953
  481.008  360.326   80.962  223.861    4.129
  481.258  346.397   75.927  224.331    4.395
  481.508  344.334   69.484  224.686    4.718
  481.758  342.388   71.416  224.950    4.901
  482.008  337.707   74.441  224.802    5.135
  482.258  317.760   75.209  224.976    5.086
  482.508  306.848   72.617  225.855    4.361
  482.758  315.002   73.081  228.086    3.916
  483.008  340.382   79.962  230.630    3.423
  483.258  363.999   84.637  232.559    2.876
  483.508  379.685   92.985  234.069    2.672
  483.758  392.353   93.751  240.338    2.566
  484.008  391.467   89.326  239.974    2.654
  484.258  372.956   85.148  227.624    3.025
  484.508  369.383   80.168  223.540    3.566
  484.758  366.598   74.707  221.239    3.895
  485.008  363.027   68.325  222.116    4.308
  485.258  336.321   68.913  224.139    4.515
  485.508  336.483   73.343  226.262    4.789
  485.758  350.141   73.199  226.629    4.628
  486.008  361.768   68.159  228.452    4.291
  486.258  372.341   70.274  229.130    4.296
  486.508  385.279   73.795  225.048    5.176
  486.758  307.808   77.862  222.624    6.174
  487.008  287.595   64.390  222.069    7.964
  487.258  302.429   61.070  222.441    9.264
  487.508  327.219   66.419  222.399    9.640
  487.758  335.830   65.353  222.146    8.504
  488.008  328.987   59.213  222.621    7.204
  488.258  299.602   59.934  222.782    5.640
