~VERSION INFORMATION
 VERS.                 2.0:   CWLS LOG ASCII STANDARD -VERSION 2.0
 WRAP.                  NO:   ONE LINE PER DEPTH STEP
~WELL INFORMATION BLOCK
#MNEM.UNIT           DATA                    DESCRIPTION OF MNEMONIC
#---------    -------------------            -------------------------------
# Generated from Intellog Unique Number	CC_80_83/WELL/2430
NULL.         -999.25                        : NULL_VALUE
WELL.         IGCR NEWBY                     : Well_name    - WELL
LOC .         12-17-081-04W4                 : Location     - LOCATION          
UWI .         00/12-17-081-04W4/0            : Uwi          - UNIQUE WELL ID    
ENTR.         DW                             : Entered      - ENTERED BY        
SRVC.         SCHLUMBERGER                   : Scn          - SERVICE COMPANY   
DATE.         01 JAN 93                      : Date         - LOG DATE
STRT.M        95                             : top_depth    - START DEPTH       
STOP.M        271.101                        : bot_depth    - STOP DEPTH        
STEP.M        0.3                            : increment    - STEP LENGTH       
~CURVE INFORMATION BLOCK
#MNEM UNIT       ERCB CURVE CODE    CURVE DESCRIPTION
#-----------   ------------------   ----------------------------------
DEPT.M        00 001 00 00         : DEPTH        - DEPTH                       
DPHI.V/V      00 890 00 00         : PHID         - DENSITY POROSITY (LIMESTONE)
NPHI.V/V      00 330 00 00         : PHIN         - NEUTRON POROSITY (LIMESTONE)
GR  .API      00 310 00 00         : GR           - GAMMA RAY                   
ILD .OHMM     00 120 00 00         : RESD         - DEEP RESISTIVITY (DIL)      
~PARAMETER INFORMATION       
#MNEM.UNIT           DATA             DESCRIPTION OF MNEMONIC
#---------         -----------     ------------------------------
GL  .M        441.6                : gl           - GROUND LEVEL ELEVATION      
EREF.M        445.1                : kb           - ELEVATION OF DEPTH REFERENCE
DATM.M        445.1                : datum        - DATUM ELEVATION             
TDD .M        277                  : tdd          - TOTAL DEPTH DRILLER         
RUN .         ONE                  : Run          - RUN NUMBER                  
ENG .         BILL                 : Engineer     - RECORDING ENGINEER          
WIT .         JIM                  : Witness      - WITNESSED BY                
MUD .         GEL                  : Mud_type     - MUD TYPE                    
MATR.         LIMESTONE            : Logunit      - NEUTRON MATRIX              
TMAX.C        18                   : BHT          - MAXIMUM RECORDED TEMPERATURE
BHTD.M        277                  : BHTDEP       - MAXIMUM RECORDED TEMPERATURE
MATR.         1                    : LOGUNIT      - NEUTRON MATRIX              
RMT .C        25                   : MDTP         - TEMPERATURE OF MUD          
NEUT.         1                    : NEUTRON      - NEUTRON TYPE                
RESI.         0                    : RESIST       - RESISTIVITY TYPE            
RMC .OHMM     0.25                 : RMC          - RESISTIVITY OF MUD CAKE     
RMF .OHMM     0.25                 : RMF          - RESISTIVITY OF MUD FILTRATE 
SUFT.C        15                   : SUFT         - SURFACE TEMPERATURE         
~A  DEPTH     PHID     PHIN       GR     RESD
# ...
  199.401    0.305    0.337   54.743    1.557
  199.701    0.305    0.344   41.023    1.648
  200.001    0.321    0.354   34.161    1.648
  200.301    0.330    0.370   32.285    1.616
  200.601    0.326    0.390   37.266    1.497
  200.901    0.308    0.366   42.248    1.387
  201.201    0.294    0.361   39.124    1.387
  201.501    0.328    0.380   34.132    1.440
  201.801    0.348    0.358   32.257    1.468
  202.101    0.346    0.351   35.990    1.440
  202.401    0.343    0.403   36.607    1.412
  202.701    0.330    0.434   34.110    1.308
  203.001    0.321    0.391   35.974    1.283
  203.301    0.318    0.348   41.578    1.308
  203.601    0.294    0.360   58.404    1.333
  203.901    0.244    0.364   61.516    1.551
  204.201    0.270    0.363   59.639    1.772
  204.501    0.296    0.369   56.517    2.063
  204.801    0.311    0.388   47.161    2.225
  205.101    0.318    0.380   48.401    2.183
  205.401    0.309    0.351   57.122    1.839
  205.701    0.304    0.380   57.118    1.579
  206.001    0.315    0.398   46.514    1.435
  206.301    0.325    0.370   45.261    1.435
  206.601    0.335    0.383   52.736    1.434
  206.901    0.330    0.399   62.082    1.434
  207.201    0.305    0.363   76.414    1.547
  207.501    0.255    0.379   75.162    1.835
  207.801    0.255    0.404   63.312    1.943
  208.101    0.294    0.378   56.449    2.177
  208.401    0.294    0.374   60.182    2.304
  208.701    0.280    0.385   60.177    2.218
  209.001    0.312    0.379   53.938    2.016
  209.301    0.322    0.372   36.477    1.635
  209.601    0.332    0.360   30.861    1.458
  209.901    0.344    0.362   33.350    1.325
  210.201    0.362    0.380   35.837    1.205
  210.501    0.344    0.402   33.337    1.159
  210.801    0.328    0.379   33.331    1.159
  211.101    0.345    0.355   37.067    1.227
  211.401    0.354    0.394   42.670    1.250
  211.701    0.330    0.438   42.666    1.349
  212.001    0.329    0.398   31.439    1.401
  212.301    0.350    0.350   37.667    1.374
  212.601    0.384    0.395   43.895    1.348
  212.901    0.412    0.477   43.266    1.272
  213.201    0.398    0.462   32.039    1.248
  213.501    0.354    0.400   28.917    1.201
  213.801    0.320    0.335   27.041    1.201
  214.101    0.322    0.348   27.659    1.201
  214.401    0.324    0.352   28.899    1.247
  214.701    0.329    0.355   34.505    1.295
  215.001    0.336    0.352   37.616    1.319
  215.301    0.349    0.348   33.245    1.319
  215.601    0.338    0.349   33.865    1.319
  215.901    0.332    0.356   34.480    1.294
  216.201    0.341    0.343   36.969    1.318
  216.501    0.418    0.416   40.080    1.343
  216.801    0.452    0.537   35.088    1.369
  217.101    0.402    0.551   29.472    1.342
  217.401    0.349    0.399   26.350    1.267
  217.701    0.327    0.371   24.473    1.243
  218.001    0.331    0.356   33.196    1.197
  218.301    0.321    0.378   44.410    1.174
  218.601    0.307    0.358   46.275    1.196
  218.901    0.308    0.333   33.178    1.242
  219.201    0.313    0.337   36.913    1.265
  219.501    0.324    0.359   38.775    1.265
  219.801    0.338    0.377   37.525    1.265
  220.101    0.357    0.391   33.778    1.265
  220.401    0.372    0.419   32.526    1.217
  220.701    0.467    0.467   31.897    1.194
  221.001    0.387    0.393   31.892    1.171
  221.301    0.361    0.362   38.118    1.127
  221.601    0.318    0.359   45.594    1.148
  221.901    0.291    0.357   51.823    1.215
  222.201    0.282    0.357   63.038    1.287
  222.501    0.288    0.358   86.097    1.498
  222.801    0.273    0.361   86.091    1.955
  223.101    0.262    0.405   71.124    1.954
  223.401    0.356    0.427   40.573    1.743
  223.701    0.360    0.401   31.840    1.335
  224.001    0.368    0.373   30.587    1.213
  224.301    0.393    0.396   35.568    1.124
  224.601    0.392    0.456   38.056    1.103
  224.901    0.352    0.430   33.064    1.102
  225.201    0.345    0.388   26.202    1.123
  225.501    0.333    0.406   29.936    1.145
  225.801    0.298    0.387   34.916    1.211
  226.101    0.288    0.336   34.289    1.234
  226.401    0.301    0.355   31.166    1.282
  226.701    0.315    0.371   34.276    1.282
  227.001    0.335    0.371   35.517    1.257
  227.301    0.345    0.360   34.266    1.187
  227.601    0.332    0.352   32.390    1.164
  227.901    0.331    0.371   29.890    1.142
  228.201    0.338    0.382   31.756    1.120
  228.501    0.340    0.351   39.229    1.120
  228.801    0.335    0.330   51.068    1.208
  229.101    0.232    0.345  105.297    1.434
  229.401    0.257    0.437  102.797    2.058
  229.701    0.295    0.414   81.596    2.441
  230.001    0.304    0.372   77.851    2.842
  230.301    0.291    0.377   88.442    2.951
  230.601    0.261    0.372   97.787    2.951
  230.901    0.231    0.365  100.898    3.064
  231.201    0.215    0.389   92.789    3.064
  231.501    0.231    0.379   78.445    2.893
  231.801    0.307    0.381   70.959    2.580
  232.101    0.329    0.412   67.212    2.014
  232.401    0.332    0.411   66.583    1.762
  232.701    0.334    0.404   68.449    1.762
  233.001    0.324    0.389   79.041    1.795
  233.301    0.279    0.376   91.502    1.974
  233.601    0.262    0.385   85.261    2.130
  233.901    0.274    0.390   83.387    2.432
  234.201    0.260    0.391   90.238    2.575
  234.501    0.237    0.369   92.725    2.885
  234.801    0.246    0.366   92.720    3.233
  235.101    0.316    0.402   96.456    3.488
  235.401    0.289    0.424  103.930    3.763
  235.701    0.229    0.427  110.158    3.691
  236.001    0.244    0.448  104.542    3.230
  236.301    0.264    0.440   87.705    2.827
  236.601    0.281    0.410   74.609    2.249
  236.901    0.290    0.373   77.719    2.084
  237.201    0.290    0.355   90.181    2.083
  237.501    0.250    0.338   95.787    2.247
  237.801    0.199    0.334   89.546    2.379
  238.101    0.238    0.353   84.554    2.665
  238.401    0.219    0.354   75.820    2.768
  238.701    0.234    0.369   64.595    2.821
  239.001    0.288    0.401   46.511    2.422
  239.301    0.350    0.401   35.284    1.655
  239.601    0.364    0.401   32.786    1.342
  239.901    0.368    0.430   38.389    1.267
  240.201    0.293    0.434   47.735    1.393
  240.501    0.238    0.370   91.989    1.784
  240.801    0.229    0.356   94.475    2.117
  241.101    0.236    0.350   98.210    2.559
  241.401    0.233    0.341  101.945    2.979
  241.701    0.218    0.335  104.434    3.276
  242.001    0.210    0.334   95.701    3.213
  242.301    0.274    0.394   68.266    2.977
  242.602    0.304    0.403   48.313    2.369
  242.902    0.316    0.351   63.269    1.681
  243.202    0.248    0.350   70.743    1.849
  243.502    0.283    0.400   52.036    1.779
  243.802    0.323    0.382   42.679    1.527
  244.102    0.340    0.363   47.661    1.442
  244.402    0.279    0.352   73.213    1.415
  244.702    0.243    0.360   77.570    1.469
  245.002    0.259    0.368   77.566    1.743
  245.302    0.227    0.368   81.299    2.108
  245.602    0.255    0.400   74.437    2.363
  245.902    0.310    0.423   49.497    2.274
  246.202    0.322    0.392   45.751    2.147
  246.502    0.310    0.365   53.225    1.741
  246.802    0.292    0.370   60.701    1.467
  247.102    0.307    0.380   51.344    1.333
  247.402    0.334    0.385   57.572    1.359
  247.702    0.315    0.394   67.541    1.438
  248.002    0.258    0.404   75.639    1.493
  248.302    0.274    0.388   79.373    1.738
  248.602    0.292    0.378   78.120    1.948
  248.902    0.270    0.374   74.374    2.062
  249.202    0.258    0.369   63.771    1.985
  249.502    0.257    0.374   55.039    1.910
  249.802    0.304    0.379   43.189    1.874
  250.102    0.313    0.343   41.313    1.703
  250.402    0.271    0.353   50.658    1.548
  250.702    0.272    0.342   56.886    1.518
  251.002    0.227    0.332   62.491    1.638
  251.302    0.236    0.328   61.239    1.734
