~VERSION INFORMATION
 VERS.                 2.0:   CWLS LOG ASCII STANDARD -VERSION 2.0
 WRAP.                  NO:   ONE LINE PER DEPTH STEP
~WELL INFORMATION BLOCK
#MNEM.UNIT           DATA                    DESCRIPTION OF MNEMONIC
#---------    -------------------            -------------------------------
# Generated from Intellog Unique Number	CC_80_83/WELL/2359
NULL.         -999.25                        : NULL_VALUE
WELL.         KANDEX HOMESTEAD PORT          : Well_name    - WELL              
LOC .         10-20-080-14W4                 : Location     - LOCATION          
UWI .         00/10-20-080-14W4/0            : Uwi          - UNIQUE WELL ID    
ENTR.         RJA                            : Entered      - ENTERED BY        
SRVC.         SCHLUMBERGER                   : Scn          - SERVICE COMPANY   
DATE.         13 FEB 78                      : Date         - LOG DATE
STRT.M        213.36                         : top_depth    - START DEPTH       
STOP.M        454.157                        : bot_depth    - STOP DEPTH        
STEP.M        0.305                          : increment    - STEP LENGTH       
~CURVE INFORMATION BLOCK
#MNEM UNIT       ERCB CURVE CODE    CURVE DESCRIPTION
#-----------   ------------------   ----------------------------------
DEPT.M        00 001 00 00         : DEPTH        - DEPTH                       
DPHI.V/V      00 890 00 00         : PHID         - DENSITY POROSITY (LIMESTONE)
NPHI.V/V      00 330 00 00         : PHIN         - NEUTRON POROSITY (LIMESTONE)
GR  .API      00 310 00 00         : GR           - GAMMA RAY                   
ILD .OHMM     00 120 00 00         : RESD         - DEEP RESISTIVITY (DIL)      
~PARAMETER INFORMATION       
#MNEM.UNIT           DATA             DESCRIPTION OF MNEMONIC
#---------         -----------     ------------------------------
GL  .M        640.69               : gl           - GROUND LEVEL ELEVATION      
EREF.M        644.042              : kb           - ELEVATION OF DEPTH REFERENCE
DATM.M        644.042              : datum        - DATUM ELEVATION             
TDD .M        459.029              : tdd          - TOTAL DEPTH DRILLER         
RUN .         ONE                  : Run          - RUN NUMBER                  
ENG .         BILL                 : Engineer     - RECORDING ENGINEER          
WIT .         JIM                  : Witness      - WITNESSED BY                
MUD .         GEL                  : Mud_type     - MUD TYPE                    
MATR.         LIMESTONE            : Logunit      - NEUTRON MATRIX              
TMAX.C        15                   : BHT          - MAXIMUM RECORDED TEMPERATURE
BHTD.M        459.029              : BHTDEP       - MAXIMUM RECORDED TEMPERATURE
MATR.         1                    : LOGUNIT      - NEUTRON MATRIX              
RMT .C        25                   : MDTP         - TEMPERATURE OF MUD          
NEUT.         1                    : NEUTRON      - NEUTRON TYPE                
RESI.         0                    : RESIST       - RESISTIVITY TYPE            
RMC .OHMM     0.25                 : RMC          - RESISTIVITY OF MUD CAKE     
RMF .OHMM     0.25                 : RMF          - RESISTIVITY OF MUD FILTRATE 
SUFT.C        4                    : SUFT         - SURFACE TEMPERATURE         
~A  DEPTH     PHID     PHIN       GR     RESD
# ...
  372.468    0.261    0.512   80.376    7.145
  372.773    0.277    0.483   84.005    7.423
  373.078    0.300    0.472   79.065    7.426
  373.383    0.250    0.453   74.133    7.292
  373.688    0.182    0.472   74.085    7.161
  373.993    0.236    0.376   82.616    7.581
  374.297    0.288    0.375   84.407    8.980
  374.602    0.233    0.379   80.081   10.246
  374.907    0.187    0.449   73.922   10.844
  375.212    0.067    0.437   65.929   11.056
  375.517    0.130    0.405   60.383   11.061
  375.821    0.254    0.291   65.840   10.078
  376.126    0.286    0.381   70.705    8.203
  376.431    0.202    0.463   76.169    7.907
  376.736    0.155    0.408   79.795    8.369
  377.041    0.157    0.329   80.991    8.859
  377.345    0.247    0.329   71.758    9.030
  377.650    0.270    0.393   72.335    8.701
  377.955    0.332    0.428   70.463    6.952
  378.260    0.353    0.460   68.588    6.099
  378.565    0.334    0.460   73.443    5.662
  378.869    0.339    0.448   77.073    5.666
  379.174    0.371    0.442   78.258    5.562
  379.479    0.408    0.411   75.764    5.566
  379.784    0.396    0.450   76.341    5.676
  380.089    0.414    0.443   78.131    5.786
  380.394    0.444    0.444   78.090    5.789
  380.698    0.468    0.462   77.443    5.684
  381.003    0.500    0.479   77.997    5.478
  381.308    0.538    0.540   77.972    5.279
  381.613    0.603    0.605   77.288    4.720
  381.918    0.510    0.587   77.265    4.220
  382.222    0.532    0.556   79.073    3.844
  382.527    0.494    0.520   85.147    3.994
  382.832    0.512    0.522   93.065    4.731
  383.137    0.543    0.567   93.642    5.297
  383.442    0.391    0.470   88.702    5.932
  383.746    0.394    0.480   80.097    6.161
  384.051    0.336    0.485   76.378    6.522
  384.356    0.358    0.439   76.335    6.405
  384.661    0.372    0.423   75.687    6.529
  384.966    0.384    0.447   70.134    7.176
  385.270    0.216    0.493   63.978    8.035
  385.575    0.192    0.488   58.427    8.830
  385.880    0.121    0.471   64.507    8.834
  386.185    0.196    0.466   73.648    8.355
  386.490    0.349    0.438   79.716    7.471
  386.795    0.403    0.417   79.689    6.680
  387.099    0.441    0.486   82.096    6.559
  387.404    0.423    0.485   82.041    6.687
  387.709    0.378    0.466   80.792    6.690
  388.014    0.396    0.438   80.134    6.951
  388.319    0.444    0.457   82.544    7.497
  388.623    0.440    0.473   85.565    7.643
  388.928    0.494    0.502   86.743    7.791
  389.233    0.431    0.441   85.485    8.095
  389.538    0.363    0.468   87.273    8.251
  389.843    0.338    0.488   87.850    8.257
  390.147    0.274    0.423   83.523    7.809
  390.452    0.320    0.401   85.310    7.248
  390.757    0.387    0.451   88.326    6.127
  391.062    0.465    0.524   88.296    5.686
  391.367    0.483    0.539   83.340    4.989
  391.671    0.449    0.524   80.869    4.296
  391.976    0.465    0.510   77.158    3.769
  392.281    0.487    0.539   74.660    3.068
  392.586    0.491    0.563   72.797    2.232
  392.891    0.506    0.535   68.459    1.995
  393.196    0.537    0.532   64.130    2.234
  393.500    0.522    0.558   62.268    2.698
  393.805    0.484    0.615   66.512    2.909
  394.110    0.464    0.618   72.587    3.319
  394.415    0.448    0.611   68.857    3.931
  394.720    0.490    0.603   66.997    5.310
  395.024    0.568    0.559   66.350    6.531
  395.329    0.562    0.562   72.419    7.737
  395.634    0.572    0.571   73.614    6.790
  395.939    0.554    0.555   70.509    5.737
  396.244    0.387    0.513   76.849    3.398
  396.548    0.404    0.520   84.259    3.399
  396.853    0.362    0.494   86.135    3.530
  397.158    0.418    0.489   83.102    3.666
  397.463    0.450    0.502   81.894    3.599
  397.768    0.384    0.517   80.079    3.403
  398.072    0.360    0.531   81.343    3.218
  398.377    0.345    0.542   87.521    3.219
  398.682    0.329    0.536   94.326    3.220
  398.987    0.286    0.503   97.430    3.282
  399.292    0.297    0.503  103.604    3.408
  399.597    0.290    0.512  101.791    3.410
  399.901    0.318    0.520   97.522    3.475
  400.206    0.301    0.505  103.089    3.542
  400.511    0.316    0.498  104.961    3.819
  400.816    0.311    0.528   98.850    4.356
  401.121    0.332    0.503   92.730    5.666
  401.425    0.432    0.524   60.794    7.233
  401.730    0.620    0.565   55.299    9.233
  402.035    0.393    0.627   65.783   11.141
  402.340    0.349    0.484   72.571   13.195
  402.645    0.365    0.457   70.771   12.953
  402.949    0.433    0.454   68.947   11.797
  403.254    0.417    0.444   76.359    9.783
  403.559    0.330    0.428   73.950    9.249
  403.864    0.349    0.446   72.127    8.745
  404.169    0.319    0.448   72.151    9.083
  404.473    0.322    0.423   69.722   10.557
  404.778    0.403    0.437   61.768   13.991
  405.083    0.422    0.524   54.422   19.616
  405.388    0.352    0.545   54.454   28.024
  405.693    0.316    0.447   50.803   50.143
  405.998    0.283    0.405   44.679   69.003
  406.302    0.288    0.388   37.956   56.153
  406.607    0.287    0.360   48.440   33.217
  406.912    0.277    0.358   61.379   20.403
  407.217    0.249    0.364   76.161   17.237
  407.522    0.282    0.396   92.793   15.406
  407.826    0.289    0.441   92.836   14.568
  408.131    0.300    0.461   89.171   18.253
  408.436    0.304    0.462   81.833   27.072
  408.741    0.295    0.462   78.168   35.212
  409.046    0.275    0.445   73.282   30.316
  409.350    0.263    0.403   72.089   25.614
  409.655    0.244    0.403   76.418   22.052
  409.960    0.223    0.394   81.987   20.849
  410.265    0.221    0.396   82.639   20.087
  410.570    0.200    0.369   82.054   20.092
  410.874    0.177    0.342   79.623   24.706
  411.179    0.185    0.332   69.819   30.952
  411.484    0.191    0.345   62.470   34.650
  411.789    0.200    0.355   58.203   38.068
  412.094    0.223    0.365   59.468   44.243
  412.399    0.277    0.410   65.033   41.836
  412.703    0.276    0.439   66.905   33.420
  413.008    0.232    0.417   70.018   31.011
  413.313    0.214    0.376   75.581   29.873
  413.618    0.220    0.365   79.911   28.780
  413.923    0.230    0.366   74.416   27.732
  414.227    0.217    0.356   70.142   27.222
  414.532    0.197    0.347   70.171   25.740
  414.837    0.215    0.353   76.964   19.073
  415.142    0.240    0.359   79.462   17.371
  415.447    0.292    0.331   77.645   17.051
  415.751    0.301    0.354   74.603   22.179
  416.056    0.195    0.427   54.347   50.644
  416.361    0.211    0.329   39.627  120.071
  416.666    0.281    0.342   38.429  153.270
  416.971    0.296    0.354   44.008  214.902
  417.275    0.314    0.359   44.033  254.497
  417.580    0.301    0.361   39.152  150.556
  417.885    0.288    0.362   37.333   69.789
  418.190    0.275    0.342   36.130   52.687
  418.495    0.270    0.340   40.467   39.040
  418.800    0.273    0.373   64.475   32.984
  419.104    0.275    0.373   66.353   28.933
  419.409    0.276    0.372   65.771   24.447
  419.714    0.321    0.409   67.029   22.685
  420.019    0.392    0.473   73.830   22.270
  420.324    0.362    0.491   75.089   25.401
  420.628    0.307    0.486   70.825   27.909
  420.933    0.272    0.420   67.776   24.945
  421.238    0.275    0.382   64.730   20.299
  421.543    0.272    0.383   72.148   16.833
  421.848    0.311    0.455   63.569   16.217
  422.152    0.334    0.496   53.151   24.973
  422.457    0.304    0.417   50.111   49.080
  422.762    0.301    0.402   28.008  100.140
  423.067    0.313    0.369   24.970  169.378
  423.372    0.304    0.354   23.165  196.867
  423.676    0.305    0.358   21.961  200.655
  423.981    0.318    0.358   22.608  140.526
  424.286    0.319    0.358   23.252   75.693
  424.591    0.349    0.378   28.202   42.329
  424.896    0.347    0.383   38.686   28.554
  425.201    0.357    0.374   45.478   21.155
