~VERSION INFORMATION
 VERS.                 2.0:   CWLS LOG ASCII STANDARD -VERSION 2.0
 WRAP.                  NO:   ONE LINE PER DEPTH STEP
~WELL INFORMATION BLOCK
#MNEM.UNIT           DATA                    DESCRIPTION OF MNEMONIC
#---------    -------------------            -------------------------------
# Generated from Intellog Unique Number	CS_73_76/WELL/3237
WELL.         10-16-076-05W4                 : Well_name    - WELL
LOC .         00/10-16-076-05W4/0            : Location     - LOCATION
UWI .         00/10-16-076-05W4/0            : Uwi          - UNIQUE WELL ID
ENTR.         SP                             : Entered      - ENTERED BY
SRVC.         SCHLUMBERGER                   : Scn          - SERVICE COMPANY
STRT.M        210.312                        : top_depth    - START DEPTH
STOP.M        447.812                        : bot_depth    - STOP DEPTH
STEP.M        0.25                           : increment    - STEP LENGTH
 NULL. -999.2500:NULL Value
~CURVE INFORMATION BLOCK
#MNEM UNIT       ERCB CURVE CODE    CURVE DESCRIPTION
#-----------   ------------------   ----------------------------------
DEPT.M        00 001 00 00         : DEPTH        - DEPTH
GR  .API      00 310 00 00         : GR           - GAMMA RAY
DPHI.V/V      00 890 00 00         : PHID         - DENSITY POROSITY (SANDSTONE)
NPHI.V/V      00 330 00 00         : PHIN         - NEUTRON POROSITY (SANDSTONE)
ILD .OHMM     00 120 00 00         : RESD         - DEEP RESISTIVITY (DIL)
~PARAMETER INFORMATION
#MNEM.UNIT           DATA             DESCRIPTION OF MNEMONIC
#---------         -----------     ------------------------------
GL  .M        580.949              : gl           - GROUND LEVEL ELEVATION
EREF.M        584.302              : kb           - ELEVATION OF DEPTH REFERENCE
DATM.M        580.949              : datum        - DATUM ELEVATION
TDD .M        451.104              : tdd          - TOTAL DEPTH DRILLER
RUN .         ONE                  : Run          - RUN NUMBER
ENG .         BILL                 : Engineer     - RECORDING ENGINEER
WIT .         JIM                  : Witness      - WITNESSED BY
MUD .         GEL                  : Mud_type     - MUD TYPE
MATR.         SANDSTONE            : Logunit      - NEUTRON MATRIX
TMAX.C        17.2222              : BHT          - MAXIMUM RECORDED TEMPERATURE
BHTD.M        451.104              : BHTDEP       - MAXIMUM RECORDED TEMPERATURE
MATR.         1                    : LOGUNIT      - NEUTRON MATRIX
RMT .C        25                   : MDTP         - TEMPERATURE OF MUD
NEUT.         1                    : NEUTRON      - NEUTRON TYPE
RESI.         0                    : RESIST       - RESISTIVITY TYPE
RMC .OHMM     0.25                 : RMC          - RESISTIVITY OF MUD CAKE
RMF .OHMM     0.25                 : RMF          - RESISTIVITY OF MUD FILTRATE
SUFT.C        15                   : SUFT         - SURFACE TEMPERATURE
~A  DEPTH       GR     PHID     PHIN     RESD
# ...
  340.812   87.681    0.300    0.518    2.299
  341.062   88.235    0.295    0.529    2.227
  341.312   88.793    0.283    0.544    2.230
  341.562   91.067    0.299    0.551    2.245
  341.812   93.542    0.287    0.564    2.421
  342.062   93.485    0.276    0.547    2.670
  342.312   91.859    0.265    0.549    3.014
  342.562   92.555    0.261    0.553    3.336
  342.812   91.622    0.243    0.505    3.748
  343.062   90.653    0.229    0.478    4.098
  343.312   90.473    0.245    0.477    4.562
  343.562   90.682    0.226    0.477    5.075
  343.812   90.123    0.228    0.466    5.477
  344.062   87.885    0.235    0.458    5.771
  344.312   84.030    0.223    0.437    5.787
  344.562   80.446    0.207    0.407    5.608
  344.812   86.719    0.190    0.400    5.351
  345.062   95.937    0.189    0.418    4.985
  345.312   99.495    0.205    0.438    4.557
  345.562  104.085    0.227    0.442    4.098
  345.812  106.230    0.248    0.449    3.960
  346.062  106.032    0.251    0.470    3.965
  346.312  101.910    0.241    0.485    3.961
  346.562   97.216    0.237    0.471    4.041
  346.812   96.940    0.222    0.452    4.043
  347.062   97.879    0.215    0.452    4.053
  347.312   97.273    0.244    0.454    3.911
  347.562   96.737    0.248    0.467    3.749
  347.812   99.198    0.231    0.485    3.688
  348.062  100.567    0.220    0.484    3.628
  348.312  102.413    0.221    0.470    3.634
  348.562  101.940    0.237    0.473    3.641
  348.812  101.551    0.244    0.489    3.709
  349.062  100.550    0.238    0.495    3.735
  349.312   99.570    0.241    0.482    3.778
  349.562   97.617    0.248    0.479    4.017
  349.812   92.486    0.238    0.481    4.416
  350.062   90.107    0.230    0.457    5.148
  350.312   88.866    0.216    0.436    5.997
  350.562   86.042    0.223    0.430    6.825
  350.812   80.319    0.215    0.404    7.826
  351.062   76.968    0.227    0.387    8.585
  351.312   73.748    0.236    0.381    9.192
  351.562   72.298    0.242    0.389    9.627
  351.812   71.325    0.257    0.406    9.921
  352.062   70.327    0.267    0.403   10.232
  352.312   68.362    0.205    0.389   11.037
  352.562   66.609    0.147    0.385   11.757
  352.812   65.038    0.083    0.367   12.748
  353.062   61.208    0.075    0.320   13.754
  353.312   65.265    0.105    0.315   15.332
  353.562   70.750    0.245    0.396   16.183
  353.812   76.084    0.286    0.413   15.439
  354.062   79.596    0.301    0.426   13.185
  354.312   81.134    0.279    0.436    9.500
  354.562   80.579    0.261    0.449    7.825
  354.812   74.655    0.281    0.455    7.257
  355.062   68.724    0.280    0.439    7.671
  355.312   59.279    0.276    0.424    8.907
  355.562   49.923    0.282    0.406   11.610
  355.812   43.875    0.294    0.374   16.952
  356.062   43.283    0.307    0.349   25.021
  356.312   43.622    0.296    0.368   32.530
  356.562   42.383    0.302    0.381   38.239
  356.812   45.422    0.304    0.362   39.273
  357.062   50.375    0.287    0.350   39.381
  357.312   56.833    0.292    0.364   34.899
  357.562   64.954    0.296    0.358   28.052
  357.812   77.261    0.275    0.362   23.140
  358.062   88.807    0.256    0.372   19.173
  358.312   94.023    0.232    0.369   16.215
  358.562   98.656    0.210    0.364   14.209
  358.812  103.030    0.192    0.362   12.252
  359.062  105.532    0.178    0.377   11.328
  359.312  105.770    0.190    0.379   10.575
  359.562  104.658    0.195    0.369   10.248
  359.812  102.021    0.184    0.363    9.810
  360.062  101.334    0.179    0.353    9.814
  360.312  101.394    0.167    0.362    9.816
  360.562   99.913    0.155    0.358    9.821
  360.812   95.422    0.181    0.357    9.825
  361.062   95.639    0.189    0.363    9.829
  361.312   97.364    0.181    0.365    9.851
  361.562   96.108    0.179    0.353    9.641
  361.812   96.565    0.179    0.346    9.663
  362.062   96.636    0.178    0.343    9.810
  362.312   95.849    0.193    0.351    9.939
  362.562   93.616    0.201    0.359   10.606
  362.812   92.942    0.187    0.359   11.040
  363.062   93.783    0.191    0.349   11.711
  363.312   94.222    0.181    0.344   12.048
  363.562   93.292    0.175    0.340   12.815
  363.812   92.464    0.192    0.339   13.310
  364.062   92.946    0.203    0.331   13.271
  364.312   94.705    0.220    0.329   13.427
  364.562   94.879    0.214    0.332   13.273
  364.812   86.998    0.206    0.337   13.278
  365.062   80.098    0.210    0.340   13.356
  365.312   75.081    0.208    0.351   13.793
  365.562   71.535    0.218    0.364   14.116
  365.812   72.898    0.217    0.352   16.021
  366.062   75.755    0.206    0.345   17.461
  366.312   73.174    0.215    0.353   19.013
  366.562   65.765    0.229    0.351   22.304
  366.812   60.183    0.246    0.360   24.980
  367.062   52.202    0.259    0.367   29.174
  367.312   57.471    0.279    0.361   31.742
  367.562   62.231    0.286    0.350   31.731
  367.812   64.424    0.290    0.335   30.989
  368.062   60.595    0.278    0.329   31.067
  368.312   54.717    0.272    0.326   33.186
  368.562   51.932    0.275    0.328   33.603
  368.812   50.129    0.279    0.350   34.051
  369.062   49.376    0.287    0.365   33.611
  369.312   49.795    0.293    0.360   34.288
  369.562   47.265    0.288    0.351   35.315
  369.812   44.757    0.282    0.356   36.324
  370.062   42.415    0.298    0.358   38.217
  370.312   44.491    0.290    0.360   38.037
  370.562   49.345    0.300    0.361   38.578
  370.812   52.862    0.309    0.355   38.161
  371.062   57.448    0.316    0.353   38.292
  371.312   60.832    0.298    0.362   36.524
  371.562   62.655    0.294    0.359   34.838
  371.812   63.583    0.289    0.355   34.845
  372.062   64.350    0.282    0.352   35.723
  372.312   62.129    0.279    0.351   37.522
  372.562   54.146    0.274    0.365   38.673
  372.812   46.082    0.290    0.358   39.790
  373.062   51.120    0.307    0.351   39.737
  373.312   54.635    0.294    0.343   39.510
  373.562   58.068    0.284    0.345   37.466
  373.812   59.502    0.279    0.347   34.309
  374.062   61.444    0.276    0.347   30.764
  374.312   62.732    0.273    0.344   29.703
  374.562   61.766    0.259    0.347   30.007
  374.812   55.728    0.273    0.380   32.486
  375.062   46.537    0.302    0.384   35.098
  375.312   45.771    0.318    0.370   41.437
  375.562   48.024    0.324    0.357   47.233
  375.812   50.033    0.312    0.355   51.606
  376.062   48.953    0.303    0.367   49.731
  376.312   46.182    0.294    0.364   46.953
  376.562   49.850    0.311    0.355   49.422
  376.812   52.358    0.320    0.368   52.526
  377.062   50.051    0.305    0.383   57.001
  377.312   38.181    0.311    0.372   62.364
  377.562   34.086    0.324    0.351   66.763
  377.812   32.824    0.305    0.364   69.552
  378.062   33.231    0.296    0.373   71.829
  378.312   32.993    0.305    0.381   72.110
  378.562   29.899    0.318    0.366   72.226
  378.812   29.222    0.314    0.356   70.948
  379.062   30.242    0.317    0.354   69.525
  379.312   33.165    0.320    0.349   69.764
  379.562   37.445    0.311    0.344   67.775
  379.812   40.175    0.303    0.349   65.774
  380.062   40.566    0.306    0.357   60.007
  380.312   42.001    0.296    0.364   51.522
  380.562   44.430    0.307    0.356   39.891
  380.812   49.977    0.314    0.346   32.934
  381.062   55.869    0.314    0.328   27.654
  381.312   60.852    0.279    0.321   24.598
  381.562   60.656    0.260    0.354   21.984
  381.812   61.073    0.244    0.373   21.884
  382.062   64.817    0.271    0.381   23.262
  382.312   70.505    0.290    0.379   24.945
  382.562   67.379    0.278    0.387   26.204
  382.812   61.177    0.293    0.388   27.439
  383.062   50.147    0.307    0.391   28.576
  383.312   45.510    0.319    0.400   29.715
  383.562   49.987    0.309    0.387   29.321
  383.812   56.501    0.301    0.367   27.459
  384.062   58.431    0.287    0.380   26.125
