~VERSION INFORMATION
 VERS.                 2.0:   CWLS LOG ASCII STANDARD -VERSION 2.0
 WRAP.                  NO:   ONE LINE PER DEPTH STEP
~WELL INFORMATION BLOCK
#MNEM.UNIT           DATA                    DESCRIPTION OF MNEMONIC
#---------    -------------------            -------------------------------
# Generated from Intellog Unique Number	CW_70_72/WELL/1063
NULL.         -999.25                        : NULL_VALUE
WELL.         JOFFRE ET AL CALLW 11-35       : Well_name    - WELL              
LOC .         11-35-072-20W4                 : Location     - LOCATION          
UWI .         00/11-35-072-20W4/0            : Uwi          - UNIQUE WELL ID    
ENTR.         JAYE                           : Entered      - ENTERED BY        
SRVC.         SCHLUMBERGER                   : Scn          - SERVICE COMPANY   
DATE.         5 JAN 79                       : Date         - LOG DATE          
STRT.M        355                            : top_depth    - START DEPTH       
STOP.M        565                            : bot_depth    - STOP DEPTH        
STEP.M        0.25                           : increment    - STEP LENGTH       
~CURVE INFORMATION BLOCK
#MNEM UNIT       ERCB CURVE CODE    CURVE DESCRIPTION
#-----------   ------------------   ----------------------------------
DEPT.M        00 001 00 00         : DEPTH        - DEPTH                       
DPHI.V/V      00 890 00 00         : PHID         - DENSITY POROSITY (SANDSTONE)
NPHI.V/V      00 330 00 00         : PHIN         - NEUTRON POROSITY (SANDSTONE)
GR  .API      00 310 00 00         : GR           - GAMMA RAY                   
CALI.MM       00 280 01 00         : CAL          - CALIPER                     
ILD .OHMM     00 120 00 00         : RESD         - DEEP RESISTIVITY (DIL)      
~PARAMETER INFORMATION       
#MNEM.UNIT           DATA             DESCRIPTION OF MNEMONIC
#---------         -----------     ------------------------------
GL  .M        643.2                : gl           - GROUND LEVEL ELEVATION      
EREF.M        646.5                : kb           - ELEVATION OF DEPTH REFERENCE
DATM.M        643.2                : datum        - DATUM ELEVATION             
TDD .M        605                  : tdd          - TOTAL DEPTH DRILLER         
RUN .         ONE                  : Run          - RUN NUMBER                  
WIT .         O'REILY              : Witness      - WITNESSED BY                
BASE.         LLOYD                : Branch       - HOME BASE OF LOGGING UNIT   
MUD .         GEL CHEM             : Mud_type     - MUD TYPE                    
MATR.         SANDSTONE            : Logunit      - NEUTRON MATRIX              
TMAX.C        0                    : BHT          - MAXIMUM RECORDED TEMPERATURE
BHTD.M        604.5                : BHTDEP       - MAXIMUM RECORDED TEMPERATURE
RMT .C        10                   : MDTP         - TEMPERATURE OF MUD          
MUDD.KG/M     1102                 : MWT          - MUD DENSITY                 
NEUT.         1                    : NEUTRON      - NEUTRON TYPE                
RESI.         0                    : RESIST       - RESISTIVITY TYPE            
RM  .OHMM     5.21                 : RM           - RESISTIVITY OF MUD          
RMC .OHMM     0                    : RMC          - RESISTIVITY OF MUD CAKE     
RMF .OHMM     3.6                  : RMF          - RESISTIVITY OF MUD FILTRATE 
SUFT.C        0                    : SUFT         - SURFACE TEMPERATURE         
~A  DEPTH     PHID     PHIN       GR      CAL     RESD
# ...
  391.500    0.259    0.480  138.953  155.620    3.639
  391.750    0.258    0.465  137.788  153.371    3.441
  392.000    0.262    0.454  136.069  152.972    3.759
  392.250    0.260    0.441  134.533  153.600    4.144
  392.500    0.255    0.442  135.219  154.640    4.784
  392.750    0.265    0.441  135.226  155.887    5.493
  393.000    0.280    0.443  133.568  157.337    6.318
  393.250    0.300    0.452  130.677  158.171    7.162
  393.500    0.290    0.443  128.155  158.491    7.925
  393.750    0.284    0.439  125.880  158.400    8.403
  394.000    0.271    0.448  123.791  158.310    8.369
  394.250    0.277    0.462  122.440  158.321    8.166
  394.500    0.281    0.471  120.905  158.641    7.910
  394.750    0.288    0.466  118.877  158.755    7.649
  395.000    0.283    0.455  116.910  158.870    7.532
  395.250    0.266    0.447  117.411  159.190    7.419
  395.500    0.279    0.436  123.585  159.099    7.429
  395.750    0.298    0.439  132.104  158.699    7.509
  396.000    0.292    0.449  139.081  158.404    7.603
  396.250    0.278    0.460  144.084  158.415    7.713
  396.500    0.288    0.477  143.105  159.043    7.824
  396.750    0.311    0.496  136.635  163.785    7.792
  397.000    0.332    0.484  131.585  168.010    7.451
  397.250    0.330    0.461  129.618  163.705    7.059
  397.500    0.313    0.440  133.326  159.502    6.517
  397.750    0.298    0.434  137.219  159.822    6.015
  398.000    0.286    0.438  136.239  160.350    5.472
  398.250    0.271    0.455  128.660  161.184    5.280
  398.500    0.272    0.457  118.367  162.016    5.279
  398.750    0.283    0.436  107.518  162.338    5.414
  399.000    0.300    0.418   97.534  162.452    5.668
  399.250    0.319    0.395   90.386  162.464    5.956
  399.500    0.337    0.395   90.270  162.270    6.188
  399.750    0.353    0.416   96.445  162.487    6.430
  400.000    0.378    0.456  104.100  163.630    6.596
  400.250    0.407    0.502  105.157  164.568    6.606
  400.500    0.437    0.589  100.598  164.887    6.518
  400.750    0.572    0.643   89.195  163.768    6.455
  401.000    0.543    0.678   84.515  162.649    6.465
  401.250    0.403    0.680   92.663  163.380    6.508
  401.500    0.349    0.405   97.297  165.346    6.688
  401.750    0.335    0.420   98.291  167.415    7.040
  402.000    0.342    0.430   97.989  168.659    7.356
  402.250    0.351    0.439   97.010  167.540    7.860
  402.500    0.358    0.426  100.039  164.057    8.475
  402.750    0.347    0.396   97.579  161.705    8.903
  403.000    0.334    0.392   95.242  161.099    9.355
  403.250    0.329    0.396   95.188  160.803    9.316
  403.500    0.328    0.398   96.490  160.301    8.382
  403.750    0.331    0.391   98.717  159.799    7.911
  404.000    0.335    0.393  100.081  160.325    7.441
  404.250    0.337    0.406  100.767  161.056    7.075
  404.500    0.337    0.419  102.378  161.582    6.752
  404.750    0.334    0.419  100.720  162.520    6.444
  405.000    0.325    0.410   98.753  162.531    6.277
  405.250    0.321    0.398   96.910  162.441    6.193
  405.500    0.323    0.391   95.992  162.349    6.158
  405.750    0.319    0.398   95.197  162.875    6.258
  406.000    0.321    0.409   93.909  163.606    6.347
  406.250    0.324    0.417   93.299  165.160    6.426
  406.500    0.335    0.416   98.920  167.127    6.485
  406.750    0.333    0.401   99.728  167.137    6.506
  407.000    0.335    0.380   99.118  165.197    6.562
  407.250    0.325    0.382  100.236  163.770    6.633
  407.500    0.317    0.400  101.786  163.369    6.669
  407.750    0.316    0.402  103.211  163.381    6.666
  408.000    0.323    0.395  103.772  163.394    6.676
  408.250    0.321    0.394  102.546  163.817    6.682
  408.500    0.320    0.396   99.037  164.343    6.754
  408.750    0.326    0.391   97.750  164.562    6.815
  409.000    0.333    0.385   98.620  164.675    6.839
  409.250    0.326    0.390  100.848  164.689    6.845
  409.500    0.331    0.405  104.802  164.697    6.894
  409.750    0.327    0.403  106.721  164.915    6.903
  410.000    0.319    0.392  107.530  165.032    6.926
  410.250    0.327    0.385  105.934  164.939    6.948
  410.500    0.331    0.398  103.536  164.643    6.959
  410.750    0.332    0.412  105.208  164.656    6.930
  411.000    0.352    0.428  105.709  164.770    6.926
  411.250    0.357    0.440  103.310  165.090    6.960
  411.500    0.349    0.424  100.171  165.513    6.945
  411.750    0.345    0.431  101.352  166.140    6.981
  412.000    0.356    0.436  103.579  166.666    6.978
  412.250    0.364    0.418  109.877  167.398    6.949
  412.500    0.356    0.432  110.624  167.718    6.919
  412.750    0.326    0.415  107.547  168.554    6.891
  413.000    0.328    0.413  103.052  168.771    6.812
  413.250    0.342    0.425  101.393  168.987    6.796
  413.500    0.346    0.420  102.079  166.224    6.694
  413.750    0.351    0.421  105.540  163.769    6.483
  414.000    0.345    0.427  103.821  163.061    6.132
  414.250    0.348    0.434  100.990  162.457    6.038
  414.500    0.354    0.445  103.095  161.853    6.037
  414.750    0.361    0.449  103.719  161.862    6.111
  415.000    0.353    0.446  103.109  161.875    6.421
  415.250    0.345    0.439  102.807  161.888    6.735
  415.500    0.341    0.431  100.717  162.001    6.908
  415.750    0.338    0.430   98.628  162.219    6.932
  416.000    0.336    0.437   96.352  162.233    6.752
  416.250    0.350    0.449   99.567  162.345    6.588
  416.500    0.349    0.464  100.807  162.463    6.394
  416.750    0.339    0.457   97.669  162.472    6.262
  417.000    0.339    0.441   96.936  162.689    6.144
  417.250    0.342    0.429   98.362  163.115    5.987
  417.500    0.343    0.420  100.466  163.329    5.885
  417.750    0.347    0.418  100.226  163.444    5.818
  418.000    0.345    0.407   99.123  163.457    5.762
  418.250    0.346    0.414   98.267  163.366    5.736
  418.500    0.351    0.428   98.767  163.379    5.702
  418.750    0.358    0.441   99.700  163.494    5.656
  419.000    0.358    0.448   98.905  163.609    5.592
  419.250    0.354    0.455   99.468  163.723    5.570
  419.500    0.351    0.457  100.954  163.734    5.589
  419.750    0.348    0.454   99.359  163.953    5.626
  420.000    0.345    0.444   97.391  164.065    5.656
  420.250    0.349    0.433   97.029  164.182    5.673
  420.500    0.353    0.427   97.652  164.091    5.704
  420.750    0.351    0.430   98.770  164.101    5.691
  421.000    0.344    0.425   96.803  164.218    5.675
  421.250    0.354    0.411   93.480  164.332    5.665
  421.500    0.357    0.426   91.575  164.447    5.672
  421.750    0.352    0.426   96.454  164.972    5.678
  422.000    0.342    0.418   95.906  165.600    5.676
  422.250    0.311    0.439   90.856  166.640    5.664
  422.500    0.274    0.472   88.273  168.192    5.661
  422.750    0.313    0.509   88.527  169.542    5.609
  423.000    0.351    0.498   88.965  169.245    5.594
  423.250    0.356    0.443   90.761  167.098    5.571
  423.500    0.353    0.438   92.680  165.567    5.549
  423.750    0.355    0.428   93.983  164.347    5.524
  424.000    0.358    0.427   94.977  163.843    5.503
  424.250    0.363    0.460   94.058  163.652    5.499
  424.500    0.365    0.451   91.907  163.663    5.477
  424.750    0.358    0.438   89.941  163.677    5.484
  425.000    0.355    0.448   90.564  163.584    5.501
  425.250    0.355    0.446   92.854  163.595    5.531
  425.500    0.347    0.435   98.103  163.709    5.538
  425.750    0.347    0.420   99.097  163.928    5.547
  426.000    0.357    0.411   98.241  164.043    5.574
  426.250    0.353    0.432   98.124  164.054    5.613
  426.500    0.351    0.431   98.686  163.243    5.673
  426.750    0.348    0.429   97.769  161.201    5.618
  427.000    0.347    0.432   97.344  160.904    5.543
  427.250    0.347    0.442   99.078  161.017    5.522
  427.500    0.345    0.447  103.588  161.029    5.488
  427.750    0.350    0.434  107.357  161.761    5.475
