~VERSION INFORMATION
 VERS.                 2.0:   CWLS LOG ASCII STANDARD -VERSION 2.0
 WRAP.                  NO:   ONE LINE PER DEPTH STEP
~WELL INFORMATION BLOCK
#MNEM.UNIT           DATA                    DESCRIPTION OF MNEMONIC
#---------    -------------------            -------------------------------
# Generated from Intellog Unique Number	CS_77_79/WELL/1012
WELL.         ICGR CHARD                     : Well_name    - WELL
LOC .         00/11-36-078-06W4/0            : Location     - LOCATION
UWI .         00/11-36-078-06W4/0            : Uwi          - UNIQUE WELL ID
ENTR.         JHS                            : Entered      - ENTERED BY
SRVC.         SCHLUMBERGER                   : Scn          - SERVICE COMPANY
STRT.M        100                            : top_depth    - START DEPTH
STOP.M        375                            : bot_depth    - STOP DEPTH
STEP.M        0.25                           : increment    - STEP LENGTH
 NULL. -999.2500:NULL Value
~CURVE INFORMATION BLOCK
#MNEM UNIT       ERCB CURVE CODE    CURVE DESCRIPTION
#-----------   ------------------   ----------------------------------
DEPT.M        00 001 00 00         : DEPTH        - DEPTH
DPHI.V/V      00 890 00 00         : PHID         - DENSITY POROSITY (LIMESTONE)
NPHI.V/V      00 330 00 00         : PHIN         - NEUTRON POROSITY (LIMESTONE)
GR  .API      00 310 00 00         : GR           - GAMMA RAY
ILD .OHMM     00 120 00 00         : RESD         - DEEP RESISTIVITY (DIL)
~PARAMETER INFORMATION
#MNEM.UNIT           DATA             DESCRIPTION OF MNEMONIC
#---------         -----------     ------------------------------
GL  .M        533.73               : gl           - GROUND LEVEL ELEVATION
EREF.M        537.26               : kb           - ELEVATION OF DEPTH REFERENCE
DATM.M        537.26               : datum        - DATUM ELEVATION
TDD .M        381                  : tdd          - TOTAL DEPTH DRILLER
RUN .         ONE                  : Run          - RUN NUMBER
ENG .         BILL                 : Engineer     - RECORDING ENGINEER
WIT .         JIM                  : Witness      - WITNESSED BY
MUD .         GEL                  : Mud_type     - MUD TYPE
MATR.         LIMESTONE            : Logunit      - NEUTRON MATRIX
TMAX.C        20                   : BHT          - MAXIMUM RECORDED TEMPERATURE
BHTD.M        381                  : BHTDEP       - MAXIMUM RECORDED TEMPERATURE
MATR.         1                    : LOGUNIT      - NEUTRON MATRIX
RMT .C        25                   : MDTP         - TEMPERATURE OF MUD
NEUT.         1                    : NEUTRON      - NEUTRON TYPE
RESI.         0                    : RESIST       - RESISTIVITY TYPE
RMC .OHMM     0.25                 : RMC          - RESISTIVITY OF MUD CAKE
RMF .OHMM     0.25                 : RMF          - RESISTIVITY OF MUD FILTRATE
SUFT.C        15                   : SUFT         - SURFACE TEMPERATURE
~A  DEPTH     PHID     PHIN       GR     RESD
# ...
  274.000    0.247    0.469   93.504    3.839
  274.250    0.252    0.478   91.643    3.765
  274.500    0.258    0.492   89.169    3.693
  274.750    0.255    0.499   87.919    3.622
  275.000    0.248    0.511   87.902    3.621
  275.250    0.252    0.514   86.657    3.484
  275.500    0.266    0.489   85.401    3.549
  275.750    0.267    0.474   87.230    3.755
  276.000    0.260    0.502   86.599    3.974
  276.250    0.288    0.520   83.509    4.286
  276.500    0.298    0.470   77.959    4.801
  276.750    0.283    0.446   76.710    5.378
  277.000    0.244    0.455   82.836    5.479
  277.250    0.236    0.472   87.119    5.477
  277.500    0.229    0.449   87.106    5.474
  277.750    0.192    0.432   88.317    5.792
  278.000    0.093    0.448   81.537    6.246
  278.250    0.066    0.477   69.225    7.267
  278.500    0.098    0.412   66.132    7.838
  278.750    0.151    0.293   69.801    8.452
  279.000    0.200    0.356   74.701    8.774
  279.250    0.216    0.398   79.600    8.606
  279.500    0.248    0.403   75.277    8.282
  279.750    0.286    0.375   70.957    8.279
  280.000    0.308    0.342   71.553    8.594
  280.250    0.305    0.326   74.607    8.431
  280.500    0.307    0.368   72.743    7.665
  280.750    0.326    0.394   65.353    6.968
  281.000    0.375    0.291   54.271    7.513
  281.250    0.385    0.198   47.492    8.417
  281.500    0.362    0.206   51.771   10.171
  281.750    0.332    0.251   55.442   12.527
  282.000    0.317    0.287   57.271   14.033
  282.250    0.314    0.322   54.178   15.133
  282.500    0.317    0.308   48.008   12.751
  282.750    0.325    0.277   42.460    9.959
  283.000    0.332    0.292   35.069    8.884
  283.250    0.336    0.288   23.985    7.775
  283.500    0.346    0.281   20.280    7.343
  283.750    0.356    0.288   22.721    6.932
  284.000    0.355    0.300   29.459    6.545
  284.250    0.334    0.302   30.057    6.544
  284.500    0.328    0.308   38.034    6.418
  284.750    0.326    0.313   35.557    6.414
  285.000    0.329    0.301   34.306    6.412
  285.250    0.325    0.299   41.046    6.409
  285.500    0.329    0.309   42.873    6.530
  285.750    0.339    0.318   42.859    6.405
  286.000    0.359    0.329   48.988    6.402
  286.250    0.372    0.356   58.185    6.521
  286.500    0.371    0.381   58.785    6.397
  286.750    0.351    0.368   56.305    6.393
  287.000    0.354    0.358   56.282    6.271
  287.250    0.302    0.374   64.877    6.150
  287.500    0.273    0.385   73.463    6.147
  287.750    0.275    0.370   74.671    6.264
  288.000    0.292    0.362   79.573    6.503
  288.250    0.285    0.367   87.542    6.752
  288.500    0.259    0.400   94.902    7.010
  288.750    0.247    0.401  105.946    7.417
  289.000    0.246    0.405  111.461    7.556
  289.250    0.273    0.426  112.674    7.698
  289.500    0.311    0.424  107.738    7.696
  289.750    0.325    0.401   94.196    7.691
  290.000    0.336    0.377   83.111    7.543
  290.250    0.322    0.400   78.179    7.400
  290.500    0.297    0.379   75.084    7.257
  290.750    0.257    0.369   75.070    7.535
  291.000    0.218    0.364   82.426    8.126
  291.250    0.193    0.371   87.326    8.437
  291.500    0.214    0.360   85.463    8.760
  291.750    0.240    0.346   78.684    8.756
  292.000    0.257    0.340   71.902    8.111
  292.250    0.282    0.388   68.194    7.659
  292.500    0.270    0.398   79.856    7.513
  292.750    0.215    0.389   88.444    7.510
  293.000    0.201    0.387   92.728    7.507
  293.250    0.199    0.396   93.940    7.794
  293.500    0.192    0.399   94.529    7.939
  293.750    0.212    0.391   90.829    7.936
  294.000    0.276    0.381   77.289    7.782
  294.250    0.318    0.355   58.830    7.634
  294.500    0.334    0.326   45.290    7.346
  294.750    0.313    0.329   44.041    7.206
  295.000    0.281    0.352   60.615    6.934
  295.250    0.285    0.382   64.288    6.673
  295.500    0.318    0.396   63.651    6.301
  295.750    0.262    0.378   63.023    6.064
  296.000    0.197    0.359   86.362    5.836
  296.250    0.206    0.413   94.334    5.723
  296.500    0.232    0.449   93.699    5.722
  296.750    0.247    0.425   87.537    5.719
  297.000    0.279    0.412   71.536    5.503
  297.250    0.335    0.403   56.148    5.297
  297.500    0.349    0.383   49.368    5.001
  297.750    0.351    0.369   43.822    4.906
  298.000    0.351    0.358   38.884    4.720
  298.250    0.345    0.392   42.556    4.719
  298.500    0.343    0.427   40.078    4.628
  298.750    0.346    0.387   34.527    4.625
  299.000    0.344    0.367   37.581    4.624
  299.250    0.342    0.368   43.092    4.623
  299.500    0.350    0.389   38.157    4.709
  299.750    0.355    0.398   34.456    4.982
  300.000    0.351    0.373   34.434    5.077
  300.250    0.324    0.365   46.096    5.270
  300.500    0.297    0.381   69.432    5.268
  300.750    0.299    0.404   69.417    5.167
  301.000    0.333    0.425   57.106    4.973
  301.250    0.357    0.399   42.949    4.786
  301.500    0.365    0.401   33.712    4.693
  301.750    0.356    0.407   32.462    4.604
  302.000    0.348    0.387   41.663    4.601
  302.250    0.332    0.386   57.629    4.777
  302.500    0.313    0.427   69.289    4.960
  302.750    0.287    0.414   77.260    5.150
  303.000    0.279    0.418   76.012    5.148
  303.250    0.307    0.441   68.003    5.244
  303.500    0.318    0.427   72.287    5.241
  303.750    0.287    0.400   79.645    5.442
  304.000    0.273    0.388   86.385    5.545
  304.250    0.268    0.395   88.215    5.866
  304.500    0.279    0.420   86.963    5.977
  304.750    0.289    0.447   90.638    6.205
  305.000    0.275    0.451   97.379    6.202
  305.250    0.258    0.438  105.349    6.319
  305.500    0.241    0.427  107.174    6.316
  305.750    0.256    0.427  101.627    6.558
  306.000    0.284    0.406   94.233    6.809
  306.250    0.279    0.392   93.599    7.205
  306.500    0.248    0.406  100.957    7.624
  306.750    0.229    0.388  105.856    8.067
  307.000    0.234    0.368  103.378    9.036
  307.250    0.298    0.346   89.838   10.315
  307.500    0.368    0.262   67.077   11.338
  307.750    0.378    0.207   49.233   12.700
  308.000    0.302    0.226   44.297   13.695
  308.250    0.251    0.277   44.892   12.688
  308.500    0.240    0.338   44.874   11.106
  308.750    0.224    0.352   52.230    7.889
  309.000    0.239    0.354   55.900    6.775
  309.250    0.282    0.382   57.729    5.818
  309.500    0.300    0.371   62.627    5.494
  309.750    0.303    0.365   65.068    5.286
  310.000    0.298    0.355   63.204    5.285
  310.250    0.296    0.356   57.647    5.282
  310.500    0.303    0.364   57.023    5.180
  310.750    0.311    0.374   57.615    5.179
  311.000    0.324    0.391   52.683    4.984
  311.250    0.329    0.376   42.212    4.982
  311.500    0.334    0.370   37.891    4.886
  311.750    0.341    0.363   34.186    4.883
  312.000    0.333    0.349   32.326    4.789
  312.250    0.323    0.341   43.983    4.788
  312.500    0.316    0.357   50.115    4.787
  312.750    0.316    0.373   52.552    4.784
  313.000    0.322    0.365   47.003    4.783
  313.250    0.330    0.358   41.447    4.602
  313.500    0.332    0.358   48.196    4.514
  313.750    0.337    0.369   54.324    4.427
  314.000    0.348    0.376   41.398    4.426
  314.250    0.355    0.367   32.158    4.423
  314.500    0.341    0.364   30.913    4.339
  314.750    0.348    0.367   30.280    4.420
  315.000    0.357    0.374   27.186    4.503
  315.250    0.346    0.363   25.941    4.417
  315.500    0.313    0.358   43.745    4.674
  315.750    0.213    0.359   58.479    5.040
  316.000    0.175    0.354   73.826    5.863
  316.250    0.173    0.367   87.947    6.444
  316.500    0.197    0.361   91.004    7.218
  316.750    0.217    0.341   87.908    7.785
  317.000    0.214    0.334   88.505    8.556
  317.250    0.206    0.329   93.404    9.226
