~VERSION INFORMATION
 VERS.                 2.0:   CWLS LOG ASCII STANDARD -VERSION 2.0
 WRAP.                  NO:   ONE LINE PER DEPTH STEP
~WELL INFORMATION BLOCK
#MNEM.UNIT           DATA                    DESCRIPTION OF MNEMONIC
#---------    -------------------            -------------------------------
# Generated from Intellog Unique Number	CS_69_70/WELL/871
WELL.         GULF OIL CANADA LIMITED        : Well_name    - WELL
LOC .         00/10-27-069-15W4/0            : Location     - LOCATION
UWI .         00/10-27-069-15W4/0            : Uwi          - UNIQUE WELL ID
ENTR.         SP                             : Entered      - ENTERED BY
SRVC.         SCHLUMBERGER                   : Scn          - SERVICE COMPANY
STRT.M        274.32                         : top_depth    - START DEPTH
STOP.M        478.32                         : bot_depth    - STOP DEPTH
STEP.M        0.25                           : increment    - STEP LENGTH
 NULL. -999.2500:NULL Value
~CURVE INFORMATION BLOCK
#MNEM UNIT       ERCB CURVE CODE    CURVE DESCRIPTION
#-----------   ------------------   ----------------------------------
DEPT.M        00 001 00 00         : DEPTH        - DEPTH
GR  .API      00 310 00 00         : GR           - GAMMA RAY
DPHI.V/V      00 890 00 00         : PHID         - DENSITY POROSITY (SANDSTONE)
NPHI.V/V      00 330 00 00         : PHIN         - NEUTRON POROSITY (SANDSTONE)
ILD .OHMM     00 120 00 00         : RESD         - DEEP RESISTIVITY (DIL)
~PARAMETER INFORMATION
#MNEM.UNIT           DATA             DESCRIPTION OF MNEMONIC
#---------         -----------     ------------------------------
GL  .M        561.746              : gl           - GROUND LEVEL ELEVATION
EREF.M        565.252              : kb           - ELEVATION OF DEPTH REFERENCE
DATM.M        561.746              : datum        - DATUM ELEVATION
TDD .M        480.06               : tdd          - TOTAL DEPTH DRILLER
RUN .         ONE                  : Run          - RUN NUMBER
ENG .         BILL                 : Engineer     - RECORDING ENGINEER
WIT .         JIM                  : Witness      - WITNESSED BY
MUD .         GEL                  : Mud_type     - MUD TYPE
MATR.         SANDSTONE            : Logunit      - NEUTRON MATRIX
TMAX.C        13.3333              : BHT          - MAXIMUM RECORDED TEMPERATURE
BHTD.M        480.06               : BHTDEP       - MAXIMUM RECORDED TEMPERATURE
MATR.         1                    : LOGUNIT      - NEUTRON MATRIX
RMT .C        25                   : MDTP         - TEMPERATURE OF MUD
NEUT.         1                    : NEUTRON      - NEUTRON TYPE
RESI.         0                    : RESIST       - RESISTIVITY TYPE
RMC .OHMM     0.25                 : RMC          - RESISTIVITY OF MUD CAKE
RMF .OHMM     0.25                 : RMF          - RESISTIVITY OF MUD FILTRATE
SUFT.C        15                   : SUFT         - SURFACE TEMPERATURE
~A  DEPTH       GR     PHID     PHIN     RESD
# ...
  404.820  108.515    0.132    0.460    3.025
  405.070  109.326    0.142    0.462    3.025
  405.320  108.219    0.144    0.483    2.977
  405.570  106.993    0.138    0.500    2.880
  405.820  107.942    0.135    0.489    2.772
  406.070  110.396    0.138    0.488    2.661
  406.320  112.103    0.145    0.499    2.592
  406.570  113.022    0.150    0.508    2.561
  406.820  113.471    0.156    0.514    2.557
  407.070  112.995    0.146    0.505    2.555
  407.320  111.258    0.131    0.491    2.579
  407.570  107.467    0.117    0.479    2.626
  407.820  104.498    0.107    0.471    2.709
  408.070  106.656    0.095    0.456    2.845
  408.320  110.607    0.089    0.449    3.058
  408.570  106.090    0.096    0.455    3.275
  408.820   94.180    0.105    0.452    3.528
  409.070   87.100    0.122    0.437    3.753
  409.320   84.976    0.128    0.429    3.929
  409.570   83.807    0.082    0.431    4.106
  409.820   83.069    0.095    0.431    4.227
  410.070   83.076    0.135    0.422    4.282
  410.320   83.477    0.100    0.417    4.291
  410.570   83.945    0.102    0.415    4.276
  410.820   84.414    0.127    0.419    4.231
  411.070   84.703    0.146    0.419    4.243
  411.320   84.567    0.155    0.413    4.370
  411.570   83.604    0.161    0.410    4.555
  411.820   85.452    0.176    0.409    4.654
  412.070   88.785    0.169    0.406    4.663
  412.320   92.654    0.155    0.410    4.511
  412.570   95.716    0.132    0.404    4.350
  412.820   98.514    0.112    0.400    4.218
  413.070  101.459    0.093    0.400    4.112
  413.320   97.943    0.098    0.412    4.080
  413.570   99.293    0.109    0.431    4.091
  413.820   99.961    0.122    0.424    4.149
  414.070   95.699    0.132    0.417    4.223
  414.320   91.871    0.125    0.418    4.281
  414.570   90.758    0.116    0.425    4.347
  414.820   90.961    0.122    0.420    4.365
  415.070   91.082    0.122    0.412    4.394
  415.320   90.327    0.109    0.406    4.411
  415.570   90.306    0.098    0.416    4.377
  415.820   93.283    0.093    0.417    4.325
  416.070   96.700    0.091    0.407    4.241
  416.320   99.184    0.097    0.399    4.182
  416.570   98.333    0.115    0.393    4.143
  416.820   97.383    0.113    0.390    4.123
  417.070   98.933    0.098    0.402    4.141
  417.320  100.551    0.082    0.416    4.191
  417.570  102.314    0.089    0.411    4.280
  417.820  103.796    0.096    0.405    4.401
  418.070  103.451    0.074    0.402    4.478
  418.320  101.430    0.059    0.403    4.519
  418.570   99.142    0.073    0.403    4.549
  418.820  101.304    0.098    0.400    4.512
  419.070  103.239    0.115    0.396    4.438
  419.320  105.505    0.114    0.390    4.357
  419.570  107.518    0.117    0.386    4.288
  419.820  109.550    0.097    0.384    4.267
  420.070  107.268    0.102    0.383    4.286
  420.320  107.656    0.105    0.384    4.295
  420.570  107.540    0.102    0.390    4.274
  420.820  107.000    0.098    0.410    4.262
  421.070  101.287    0.072    0.416    4.228
  421.320   93.474    0.051    0.407    4.229
  421.570   96.148    0.096    0.403    4.232
  421.820  102.654    0.118    0.405    4.247
  422.070  102.375    0.123    0.397    4.256
  422.320  103.181    0.107    0.385    4.275
  422.570  106.773    0.086    0.373    4.300
  422.820  109.703    0.065    0.363    4.339
  423.070  111.949    0.066    0.374    4.285
  423.320  108.391    0.045    0.387    4.123
  423.570  102.141    0.020    0.399    3.843
  423.820   98.898    0.070    0.412    3.458
  424.070   99.158    0.088    0.422    3.083
  424.320   99.841    0.108    0.411    2.831
  424.570  100.897    0.122    0.412    2.518
  424.820  102.000    0.127    0.437    2.344
  425.070  102.485    0.121    0.457    2.193
  425.320  103.186    0.118    0.479    2.098
  425.570  102.816    0.116    0.494    2.044
  425.820  101.982    0.122    0.483    2.128
  426.070  100.830    0.129    0.476    2.318
  426.320   98.930    0.139    0.487    2.779
  426.570   95.756    0.131    0.465    3.584
  426.820   91.634    0.123    0.425    4.204
  427.070   88.053    0.110    0.411    5.269
  427.320   85.379    0.091    0.415    5.864
  427.570   81.776    0.056    0.398    6.305
  427.820   77.545    0.021    0.351    6.453
  428.070   74.974   -0.025    0.307    6.129
  428.320   79.194    0.070    0.307    5.714
  428.570   84.831    0.097    0.345    5.533
  428.820   89.473    0.117    0.367    5.820
  429.070   90.822    0.122    0.385    6.248
  429.320   87.375    0.105    0.379    7.072
  429.570   80.053    0.075    0.353    8.311
  429.820   73.324    0.020    0.288    9.020
  430.070   67.272   -0.023    0.241    8.474
  430.320   70.165   -0.035    0.248    7.212
  430.570   83.671    0.063    0.281    5.889
  430.820   90.853    0.066    0.321    4.982
  431.070   99.020    0.081    0.351    4.303
  431.320  107.007    0.083    0.369    3.762
  431.570  108.242    0.083    0.387    3.480
  431.820  105.617    0.088    0.396    3.566
  432.070  102.489    0.079    0.394    3.987
  432.320  103.376    0.059    0.393    3.764
  432.570  105.012    0.045    0.410    3.594
  432.820  105.245    0.045    0.417    3.353
  433.070  107.200    0.064    0.397    3.154
  433.320  109.784    0.094    0.391    3.053
  433.570  110.912    0.106    0.405    2.961
  433.820  110.950    0.105    0.415    2.806
  434.070  109.152    0.096    0.425    2.780
  434.320  106.216    0.084    0.435    2.854
  434.570  104.884    0.084    0.418    2.798
  434.820  105.940    0.070    0.422    2.742
  435.070  106.174    0.043    0.436    2.694
  435.320  105.814    0.058    0.442    2.753
  435.570  108.369    0.074    0.447    2.831
  435.820  109.109    0.059    0.451    2.718
  436.070  105.244    0.042    0.455    2.640
  436.320  107.905    0.075    0.455    2.575
  436.570  110.474    0.098    0.450    2.511
  436.820  112.133    0.116    0.441    2.572
  437.070  113.760    0.084    0.444    2.680
  437.320  115.465    0.090    0.454    2.778
  437.570  112.773    0.088    0.457    3.030
  437.820  106.428    0.062    0.433    3.323
  438.070   99.832    0.042    0.412    3.540
  438.320   96.416    0.018    0.398    3.362
  438.570  105.035    0.027    0.417    2.984
  438.820  112.534    0.110    0.464    2.546
  439.070  119.165    0.134    0.482    2.396
  439.320  120.353    0.106    0.468    2.335
  439.570  119.624    0.104    0.482    2.750
  439.820  118.659    0.100    0.472    3.170
  440.070  112.034    0.091    0.437    3.725
  440.320  104.810    0.082    0.412    4.234
  440.570   98.561    0.044    0.386    4.734
  440.820   92.833    0.007    0.361    5.147
  441.070   90.209    0.026    0.336    5.591
  441.320  101.571    0.067    0.337    5.683
  441.570  110.604    0.070    0.368    5.200
  441.820  114.752    0.061    0.367    4.657
  442.070  114.581    0.083    0.354    4.708
  442.320  104.914    0.102    0.340    5.127
  442.570   95.611    0.116    0.333    5.653
  442.820   90.761    0.137    0.327    6.945
  443.070   86.922    0.144    0.314    8.843
  443.320   84.036    0.098    0.270   11.160
  443.570   81.094    0.030    0.218   13.763
  443.820   77.701   -0.026    0.199   15.476
  444.070   74.436   -0.024    0.186   16.537
  444.320   72.868   -0.020    0.185   16.429
  444.570   74.777   -0.013    0.220   14.130
  444.820   78.723    0.025    0.247   10.809
  445.070   81.456    0.047    0.270    8.753
  445.320   83.354    0.071    0.290    7.498
  445.570   89.748    0.095    0.315    6.948
  445.820   99.109    0.098    0.323    6.600
  446.070  111.558    0.093    0.325    6.318
  446.320  117.436    0.082    0.338    6.130
  446.570  124.232    0.067    0.346    5.989
  446.820  131.506    0.059    0.344    5.854
  447.070  136.171    0.066    0.358    5.753
  447.320  130.651    0.081    0.381    5.783
  447.570  124.572    0.096    0.379    5.950
  447.820  119.368    0.109    0.371    6.413
  448.070  115.422    0.101    0.362    6.835
