~VERSION INFORMATION
 VERS.                 2.0:   CWLS LOG ASCII STANDARD -VERSION 2.0
 WRAP.                  NO:   ONE LINE PER DEPTH STEP
~WELL INFORMATION BLOCK
#MNEM.UNIT           DATA                    DESCRIPTION OF MNEMONIC
#---------    -------------------            -------------------------------
# Generated from Intellog Unique Number	CW_70_72/WELL/1040
NULL.         -999.25                        : NULL_VALUE
WELL.         BRASCAN AMOCO MEYER 10-18      : Well_name    - WELL              
LOC .         10-18-071-25W4                 : Location     - LOCATION          
UWI .         00/10-18-071-25W4/0            : Uwi          - UNIQUE WELL ID    
ENTR.         JAYE                           : Entered      - ENTERED BY        
SRVC.         SCHLUMBERGER                   : Scn          - SERVICE COMPANY   
DATE.         25 NOV 73                      : Date         - LOG DATE          
STRT.M        435.864                        : top_depth    - START DEPTH       
STOP.M        646.114                        : bot_depth    - STOP DEPTH        
STEP.M        0.25                           : increment    - STEP LENGTH       
~CURVE INFORMATION BLOCK
#MNEM UNIT       ERCB CURVE CODE    CURVE DESCRIPTION
#-----------   ------------------   ----------------------------------
DEPT.M        00 001 00 00         : DEPTH        - DEPTH                       
DPHI.V/V      00 890 00 00         : PHID         - DENSITY POROSITY (SANDSTONE)
NPHI.V/V      00 330 00 00         : PHIN         - NEUTRON POROSITY (SANDSTONE)
GR  .API      00 310 00 00         : GR           - GAMMA RAY                   
CALI.MM       00 280 01 00         : CAL          - CALIPER                     
ILD .OHMM     00 120 00 00         : RESD         - DEEP RESISTIVITY (DIL)      
~PARAMETER INFORMATION       
#MNEM.UNIT           DATA             DESCRIPTION OF MNEMONIC
#---------         -----------     ------------------------------
GL  .M        609.905              : gl           - GROUND LEVEL ELEVATION      
EREF.M        612.953              : kb           - ELEVATION OF DEPTH REFERENCE
DATM.M        609.905              : datum        - DATUM ELEVATION             
TDD .M        644.652              : tdd          - TOTAL DEPTH DRILLER         
RUN .         ONE                  : Run          - RUN NUMBER                  
MATR.         SANDSTONE            : Logunit      - NEUTRON MATRIX              
TMAX.C        28.8889              : BHT          - MAXIMUM RECORDED TEMPERATURE
BHTD.M        645.566              : BHTDEP       - MAXIMUM RECORDED TEMPERATURE
RMT .C        20                   : MDTP         - TEMPERATURE OF MUD          
MUDD.KG/M     0                    : MWT          - MUD DENSITY                 
NEUT.         1                    : NEUTRON      - NEUTRON TYPE                
RESI.         0                    : RESIST       - RESISTIVITY TYPE            
RM  .OHMM     2.72                 : RM           - RESISTIVITY OF MUD          
RMC .OHMM     0                    : RMC          - RESISTIVITY OF MUD CAKE     
RMF .OHMM     2.56                 : RMF          - RESISTIVITY OF MUD FILTRATE 
SUFT.C        0                    : SUFT         - SURFACE TEMPERATURE         
~A  DEPTH     PHID     PHIN       GR      CAL     RESD
# ...
  581.864    0.066    0.380  103.405  156.272    4.723
  582.114    0.072    0.355   99.123  161.540    5.456
  582.364    0.077    0.337   97.445  162.701    6.279
  582.614    0.063    0.315   92.133  159.861    6.852
  582.864    0.039    0.287   85.909  157.539    7.037
  583.114    0.008    0.255   78.414  157.566    6.507
  583.364   -0.015    0.286   77.281  157.506    5.438
  583.614    0.101    0.320   87.119  157.325    5.363
  583.864    0.106    0.401   93.806  158.180    5.539
  584.114    0.095    0.377   98.430  159.036    5.657
  584.364    0.102    0.362   91.966  158.863    5.724
  584.614    0.119    0.365   86.531  157.972    5.749
  584.864    0.121    0.365   84.974  157.081    5.818
  585.114    0.109    0.360   88.753  156.607    5.844
  585.364    0.078    0.352   91.862  156.429    5.892
  585.614    0.091    0.345   95.275  156.364    5.907
  585.864    0.108    0.353   95.719  156.399    5.989
  586.114    0.093    0.363   94.225  156.431    6.027
  586.364    0.089    0.371   93.879  156.466    5.988
  586.614    0.086    0.368   96.201  156.188    5.894
  586.864    0.099    0.361   94.705  156.010    5.921
  587.114    0.103    0.351   90.665  155.844    6.091
  587.364    0.089    0.320   89.411  156.079    6.301
  587.614    0.064    0.322   91.129  156.314    6.226
  587.864    0.052    0.322   93.269  157.584    6.128
  588.114    0.065    0.318   91.591  158.740    5.912
  588.364    0.074    0.329   92.097  161.032    5.487
  588.614    0.085    0.347   96.177  163.431    5.027
  588.864    0.081    0.365   95.712  163.666    4.832
  589.114    0.071    0.365   93.367  162.776    5.017
  589.364    0.069    0.352   88.477  160.753    5.475
  589.614    0.080    0.337   83.708  160.485    6.164
  589.864    0.087    0.312   77.849  160.512    7.055
  590.114    0.095    0.292   67.749  159.625    9.389
  590.364    0.123    0.283   54.920  159.141   12.023
  590.614    0.183    0.292   41.969  158.150   13.637
  590.864    0.206    0.308   34.173  156.745   14.210
  591.114    0.234    0.321   31.646  155.239   12.389
  591.364    0.238    0.329   30.211  154.454    9.908
  591.614    0.223    0.330   29.867  154.178    8.250
  591.864    0.216    0.318   30.007  154.002    6.696
  592.114    0.226    0.323   31.725  153.423    5.774
  592.364    0.237    0.331   33.261  152.634    4.969
  592.614    0.235    0.330   34.914  152.055    4.478
  592.864    0.222    0.323   35.056  151.274    4.073
  593.114    0.205    0.317   33.016  151.193    3.551
  593.364    0.203    0.312   30.974  150.921    3.177
  593.614    0.205    0.310   30.447  150.855    2.811
  593.864    0.207    0.307   30.590  150.983    2.590
  594.114    0.209    0.308   31.219  151.016    2.435
  594.364    0.195    0.314   31.718  152.281    2.341
  594.614    0.199    0.318   32.042  153.855    2.287
  594.864    0.216    0.326   30.788  156.045    2.243
  595.114    0.206    0.335   30.810  156.282    2.228
  595.364    0.215    0.341   31.617  155.085    2.230
  595.614    0.220    0.334   32.603  153.680    2.220
  595.864    0.219    0.322   33.654  153.815    2.234
  596.114    0.229    0.319   34.039  155.902    2.265
  596.364    0.248    0.319   34.603  157.164    2.292
  596.614    0.224    0.321   34.925  157.094    2.298
  596.864    0.203    0.323   35.369  151.385    2.317
  597.114    0.222    0.326   35.872  149.057    2.318
  597.364    0.241    0.334   36.436  149.400    2.355
  597.614    0.241    0.342   36.640  150.249    2.423
  597.864    0.226    0.341   36.477  151.513    2.539
  598.114    0.225    0.328   36.131  154.733    2.675
  598.364    0.218    0.313   35.363  157.736    2.855
  598.614    0.226    0.306   33.383  152.641    2.932
  598.864    0.220    0.310   34.069  148.669    2.913
  599.114    0.206    0.316   34.271  148.703    2.805
  599.364    0.194    0.323   34.956  149.044    2.570
  599.614    0.221    0.331   36.430  149.489    2.398
  599.864    0.234    0.338   40.510  149.831    2.305
  600.114    0.229    0.341   36.651  150.582    2.290
  600.364    0.215    0.335   37.217  150.515    2.365
  600.614    0.199    0.327   39.115  150.339    2.469
  600.864    0.193    0.316   40.105  149.965    2.630
  601.114    0.190    0.310   41.093  149.686    2.844
  601.364    0.177    0.303   40.690  149.309    3.013
  601.614    0.168    0.294   38.102  149.754    3.228
  601.864    0.163    0.280   38.546  151.224    3.401
  602.114    0.163    0.301   40.749  154.231    3.558
  602.364    0.178    0.295   42.888  154.367    3.687
  602.614    0.164    0.292   45.272  149.167    3.864
  602.864    0.164    0.301   47.473  145.299    4.102
  603.114    0.164    0.296   49.736  145.434    4.298
  603.364    0.167    0.290   52.118  146.188    4.496
  603.614    0.161    0.282   54.136  147.144    4.755
  603.864    0.143    0.290   55.368  147.792    5.084
  604.114    0.147    0.282   57.390  148.545    5.558
  604.364    0.121    0.274   61.892  149.196    6.280
  604.614    0.108    0.280   71.244  149.637    6.840
  604.864    0.073    0.277   79.931  150.495    7.873
  605.114    0.056    0.265   83.830  151.242    8.847
  605.364    0.064    0.265   83.001  152.305    8.348
  605.614    0.077    0.276   86.414  153.362    7.345
  605.864    0.089    0.296   89.465  155.037    6.694
  606.114    0.104    0.298   90.455  156.610    6.398
  606.364    0.098    0.305   91.320  157.357    6.275
  606.614    0.087    0.320   92.795  158.314    6.200
  606.864    0.118    0.328   97.540  158.966    6.171
  607.114    0.109    0.326  101.136  159.725    6.176
  607.364    0.101    0.313   96.308  160.165    6.261
  607.614    0.098    0.301   91.539  160.504    6.324
  607.864    0.102    0.300   86.954  160.840    6.388
  608.114    0.109    0.300   84.549  161.291    6.440
  608.364    0.103    0.300   83.719  161.218    6.458
  608.614    0.115    0.300   84.105  161.660    6.486
  608.864    0.108    0.303   85.394  161.898    6.527
  609.114    0.109    0.308   87.657  162.347    6.593
  609.364    0.103    0.317   90.223  162.684    6.636
  609.614    0.100    0.322   92.362  163.333    6.653
  609.864    0.096    0.319   94.260  163.470    6.695
  610.114    0.074    0.307   95.371  163.504    6.712
  610.364    0.094    0.304   93.089  163.225    6.744
  610.614    0.104    0.314   89.229  162.333    6.774
  610.864    0.102    0.311   86.885  160.931    6.879
  611.114    0.104    0.304   85.874  160.761    6.987
  611.364    0.114    0.298   83.530  160.793    7.109
  611.614    0.120    0.292   81.731  161.344    7.220
  611.864    0.115    0.290   80.176  161.476    7.030
  612.114    0.101    0.287   78.500  161.715    6.695
  612.364    0.082    0.292   77.002  161.751    6.376
  612.614    0.102    0.311   77.689  161.784    6.334
  612.864    0.104    0.327   81.161  161.816    6.912
  613.114    0.095    0.322   85.302  161.843    7.810
  613.364    0.087    0.263   86.170  161.982    9.071
  613.614    0.061    0.231   77.645  162.323    9.844
  613.864    0.029    0.210   68.029  162.255    8.921
  614.114   -0.003    0.283   63.744  162.079    8.084
  614.364    0.008    0.327   75.400  162.113    7.366
  614.614    0.057    0.339   82.087  162.045    6.591
  614.864    0.085    0.328   89.560  161.357    6.207
  615.114    0.091    0.319   95.459  161.087    5.857
  615.364    0.086    0.328   97.417  161.115    5.507
  615.614    0.069    0.382  102.164  160.947    5.130
  615.864    0.104    0.388  108.729  160.875    4.709
  616.114    0.090    0.390  110.930  160.401    4.543
  616.364    0.086    0.394  107.556  160.119    4.605
  616.614    0.075    0.397  106.727  159.946    4.852
  616.864    0.136    0.401  112.020  160.082    5.103
  617.114    0.151    0.395  116.040  160.734    5.358
  617.364    0.137    0.388  121.089  161.792    5.482
  617.614    0.123    0.391  125.895  163.364    4.877
  617.864    0.117    0.395  119.006  165.038    4.061
  618.114    0.120    0.380  103.086  164.045    3.314
