~VERSION INFORMATION
 VERS.                 2.0:   CWLS LOG ASCII STANDARD -VERSION 2.0
 WRAP.                  NO:   ONE LINE PER DEPTH STEP
~WELL INFORMATION BLOCK
#MNEM.UNIT           DATA                    DESCRIPTION OF MNEMONIC
#---------    -------------------            -------------------------------
# Generated from Intellog Unique Number	CS_69_70/WELL/887
WELL.         BRALORNE RESOURCES LIMITED     : Well_name    - WELL
LOC .         00/11-15-069-10W4/0            : Location     - LOCATION
UWI .         00/11-15-069-10W4/0            : Uwi          - UNIQUE WELL ID
ENTR.         SP                             : Entered      - ENTERED BY
SRVC.         SCHLUMBERGER                   : Scn          - SERVICE COMPANY
STRT.M        381                            : top_depth    - START DEPTH
STOP.M        600.25                         : bot_depth    - STOP DEPTH
STEP.M        0.25                           : increment    - STEP LENGTH
 NULL. -999.2500:NULL Value
~CURVE INFORMATION BLOCK
#MNEM UNIT       ERCB CURVE CODE    CURVE DESCRIPTION
#-----------   ------------------   ----------------------------------
DEPT.M        00 001 00 00         : DEPTH        - DEPTH
GR  .API      00 310 00 00         : GR           - GAMMA RAY
DPHI.V/V      00 890 00 00         : PHID         - DENSITY POROSITY (SANDSTONE)
NPHI.V/V      00 330 00 00         : PHIN         - NEUTRON POROSITY (SANDSTONE)
ILD .OHMM     00 120 00 00         : RESD         - DEEP RESISTIVITY (DIL)
~PARAMETER INFORMATION
#MNEM.UNIT           DATA             DESCRIPTION OF MNEMONIC
#---------         -----------     ------------------------------
GL  .M        708.05               : gl           - GROUND LEVEL ELEVATION
EREF.M        712.47               : kb           - ELEVATION OF DEPTH REFERENCE
DATM.M        708.05               : datum        - DATUM ELEVATION
TDD .M        605.638              : tdd          - TOTAL DEPTH DRILLER
RUN .         ONE                  : Run          - RUN NUMBER
ENG .         BILL                 : Engineer     - RECORDING ENGINEER
WIT .         JIM                  : Witness      - WITNESSED BY
MUD .         GEL                  : Mud_type     - MUD TYPE
MATR.         SANDSTONE            : Logunit      - NEUTRON MATRIX
TMAX.C        15.5556              : BHT          - MAXIMUM RECORDED TEMPERATURE
BHTD.M        605.638              : BHTDEP       - MAXIMUM RECORDED TEMPERATURE
MATR.         1                    : LOGUNIT      - NEUTRON MATRIX
RMT .C        25                   : MDTP         - TEMPERATURE OF MUD
NEUT.         1                    : NEUTRON      - NEUTRON TYPE
RESI.         0                    : RESIST       - RESISTIVITY TYPE
RMC .OHMM     0.25                 : RMC          - RESISTIVITY OF MUD CAKE
RMF .OHMM     0.25                 : RMF          - RESISTIVITY OF MUD FILTRATE
SUFT.C        15                   : SUFT         - SURFACE TEMPERATURE
~A  DEPTH       GR     PHID     PHIN     RESD
  381.000  107.657    0.214    0.519    2.393
  381.250  111.630    0.247    0.507    2.383
  381.500  113.478    0.256    0.507    2.361
  381.750  114.376    0.244    0.509    2.332
  382.000  110.801    0.225    0.514    2.296
  382.250  108.413    0.229    0.523    2.257
  382.500  106.885    0.240    0.533    2.238
  382.750  105.783    0.248    0.544    2.229
  383.000  104.940    0.242    0.535    2.231
  383.250  104.893    0.236    0.538    2.245
  383.500  105.150    0.237    0.539    2.264
  383.750  104.663    0.224    0.522    2.294
  384.000  100.719    0.198    0.517    2.340
  384.250  100.000    0.149    0.529    2.382
  384.500  105.086    0.209    0.543    2.414
  384.750  107.721    0.245    0.538    2.454
  385.000  109.565    0.247    0.515    2.463
  385.250  107.128    0.250    0.504    2.460
  385.500  106.377    0.229    0.497    2.472
  385.750  109.163    0.225    0.496    2.503
  386.000  108.988    0.213    0.502    2.549
  386.250  107.951    0.239    0.515    2.638
  386.500  109.330    0.259    0.523    2.790
  386.750  110.974    0.224    0.510    2.852
  387.000  112.009    0.213    0.488    2.940
  387.250  111.879    0.201    0.477    3.022
  387.500  111.826    0.190    0.467    3.051
  387.750  113.088    0.191    0.477    3.023
  388.000  111.458    0.197    0.487    2.952
  388.250  111.387    0.201    0.499    2.873
  388.500  112.702    0.204    0.510    2.804
  388.750  113.902    0.212    0.521    2.746
  389.000  115.579    0.220    0.530    2.721
  389.250  116.311    0.207    0.504    2.736
  389.500  117.047    0.193    0.482    2.772
  389.750  117.687    0.206    0.482    2.809
  390.000  115.978    0.212    0.500    2.855
  390.250  114.353    0.217    0.520    2.890
  390.500  112.050    0.228    0.532    2.903
  390.750  109.914    0.237    0.535    2.944
  391.000  108.969    0.225    0.513    2.964
  391.250  107.315    0.227    0.517    2.936
  391.500  106.730    0.217    0.523    2.850
  391.750  106.458    0.211    0.520    2.795
  392.000  106.001    0.228    0.502    2.780
  392.250  104.869    0.231    0.490    2.791
  392.500  103.053    0.224    0.489    3.156
  392.750   99.787    0.232    0.512    3.538
  393.000   91.024    0.247    0.515    4.000
  393.250   70.175    0.267    0.453    4.657
  393.500   55.810    0.206    0.373    5.021
  393.750   48.338    0.206    0.376    5.234
  394.000   46.419    0.263    0.382    5.290
  394.250   49.531    0.290    0.390    5.194
  394.500   53.332    0.286    0.382    5.051
  394.750   56.130    0.277    0.376    5.020
  395.000   58.642    0.269    0.390    5.102
  395.250   59.293    0.273    0.392    5.258
  395.500   67.425    0.272    0.374    5.395
  395.750   75.702    0.259    0.370    5.554
  396.000   84.804    0.253    0.370    5.697
  396.250   91.930    0.243    0.378    5.880
  396.500   97.483    0.233    0.385    6.009
  396.750  103.798    0.222    0.391    6.078
  397.000  109.264    0.214    0.398    6.049
  397.250  114.337    0.215    0.402    6.015
  397.500  118.946    0.207    0.407    5.938
  397.750  115.408    0.201    0.411    5.850
  398.000  115.564    0.198    0.420    5.839
  398.250  118.875    0.201    0.427    5.947
  398.500  119.761    0.206    0.432    6.123
  398.750  114.587    0.200    0.434    6.302
  399.000  100.045    0.209    0.420    6.339
  399.250   87.108    0.219    0.405    6.222
  399.500   77.655    0.243    0.390    5.983
  399.750   68.812    0.269    0.379    5.804
  400.000   59.795    0.291    0.378    5.647
  400.250   52.195    0.311    0.386    5.573
  400.500   46.447    0.327    0.392    5.582
  400.750   56.822    0.306    0.371    5.626
  401.000   64.426    0.298    0.358    5.665
  401.250   73.365    0.293    0.359    5.631
  401.500   79.753    0.264    0.370    5.522
  401.750   85.215    0.240    0.384    5.413
  402.000   90.796    0.230    0.400    5.270
  402.250   97.217    0.235    0.407    5.109
  402.500  103.369    0.222    0.423    4.910
  402.750  108.265    0.192    0.446    4.559
  403.000  113.549    0.164    0.456    4.154
  403.250  120.451    0.102    0.464    3.834
  403.500  124.313    0.133    0.471    3.574
  403.750  128.726    0.158    0.474    3.304
  404.000  132.509    0.179    0.486    3.106
  404.250  135.822    0.206    0.494    2.874
  404.500  136.558    0.198    0.505    2.749
  404.750  134.385    0.193    0.521    3.012
  405.000  130.014    0.216    0.536    3.843
  405.250  121.617    0.237    0.548    4.626
  405.500  113.829    0.245    0.506    5.545
  405.750  102.826    0.257    0.445    6.399
  406.000   94.037    0.275    0.432    6.689
  406.250   92.579    0.266    0.432    6.854
  406.500   94.782    0.249    0.442    6.865
  406.750   96.871    0.231    0.452    6.859
  407.000   99.333    0.241    0.443    6.722
  407.250  101.345    0.257    0.439    6.500
  407.500  101.844    0.260    0.443    6.362
  407.750  100.833    0.269    0.452    6.204
  408.000   85.532    0.283    0.458    6.094
  408.250   68.291    0.298    0.438    6.033
  408.500   56.606    0.309    0.409    5.976
  408.750   53.658    0.322    0.393    5.931
  409.000   53.009    0.342    0.384    5.913
  409.250   53.136    0.312    0.381    5.918
  409.500   53.202    0.298    0.383    5.910
  409.750   52.505    0.312    0.384    5.927
  410.000   53.994    0.322    0.390    5.954
  410.250   55.935    0.321    0.394    5.995
  410.500   58.073    0.321    0.396    6.018
  410.750   58.532    0.324    0.392    6.026
  411.000   57.874    0.327    0.387    6.021
  411.250   60.059    0.325    0.391    5.980
  411.500   62.332    0.328    0.403    5.966
  411.750   63.699    0.321    0.415    5.946
  412.000   63.408    0.318    0.426    5.983
  412.250   60.592    0.319    0.416    6.048
  412.500   57.019    0.325    0.403    6.157
  412.750   56.743    0.321    0.397    6.308
  413.000   63.463    0.310    0.393    6.473
  413.250   69.004    0.302    0.389    6.579
  413.500   75.955    0.293    0.396    6.615
  413.750   82.776    0.282    0.405    6.579
  414.000   90.530    0.273    0.413    6.426
  414.250  101.638    0.276    0.420    6.270
  414.500   99.191    0.297    0.413    6.157
  414.750   91.751    0.323    0.416    6.162
  415.000   87.091    0.336    0.420    6.272
  415.250   85.423    0.333    0.430    6.365
  415.500   86.450    0.320    0.428    6.372
  415.750   88.992    0.299    0.429    6.298
  416.000   92.666    0.286    0.431    6.128
  416.250   94.282    0.287    0.428    5.950
  416.500   95.301    0.293    0.425    5.753
  416.750   94.353    0.283    0.426    5.606
  417.000   94.346    0.282    0.439    5.475
  417.250   95.012    0.279    0.450    5.439
  417.500   97.325    0.282    0.461    5.527
  417.750  100.456    0.292    0.472    5.645
  418.000  103.100    0.305    0.471    5.763
  418.250  106.098    0.314    0.481    5.946
  418.500  107.711    0.325    0.492    5.887
  418.750  105.271    0.344    0.473    5.723
  419.000   98.712    0.334    0.462    5.669
  419.250  104.423    0.326    0.465    5.769
  419.500  114.015    0.315    0.459    5.992
  419.750  124.131    0.285    0.454    6.441
  420.000  130.273    0.261    0.444    6.937
  420.250  122.347    0.238    0.418    7.257
  420.500  113.245    0.221    0.387    7.343
  420.750  105.874    0.190    0.341    7.228
  421.000  100.526    0.193    0.336    6.896
  421.250   98.273    0.235    0.366    6.527
  421.500   99.682    0.262    0.399    6.243
  421.750  101.019    0.291    0.433    6.042
  422.000  101.333    0.324    0.462    5.903
  422.250  100.090    0.342    0.490    5.851
  422.500   99.290    0.334    0.471    5.834
  422.750   99.132    0.326    0.477    5.827
  423.000   98.906    0.324    0.477    5.833
  423.250   98.766    0.333    0.466    5.885
  423.500   98.637    0.340    0.460    5.922
  423.750   98.211    0.341    0.463    5.940
  424.000   97.224    0.331    0.478    5.930
  424.250   95.745    0.321    0.488    5.907
