~VERSION INFORMATION
 VERS.                 2.0:   CWLS LOG ASCII STANDARD -VERSION 2.0
 WRAP.                  NO:   ONE LINE PER DEPTH STEP
~WELL INFORMATION BLOCK
#MNEM.UNIT           DATA                    DESCRIPTION OF MNEMONIC
#---------    -------------------            -------------------------------
# Generated from Intellog Unique Number	CS_71_72/WELL/842
WELL.         AEE IPIATIK                    : Well_name    - WELL
LOC .         00/10-14-071-05W4/0            : Location     - LOCATION
UWI .         00/10-14-071-05W4/0            : Uwi          - UNIQUE WELL ID
ENTR.         SP                             : Entered      - ENTERED BY
SRVC.         SCHLUMBERGER                   : Scn          - SERVICE COMPANY
STRT.M        290                            : top_depth    - START DEPTH
STOP.M        510                            : bot_depth    - STOP DEPTH
STEP.M        0.25                           : increment    - STEP LENGTH
 NULL. -999.2500:NULL Value
~CURVE INFORMATION BLOCK
#MNEM UNIT       ERCB CURVE CODE    CURVE DESCRIPTION
#-----------   ------------------   ----------------------------------
DEPT.M        00 001 00 00         : DEPTH        - DEPTH
GR  .API      00 310 00 00         : GR           - GAMMA RAY
NPHI.V/V      00 330 00 00         : PHIN         - NEUTRON POROSITY (LIMESTONE)
DPHI.V/V      00 890 00 00         : PHID         - DENSITY POROSITY (LIMESTONE)
ILD .OHMM     00 120 00 00         : RESD         - DEEP RESISTIVITY (DIL)
~PARAMETER INFORMATION
#MNEM.UNIT           DATA             DESCRIPTION OF MNEMONIC
#---------         -----------     ------------------------------
GL  .M        661.74               : gl           - GROUND LEVEL ELEVATION
EREF.M        665.55               : kb           - ELEVATION OF DEPTH REFERENCE
DATM.M        661.74               : datum        - DATUM ELEVATION
TDD .M        520                  : tdd          - TOTAL DEPTH DRILLER
RUN .         ONE                  : Run          - RUN NUMBER
ENG .         BILL                 : Engineer     - RECORDING ENGINEER
WIT .         JIM                  : Witness      - WITNESSED BY
MUD .         GEL                  : Mud_type     - MUD TYPE
MATR.         LIMESTONE            : Logunit      - NEUTRON MATRIX
TMAX.C        16                   : BHT          - MAXIMUM RECORDED TEMPERATURE
BHTD.M        520                  : BHTDEP       - MAXIMUM RECORDED TEMPERATURE
MATR.         1                    : LOGUNIT      - NEUTRON MATRIX
RMT .C        25                   : MDTP         - TEMPERATURE OF MUD
NEUT.         1                    : NEUTRON      - NEUTRON TYPE
RESI.         0                    : RESIST       - RESISTIVITY TYPE
RMC .OHMM     0.25                 : RMC          - RESISTIVITY OF MUD CAKE
RMF .OHMM     0.25                 : RMF          - RESISTIVITY OF MUD FILTRATE
SUFT.C        15                   : SUFT         - SURFACE TEMPERATURE
~A  DEPTH       GR     PHIN     PHID     RESD
  290.000  104.480    0.522    0.203    3.838
  290.250  105.226    0.512    0.217    3.955
  290.500  103.726    0.503    0.225    4.053
  290.750  101.372    0.485    0.221    4.161
  291.000  100.965    0.474    0.221    4.410
  291.250   99.828    0.468    0.218    4.578
  291.500   99.239    0.470    0.202    4.519
  291.750  101.869    0.476    0.194    4.250
  292.000  102.372    0.489    0.223    3.909
  292.250  101.235    0.503    0.230    3.669
  292.500  101.254    0.515    0.235    3.595
  292.750  102.000    0.507    0.250    3.753
  293.000  100.561    0.521    0.236    4.222
  293.250   97.115    0.516    0.277    4.893
  293.500   91.666    0.500    0.411    6.145
  293.750   86.216    0.514    0.440    7.338
  294.000   81.921    0.565    0.468    8.994
  294.250   77.625    0.598    0.478   11.148
  294.500   80.437    0.622    0.310   13.639
  294.750   81.975    0.564    0.305   16.015
  295.000   80.655    0.250    0.309   18.320
  295.250   76.847    0.237    0.320   18.738
  295.500   74.555    0.231    0.332   19.058
  295.750   80.161    0.253    0.342   20.046
  296.000   82.305    0.265    0.316   21.684
  296.250   79.165    0.200    0.291   24.121
  296.500   75.782    0.190    0.358   26.832
  296.750   75.312    0.189    0.380   28.807
  297.000   75.814    0.205    0.390   30.020
  297.250   77.655    0.231    0.370   28.288
  297.500   80.469    0.261    0.348   25.674
  297.750   84.129    0.278    0.323   22.577
  298.000   87.975    0.290    0.288   21.551
  298.250   90.177    0.300    0.258   21.157
  298.500   92.139    0.307    0.233   19.277
  298.750   95.015    0.313    0.301   18.607
  299.000   97.156    0.315    0.336   18.438
  299.250   99.359    0.350    0.312   17.470
  299.500   99.802    0.368    0.309   16.126
  299.750   97.087    0.381    0.306   14.747
  300.000   97.713    0.391    0.295   13.792
  300.250  101.252    0.396    0.288   13.717
  300.500  105.887    0.375    0.289   14.187
  300.750  110.155    0.353    0.303   14.006
  301.000  116.551    0.343    0.315   13.270
  301.250  119.789    0.384    0.326   12.272
  301.500  117.985    0.413    0.247   11.077
  301.750  111.990    0.446    0.208    9.869
  302.000  107.087    0.471    0.194    9.281
  302.250  101.575    0.444    0.198    9.335
  302.500   98.009    0.424    0.208    9.929
  302.750   96.085    0.413    0.217   10.405
  303.000   96.283    0.406    0.222   10.703
  303.250  101.707    0.421    0.209   10.784
  303.500  105.308    0.434    0.201   10.607
  303.750  105.022    0.439    0.223   10.393
  304.000  102.976    0.441    0.255   10.089
  304.250  101.656    0.446    0.274    9.667
  304.500  109.327    0.464    0.277    9.367
  304.750  116.210    0.463    0.259    8.858
  305.000  118.412    0.464    0.205    8.346
  305.250  116.487    0.472    0.162    7.967
  305.500  113.409    0.478    0.132    7.549
  305.750  112.694    0.482    0.111    7.153
  306.000  117.633    0.469    0.120    6.714
  306.250  123.117    0.463    0.159    6.232
  306.500  126.175    0.474    0.188    5.829
  306.750  127.466    0.498    0.206    5.320
  307.000  129.306    0.518    0.184    4.948
  307.250  131.026    0.530    0.179    4.670
  307.500  131.831    0.545    0.185    4.393
  307.750  132.092    0.556    0.180    4.224
  308.000  131.504    0.532    0.193    3.965
  308.250  130.304    0.523    0.215    3.757
  308.500  127.710    0.535    0.230    3.668
  308.750  124.205    0.551    0.228    3.737
  309.000  118.939    0.561    0.217    4.088
  309.250  110.693    0.560    0.225    4.792
  309.500  102.876    0.517    0.240    5.984
  309.750   93.964    0.481    0.253    7.444
  310.000   83.657    0.459    0.278    8.660
  310.250   76.323    0.430    0.310    9.438
  310.500   68.079    0.403    0.338    9.707
  310.750   62.326    0.419    0.345    9.656
  311.000   62.223    0.435    0.336    9.620
  311.250   65.095    0.445    0.330    9.444
  311.500   67.967    0.450    0.323    9.341
  311.750   73.150    0.447    0.318    9.518
  312.000   77.845    0.434    0.306    9.735
  312.250   81.687    0.429    0.285    9.865
  312.500   88.996    0.429    0.269    9.996
  312.750   91.929    0.449    0.264   10.148
  313.000   93.160    0.455    0.264   10.226
  313.250   91.296    0.458    0.254   10.342
  313.500   85.785    0.458    0.247   10.344
  313.750   82.158    0.453    0.241   10.365
  314.000   87.522    0.442    0.244   10.425
  314.250   91.183    0.432    0.251   10.446
  314.500   93.812    0.437    0.220   10.487
  314.750   93.041    0.447    0.230   10.509
  315.000   85.829    0.433    0.252   10.510
  315.250   79.469    0.421    0.267   10.473
  315.500   74.932    0.432    0.281   10.320
  315.750   72.581    0.427    0.294   10.187
  316.000   73.934    0.423    0.301   10.057
  316.250   71.522    0.418    0.294    9.947
  316.500   67.956    0.419    0.305    9.893
  316.750   65.361    0.437    0.314    9.969
  317.000   65.925    0.449    0.315   10.064
  317.250   68.434    0.437    0.302   10.198
  317.500   70.942    0.410    0.272   10.295
  317.750   73.451    0.393    0.234   10.393
  318.000   73.467    0.399    0.239   10.492
  318.250   71.178    0.415    0.244   10.455
  318.500   69.737    0.430    0.247   10.398
  318.750   70.727    0.443    0.248   10.361
  319.000   72.810    0.432    0.252   10.229
  319.250   74.527    0.422    0.252    9.892
  319.500   76.673    0.424    0.268    9.338
  319.750   78.881    0.433    0.281    8.897
  320.000   79.503    0.440    0.284    8.541
  320.250   79.155    0.433    0.278    8.785
  320.500   78.928    0.425    0.274    8.640
  320.750   80.344    0.422    0.266    8.561
  321.000   82.305    0.427    0.236    8.643
  321.250   81.108    0.413    0.232    8.726
  321.500   76.025    0.406    0.235    8.975
  321.750   72.820    0.409    0.237    9.162
  322.000   70.833    0.421    0.239    9.198
  322.250   74.860    0.436    0.261    9.148
  322.500   80.830    0.448    0.272    8.914
  322.750   84.737    0.448    0.268    8.686
  323.000   85.422    0.466    0.263    8.558
  323.250   83.678    0.482    0.270    8.339
  323.500   84.059    0.471    0.281    8.125
  323.750   90.880    0.455    0.284    8.021
  324.000   95.635    0.442    0.273    8.008
  324.250   99.237    0.439    0.266    7.979
  324.500  103.021    0.436    0.260    7.995
  324.750  106.079    0.438    0.251    8.027
  325.000  105.367    0.458    0.244    8.028
  325.250  102.649    0.468    0.255    7.940
  325.500  100.298    0.464    0.257    7.622
  325.750  103.231    0.478    0.220    6.957
  326.000  104.525    0.496    0.212    6.434
  326.250  101.566    0.517    0.210    6.188
  326.500  100.188    0.503    0.222    6.018
  326.750  100.873    0.491    0.232    5.842
  327.000  102.529    0.496    0.232    5.778
  327.250  103.093    0.500    0.240    5.715
  327.500  103.598    0.503    0.248    5.684
  327.750  105.438    0.516    0.288    5.674
  328.000  105.638    0.525    0.304    5.686
  328.250  104.440    0.528    0.324    5.740
  328.500  102.029    0.524    0.339    5.741
  328.750   99.555    0.518    0.350    5.678
  329.000   97.022    0.471    0.295    5.700
  329.250   98.740    0.450    0.280    5.701
  329.500  103.800    0.439    0.266    5.798
  329.750  106.490    0.435    0.253    5.931
  330.000  102.682    0.440    0.244    6.044
  330.250   98.688    0.442    0.233    6.170
  330.500  101.136    0.435    0.229    6.275
  330.750  104.858    0.452    0.217    6.347
  331.000  106.881    0.474    0.204    6.313
  331.250  103.254    0.487    0.197    6.232
  331.500   98.047    0.486    0.192    6.141
  331.750   90.959    0.466    0.191    6.084
  332.000   83.689    0.435    0.207    6.569
  332.250   77.204    0.409    0.187    7.685
  332.500   68.049    0.350    0.149    8.890
  332.750   58.774    0.265    0.083   10.208
  333.000   53.081    0.244    0.053   11.612
  333.250   62.091    0.254    0.080   11.168
