~VERSION INFORMATION
 VERS.                 2.0:   CWLS LOG ASCII STANDARD -VERSION 2.0
 WRAP.                  NO:   ONE LINE PER DEPTH STEP
~WELL INFORMATION BLOCK
#MNEM.UNIT           DATA                    DESCRIPTION OF MNEMONIC
#---------    -------------------            -------------------------------
# Generated from Intellog Unique Number	CW_82_90/WELL/928
WELL.         TEXEX WABASCA 10-27            : Well_name    - WELL
LOC .         00/10-27-082-24W4/0            : Location     - LOCATION
UWI .         00/10-27-082-24W4/0            : Uwi          - UNIQUE WELL ID
ENTR.         JAYE                           : Entered      - ENTERED BY
SRVC.         SCHLUMBERGER                   : Scn          - SERVICE COMPANY
STRT.M        228.6                          : top_depth    - START DEPTH
STOP.M        457.1                          : bot_depth    - STOP DEPTH
STEP.M        0.25                           : increment    - STEP LENGTH
 NULL. -999.2500:NULL Value
~CURVE INFORMATION BLOCK
#MNEM UNIT       ERCB CURVE CODE    CURVE DESCRIPTION
#-----------   ------------------   ----------------------------------
DEPT.M        00 001 00 00         : DEPTH        - DEPTH
CALI.MM       00 280 01 00         : CAL          - CALIPER
GR  .API      00 310 00 00         : GR           - GAMMA RAY
DPHI.V/V      00 890 00 00         : PHID         - DENSITY POROSITY (SANDSTONE)
NPHI.V/V      00 330 00 00         : PHIN         - NEUTRON POROSITY (SANDSTONE)
ILD .OHMM     00 120 00 00         : RESD         - DEEP RESISTIVITY (DIL)
~PARAMETER INFORMATION
#MNEM.UNIT           DATA             DESCRIPTION OF MNEMONIC
#---------         -----------     ------------------------------
GL  .M        599.572              : gl           - GROUND LEVEL ELEVATION
EREF.M        603.23               : kb           - ELEVATION OF DEPTH REFERENCE
DATM.M        599.572              : datum        - DATUM ELEVATION
TDD .M        491.033              : tdd          - TOTAL DEPTH DRILLER
RUN .         ONE                  : Run          - RUN NUMBER
ENG .         EARLEY               : Engineer     - RECORDING ENGINEER
WIT .         SEVERS               : Witness      - WITNESSED BY
BASE.         EDMONTON             : Branch       - HOME BASE OF LOGGING UNIT
MUD .         WATER & LOST CIRC    : Mud_type     - MUD TYPE
MATR.         SANDSTONE            : Logunit      - NEUTRON MATRIX
TMAX.C        18.8889              : BHT          - MAXIMUM RECORDED TEMPERATURE
BHTD.M        490.728              : BHTDEP       - MAXIMUM RECORDED TEMPERATURE
RMT .C        4.44444              : MDTP         - TEMPERATURE OF MUD
MUDD.KG/M     1000                 : MWT          - MUD DENSITY
NEUT.         1                    : NEUTRON      - NEUTRON TYPE
RESI.         0                    : RESIST       - RESISTIVITY TYPE
RM  .OHMM     0.25                 : RM           - RESISTIVITY OF MUD
RMC .OHMM     0.25                 : RMC          - RESISTIVITY OF MUD CAKE
RMF .OHMM     0.25                 : RMF          - RESISTIVITY OF MUD FILTRATE
SUFT.C        4                    : SUFT         - SURFACE TEMPERATURE
~A  DEPTH      CAL       GR     PHID     PHIN     RESD
# ...
  338.100  217.763   99.183    0.210    0.472    8.092
  338.350  215.914   99.126    0.220    0.471    7.748
  338.600  214.783   98.321    0.208    0.472    7.671
  338.850  215.512   96.960    0.231    0.484    7.767
  339.100  217.795   96.839    0.237    0.462    7.864
  339.350  219.043   96.036    0.237    0.416    7.918
  339.600  219.669   94.922    0.223    0.326    7.957
  339.850  219.780   93.746    0.231    0.085    7.998
  340.100  219.477   90.770    0.243    0.059    8.128
  340.350  219.481   89.594    0.235    0.173    8.260
  340.600  218.870   90.964    0.239    0.351    8.333
  340.850  218.355   90.905    0.233    0.408    8.468
  341.100  218.260   88.984    0.229    0.478    8.574
  341.350  217.851   86.194    0.240    0.461    8.698
  341.600  217.851   83.342    0.243    0.447    8.806
  341.850  214.863   77.944    0.249    0.460    8.883
  342.100  214.765   74.782    0.258    0.456    8.928
  342.350  213.843   73.482    0.273    0.463    9.039
  342.600  213.536   74.603    0.264    0.485    9.136
  342.850  211.685   74.359    0.242    0.476    9.199
  343.100  211.686   73.990    0.255    0.468    9.193
  343.350  211.178   76.788    0.280    0.463    9.187
  343.600  212.319   78.095    0.280    0.481    9.267
  343.850  213.571   77.230    0.266    0.487    9.177
  344.100  213.884   77.357    0.264    0.491    9.001
  344.350  213.884   78.789    0.262    0.492    8.618
  344.600  216.069   79.662    0.252    0.499    8.084
  344.850  216.069   79.293    0.262    0.497    7.458
  345.100  216.808   78.800    0.274    0.488    6.815
  345.350  216.813   80.418    0.267    0.480    6.735
  345.600  216.719   83.775    0.261    0.487    7.118
  345.850  216.515   83.965    0.259    0.471    7.288
  346.100  215.383   81.858    0.272    0.459    7.575
  346.350  215.383   81.924    0.262    0.456    7.770
  346.600  212.916   80.127    0.247    0.453    7.608
  346.850  212.712   78.082    0.240    0.465    7.123
  347.100  214.791   75.975    0.225    0.474    6.897
  347.350  215.828   77.158    0.278    0.485    6.410
  347.600  216.662   79.645    0.287    0.490    6.575
  347.850  216.571   81.884    0.290    0.490    6.948
  348.100  216.778   81.950    0.290    0.495    7.249
  348.350  216.273   83.817    0.289    0.509    7.717
  348.600  216.583   85.372    0.280    0.520    7.858
  348.850  216.281   84.631    0.264    0.515    7.680
  349.100  216.596   81.778    0.254    0.506    7.436
  349.350  216.813   83.893    0.240    0.506    7.571
  349.600  216.815   89.299    0.282    0.511    7.868
  349.850  217.138   92.903    0.294    0.504    7.922
  350.100  216.932   89.989    0.284    0.505    7.858
  350.350  217.356   84.281    0.273    0.511    7.454
  350.600  217.565   79.877    0.261    0.513    7.339
  350.850  217.366   79.570    0.242    0.512    7.336
  351.100  217.579   80.380    0.245    0.504    7.277
  351.350  218.205   75.418    0.236    0.466    6.993
  351.600  219.453   70.703    0.207    0.429    7.080
  351.850  220.597   71.266    0.178    0.412    7.345
  352.100  221.847   73.194    0.178    0.417    7.591
  352.350  222.265   76.053    0.232    0.518    7.474
  352.600  222.893   77.858    0.253    0.521    6.985
  352.850  222.901   83.387    0.257    0.520    6.312
  353.100  222.698   88.420    0.256    0.500    5.834
  353.350  222.188   90.721    0.240    0.497    5.482
  353.600  222.297   89.732    0.237    0.492    5.317
  353.850  223.131   86.941    0.235    0.483    5.295
  354.100  224.797   81.606    0.219    0.472    5.301
  354.350  224.799   77.326    0.202    0.455    5.338
  354.600  224.809   76.584    0.175    0.438    5.395
  354.850  224.605   78.326    0.166    0.432    5.513
  355.100  224.300   84.973    0.189    0.458    5.730
  355.350  224.300   85.535    0.222    0.492    6.089
  355.600  224.006   87.030    0.219    0.506    6.270
  355.850  224.009   90.820    0.229    0.502    6.372
  356.100  223.605   93.928    0.223    0.502    6.022
  356.350  223.401   97.657    0.219    0.505    5.940
  356.600  222.580   96.233    0.226    0.507    5.937
  356.850  221.038   98.100    0.231    0.505    5.978
  357.100  220.832  100.711    0.232    0.498    6.030
  357.350  218.050   99.722    0.232    0.486    6.105
  357.600  217.844   98.173    0.223    0.481    6.205
  357.850  217.747   98.611    0.207    0.490    6.389
  358.100  219.409   99.795    0.206    0.492    6.517
  358.350  220.659   98.308    0.198    0.494    6.648
  358.600  221.284   96.946    0.198    0.501    6.669
  358.850  221.084   98.626    0.227    0.517    6.713
  359.100  222.746  101.051    0.230    0.528    6.722
  359.350  224.927  101.489    0.230    0.524    6.694
  359.600  224.931  101.742    0.231    0.518    6.652
  359.850  223.492  102.925    0.236    0.508    6.575
  360.100  223.080  105.102    0.238    0.505    6.366
  360.350  223.087  107.279    0.243    0.509    6.208
  360.600  223.922  107.407    0.226    0.497    6.183
  360.850  223.929  107.845    0.210    0.481    6.271
  361.100  220.519  107.662    0.227    0.464    6.421
  361.350  215.765  105.431    0.217    0.453    6.624
  361.600  211.839  101.275    0.207    0.472    7.212
  361.850  206.568   93.456    0.196    0.489    7.780
  362.100  200.987   93.709    0.168    0.486    8.663
  362.350  197.682   95.699    0.206    0.487    9.139
  362.600  197.584   96.510    0.251    0.485    9.550
  362.850  202.868   95.768    0.229    0.462    9.671
  363.100  208.462   92.544    0.231    0.456    9.593
  363.350  213.849   90.685    0.216    0.455    9.859
  363.600  221.409   87.771    0.188    0.415   10.635
  363.850  222.864   83.925    0.158    0.384   11.600
  364.100  222.353   81.880    0.117    0.354   12.679
  364.350  220.186   82.815    0.112    0.329   13.961
  364.600  218.848   84.433    0.148    0.341   15.285
  364.850  217.612   93.998    0.210    0.461   14.473
  365.100  217.516   99.341    0.201    0.477   12.460
  365.350  218.251  100.774    0.191    0.490   11.366
  365.600  218.458   99.784    0.190    0.499   10.702
  365.850  220.643   99.353    0.193    0.486   10.343
  366.100  221.058   99.170    0.200    0.482   10.127
  366.350  222.100   99.112    0.209    0.486   10.046
  366.600  222.100   98.681    0.210    0.479    9.946
  366.850  221.285   98.436    0.196    0.473    9.737
  367.100  220.980   99.433    0.186    0.478    9.606
  367.350  220.469  105.211    0.194    0.482    9.388
  367.600  220.786  111.610    0.196    0.482    9.261
  367.850  220.998  111.117    0.194    0.479    9.204
  368.100  221.004  105.781    0.201    0.477    9.012
  368.350  220.493  102.681    0.208    0.477    8.250
  368.600  218.640  102.746    0.203    0.485    8.139
  368.850  218.023  103.557    0.209    0.480    8.088
  369.100  216.684  101.202    0.205    0.470    8.053
  369.350  215.453   96.612    0.213    0.469    8.019
  369.600  215.248   92.517    0.211    0.469    7.998
  369.850  215.248   87.430    0.219    0.466    7.994
  370.100  213.192   82.777    0.220    0.454    8.049
  370.350  212.576   78.994    0.209    0.451    8.381
  370.600  211.760   75.955    0.192    0.424    9.091
  370.850  211.658   74.097    0.168    0.391   10.010
  371.100  211.456   73.108    0.114    0.377   11.398
  371.350  211.566   73.670    0.144    0.383   13.623
  371.600  212.297   75.101    0.130    0.391   15.657
  371.850  212.924   76.782    0.113    0.391   19.135
  372.100  212.924   77.469    0.118    0.397   21.267
  372.350  212.420   77.037    0.131    0.399   22.476
  372.600  212.013   83.001    0.153    0.400   22.756
  372.850  210.468   90.020    0.172    0.405   22.323
  373.100  210.058   98.095    0.187    0.463   19.911
  373.350  209.857  100.831    0.210    0.485   17.402
  373.600  209.864  100.090    0.219    0.484   13.323
  373.850  210.388  100.342    0.226    0.482   10.607
  374.100  210.498  100.346    0.234    0.480    9.712
  374.350  209.469  100.288    0.235    0.483    9.160
