~VERSION INFORMATION
 VERS.                 2.0:   CWLS LOG ASCII STANDARD -VERSION 2.0
 WRAP.                  NO:   ONE LINE PER DEPTH STEP
~WELL INFORMATION BLOCK
#MNEM.UNIT           DATA                    DESCRIPTION OF MNEMONIC
#---------    -------------------            -------------------------------
# Generated from Intellog Unique Number	CS_77_79/WELL/980
WELL.         MESA H. B. THORNBURY           : Well_name    - WELL
LOC .         00/10-33-078-11W4/0            : Location     - LOCATION
UWI .         00/10-33-078-11W4/0            : Uwi          - UNIQUE WELL ID
ENTR.         JHS                            : Entered      - ENTERED BY
SRVC.         SCHLUMBERGER                   : Scn          - SERVICE COMPANY
STRT.M        275                            : top_depth    - START DEPTH
STOP.M        501                            : bot_depth    - STOP DEPTH
STEP.M        0.25                           : increment    - STEP LENGTH
 NULL. -999.2500:NULL Value
~CURVE INFORMATION BLOCK
#MNEM UNIT       ERCB CURVE CODE    CURVE DESCRIPTION
#-----------   ------------------   ----------------------------------
DEPT.M        00 001 00 00         : DEPTH        - DEPTH
DPHI.V/V      00 890 00 00         : PHID         - DENSITY POROSITY (LIMESTONE)
NPHI.V/V      00 330 00 00         : PHIN         - NEUTRON POROSITY (LIMESTONE)
GR  .API      00 310 00 00         : GR           - GAMMA RAY
ILD .OHMM     00 120 00 00         : RESD         - DEEP RESISTIVITY (DIL)
RHOB.KG/M3    00 350 00 00         : DENS         - BULK DENSITY
~PARAMETER INFORMATION
#MNEM.UNIT           DATA             DESCRIPTION OF MNEMONIC
#---------         -----------     ------------------------------
GL  .M        695.6                : gl           - GROUND LEVEL ELEVATION
EREF.M        699.7                : kb           - ELEVATION OF DEPTH REFERENCE
DATM.M        699.7                : datum        - DATUM ELEVATION
TDD .M        502                  : tdd          - TOTAL DEPTH DRILLER
RUN .         ONE                  : Run          - RUN NUMBER
ENG .         BILL                 : Engineer     - RECORDING ENGINEER
WIT .         JIM                  : Witness      - WITNESSED BY
MUD .         GEL                  : Mud_type     - MUD TYPE
MATR.         LIMESTONE            : Logunit      - NEUTRON MATRIX
TMAX.C        22                   : BHT          - MAXIMUM RECORDED TEMPERATURE
BHTD.M        502                  : BHTDEP       - MAXIMUM RECORDED TEMPERATURE
MATR.         1                    : LOGUNIT      - NEUTRON MATRIX
RMT .C        25                   : MDTP         - TEMPERATURE OF MUD
NEUT.         1                    : NEUTRON      - NEUTRON TYPE
RESI.         0                    : RESIST       - RESISTIVITY TYPE
RMC .OHMM     0.25                 : RMC          - RESISTIVITY OF MUD CAKE
RMF .OHMM     0.25                 : RMF          - RESISTIVITY OF MUD FILTRATE
SUFT.C        15                   : SUFT         - SURFACE TEMPERATURE
~A  DEPTH     PHID     PHIN       GR     RESD     DENS
# ...
  457.500    0.199    0.446  108.308    8.128 2368.900
  457.750    0.231    0.457  113.772   10.164 2314.610
  458.000    0.256    0.469  116.181   12.022 2272.820
  458.250    0.278    0.472  108.236   15.619 2235.200
  458.500    0.283    0.453   90.531   22.721 2226.760
  458.750    0.280    0.423   78.314   28.964 2230.820
  459.000    0.269    0.413   65.487   31.169 2249.490
  459.250    0.260    0.402   63.016   28.860 2266.060
  459.500    0.239    0.386   65.427   26.228 2301.400
  459.750    0.182    0.384   69.673   24.293 2399.270
  460.000    0.114    0.390   72.085   22.485 2515.920
  460.250    0.178    0.385   76.932   21.625 2405.340
  460.500    0.229    0.378   81.174   20.790 2317.690
  460.750    0.248    0.409   81.757   20.752 2286.320
  461.000    0.238    0.395   82.334   20.731 2302.890
  461.250    0.227    0.386   82.926   24.058 2321.550
  461.500    0.253    0.384   81.066   32.457 2277.670
  461.750    0.286    0.388   76.166   39.837 2221.300
  462.000    0.308    0.386   66.997   42.092 2183.660
  462.250    0.308    0.387   65.140   40.472 2183.570
  462.500    0.287    0.390   69.378   36.779 2218.900
  462.750    0.269    0.387   73.616   32.806 2250.070
  463.000    0.253    0.390   74.202   28.703 2277.080
  463.250    0.233    0.382   67.471   25.592 2312.400
  463.500    0.233    0.397   65.619   25.082 2312.320
  463.750    0.274    0.414   61.323   27.003 2241.340
  464.000    0.286    0.394   55.811   24.535 2220.390
  464.250    0.244    0.380   52.737   20.295 2293.260
  464.500    0.195    0.374   64.902   18.100 2376.540
  464.750    0.215    0.408   75.237   18.075 2343.090
  465.000    0.263    0.434   73.989   19.090 2259.600
  465.250    0.282    0.405   56.897   21.735 2228.230
  465.500    0.316    0.390   50.775   23.850 2169.770
  465.750    0.293    0.366   47.090   27.162 2209.270
  466.000    0.275    0.358   56.209   27.095 2240.440
  466.250    0.273    0.369   67.152   26.569 2242.410
  466.500    0.292    0.392   68.955   35.155 2211.050
  466.750    0.308    0.413   61.002   41.587 2183.860
  467.000    0.316    0.405   52.443   50.104 2169.160
  467.250    0.307    0.399   45.714   58.149 2185.720
  467.500    0.305    0.391   43.246   68.766 2187.730
  467.750    0.314    0.393   41.391   79.807 2173.020
  468.000    0.317    0.401   38.321   90.887 2168.770
  468.250    0.321    0.375   34.633   96.000 2160.340
  468.500    0.323    0.359   32.776   94.056 2158.130
  468.750    0.306    0.369   33.362   66.947 2187.230
  469.000    0.292    0.369   41.259   51.366 2210.060
  469.250    0.291    0.408   49.159   45.795 2212.040
  469.500    0.302    0.408   55.227   45.710 2193.190
  469.750    0.301    0.400   52.762   44.788 2195.180
  470.000    0.289    0.404   49.076   42.260 2215.870
  470.250    0.291    0.410   50.877   43.016 2211.630
  470.500    0.309    0.406   49.633   51.810 2182.370
  470.750    0.323    0.411   45.341   61.280 2157.250
  471.000    0.333    0.423   41.658   71.113 2140.470
  471.250    0.326    0.429   39.189   76.534 2152.880
  471.500    0.326    0.436   37.949   72.192 2152.780
  471.750    0.309    0.422   36.700   65.650 2181.860
  472.000    0.315    0.417   41.548   58.552 2171.330
  472.250    0.311    0.430   47.013   52.177 2177.500
  472.500    0.316    0.444   52.472   50.201 2169.050
  472.750    0.335    0.449   49.394   50.116 2137.690
  473.000    0.314    0.462   50.589   54.969 2173.020
  473.250    0.315    0.475   47.511   65.003 2170.850
  473.500    0.330    0.454   43.221   71.304 2145.720
  473.750    0.332    0.436   38.925   75.284 2141.430
  474.000    0.342    0.467   40.106   73.772 2124.680
  474.250    0.352    0.476   41.312   69.630 2107.910
  474.500    0.331    0.445   44.330   54.430 2143.240
  474.750    0.346    0.438   48.574   44.191 2118.120
  475.000    0.322    0.458   54.036   35.879 2159.710
  475.250    0.304    0.458   59.492   29.667 2190.900
  475.500    0.305    0.440   59.459   27.472 2188.680
  475.750    0.313    0.450   58.219   26.922 2174.000
  476.000    0.327    0.455   57.586   26.875 2150.990
  476.250    0.331    0.427   67.312   25.361 2144.620
  476.500    0.286    0.417   73.382   22.623 2221.660
  476.750    0.258    0.428   79.450   18.361 2269.510
  477.000    0.244    0.451   83.690   16.066 2292.330
  477.250    0.269    0.466   86.708   14.067 2250.540
  477.500    0.289    0.465   83.634   12.778 2215.010
  477.750    0.297    0.450   79.951   12.061 2202.390
  478.000    0.273    0.440   84.804   11.813 2243.990
  478.250    0.242    0.435   96.361   11.574 2296.010
  478.500    0.221    0.443  101.208   10.921 2331.330
  478.750    0.213    0.456  105.445   10.504 2345.840
  479.000    0.228    0.428  109.080   10.486 2320.690
  479.250    0.220    0.425  109.662   10.864 2333.130
  479.500    0.247    0.423  101.101   11.058 2287.160
  479.750    0.269    0.413   95.588   11.247 2249.540
  480.000    0.255    0.445   92.512   11.235 2274.470
  480.250    0.244    0.444   91.881   11.004 2293.110
  480.500    0.233    0.422  100.385   10.783 2311.790
  480.750    0.227    0.410  105.849   10.364 2322.080
  481.000    0.221    0.421  111.917   10.155 2332.430
  481.250    0.232    0.415  107.618   10.335 2313.570
  481.500    0.253    0.404  100.278   10.506 2278.030
  481.750    0.231    0.400   96.596   10.303 2315.440
  482.000    0.211    0.416  100.229   10.093 2348.700
  482.250    0.220    0.432  102.027    9.890 2334.010
  482.500    0.228    0.438   98.344    9.330 2319.310
  482.750    0.231    0.432   97.704    8.972 2315.050
  483.000    0.208    0.421   99.508    8.628 2354.550
  483.250    0.193    0.418  100.096    8.611 2379.470
  483.500    0.218    0.408   98.846    8.434 2337.670
  483.750    0.242    0.408   95.161    8.583 2295.890
  484.000    0.253    0.421   92.093    8.734 2277.030
  484.250    0.253    0.414   90.233    9.056 2276.930
  484.500    0.236    0.414   91.427    9.386 2306.020
  484.750    0.224    0.397   96.888    9.546 2326.750
  485.000    0.199    0.383  104.176    9.527 2370.440
  485.250    0.175    0.403  112.684    9.519 2409.950
  485.500    0.218    0.424  118.141    9.319 2336.890
  485.750    0.229    0.415  115.675    9.309 2318.030
  486.000    0.220    0.417  110.161    9.295 2334.610
  486.250    0.229    0.416  107.701    9.452 2317.830
  486.500    0.223    0.410  102.190    9.441 2328.130
  486.750    0.218    0.411  106.431    9.422 2336.390
  487.000    0.220    0.401  111.889    9.406 2334.210
  487.250    0.221    0.403  109.424    9.214 2332.010
  487.500    0.205    0.425  105.126    9.206 2359.000
  487.750    0.207    0.425  103.277    9.019 2356.840
  488.000    0.229    0.416  105.687    9.004 2319.190
  488.250    0.222    0.429  108.092    8.656 2329.530
  488.500    0.204    0.426  109.899    8.480 2360.700
  488.750    0.190    0.420  113.528    8.308 2385.620
  489.000    0.225    0.423  114.109    7.988 2325.060
  489.250    0.215    0.421  117.132    7.684 2341.650
  489.500    0.220    0.426  117.111    7.525 2333.200
  489.750    0.211    0.431  115.864    7.515 2349.760
  490.000    0.212    0.431  118.274    7.792 2347.600
  490.250    0.230    0.438  116.421    8.541 2316.240
  490.500    0.225    0.450  112.127    8.855 2324.470
  490.750    0.217    0.445  117.577    9.181 2338.960
  491.000    0.243    0.439  119.999    9.343 2295.070
  491.250    0.241    0.438  116.918    9.683 2297.060
  491.500    0.226    0.443  111.409    9.846 2324.050
  491.750    0.214    0.424  105.288    9.834 2344.790
  492.000    0.204    0.412  111.357    9.821 2361.390
  492.250    0.212    0.406  112.542    9.803 2346.700
  492.500    0.205    0.400  108.257    9.790 2359.110
  492.750    0.214    0.386  102.135   10.340 2344.400
  493.000    0.233    0.389   95.400   10.718 2310.960
  493.250    0.204    0.383   92.940   10.903 2360.890
  493.500    0.192    0.390   91.685   10.682 2381.640
  493.750    0.191    0.380   90.442   10.465 2383.620
