~VERSION INFORMATION
 VERS.                 2.0:   CWLS LOG ASCII STANDARD -VERSION 2.0
 WRAP.                  NO:   ONE LINE PER DEPTH STEP
~WELL INFORMATION BLOCK
#MNEM.UNIT           DATA                    DESCRIPTION OF MNEMONIC
#---------    -------------------            -------------------------------
# Generated from Intellog Unique Number	CX_WELLS/WELL/3834
WELL.         PAN AM VENARENT                : Well_name    - WELL
LOC .         00/16-05-087-07W4/0            : Location     - LOCATION
UWI .         00/16-05-087-07W400            : Uwi          - UNIQUE WELL ID
ENTR.         T                              : Entered      - ENTERED BY
SRVC.         SCHLUMBERGER                   : Scn          - SERVICE COMPANY
STRT.F        150                            : top_depth    - START DEPTH
STOP.F        770.079                        : bot_depth    - STOP DEPTH
STEP.F        0.82                           : increment    - STEP LENGTH
 NULL. -999.2500:NULL Value
~CURVE INFORMATION BLOCK
#MNEM UNIT       ERCB CURVE CODE    CURVE DESCRIPTION
#-----------   ------------------   ----------------------------------
DEPT.F        00 001 00 00         : DEPTH        - DEPTH
GR  .API      00 310 00 00         : GR           - GAMMA RAY
NPHI.V/V      00 330 00 00         : PHIN         - NEUTRON POROSITY (SANDSTONE)
ILD .OHMM     00 120 00 00         : RESD         - DEEP RESISTIVITY (DIL)
~PARAMETER INFORMATION
#MNEM.UNIT           DATA             DESCRIPTION OF MNEMONIC
#---------         -----------     ------------------------------
GL  .F        1517                 : gl           - GROUND LEVEL ELEVATION
EREF.F        1527                 : kb           - ELEVATION OF DEPTH REFERENCE
DATM.F        1527                 : datum        - DATUM ELEVATION
TDD .F        800                  : tdd          - TOTAL DEPTH DRILLER
RUN .         ONE                  : Run          - RUN NUMBER
ENG .         BILL                 : Engineer     - RECORDING ENGINEER
WIT .         JIM                  : Witness      - WITNESSED BY
MUD .         GEL                  : Mud_type     - MUD TYPE
MATR.         SANDSTONE            : Logunit      - NEUTRON MATRIX
TMAX.F        66.4                 : BHT          - MAXIMUM RECORDED TEMPERATURE
BHTD.F        800                  : BHTDEP       - MAXIMUM RECORDED TEMPERATURE
MATR.         1                    : LOGUNIT      - NEUTRON MATRIX
RMT .F        50                   : MDTP         - TEMPERATURE OF MUD
NEUT.         1                    : NEUTRON      - NEUTRON TYPE
RESI.         6                    : RESIST       - RESISTIVITY TYPE
RMC .OHMM     6                    : RMC          - RESISTIVITY OF MUD CAKE
RMF .OHMM     2.6                  : RMF          - RESISTIVITY OF MUD FILTRATE
SUFT.F        39.2                 : SUFT         - SURFACE TEMPERATURE
~A  DEPTH       GR     PHIN     RESD
# ...
  327.986  100.026    0.445    8.565
  328.806  100.077    0.444    8.748
  329.626  100.107    0.444    9.114
  330.446  100.718    0.447    9.119
  331.266  100.748    0.452    9.128
  332.087  100.789    0.455    9.130
  332.907  100.810    0.451    9.316
  333.727  100.270    0.448   10.401
  334.547  100.891    0.440   11.305
  335.367  102.682    0.438   12.390
  336.188  104.453    0.433   13.294
  337.008  105.644    0.431   14.380
  337.828  106.245    0.426   14.925
  338.648  106.866    0.419   15.469
  339.469  104.586    0.415   16.015
  340.289  101.726    0.419   16.198
  341.109   98.846    0.430   16.384
  341.929   87.284    0.433   16.390
  342.749   84.414    0.419   15.677
  343.570   84.454    0.386   15.140
  344.390   87.386    0.381   13.349
  345.210   90.897    0.406   11.915
  346.030   97.899    0.432   10.484
  346.850   97.940    0.445   10.127
  347.671   96.821    0.440    9.236
  348.491  101.492    0.436    9.060
  349.311  107.324    0.438    9.246
  350.131  110.266    0.443   10.329
  350.951  108.566    0.440   11.235
  351.772  108.607    0.438   12.138
  352.592  108.647    0.436   13.224
  353.412  108.088    0.432   14.309
  354.232  106.388    0.432   15.033
  355.052  103.518    0.429   15.399
  355.873   99.488    0.420   14.687
  356.693   94.897    0.405   13.971
  357.513   93.758    0.387   12.898
  358.333   94.379    0.392   12.362
  359.154   94.999    0.401   11.289
  359.974   96.211    0.396   10.576
  360.794   97.391    0.403    9.863
  361.614   99.172    0.406    8.971
  362.434  100.363    0.414    8.614
  363.255  102.735    0.427    7.901
  364.075  102.755    0.452    7.546
  364.895  101.055    0.466    7.193
  365.715   99.915    0.462    7.199
  366.535   95.895    0.460    7.382
  367.356   98.246    0.451    7.929
  368.176  101.188    0.436    8.294
  368.996  104.119    0.416    8.659
  369.816  104.160    0.402    9.022
  370.636  101.880    0.444    9.390
  371.457  101.911    0.464    9.573
  372.277  101.371    0.469    9.759
  373.097   96.181    0.462    9.407
  373.917   89.830    0.446    9.050
  374.738   87.540    0.439    7.617
  375.558   87.581    0.430    6.364
  376.378   91.102    0.445    5.829
  377.198   93.463    0.467    6.195
  378.018   95.825    0.470    6.741
  378.839   96.425    0.467    7.465
  379.659   97.056    0.461    8.190
  380.479   97.657    0.453    8.555
  381.299   98.288    0.442    9.101
  382.119   98.308    0.431    9.646
  382.940   98.929    0.423    9.829
  383.760   98.400    0.418   10.195
  384.580   96.680    0.416   10.021
  385.400   94.970    0.419    9.846
  386.220   92.110    0.422    9.491
  387.041   90.411    0.424   10.217
  387.861   90.441    0.425   10.763
  388.681   90.492    0.427   11.307
  389.501   90.513    0.428   11.493
  390.322   89.963    0.430   11.857
  391.142   87.693    0.435   12.401
  391.962   87.134    0.434   13.127
  392.782   85.434    0.423   13.852
  393.602   84.895    0.405   14.400
  394.423   85.495    0.392   14.581
  395.243   83.215    0.394   13.149
  396.063   83.836    0.401   11.895
  396.883   90.248    0.411   10.106
  397.703   94.950    0.415    9.748
  398.524   96.131    0.410    9.037
  399.344   97.332    0.408    8.500
  400.164   99.103    0.411    7.609
  400.984  101.454    0.414    7.434
  401.804  103.235    0.417    6.543
  402.625  103.846    0.420    6.189
  403.445  101.566    0.424    5.653
  404.265   97.546    0.442    5.296
  405.085   94.086    0.466    5.123
  405.906   90.635    0.488    5.129
  406.726   84.885    0.506    5.312
  407.546   82.005    0.474    5.498
  408.366   78.575    0.426    5.686
  409.186   78.015    0.422    5.870
  410.007   79.817    0.429    6.238
  410.827   81.007    0.456    6.421
  411.647   81.618    0.476    7.146
  412.467   82.219    0.482    7.331
  413.287   82.840    0.475    7.337
  414.108   83.450    0.463    7.340
  414.928   84.662    0.447    7.168
  415.748   85.852    0.452    7.173
  416.568   86.463    0.467    7.178
  417.388   87.664    0.475    7.184
  418.209   88.875    0.470    7.368
  419.029   89.466    0.449    8.272
  419.849   88.936    0.427    9.181
  420.669   87.216    0.408    8.644
  421.490   80.876    0.400    8.110
  422.310   76.845    0.404    7.575
  423.130   78.637    0.439    6.862
  423.950   81.558    0.450    6.327
  424.770   88.560    0.467    5.975
  425.591   91.501    0.470    5.980
  426.411   91.542    0.455    5.985
  427.231   92.143    0.444    5.991
  428.051   92.764    0.446    5.819
  428.871   94.555    0.445    5.824
  429.692   95.156    0.437    5.828
  430.512   95.776    0.435    5.833
  431.332   95.807    0.439    5.839
  432.152   96.428    0.448    5.844
  432.972   96.458    0.457    6.028
  433.793   97.079    0.463    6.033
  434.613   97.690    0.463    6.221
  435.433   97.751    0.467    6.224
  436.253   97.782    0.468    6.410
  437.073   97.812    0.454    6.596
  437.894   98.433    0.443    6.964
  438.714   99.034    0.433    7.146
  439.534   99.655    0.431    7.511
  440.354  100.856    0.436    8.058
  441.175  101.476    0.432    8.421
  441.995  101.497    0.437    9.145
  442.815  101.538    0.440   10.949
  443.635   99.248    0.435   12.752
  444.455   95.797    0.427   14.377
  445.276   87.126    0.416   15.104
  446.096   78.465    0.392   15.466
  446.916   73.274    0.388   16.012
  447.736   67.514    0.381   16.378
  448.556   67.544    0.377   16.025
  449.377   68.745    0.382   15.668
  450.197   71.106    0.384   14.957
  451.017   73.447    0.388   14.600
  451.837   75.229    0.388   13.528
  452.657   74.699    0.384   12.633
  453.478   74.140    0.380   11.920
  454.298   71.860    0.383   11.387
  455.118   71.901    0.396   11.032
  455.938   74.252    0.410   11.038
  456.759   76.603    0.421   11.401
  457.579   80.704    0.429   14.644
  458.399   83.646    0.422   18.427
  459.219   85.997    0.417   22.207
  460.039   85.448    0.410   25.810
  460.860   73.875    0.402   25.097
  461.680   62.904    0.398   23.843
  462.500   52.502    0.396   21.510
  463.320   50.772    0.391   26.012
  464.140   44.431    0.368   31.233
  464.961   38.081    0.333   34.294
  465.781   34.651    0.318   38.077
  466.601   36.411    0.327   35.204
  467.421   39.343    0.327   29.456
  468.241   42.874    0.321   27.303
  469.062   47.556    0.330   24.434
  469.882   49.317    0.354   23.358
  470.702   60.380    0.368   22.284
  471.522   62.161    0.388   21.931
  472.343   65.673    0.410   21.398
  473.163   76.756    0.413   20.505
  473.983   79.677    0.389   20.148
  474.803   82.028    0.395   19.615
  475.623   87.871    0.404   18.902
  476.444   94.293    0.410   18.547
  477.264   92.583    0.422   18.012
  478.084   85.652    0.416   17.119
  478.904   79.891    0.410   16.766
  479.724   79.342    0.413   16.952
  480.545   78.813    0.416   16.957
  481.365   78.833    0.404   16.962
  482.185   78.884    0.384   17.146
  483.005   78.324    0.383   17.152
  483.825   76.624    0.379   17.338
  484.646   74.355    0.379   17.524
  485.466   73.215    0.390   17.528
  486.286   73.256    0.398   17.528
  487.106   73.276    0.403   17.718
  487.927   75.057    0.409   17.726
  488.747   79.159    0.415   17.550
  489.567   90.792    0.400   17.916
  490.387   93.734    0.380   18.999
  491.207   96.095    0.385   21.523
  492.028   71.170    0.400   24.225
  492.848   40.453    0.393   25.669
  493.668   28.881    0.362   28.193
  494.488   28.922    0.341   31.614
  495.308   30.703    0.338   55.178
  496.129   34.795    0.350   60.039
  496.949   38.306    0.358   61.662
  497.769   43.568    0.357   60.949
  498.589   47.680    0.354   60.057
  499.409   46.540    0.353   59.703
  500.230   40.779    0.355   59.526
  501.050   40.230    0.349   57.735
  501.870   45.492    0.328   53.604
  502.690   49.593    0.318   46.775
  503.510   53.105    0.346   41.925
  504.331   56.616    0.356   38.874
  505.151   61.878    0.370   37.262
