~VERSION INFORMATION
 VERS.                 2.0:   CWLS LOG ASCII STANDARD -VERSION 2.0
 WRAP.                  NO:   ONE LINE PER DEPTH STEP
~WELL INFORMATION BLOCK
#MNEM.UNIT           DATA                    DESCRIPTION OF MNEMONIC
#---------    -------------------            -------------------------------
# Generated from Intellog Unique Number	CW_70_72/WELL/1031
NULL.         -999.25                        : NULL_VALUE
WELL.         SUNCOR TOMATO 10-01            : Well_name    - WELL              
LOC .         10-01-072-24W4                 : Location     - LOCATION          
UWI .         00/10-01-072-24W4/0            : Uwi          - UNIQUE WELL ID    
ENTR.         JAYE                           : Entered      - ENTERED BY        
SRVC.         COMPUTALOG                     : Scn          - SERVICE COMPANY   
DATE.         3 MAR 80                       : Date         - LOG DATE          
STRT.M        435                            : top_depth    - START DEPTH       
STOP.M        645                            : bot_depth    - STOP DEPTH        
STEP.M        0.25                           : increment    - STEP LENGTH       
~CURVE INFORMATION BLOCK
#MNEM UNIT       ERCB CURVE CODE    CURVE DESCRIPTION
#-----------   ------------------   ----------------------------------
DEPT.M        00 001 00 00         : DEPTH        - DEPTH                       
DPHI.V/V      00 890 00 00         : PHID         - DENSITY POROSITY (SANDSTONE)
NPHI.V/V      00 330 00 00         : PHIN         - NEUTRON POROSITY (SANDSTONE)
GR  .API      00 310 00 00         : GR           - GAMMA RAY                   
CALI.MM       00 280 01 00         : CAL          - CALIPER                     
ILD .OHMM     00 120 00 00         : RESD         - DEEP RESISTIVITY (DIL)      
~PARAMETER INFORMATION       
#MNEM.UNIT           DATA             DESCRIPTION OF MNEMONIC
#---------         -----------     ------------------------------
GL  .M        670.96               : gl           - GROUND LEVEL ELEVATION      
EREF.M        674.31               : kb           - ELEVATION OF DEPTH REFERENCE
DATM.M        670.96               : datum        - DATUM ELEVATION             
TDD .M        662                  : tdd          - TOTAL DEPTH DRILLER         
RUN .         ONE                  : Run          - RUN NUMBER                  
ENG .         JESIOLOWSKI          : Engineer     - RECORDING ENGINEER          
WIT .         KOKOTOTLO            : Witness      - WITNESSED BY                
BASE.         EDM                  : Branch       - HOME BASE OF LOGGING UNIT   
MUD .         GEL CHEM             : Mud_type     - MUD TYPE                    
MATR.         SANDSTONE            : Logunit      - NEUTRON MATRIX              
TMAX.C        21                   : BHT          - MAXIMUM RECORDED TEMPERATURE
BHTD.M        662                  : BHTDEP       - MAXIMUM RECORDED TEMPERATURE
RMT .C        16.6                 : MDTP         - TEMPERATURE OF MUD          
MUDD.KG/M     1140                 : MWT          - MUD DENSITY                 
NEUT.         1                    : NEUTRON      - NEUTRON TYPE                
RESI.         0                    : RESIST       - RESISTIVITY TYPE            
RM  .OHMM     6                    : RM           - RESISTIVITY OF MUD          
RMC .OHMM     0                    : RMC          - RESISTIVITY OF MUD CAKE     
RMF .OHMM     5.8                  : RMF          - RESISTIVITY OF MUD FILTRATE 
SUFT.C        0                    : SUFT         - SURFACE TEMPERATURE         
~A  DEPTH     PHID     PHIN       GR      CAL     RESD
  435.000    0.206    0.421  123.904  172.054    2.284
  435.250    0.198    0.386  130.373  174.149    2.358
  435.500    0.198    0.368  126.356  174.483    2.452
  435.750    0.206    0.366  120.787  174.204    2.475
  436.000    0.213    0.423  118.077  174.125    2.484
  436.250    0.212    0.439  115.545  173.321    2.497
  436.500    0.215    0.412  113.080  171.590    2.465
  436.750    0.224    0.383  112.350  169.656    2.361
  437.000    0.241    0.375  105.728  168.334    2.253
  437.250    0.255    0.400  113.374  166.602    2.182
  437.500    0.256    0.416  115.315  164.353    2.194
  437.750    0.240    0.400  106.333  162.625    2.286
  438.000    0.260    0.363   93.258  162.750    2.404
  438.250    0.278    0.373   90.791  164.950    2.320
  438.500    0.262    0.413  103.341  168.285    2.084
  438.750    0.328    0.465  110.118  174.622    1.956
  439.000    0.332    0.496  106.972  180.021    2.111
  439.250    0.319    0.361  100.225  184.908    2.449
  439.500    0.209    0.350   94.469  176.247    2.865
  439.750    0.233    0.359   89.024  165.418    3.455
  440.000    0.252    0.306   86.869  153.965    4.036
  440.250    0.252    0.303   92.221  148.509    4.324
  440.500    0.240    0.320   89.010  144.816    4.583
  440.750    0.221    0.326   82.885  142.876    4.829
  441.000    0.170    0.304   74.586  142.073    5.098
  441.250    0.154    0.279   66.535  142.205    5.282
  441.500    0.180    0.333   77.224  142.445    5.252
  441.750    0.204    0.365   87.042  142.675    5.116
  442.000    0.237    0.426   82.652  142.904    5.086
  442.250    0.261    0.394   72.926  142.726    5.076
  442.500    0.294    0.343   65.250  142.549    5.048
  442.750    0.304    0.302   63.652  142.778    4.963
  443.000    0.286    0.300   79.612  143.835    4.798
  443.250    0.236    0.316   91.355  147.173    4.594
  443.500    0.215    0.349  105.580  151.751    4.136
  443.750    0.232    0.384  105.470  156.636    3.731
  444.000    0.245    0.374   96.924  162.348    3.236
  444.250    0.242    0.407  110.776  168.165    2.891
  444.500    0.263    0.467  121.774  165.916    2.940
  444.750    0.251    0.422  115.709  167.494    3.302
  445.000    0.218    0.379  102.075  170.208    3.850
  445.250    0.244    0.292   91.605  159.169    4.373
  445.500    0.244    0.258   89.263  149.062    4.547
  445.750    0.221    0.296  110.747  146.711    4.677
  446.000    0.219    0.366  120.628  147.777    4.756
  446.250    0.209    0.336  113.570  149.453    4.782
  446.500    0.196    0.298  107.071  151.030    4.799
  446.750    0.170    0.316  106.467  152.092    4.728
  447.000    0.184    0.336  102.015  151.702    4.631
  447.250    0.190    0.326   94.276  150.695    4.535
  447.500    0.158    0.308   96.090  149.893    4.384
  447.750    0.189    0.281  111.184  151.471    4.146
  448.000    0.255    0.281  117.032  157.907    4.044
  448.250    0.259    0.315  112.581  168.172    4.051
  448.500    0.258    0.349  106.828  172.645    4.229
  448.750    0.247    0.350  101.567  170.397    4.358
  449.000    0.222    0.304   92.215  165.665    4.448
  449.250    0.224    0.319   85.344  158.970    4.609
  449.500    0.212    0.298   77.729  148.759    4.670
  449.750    0.167    0.265   72.904  146.511    4.616
  450.000    0.137    0.289   88.431  147.675    4.412
  450.250    0.224    0.323   97.691  149.561    4.210
  450.500    0.245    0.346  105.896  153.935    4.124
  450.750    0.242    0.382  117.080  157.890    4.132
  451.000    0.237    0.425  117.780  159.465    4.124
  451.250    0.221    0.430  108.366  157.323    4.099
  451.500    0.209    0.368   98.514  155.173    4.177
  451.750    0.193    0.339   86.866  151.994    4.271
  452.000    0.213    0.303   86.385  150.885    4.368
  452.250    0.210    0.308   93.722  154.014    4.441
  452.500    0.220    0.329  111.173  156.727    4.585
  452.750    0.231    0.326  109.823  159.131    4.760
  453.000    0.216    0.318   88.992  158.331    4.941
  453.250    0.228    0.312   72.691  157.117    5.119
  453.500    0.264    0.267   59.614  151.457    5.244
  453.750    0.281    0.274   51.378  148.068    5.364
  454.000    0.287    0.283   50.588  143.959    5.414
  454.250    0.288    0.293   62.764  142.229    5.392
  454.500    0.279    0.286   77.236  143.183    5.273
  454.750    0.252    0.239   86.931  144.658    5.126
  455.000    0.230    0.251   92.594  147.062    4.974
  455.250    0.235    0.313   98.069  149.883    4.853
  455.500    0.246    0.347  103.855  151.148    4.622
  455.750    0.243    0.371  105.546  151.899    4.402
  456.000    0.232    0.398  102.459  152.443    4.303
  456.250    0.208    0.350  103.098  152.263    4.263
  456.500    0.218    0.337   97.527  151.463    4.295
  456.750    0.241    0.296   88.732  150.871    4.255
  457.000    0.262    0.268   80.372  150.173    4.174
  457.250    0.239    0.302   94.224  149.990    4.044
  457.500    0.215    0.325  101.189  150.123    3.917
  457.750    0.215    0.325   96.924  150.766    3.828
  458.000    0.232    0.298   97.064  151.204    3.729
  458.250    0.206    0.306  102.291  151.540    3.634
  458.500    0.194    0.328  104.726  152.189    3.585
  458.750    0.222    0.346  103.439  152.423    3.552
  459.000    0.261    0.375   84.531  151.826    3.518
  459.250    0.271    0.333   89.573  147.304    3.472
  459.500    0.273    0.342   91.265  141.540    3.413
  459.750    0.267    0.352   89.915  134.948    3.281
  460.000    0.262    0.282  111.584  132.391    3.113
  460.250    0.256    0.381  124.133  136.240    2.861
  460.500    0.256    0.424  119.619  145.056    2.624
  460.750    0.260    0.373  112.500  154.492    2.435
  461.000    0.255    0.337  110.221  164.652    2.289
  461.250    0.238    0.389  115.263  170.368    2.233
  461.500    0.219    0.465  120.429  166.983    2.220
  461.750    0.231    0.398  123.174  161.008    2.232
  462.000    0.298    0.397  137.149  154.728    2.292
  462.250    0.297    0.416  143.742  162.611    2.406
  462.500    0.258    0.422  143.944  174.946    2.573
  462.750    0.222    0.371  136.824  175.488    2.826
  463.000    0.204    0.329  127.904  167.243    3.203
  463.250    0.198    0.347  120.537  162.098    3.735
  463.500    0.213    0.348  115.715  162.640    3.935
  463.750    0.239    0.357  111.510  169.494    3.994
  464.000    0.275    0.377  105.756  167.863    3.958
  464.250    0.266    0.396   97.147  159.928    3.898
  464.500    0.272    0.376   87.670  152.095    3.818
  464.750    0.297    0.333   78.317  146.848    3.712
  465.000    0.305    0.352   71.322  143.980    3.596
  465.250    0.289    0.382   74.627  143.281    3.476
  465.500    0.293    0.341   72.906  143.311    3.372
  465.750    0.291    0.322   74.285  143.751    3.284
  466.000    0.280    0.327   80.630  144.504    3.352
  466.250    0.252    0.336   88.339  145.351    3.500
  466.500    0.225    0.322   94.126  147.134    3.701
  466.750    0.180    0.369   88.619  149.334    4.011
  467.000    0.143    0.224   79.949  150.497    4.340
  467.250    0.110    0.180   68.796  150.528    4.581
  467.500    0.146    0.222   79.422  149.932    4.739
  467.750    0.189    0.340   90.048  149.748    4.719
  468.000    0.211    0.336   95.399  151.119    4.615
  468.250    0.189    0.317  102.115  154.350    4.511
  468.500    0.199    0.377   98.594  161.718    4.410
  468.750    0.208    0.402   91.228  162.262    4.385
  469.000    0.227    0.422   83.363  158.464    4.337
  469.250    0.263    0.358   75.809  152.595    4.360
  469.500    0.296    0.276   79.051  148.174    4.207
  469.750    0.321    0.252   80.433  146.241    4.029
  470.000    0.323    0.288   76.913  146.264    3.675
  470.250    0.300    0.320   79.161  147.014    3.448
  470.500    0.280    0.335   87.987  147.868    3.353
  470.750    0.269    0.351   92.594  147.583    3.321
  471.000    0.283    0.360   85.662  146.473    3.390
  471.250    0.272    0.352   85.740  145.565    3.493
