~VERSION INFORMATION
 VERS.                 2.0:   CWLS LOG ASCII STANDARD -VERSION 2.0
 WRAP.                  NO:   ONE LINE PER DEPTH STEP
~WELL INFORMATION BLOCK
#MNEM.UNIT           DATA                    DESCRIPTION OF MNEMONIC
#---------    -------------------            -------------------------------
# Generated from Intellog Unique Number	CC_80_83/WELL/2437
NULL.         -999.25                        : NULL_VALUE
COMP .        INTERCITY GAS CORPORATION      :  COMPANY
WELL.         HOMESTEAD CANOXY COWPAR        : Well_name
LOC .         14-36-080-05W4                 : Location     - LOCATION          
UWI .         00/14-36-080-05W400            : Uwi          - UNIQUE WELL ID    
ENTR.         DW                             : Entered      - ENTERED BY        
SRVC.         SCHLUMBERGER                   : Scn          - SERVICE COMPANY   
DATE.         11 FEB 78                      : Date         - LOG DATE
STRT.M        106.68                         : top_depth    - START DEPTH       
STOP.M        274.318                        : bot_depth    - STOP DEPTH        
STEP.M        0.305                          : increment    - STEP LENGTH       
~CURVE INFORMATION BLOCK
#MNEM UNIT       ERCB CURVE CODE    CURVE DESCRIPTION
#-----------   ------------------   ----------------------------------
DEPT.M        00 001 00 00         : DEPTH        - DEPTH                       
DPHI.V/V      00 890 00 00         : PHID         - DENSITY POROSITY (LIMESTONE)
NPHI.V/V      00 330 00 00         : PHIN         - NEUTRON POROSITY (LIMESTONE)
GR  .API      00 310 00 00         : GR           - GAMMA RAY                   
ILD .OHMM     00 120 00 00         : RESD         - DEEP RESISTIVITY (DIL)      
~PARAMETER INFORMATION       
#MNEM.UNIT           DATA             DESCRIPTION OF MNEMONIC
#---------         -----------     ------------------------------
GL  .M        442.874              : gl           - GROUND LEVEL ELEVATION      
EREF.M        446.349              : kb           - ELEVATION OF DEPTH REFERENCE
DATM.M        446.349              : datum        - DATUM ELEVATION             
TDD .M        279.806              : tdd          - TOTAL DEPTH DRILLER         
RUN .         ONE                  : Run          - RUN NUMBER                  
ENG .         BILL                 : Engineer     - RECORDING ENGINEER          
WIT .         JIM                  : Witness      - WITNESSED BY                
MUD .         GEL                  : Mud_type     - MUD TYPE                    
MATR.         LIMESTONE            : Logunit      - NEUTRON MATRIX              
TMAX.C        20.5556              : BHT          - MAXIMUM RECORDED TEMPERATURE
BHTD.M        279.806              : BHTDEP       - MAXIMUM RECORDED TEMPERATURE
MATR.         1                    : LOGUNIT      - NEUTRON MATRIX              
RMT .C        25                   : MDTP         - TEMPERATURE OF MUD          
NEUT.         1                    : NEUTRON      - NEUTRON TYPE                
RESI.         0                    : RESIST       - RESISTIVITY TYPE            
RMC .OHMM     0.25                 : RMC          - RESISTIVITY OF MUD CAKE     
RMF .OHMM     0.25                 : RMF          - RESISTIVITY OF MUD FILTRATE 
SUFT.C        15                   : SUFT         - SURFACE TEMPERATURE         
~A  DEPTH     PHID     PHIN       GR     RESD
# ...
  159.715    0.263    0.501   87.599    5.381
  160.020    0.263    0.485   94.984    6.146
  160.324    0.267    0.506   98.681    5.083
  160.629    0.262    0.552   99.920    4.125
  160.934    0.260    0.580   98.091    3.544
  161.239    0.254    0.571   92.576    3.612
  161.544    0.249    0.527   88.904    4.204
  161.848    0.242    0.487   87.684    5.179
  162.153    0.223    0.478   84.628    6.144
  162.458    0.188    0.494   84.640    7.017
  162.763    0.092    0.485   84.037    7.863
  163.067    0.158    0.446   79.749    9.506
  163.372    0.236    0.432   82.838   10.062
  163.677    0.268    0.462   84.688   10.062
  163.982    0.249    0.475   89.001    8.979
  164.287    0.228    0.489   92.701    6.502
  164.591    0.238    0.501   93.938    5.178
  164.896    0.242    0.495   94.569    3.969
  165.201    0.244    0.527   94.577    3.679
  165.506    0.247    0.544   93.365    3.895
  165.811    0.240    0.529   93.373    4.123
  166.115    0.234    0.502   93.389    5.080
  166.420    0.242    0.471   92.176    5.912
  166.725    0.238    0.487   90.953    6.752
  167.030    0.238    0.492   89.738    7.147
  167.335    0.232    0.486   91.592    7.147
  167.639    0.235    0.484   92.221    6.881
  167.944    0.248    0.480   91.006    6.751
  168.249    0.252    0.474   90.406    7.012
  168.554    0.255    0.469   89.799    6.880
  168.859    0.267    0.453   89.813    6.139
  169.163    0.272    0.445   91.052    5.478
  169.468    0.263    0.443   92.909    4.888
  169.773    0.246    0.450   93.538    4.280
  170.078    0.224    0.540   92.325    3.748
  170.383    0.265    0.569   91.719    2.873
  170.687    0.294    0.579   91.122    2.422
  170.992    0.306    0.582   90.514    2.161
  171.297    0.298    0.588   88.685    2.120
  171.602    0.293    0.595   86.853    2.120
  171.907    0.288    0.601   86.250    2.120
  172.211    0.269    0.603   85.040    2.202
  172.516    0.263    0.577   85.666    2.376
  172.821    0.255    0.557   85.674    2.872
  173.126    0.236    0.540   87.532    3.676
  173.430    0.236    0.513   88.769    4.198
  173.735    0.242    0.509   90.013    4.704
  174.040    0.242    0.487   89.412    5.372
  174.345    0.254    0.482   88.808    5.796
  174.650    0.263    0.477   88.820    5.907
  174.954    0.257    0.454   93.747    5.795
  175.259    0.274    0.467   98.674    4.793
  175.564    0.277    0.543  102.984    3.964
  175.869    0.267    0.540  103.613    3.674
  176.174    0.225    0.520  102.397    3.605
  176.478    0.252    0.501  101.791    3.537
  176.783    0.242    0.506   99.964    3.537
  177.088    0.237    0.520   99.975    3.537
  177.393    0.238    0.516   98.765    3.537
  177.698    0.238    0.504   97.547    3.537
  178.002    0.239    0.500   96.942    3.605
  178.307    0.239    0.501   95.730    3.744
  178.612    0.237    0.518   95.737    3.815
  178.917    0.242    0.499   95.751    3.744
  179.222    0.249    0.486   95.151    3.743
  179.526    0.248    0.490   93.936    3.536
  179.831    0.220    0.527   93.328    3.888
  180.136    0.253    0.517   91.498    4.038
  180.441    0.264    0.478   88.439    4.976
  180.746    0.258    0.445   86.614    5.267
  181.050    0.240    0.430   87.857    5.368
  181.355    0.232    0.431   88.477    5.267
  181.660    0.222    0.472   90.332    4.881
  181.965    0.202    0.505   90.961    4.789
  182.270    0.176    0.475   90.357    5.367
  182.574    0.130    0.449   87.299    6.014
  182.879    0.127    0.400   83.015    6.014
  183.184    0.221    0.426   79.957    6.014
  183.489    0.232    0.457   78.741    5.789
  183.793    0.256    0.428   77.528    5.366
  184.098    0.275    0.404   78.150    4.610
  184.403    0.278    0.447   78.159    3.886
  184.708    0.278    0.469   78.791    3.338
  185.013    0.280    0.492   78.802    3.036
  185.317    0.284    0.529   79.426    2.814
  185.622    0.287    0.554   80.670    2.608
  185.927    0.281    0.560   81.293    2.511
  186.232    0.298    0.562   83.147    2.372
  186.537    0.322    0.550   81.933    2.327
  186.841    0.313    0.544   77.032    2.372
  187.146    0.299    0.503   69.675    2.511
  187.451    0.301    0.439   62.316    2.658
  187.756    0.294    0.429   58.646    2.708
  188.061    0.249    0.429   58.042    2.708
  188.365    0.266    0.386   58.055    2.708
  188.670    0.276    0.368   58.682    2.607
  188.975    0.288    0.364   59.923    2.417
  189.280    0.294    0.392   59.320    2.240
  189.585    0.278    0.389   59.335    2.076
  189.889    0.269    0.397   61.187    1.999
  190.194    0.285    0.413   66.115    1.998
  190.499    0.296    0.417   69.811    2.076
  190.804    0.305    0.397   72.278    2.076
  191.109    0.291    0.380   75.361    1.998
  191.413    0.278    0.396   78.446    1.888
  191.718    0.291    0.412   75.390    1.817
  192.023    0.299    0.407   74.791    1.783
  192.328    0.265    0.403   74.798    1.749
  192.633    0.269    0.406   80.951    1.749
  192.937    0.289    0.403   88.333    1.749
  193.242    0.310    0.396   82.210    1.749
  193.547    0.294    0.402   81.603    1.749
  193.852    0.287    0.391   85.299    1.749
  194.156    0.307    0.391   95.754    1.684
  194.461    0.305    0.393  104.981    1.591
  194.766    0.306    0.394  110.519    1.591
  195.071    0.301    0.391  116.058    1.591
  195.376    0.300    0.392  120.983    1.590
  195.680    0.298    0.388  124.069    1.621
  195.985    0.300    0.383  128.380    1.621
  196.290    0.297    0.384  136.990    1.590
  196.595    0.295    0.387  153.586    1.590
  196.900    0.280    0.386  150.526    1.590
  197.204    0.277    0.393  121.059    1.590
  197.509    0.293    0.395  116.774    1.590
  197.814    0.293    0.386  121.085    1.620
  198.119    0.295    0.382  116.796    1.620
  198.424    0.282    0.387  100.841    1.590
  198.728    0.266    0.392   91.640    1.560
  199.033    0.304    0.395   78.754    1.531
  199.338    0.304    0.411   65.257    1.530
  199.643    0.307    0.420   67.727    1.530
  199.948    0.303    0.407   69.584    1.560
  200.252    0.288    0.400   68.363    1.560
  200.557    0.278    0.404   61.005    1.560
  200.862    0.294    0.433   53.033    1.501
  201.167    0.307    0.427   54.275    1.501
  201.472    0.300    0.422   56.130    1.501
  201.776    0.283    0.426   56.143    1.501
  202.081    0.284    0.431   54.315    1.530
  202.386    0.309    0.433   51.869    1.559
  202.691    0.303    0.426   50.654    1.559
  202.996    0.297    0.407   50.668    1.530
  203.300    0.303    0.397   51.296    1.501
  203.605    0.299    0.404   51.916    1.473
  203.910    0.295    0.402   55.003    1.473
  204.215    0.293    0.399   58.698    1.501
  204.520    0.295    0.401   63.625    1.530
  204.824    0.295    0.412   63.637    1.559
  205.129    0.300    0.412   54.438    1.529
  205.434    0.305    0.411   50.766    1.501
  205.739    0.312    0.413   48.328    1.472
  206.043    0.328    0.413   47.722    1.472
  206.348    0.325    0.412   48.346    1.391
  206.653    0.290    0.408   48.973    1.365
  206.958    0.288    0.400   48.368    1.365
  207.263    0.306    0.412   47.162    1.339
  207.567    0.316    0.404   46.557    1.339
  207.872    0.320    0.395   47.180    1.339
  208.177    0.305    0.412   47.811    1.364
  208.482    0.302    0.439   47.818    1.364
  208.787    0.305    0.412   46.605    1.364
  209.091    0.300    0.401   45.998    1.364
  209.396    0.302    0.406   44.173    1.339
  209.701    0.295    0.410   44.180    1.338
  210.006    0.270    0.412   43.582    1.313
  210.311    0.306    0.408   44.823    1.288
  210.615    0.313    0.410   45.453    1.288
  210.920    0.311    0.424   45.461    1.313
  211.225    0.316    0.439   45.476    1.313
  211.530    0.311    0.415   45.483    1.313
  211.835    0.332    0.405   44.885    1.313
  212.139    0.325    0.416   45.510    1.313
  212.444    0.311    0.427   44.911    1.288
