~VERSION INFORMATION
 VERS.                 2.0:   CWLS LOG ASCII STANDARD -VERSION 2.0
 WRAP.                  NO:   ONE LINE PER DEPTH STEP
~WELL INFORMATION BLOCK
#MNEM.UNIT           DATA                    DESCRIPTION OF MNEMONIC
#---------    -------------------            -------------------------------
# Generated from Intellog Unique Number	CX_WELLS/WELL/3184
WELL.         CHEVRON CDN-SUP ALGAR          : Well_name    - WELL
LOC .         00/11-09-083-16W4/0            : Location     - LOCATION
UWI .         00/11-09-083-16W400            : Uwi          - UNIQUE WELL ID
ENTR.         DW                             : Entered      - ENTERED BY
SRVC.         SCHLUMBERGER                   : Scn          - SERVICE COMPANY
STRT.F        300                            : top_depth    - START DEPTH
STOP.F        889.731                        : bot_depth    - STOP DEPTH
STEP.F        0.82                           : increment    - STEP LENGTH
 NULL. -999.2500:NULL Value
~CURVE INFORMATION BLOCK
#MNEM UNIT       ERCB CURVE CODE    CURVE DESCRIPTION
#-----------   ------------------   ----------------------------------
DEPT.F        00 001 00 00         : DEPTH        - DEPTH
GR  .API      00 310 00 00         : GR           - GAMMA RAY
NPHI.V/V      00 330 00 00         : PHIN         - NEUTRON POROSITY (SANDSTONE)
DPHI.V/V      00 890 00 00         : PHID         - DENSITY POROSITY (SANDSTONE)
ILD .OHMM     00 120 00 00         : RESD         - DEEP RESISTIVITY (DIL)
~PARAMETER INFORMATION
#MNEM.UNIT           DATA             DESCRIPTION OF MNEMONIC
#---------         -----------     ------------------------------
GL  .M        526.237              : gl           - GROUND LEVEL ELEVATION
EREF.M        529.438              : kb           - ELEVATION OF DEPTH REFERENCE
DATM.M        529.438              : datum        - DATUM ELEVATION
TDD .M        271.577              : tdd          - TOTAL DEPTH DRILLER
RUN .         ONE                  : Run          - RUN NUMBER
ENG .         BILL                 : Engineer     - RECORDING ENGINEER
WIT .         JIM                  : Witness      - WITNESSED BY
MUD .         GEL                  : Mud_type     - MUD TYPE
MATR.         SANDSTONE            : Logunit      - NEUTRON MATRIX
TMAX.C        22.2222              : BHT          - MAXIMUM RECORDED TEMPERATURE
BHTD.M        271.577              : BHTDEP       - MAXIMUM RECORDED TEMPERATURE
MATR.         1                    : LOGUNIT      - NEUTRON MATRIX
RMT .C        25                   : MDTP         - TEMPERATURE OF MUD
NEUT.         1                    : NEUTRON      - NEUTRON TYPE
RESI.         0                    : RESIST       - RESISTIVITY TYPE
RMC .OHMM     0.25                 : RMC          - RESISTIVITY OF MUD CAKE
RMF .OHMM     0.25                 : RMF          - RESISTIVITY OF MUD FILTRATE
SUFT.C        4                    : SUFT         - SURFACE TEMPERATURE
~A  DEPTH       GR     PHIN     PHID     RESD
  300.000   70.933    0.578    0.394    7.600
  300.820   67.383    0.571    0.367    7.740
  301.640   62.058    0.556    0.332    8.029
  302.461   58.508    0.531    0.310    8.797
  303.281   57.323    0.512    0.283    9.639
  304.101   59.093    0.474    0.256   10.756
  304.921   62.636    0.448    0.252   10.756
  305.741   67.953    0.440    0.245    9.817
  306.562   70.905    0.440    0.252    9.126
  307.382   74.448    0.461    0.277    8.178
  308.202   77.400    0.473    0.286    6.938
  309.022   79.761    0.514    0.264    5.180
  309.843   81.531    0.543    0.259    4.904
  310.663   77.389    0.547    0.258    4.815
  311.483   75.613    0.539    0.259    5.086
  312.303   76.791    0.526    0.263    5.573
  313.123   76.198    0.488    0.272    6.450
  313.944   60.233    0.475    0.284    7.331
  314.764   51.363    0.469    0.296    8.180
  315.584   47.813    0.459    0.304    9.643
  316.404   49.583    0.434    0.304   10.565
  317.224   54.900    0.460    0.281   11.576
  318.045   62.581    0.500    0.269   10.187
  318.865   77.355    0.521    0.253    6.815
  319.685   80.307    0.532    0.247    6.220
  320.505   79.121    0.528    0.259    5.889
  321.325   73.206    0.506    0.286    6.571
  322.146   69.657    0.402    0.325    9.299
  322.966   63.741    0.381    0.355   10.004
  323.786   59.009    0.373    0.350   12.010
  324.606   56.642    0.385    0.348   14.684
  325.427   54.273    0.420    0.335   14.955
  326.247   52.496    0.449    0.327   13.649
  327.067   52.493    0.469    0.324   12.011
  327.887   54.854    0.472    0.322   11.371
  328.707   60.171    0.467    0.316   10.378
  329.528   65.488    0.439    0.300    9.647
  330.348   70.804    0.424    0.283    8.036
  331.168   74.939    0.429    0.268    7.470
  331.988   79.663    0.446    0.255    7.470
  332.808   84.980    0.475    0.244    8.037
  333.629   90.888    0.466    0.212    8.968
  334.449   95.022    0.471    0.197   10.192
  335.269   79.650    0.478    0.241   12.461
  336.089   70.779    0.447    0.270   14.689
  336.909   64.864    0.432    0.294   16.694
  337.730   61.314    0.404    0.298   18.628
  338.550   60.129    0.391    0.293   19.679
  339.370   61.898    0.386    0.289   19.679
  340.190   64.851    0.392    0.292   19.680
  341.010   71.350    0.399    0.293   18.631
  341.831   80.213    0.403    0.281   17.318
  342.651   80.801    0.405    0.249   15.806
  343.471   81.388    0.409    0.238   10.770
  344.291   81.975    0.429    0.230    9.305
  345.112   82.563    0.453    0.232    8.188
  345.932   83.741    0.479    0.240    8.340
  346.752   84.919    0.494    0.255    9.652
  347.572   84.918    0.441    0.267   11.378
  348.392   82.550    0.422    0.279   13.659
  349.213   68.950    0.430    0.281   14.696
  350.033   62.445    0.461    0.288   15.524
  350.853   63.032    0.469    0.293   17.009
  351.673   67.758    0.448    0.304   17.323
  352.493   73.073    0.429    0.314   17.969
  353.314   73.070    0.416    0.313   18.301
  354.134   73.657    0.414    0.274   17.970
  354.954   73.064    0.427    0.270   17.326
  355.774   68.332    0.433    0.274   17.012
  356.594   67.737    0.441    0.275   15.814
  357.415   71.280    0.448    0.279   15.528
  358.235   71.276    0.461    0.299   14.971
  359.055   65.952    0.467    0.331   14.173
  359.875   64.175    0.457    0.311   14.173
  360.696   65.946    0.442    0.296   13.665
  361.516   69.490    0.429    0.298   13.418
  362.336   74.805    0.434    0.304   13.175
  363.156   78.348    0.433    0.295   12.473
  363.976   80.710    0.417    0.263   11.594
  364.797   84.844    0.404    0.204   10.976
  365.617   90.160    0.397    0.208   10.391
  366.437   91.340    0.404    0.214   10.018
  367.257   90.744    0.417    0.197    9.659
  368.077   93.106    0.440    0.197    8.978
  368.898   97.240    0.451    0.198    8.046
  369.718   98.418    0.466    0.198    7.344
  370.538   97.233    0.481    0.200    6.827
  371.358   99.003    0.502    0.200    6.582
  372.178  101.955    0.519    0.196    6.231
  372.999  104.316    0.540    0.193    6.008
  373.819  101.356    0.533    0.198    5.792
  374.639  100.171    0.511    0.198    5.483
  375.459  100.759    0.511    0.187    5.191
  376.280  101.346    0.521    0.183    5.097
  377.100  103.116    0.531    0.190    4.914
  377.920  103.113    0.540    0.199    4.915
  378.740  102.519    0.551    0.199    4.915
  379.560  104.879    0.582    0.208    5.192
  380.381  106.649    0.593    0.226    5.688
  381.201  104.281    0.567    0.240    6.705
  382.021   98.957    0.490    0.248    7.620
  382.841   94.816    0.462    0.246    8.661
  383.661   93.631    0.434    0.244    9.317
  384.482   84.760    0.418    0.244    9.490
  385.302   81.210    0.418    0.244    9.490
  386.122   81.207    0.423    0.242    9.490
  386.942   81.203    0.434    0.238    9.319
  387.762   81.791    0.432    0.234    9.319
  388.583   84.152    0.430    0.232    9.319
  389.403   88.286    0.428    0.240    9.319
  390.223   93.011    0.433    0.251    9.844
  391.043   97.146    0.463    0.262   11.818
  391.864   91.823    0.478    0.275   13.679
  392.684   83.542    0.475    0.288   15.264
  393.504   84.131    0.436    0.297   17.033
  394.324   86.490    0.433    0.312   18.325
  395.144   86.489    0.445    0.323   19.358
  395.965   83.530    0.457    0.313   20.079
  396.785   75.251    0.450    0.306   20.080
  397.605   65.198    0.428    0.306   20.080
  398.425   57.510    0.408    0.307   20.081
  399.245   53.958    0.398    0.309   20.452
  400.066   55.138    0.408    0.312   21.214
  400.886   56.908    0.417    0.316   21.605
  401.706   57.496    0.416    0.319   22.410
  402.526   56.901    0.417    0.320   23.673
  403.346   55.716    0.423    0.320   24.555
  404.167   53.348    0.432    0.320   25.940
  404.987   51.571    0.442    0.322   25.009
  405.807   50.977    0.453    0.326   24.113
  406.627   50.973    0.457    0.328   22.008
  407.448   50.969    0.451    0.328   21.219
  408.268   50.375    0.439    0.328   20.835
  409.088   49.190    0.430    0.329   20.459
  409.908   49.776    0.438    0.330   20.459
  410.728   50.364    0.446    0.328   20.459
  411.549   50.951    0.442    0.326   21.222
  412.369   50.357    0.429    0.315   21.614
  413.189   50.353    0.421    0.304   22.419
  414.009   50.351    0.416    0.301   22.419
  414.829   49.755    0.417    0.310   22.420
  415.650   48.570    0.420    0.316   22.834
  416.470   47.976    0.431    0.316   22.834
  417.290   49.746    0.440    0.311   22.835
  418.110   50.925    0.454    0.301   22.422
  418.930   52.103    0.451    0.293   22.017
  419.751   52.690    0.439    0.297   21.619
  420.571   52.686    0.423    0.307   21.619
  421.391   52.683    0.413    0.317   21.620
  422.211   52.679    0.407    0.325   22.019
  423.031   52.676    0.404    0.327   22.426
  423.852   52.672    0.404    0.327   22.840
  424.672   51.486    0.408    0.330   23.262
  425.492   50.301    0.414    0.337   23.691
  426.312   52.071    0.420    0.342   24.129
  427.133   55.023    0.428    0.347   24.130
  427.953   57.384    0.435    0.346   24.130
  428.773   56.198    0.440    0.342   24.131
  429.593   55.604    0.438    0.337   23.694
  430.413   54.418    0.434    0.334   23.695
  431.234   53.824    0.423    0.331   23.267
  432.054   54.411    0.408    0.325   22.846
  432.874   56.181    0.414    0.319   20.104
  433.694   58.542    0.420    0.309   16.146
  434.514   63.859    0.425    0.288   13.450
  435.335   75.087    0.426    0.262   11.621
  436.155   84.541    0.434    0.268    9.859
  436.975   85.127    0.463    0.272    8.519
  437.795   83.943    0.494    0.264    8.365
  438.615   82.166    0.506    0.261    8.999
  439.436   82.754    0.509    0.263    9.860
  440.256   84.523    0.494    0.266   10.608
  441.076   86.884    0.464    0.267   10.804
  441.896   88.654    0.462    0.266   11.004
