~VERSION INFORMATION
 VERS.                 2.0:   CWLS LOG ASCII STANDARD -VERSION 2.0
 WRAP.                  NO:   ONE LINE PER DEPTH STEP
~WELL INFORMATION BLOCK
#MNEM.UNIT           DATA                    DESCRIPTION OF MNEMONIC
#---------    -------------------            -------------------------------
# Generated from Intellog Unique Number	CW_70_72/WELL/1030
WELL.         SUNDANCE ET AL CALL 10-01      : Well_name    - WELL              
NULL.         -999.25                        : NULL_VALUE
LOC .         10-01-072-23W4                 : Location     - LOCATION          
UWI .         00/10-01-072-23W4/0            : Uwi          - UNIQUE WELL ID    
ENTR.         JAYE                           : Entered      - ENTERED BY        
SRVC.         SCHLUMBERGER                   : Scn          - SERVICE COMPANY   
DATE.         15 FEB 77                      : Date         - LOG DATE          
STRT.M        399.288                        : top_depth    - START DEPTH       
STOP.M        624.788                        : bot_depth    - STOP DEPTH        
STEP.M        0.25                           : increment    - STEP LENGTH       
~CURVE INFORMATION BLOCK
#MNEM UNIT       ERCB CURVE CODE    CURVE DESCRIPTION
#-----------   ------------------   ----------------------------------
DEPT.M        00 001 00 00         : DEPTH        - DEPTH                       
DPHI.V/V      00 890 00 00         : PHID         - DENSITY POROSITY (SANDSTONE)
NPHI.V/V      00 330 00 00         : PHIN         - NEUTRON POROSITY (SANDSTONE)
GR  .API      00 310 00 00         : GR           - GAMMA RAY                   
CALI.MM       00 280 01 00         : CAL          - CALIPER                     
ILD .OHMM     00 120 00 00         : RESD         - DEEP RESISTIVITY (DIL)      
~PARAMETER INFORMATION       
#MNEM.UNIT           DATA             DESCRIPTION OF MNEMONIC
#---------         -----------     ------------------------------
GL  .M        641.452              : gl           - GROUND LEVEL ELEVATION      
EREF.M        645.262              : kb           - ELEVATION OF DEPTH REFERENCE
DATM.M        641.452              : datum        - DATUM ELEVATION             
TDD .M        640.08               : tdd          - TOTAL DEPTH DRILLER         
RUN .         ONE                  : Run          - RUN NUMBER                  
ENG .         PIMM                 : Engineer     - RECORDING ENGINEER          
WIT .         CHRISTERSEN          : Witness      - WITNESSED BY                
BASE.         EDM                  : Branch       - HOME BASE OF LOGGING UNIT   
MUD .         GEL                  : Mud_type     - MUD TYPE                    
MATR.         SANDSTONE            : Logunit      - NEUTRON MATRIX              
TMAX.C        31.6667              : BHT          - MAXIMUM RECORDED TEMPERATURE
BHTD.M        639.775              : BHTDEP       - MAXIMUM RECORDED TEMPERATURE
RMT .C        13.3333              : MDTP         - TEMPERATURE OF MUD          
MUDD.KG/M     1104                 : MWT          - MUD DENSITY                 
NEUT.         1                    : NEUTRON      - NEUTRON TYPE                
RESI.         0                    : RESIST       - RESISTIVITY TYPE            
RM  .OHMM     5.52                 : RM           - RESISTIVITY OF MUD          
RMC .OHMM     0                    : RMC          - RESISTIVITY OF MUD CAKE     
RMF .OHMM     5.54                 : RMF          - RESISTIVITY OF MUD FILTRATE 
SUFT.C        0                    : SUFT         - SURFACE TEMPERATURE         
~A  DEPTH     PHID     PHIN       GR      CAL     RESD
# ...
  435.788    0.255    0.446  117.186  183.487    4.292
  436.038    0.295    0.478  106.429  191.550    4.268
  436.288    0.310    0.453   88.645  172.093    4.292
  436.538    0.274    0.442   86.870  168.880    4.324
  436.788    0.244    0.459   90.776  170.218    4.348
  437.038    0.257    0.484   88.695  168.969    4.364
  437.288    0.283    0.471   84.903  166.998    4.405
  437.538    0.298    0.456   81.784  165.542    4.487
  437.788    0.295    0.437   78.908  165.329    4.613
  438.038    0.289    0.409   76.399  165.839    4.813
  438.288    0.277    0.386   73.279  166.352    5.124
  438.538    0.201    0.355   70.037  166.863    5.713
  438.788    0.158    0.284   68.140  167.167    6.757
  439.038    0.117    0.209   69.174  167.574    8.878
  439.288    0.058    0.228   72.653  168.084   11.200
  439.538    0.071    0.264   75.888  168.285   14.314
  439.788    0.120    0.332   79.550  168.589   14.079
  440.038    0.162    0.368   82.479  168.271   11.904
  440.288    0.196    0.405   85.286  167.644    9.298
  440.538    0.215    0.421   88.581  166.915    7.480
  440.788    0.245    0.440   91.632  165.562    6.466
  441.038    0.296    0.456   92.056  165.040    5.328
  441.288    0.293    0.449   90.464  164.826    4.648
  441.538    0.297    0.442   93.699  164.923    4.278
  441.788    0.300    0.437   96.077  165.227    4.063
  442.038    0.295    0.446   96.135  165.841    4.063
  442.288    0.286    0.453   92.709  166.456    4.056
  442.538    0.289    0.452   89.101  167.070    4.034
  442.788    0.286    0.448   85.248  167.995    4.064
  443.038    0.273    0.447   81.945  166.747    4.056
  443.288    0.282    0.445   84.324  166.016    3.909
  443.538    0.287    0.440   90.674  166.838    3.720
  443.788    0.296    0.441   95.803  168.694    3.507
  444.038    0.298    0.452   98.732  170.653    3.430
  444.288    0.295    0.448   93.352  170.647    3.436
  444.538    0.298    0.437   87.421  168.053    3.513
  444.788    0.299    0.421   87.845  167.634    3.619
  445.038    0.298    0.430   85.641  168.143    3.720
  445.288    0.300    0.439   83.744  168.552    3.846
  445.538    0.293    0.445   83.679  169.269    3.932
  445.788    0.283    0.442   89.052  170.194    4.020
  446.038    0.286    0.427   94.852  170.705    4.080
  446.288    0.271    0.429  101.814  171.113    4.141
  446.538    0.248    0.441  106.576  171.106    4.257
  446.788    0.239    0.436  107.183  171.204    4.336
  447.038    0.243    0.436  105.469  171.714    4.450
  447.288    0.235    0.447  106.137  172.225    4.541
  447.538    0.244    0.458  108.393  172.529    4.617
  447.788    0.237    0.471  110.712  172.522    4.712
  448.038    0.224    0.482  111.625  172.517    4.747
  448.288    0.207    0.480  111.315  174.269    4.756
  448.538    0.181    0.467  110.517  176.229    4.747
  448.788    0.199    0.460  109.475  180.878    4.721
  449.038    0.202    0.458  107.455  185.113    4.669
  449.288    0.217    0.458  105.923  177.140    4.542
  449.538    0.242    0.460  100.543  179.513    4.476
  449.788    0.266    0.466   93.207  181.680    4.418
  450.038    0.286    0.477   84.466  179.294    4.362
  450.288    0.320    0.492   75.970  168.217    4.402
  450.538    0.353    0.520   68.084  168.521    4.534
  450.788    0.424    0.559   60.871  169.136    4.890
  451.038    0.515    0.629   52.313  169.956    5.373
  451.288    0.531    0.687   44.305  169.329    6.001
  451.538    0.446    0.674   45.584  167.667    6.057
  451.788    0.339    0.431   48.819  166.316    5.413
  452.038    0.335    0.417   48.449  165.069    4.688
  452.288    0.355    0.417   48.811  165.579    4.105
  452.538    0.356    0.415   50.213  166.296    3.529
  452.788    0.344    0.411   52.225  166.084    3.230
  453.038    0.335    0.412   55.826  166.181    3.102
  453.288    0.335    0.426   57.900  166.276    3.119
  453.538    0.338    0.427   57.346  166.477    3.160
  453.788    0.340    0.414   58.565  166.471    3.201
  454.038    0.331    0.422   60.149  166.258    3.231
  454.288    0.320    0.426   61.062  166.046    3.309
  454.538    0.323    0.424   60.203  166.038    3.365
  454.788    0.318    0.419   55.495  166.240    3.377
  455.038    0.320    0.414   52.314  166.336    3.408
  455.288    0.330    0.411   50.660  166.227    3.453
  455.538    0.337    0.405   49.984  166.531    3.472
  455.788    0.325    0.395   49.858  166.524    3.511
  456.038    0.316    0.386   50.587  166.311    3.511
  456.288    0.300    0.399   51.562  166.097    3.504
  456.538    0.310    0.412   52.047  166.091    3.485
  456.788    0.321    0.419   51.615  165.981    3.466
  457.038    0.306    0.436   51.428  166.286    3.453
  457.288    0.314    0.439   51.607  166.382    3.441
  457.538    0.323    0.420   51.665  166.480    3.454
  457.788    0.330    0.407   51.722  166.370    3.479
  458.038    0.340    0.400   52.085  166.155    3.479
  458.288    0.347    0.402   53.120  165.943    3.460
  458.538    0.345    0.401   54.643  166.040    3.391
  458.788    0.351    0.406   55.739  166.343    3.311
  459.038    0.347    0.398   56.591  166.441    3.244
  459.288    0.335    0.388   56.587  166.435    3.197
  459.538    0.338    0.401   56.034  166.428    3.150
  459.788    0.332    0.415   55.725  166.318    3.115
  460.038    0.342    0.425   57.004  166.312    3.087
  460.288    0.353    0.426   58.467  166.409    3.070
  460.538    0.365    0.422   57.730  166.506    3.042
  460.788    0.369    0.429   55.160  166.293    3.020
  461.038    0.362    0.434   52.773  165.975    3.020
  461.288    0.359    0.424   50.997  165.865    3.009
  461.538    0.355    0.412   49.405  165.652    2.998
  461.788    0.352    0.420   49.401  165.336    2.965
  462.038    0.349    0.428   50.069  164.916    2.938
  462.288    0.341    0.422   50.248  164.494    2.911
  462.538    0.333    0.414   49.512  164.177    2.921
  462.788    0.323    0.401   47.186  163.862    3.020
  463.038    0.310    0.383   48.344  163.546    3.269
  463.288    0.290    0.364   47.790  163.849    3.874
  463.538    0.237    0.333   46.258  164.878    4.728
  463.788    0.160    0.303   45.766  166.629    5.706
  464.038    0.128    0.222   46.312  167.865    6.565
  464.288    0.155    0.261   47.164  167.652    6.749
  464.538    0.194    0.297   47.587  165.990    5.572
  464.788    0.287    0.384   48.439  164.742    4.368
  465.038    0.353    0.441   49.046  164.115    3.707
  465.288    0.336    0.449   50.020  164.314    3.187
  465.538    0.323    0.436   50.566  164.723    2.869
  465.788    0.326    0.428   50.502  165.027    2.791
  466.038    0.341    0.442   50.009  165.021    2.786
  466.288    0.345    0.453   49.761  164.911    2.791
  466.538    0.342    0.452   51.040  164.594    2.801
  466.788    0.328    0.448   51.708  164.174    2.817
  467.038    0.334    0.440   49.199  163.856    2.838
  467.288    0.337    0.421   48.340  164.058    2.859
  467.538    0.335    0.415   48.398  164.463    2.880
  467.788    0.330    0.421   48.822  164.666    2.886
  468.038    0.322    0.427   49.368  165.279    2.886
  468.288    0.318    0.436   50.158  165.687    2.891
  468.538    0.316    0.436   51.010  165.680    2.891
  468.788    0.323    0.431   51.739  165.673    2.886
  469.038    0.316    0.434   51.857  165.668    2.886
  469.288    0.316    0.444   51.426  165.558    2.907
  469.538    0.326    0.453   49.772  165.965    2.913
  469.788    0.332    0.453   47.508  165.958    2.913
  470.038    0.331    0.449   45.427  165.746    2.902
  470.288    0.319    0.440   43.163  165.635    2.892
  470.538    0.317    0.434   42.059  165.939    2.886
  470.788    0.326    0.427   41.994  166.140    2.908
  471.038    0.333    0.422   41.685  166.238    2.849
  471.288    0.342    0.418   41.681  166.128    2.792
  471.538    0.338    0.425   41.555  165.707    2.787
  471.788    0.329    0.435   42.040  165.390    2.813
  472.038    0.338    0.431   42.709  165.281    2.839
