~VERSION INFORMATION
 VERS.                 2.0:   CWLS LOG ASCII STANDARD -VERSION 2.0
 WRAP.                  NO:   ONE LINE PER DEPTH STEP
~WELL INFORMATION BLOCK
#MNEM.UNIT           DATA                    DESCRIPTION OF MNEMONIC
#---------    -------------------            -------------------------------
# Generated from Intellog Unique Number	CW_73_75/WELL/1049
WELL.         SUNCOR MITSUE 11-34            : Well_name    - WELL
LOC .         00/11-34-074-05W5/0            : Location     - LOCATION
UWI .         00/11-34-074-05W5/0            : Uwi          - UNIQUE WELL ID
ENTR.         JAYE                           : Entered      - ENTERED BY
SRVC.         SCHLUMBERGER                   : Scn          - SERVICE COMPANY
DATE.         18 MAR 80                      : Date         - LOG DATE
STRT.M        725                            : top_depth    - START DEPTH
STOP.M        945                            : bot_depth    - STOP DEPTH
STEP.M        0.25                           : increment    - STEP LENGTH
 NULL. -999.2500:NULL Value
~CURVE INFORMATION BLOCK
#MNEM UNIT       ERCB CURVE CODE    CURVE DESCRIPTION
#-----------   ------------------   ----------------------------------
DEPT.M        00 001 00 00         : DEPTH        - DEPTH
ILD .OHMM     00 120 00 00         : RESD         - DEEP RESISTIVITY (DLL)
NPHI.V/V      00 330 00 00         : PHIN         - NEUTRON POROSITY (SANDSTONE)
DPHI.V/V      00 890 00 00         : PHID         - DENSITY POROSITY (SANDSTONE)
GR  .API      00 310 00 00         : GR           - GAMMA RAY
CALI.MM       00 280 01 00         : CAL          - CALIPER
~PARAMETER INFORMATION
#MNEM.UNIT           DATA             DESCRIPTION OF MNEMONIC
#---------         -----------     ------------------------------
GL  .M        977.2                : gl           - GROUND LEVEL ELEVATION
EREF.M        980.3                : kb           - ELEVATION OF DEPTH REFERENCE
DATM.M        977.2                : datum        - DATUM ELEVATION
TDD .M        958                  : tdd          - TOTAL DEPTH DRILLER
RUN .         ONE                  : Run          - RUN NUMBER
ENG .         HOOK                 : Engineer     - RECORDING ENGINEER
WIT .         KEIR                 : Witness      - WITNESSED BY
BASE.         5270                 : Branch       - HOME BASE OF LOGGING UNIT
MUD .         GEL CHEM             : Mud_type     - MUD TYPE
MATR.         SANDSTONE            : Logunit      - NEUTRON MATRIX
TMAX.C        36                   : BHT          - MAXIMUM RECORDED TEMPERATURE
BHTD.M        957                  : BHTDEP       - MAXIMUM RECORDED TEMPERATURE
RMT .C        25.6                 : MDTP         - TEMPERATURE OF MUD
MUDD.KG/M     1066                 : MWT          - MUD DENSITY
NEUT.         0                    : NEUTRON      - NEUTRON TYPE
RESI.         1                    : RESIST       - RESISTIVITY TYPE
RM  .OHMM     3.83                 : RM           - RESISTIVITY OF MUD
RMC .OHMM     0                    : RMC          - RESISTIVITY OF MUD CAKE
RMF .OHMM     0                    : RMF          - RESISTIVITY OF MUD FILTRATE
SUFT.C        0                    : SUFT         - SURFACE TEMPERATURE
~A  DEPTH     RESD     PHIN     PHID       GR      CAL
# ...
  871.000    2.717    0.448    0.198   98.692  170.344
  871.250    2.713    0.452    0.203   97.470  170.672
  871.500    2.715    0.462    0.207   95.506  170.901
  871.750    2.768    0.471    0.212   92.000  170.714
  872.000    2.833    0.469    0.225   86.642  169.709
  872.250    2.928    0.464    0.243   85.605  167.569
  872.500    3.021    0.451    0.254   85.927  166.970
  872.750    3.111    0.443    0.264   87.297  167.507
  873.000    3.221    0.446    0.259   88.606  168.967
  873.250    3.300    0.452    0.263   90.163  171.046
  873.500    3.343    0.459    0.267   91.471  173.640
  873.750    3.316    0.465    0.267   92.100  169.853
  874.000    3.225    0.473    0.263   90.200  169.874
  874.250    3.124    0.478    0.255   86.570  171.850
  874.500    3.095    0.471    0.246   83.620  173.208
  874.750    3.199    0.453    0.261   80.915  174.258
  875.000    3.414    0.432    0.269   77.841  174.281
  875.250    3.675    0.426    0.271   76.002  173.478
  875.500    3.879    0.435    0.277   75.460  172.472
  875.750    3.940    0.442    0.284   75.657  172.182
  876.000    3.923    0.449    0.289   74.497  172.407
  876.250    3.873    0.459    0.288   73.830  171.296
  876.500    3.792    0.460    0.274   74.954  167.614
  876.750    3.742    0.449    0.261   77.313  168.767
  877.000    3.669    0.434    0.254   79.053  170.433
  877.250    3.622    0.419    0.248   79.498  171.072
  877.500    4.124    0.406    0.240   78.646  169.138
  877.750    4.299    0.392    0.229   78.103  171.423
  878.000    4.420    0.319    0.210   78.795  169.798
  878.250    4.454    0.312    0.134   80.721  164.264
  878.500    4.257    0.335    0.159   82.710  159.964
  878.750    4.007    0.378    0.234   82.660  157.721
  879.000    3.685    0.400    0.264   81.871  156.609
  879.250    3.421    0.425    0.292   80.402  156.118
  879.500    3.188    0.433    0.279   79.673  156.242
  879.750    3.125    0.443    0.268   80.117  156.260
  880.000    3.107    0.450    0.257   82.044  156.692
  880.250    3.135    0.435    0.247   85.080  157.331
  880.500    3.192    0.422    0.238   87.748  157.763
  880.750    3.316    0.413    0.226   89.921  158.915
  881.000    3.456    0.415    0.217   91.663  161.098
  881.250    3.566    0.422    0.211   93.404  164.924
  881.500    3.611    0.432    0.210   94.959  170.709
  881.750    3.595    0.440    0.218   94.786  172.170
  882.000    3.592    0.442    0.230   93.132  171.779
  882.250    3.595    0.445    0.215   91.046  169.742
  882.500    3.609    0.432    0.212   89.701  166.367
  882.750    3.617    0.422    0.230   89.280  163.817
  883.000    3.633    0.423    0.219   89.664  163.015
  883.250    3.649    0.423    0.207   90.232  162.933
  883.500    3.650    0.422    0.218   91.665  163.055
  883.750    3.660    0.422    0.217   93.468  163.281
  884.000    3.669    0.422    0.208   94.714  163.405
  884.250    3.691    0.427    0.199   95.035  164.045
  884.500    3.736    0.431    0.193   93.813  165.402
  884.750    3.796    0.431    0.187   94.135  171.082
  885.000    3.864    0.429    0.190   94.579  175.320
  885.250    3.873    0.426    0.203   96.814  171.433
  885.500    3.824    0.423    0.219   97.506  165.383
  885.750    3.743    0.423    0.206   98.012  164.478
  886.000    3.585    0.426    0.205   98.827  164.913
  886.250    3.491    0.432    0.198   99.827  165.448
  886.500    3.354    0.442    0.189  101.506  165.675
  886.750    3.254    0.446    0.180  103.310  164.974
  887.000    3.132    0.432    0.167  100.482  162.629
  887.250    3.177    0.398    0.180   97.656  161.312
  887.500    3.467    0.377    0.204   97.730  159.380
  887.750    3.670    0.379    0.212  100.768  157.855
  888.000    3.844    0.396    0.221  103.186  157.466
  888.250    3.927    0.411    0.218  107.397  158.928
  888.500    3.864    0.425    0.205  110.064  160.387
  888.750    3.676    0.469    0.193  109.212  161.441
  889.000    3.548    0.471    0.205  107.928  161.563
  889.250    3.380    0.442    0.218  103.929  161.070
  889.500    3.248    0.427    0.233  100.422  160.575
  889.750    3.121    0.437    0.237   94.879  160.083
  890.000    3.033    0.456    0.225   92.299  160.412
  890.250    2.948    0.465    0.225   93.360  160.636
  890.500    2.887    0.466    0.245   93.682  161.893
  890.750    2.893    0.449    0.234   90.917  163.663
  891.000    2.924    0.437    0.219   92.349  165.538
  891.250    2.972    0.421    0.221   94.090  165.865
  891.500    3.021    0.412    0.235   92.375  157.448
  891.750    3.090    0.427    0.229   89.733  157.367
  892.000    3.139    0.439    0.222   87.275  158.828
  892.250    3.202    0.449    0.218   87.598  160.700
  892.500    3.244    0.445    0.227   89.646  157.430
  892.750    3.256    0.437    0.221   90.523  157.349
  893.000    3.263    0.430    0.223   89.424  159.323
  893.250    3.261    0.425    0.223   88.202  161.504
  893.500    3.245    0.423    0.216   86.858  162.142
  893.750    3.304    0.422    0.203   85.513  161.238
  894.000    3.414    0.415    0.212   84.166  160.641
  894.250    3.595    0.407    0.199   80.351  159.735
  894.500    3.950    0.396    0.176   78.141  158.934
  894.750    4.506    0.373    0.157   79.265  156.796
  895.000    4.926    0.347    0.139   84.833  155.169
  895.250    5.073    0.385    0.166   90.094  153.955
  895.500    4.992    0.436    0.224   91.217  154.902
  895.750    4.534    0.449    0.245   91.477  157.086
  896.000    4.240    0.439    0.242   91.488  159.472
  896.250    4.073    0.430    0.233   93.663  161.758
  896.500    3.947    0.434    0.231   95.403  163.423
  896.750    3.955    0.441    0.222   93.502  160.665
  897.000    4.158    0.432    0.213   90.428  157.910
  897.250    4.393    0.396    0.201   89.761  157.106
  897.500    4.588    0.373    0.191   90.886  157.336
  897.750    4.575    0.367    0.192   93.676  158.074
  898.000    4.456    0.393    0.205   97.083  159.329
  898.250    4.289    0.418    0.219   97.899  160.071
  898.500    4.120    0.432    0.218   97.604  159.789
  898.750    3.933    0.436    0.212   97.615  159.602
  899.000    3.783    0.441    0.210   98.245  159.418
  899.250    3.665    0.446    0.201   99.183  158.928
  899.500    3.576    0.423    0.211   99.196  158.741
  899.750    3.495    0.423    0.217   97.480  158.965
  900.000    3.463    0.425    0.219   99.037  158.776
  900.250    3.429    0.429    0.218  100.530  158.801
  900.500    3.416    0.435    0.215  101.839  158.819
  900.750    3.428    0.441    0.210  101.049  159.152
  901.000    3.396    0.452    0.201   99.085  159.478
  901.250    3.433    0.463    0.189   99.655  159.912
  901.500    3.408    0.460    0.188  100.099  160.039
  901.750    3.403    0.453    0.193   99.494  159.750
  902.000    3.360    0.445    0.197   98.828  159.667
  902.250    3.356    0.429    0.203   97.978  159.687
  902.500    3.359    0.430    0.208   97.002  160.015
  902.750    3.413    0.437    0.214   96.212  160.654
  903.000    3.479    0.436    0.220   95.606  160.984
  903.250    3.603    0.430    0.226   95.433  161.212
  903.500    3.761    0.424    0.221   95.818  161.131
  903.750    3.996    0.415    0.216   96.014  160.532
  904.000    4.179    0.405    0.207   96.027  159.831
  904.250    4.326    0.399    0.205   96.348  158.515
  904.500    4.374    0.394    0.215   97.164  158.538
  904.750    4.280    0.397    0.218   97.854  159.380
  905.000    3.955    0.405    0.211   97.311  160.845
  905.250    3.586    0.419    0.217   96.954  161.789
  905.500    3.308    0.430    0.201   97.213  162.531
  905.750    3.276    0.428    0.176   98.830  162.863
  906.000    3.504    0.424    0.172   98.164  162.984
  906.250    3.721    0.425    0.185   97.497  162.903
  906.500    3.913    0.430    0.194   97.818  162.615
  906.750    3.969    0.435    0.202   99.436  162.226
  907.000    4.004    0.428    0.205  101.362  161.934
  907.250    3.973    0.420    0.205  103.042  161.546
