~VERSION INFORMATION
 VERS.                 2.0:   CWLS LOG ASCII STANDARD -VERSION 2.0
 WRAP.                  NO:   ONE LINE PER DEPTH STEP
~WELL INFORMATION BLOCK
#MNEM.UNIT           DATA                    DESCRIPTION OF MNEMONIC
#---------    -------------------            -------------------------------
# Generated from Intellog Unique Number	CS_73_76/WELL/855
WELL.         MAYNARD ENERGY                 : Well_name    - WELL
LOC .         00/13-22-073-13W4/0            : Location     - LOCATION
UWI .         00/13-22-073-13W4/0            : Uwi          - UNIQUE WELL ID
ENTR.         SP                             : Entered      - ENTERED BY
SRVC.         SCHLUMBERGER                   : Scn          - SERVICE COMPANY
STRT.M        320                            : top_depth    - START DEPTH
STOP.M        531                            : bot_depth    - STOP DEPTH
STEP.M        0.25                           : increment    - STEP LENGTH
 NULL. -999.2500:NULL Value
~CURVE INFORMATION BLOCK
#MNEM UNIT       ERCB CURVE CODE    CURVE DESCRIPTION
#-----------   ------------------   ----------------------------------
DEPT.M        00 001 00 00         : DEPTH        - DEPTH
ILD .OHMM     00 120 00 00         : RESD         - DEEP RESISTIVITY (DIL)
DPHI.V/V      00 890 00 00         : PHID         - DENSITY POROSITY (LIMESTONE)
NPHI.V/V      00 330 00 00         : PHIN         - NEUTRON POROSITY (LIMESTONE)
GR  .API      00 310 00 00         : GR           - GAMMA RAY
~PARAMETER INFORMATION
#MNEM.UNIT           DATA             DESCRIPTION OF MNEMONIC
#---------         -----------     ------------------------------
GL  .M        674.31               : gl           - GROUND LEVEL ELEVATION
EREF.M        677.76               : kb           - ELEVATION OF DEPTH REFERENCE
DATM.M        674.31               : datum        - DATUM ELEVATION
TDD .M        541                  : tdd          - TOTAL DEPTH DRILLER
RUN .         ONE                  : Run          - RUN NUMBER
ENG .         BILL                 : Engineer     - RECORDING ENGINEER
WIT .         JIM                  : Witness      - WITNESSED BY
MUD .         GEL                  : Mud_type     - MUD TYPE
MATR.         LIMESTONE            : Logunit      - NEUTRON MATRIX
TMAX.C        22                   : BHT          - MAXIMUM RECORDED TEMPERATURE
BHTD.M        541                  : BHTDEP       - MAXIMUM RECORDED TEMPERATURE
MATR.         1                    : LOGUNIT      - NEUTRON MATRIX
RMT .C        25                   : MDTP         - TEMPERATURE OF MUD
NEUT.         1                    : NEUTRON      - NEUTRON TYPE
RESI.         0                    : RESIST       - RESISTIVITY TYPE
RMC .OHMM     0.25                 : RMC          - RESISTIVITY OF MUD CAKE
RMF .OHMM     0.25                 : RMF          - RESISTIVITY OF MUD FILTRATE
SUFT.C        15                   : SUFT         - SURFACE TEMPERATURE
~A  DEPTH     RESD     PHID     PHIN       GR
# ...
  407.000    7.499    0.355    0.409   68.661
  407.250    7.584    0.344    0.408   71.093
  407.500    7.588    0.327    0.408   75.348
  407.750    7.672    0.317    0.409   77.780
  408.000    7.839    0.307    0.409   77.176
  408.250    8.007    0.327    0.403   75.359
  408.500    8.091    0.311    0.400   72.327
  408.750    8.174    0.317    0.396   70.507
  409.000    8.341    0.310    0.395   68.689
  409.250    8.508    0.302    0.395   68.692
  409.500    8.431    0.299    0.390   69.911
  409.750    8.351    0.302    0.389   70.521
  410.000    8.031    0.310    0.385   72.347
  410.250    7.628    0.311    0.387   76.603
  410.500    7.143    0.300    0.397   79.036
  410.750    6.415    0.284    0.402   82.075
  411.000    5.768    0.265    0.412   86.330
  411.250    4.877    0.254    0.421   91.191
  411.500    4.150    0.274    0.437   96.053
  411.750    3.910    0.288    0.448  100.914
  412.000    3.912    0.282    0.454   97.883
  412.250    4.323    0.236    0.451   94.850
  412.500    4.651    0.221    0.440   92.424
  412.750    5.143    0.202    0.434   91.212
  413.000    5.715    0.234    0.429   90.609
  413.250    6.125    0.244    0.421   89.398
  413.500    6.535    0.250    0.420   86.366
  413.750    6.864    0.250    0.423   85.155
  414.000    7.030    0.245    0.425   84.550
  414.250    7.034    0.272    0.425   85.770
  414.500    6.957    0.288    0.425   86.380
  414.750    6.878    0.295    0.419   87.597
  415.000    6.639    0.301    0.415   87.601
  415.250    6.561    0.294    0.418   85.782
  415.500    6.482    0.294    0.418   86.394
  415.750    6.486    0.257    0.413   87.004
  416.000    6.571    0.254    0.408   87.615
  416.250    6.981    0.255    0.392   90.048
  416.500    7.473    0.262    0.342   86.409
  416.750    8.208    0.244    0.255   84.589
  417.000    9.512    0.172    0.172   79.128
  417.250   22.041    0.110    0.148   74.273
  417.500   35.918    0.024    0.137   70.633
  417.750   51.429    0.000    0.125   67.600
  418.000   92.245    0.000    0.119   65.174
  418.250   80.000    0.000    0.113   62.749
  418.500   52.245    0.000    0.110   60.323
  418.750   27.755    0.000    0.137   57.897
  419.000   20.027    0.003    0.168   63.368
  419.250   10.926    0.041    0.227   70.052
  419.500    9.222    0.189    0.307   73.698
  419.750    8.169    0.252    0.342   79.775
  420.000    7.603    0.304    0.381   83.422
  420.250    7.282    0.330    0.414   87.069
  420.500    6.879    0.345    0.410   85.251
  420.750    6.558    0.337    0.406   85.254
  421.000    6.398    0.324    0.406   85.866
  421.250    6.159    0.312    0.411   85.262
  421.500    6.080    0.278    0.417   86.480
  421.750    6.002    0.264    0.422   90.127
  422.000    5.924    0.255    0.425   92.560
  422.250    5.929    0.247    0.421   94.385
  422.500    6.095    0.246    0.420   91.960
  422.750    6.262    0.244    0.414   89.534
  423.000    6.345    0.250    0.411   87.109
  423.250    6.511    0.255    0.408   88.935
  423.500    6.840    0.262    0.408   90.153
  423.750    7.007    0.264    0.406   91.370
  424.000    6.848    0.259    0.406   94.411
  424.250    6.688    0.251    0.408   96.236
  424.500    6.449    0.244    0.412   96.847
  424.750    6.370    0.242    0.414   97.458
  425.000    6.537    0.258    0.410   95.640
  425.250    6.702    0.250    0.409   95.035
  425.500    6.871    0.252    0.409   97.470
  425.750    6.872    0.242    0.416   98.687
  426.000    6.958    0.246    0.418   98.084
  426.250    6.961    0.250    0.420   98.087
  426.500    6.884    0.263    0.418   98.092
  426.750    6.725    0.268    0.416   98.095
  427.000    6.727    0.271    0.416   97.490
  427.250    6.568    0.263    0.415   93.851
  427.500    6.409    0.248    0.416   92.032
  427.750    6.333    0.242    0.416   90.213
  428.000    6.336    0.241    0.418   90.217
  428.250    6.257    0.256    0.418   91.437
  428.500    6.262    0.252    0.417   92.047
  428.750    6.348    0.259    0.416   93.265
  429.000    6.350    0.271    0.416   94.482
  429.250    6.435    0.281    0.419   94.487
  429.500    6.600    0.297    0.423   92.669
  429.750    7.092    0.265    0.415   92.671
  430.000    7.502    0.241    0.390   90.246
  430.250    7.749    0.208    0.342   84.176
  430.500    7.915    0.170    0.336   79.321
  430.750    7.919    0.155    0.342   80.540
  431.000    7.516    0.158    0.359   86.617
  431.250    7.113    0.212    0.382   91.479
  431.500    6.630    0.246    0.399   95.126
  431.750    6.389    0.247    0.412   93.916
  432.000    6.313    0.244    0.421   92.705
  432.250    6.397    0.255    0.424   92.101
  432.500    6.400    0.240    0.428   91.496
  432.750    6.565    0.220    0.429   92.107
  433.000    6.733    0.203    0.428   92.718
  433.250    6.817    0.199    0.425   93.329
  433.500    6.902    0.224    0.422   92.119
  433.750    6.988    0.255    0.413   91.514
  434.000    7.072    0.267    0.411   90.303
  434.250    7.075    0.271    0.407   88.485
  434.500    7.078    0.281    0.408   87.275
  434.750    7.164    0.275    0.412   86.670
  435.000    7.085    0.283    0.413   86.067
  435.250    7.009    0.284    0.417   87.285
  435.500    6.848    0.276    0.419   89.111
  435.750    6.609    0.266    0.418   90.936
  436.000    6.530    0.266    0.418   92.154
  436.250    6.210    0.270    0.418   90.336
  436.500    5.970    0.267    0.419   88.519
  436.750    5.728    0.280    0.422   88.521
  437.000    5.163    0.286    0.424   88.524
  437.250    4.272    0.278    0.429   90.351
  437.500    3.543    0.269    0.435   92.175
  437.750    2.978    0.266    0.446   96.431
  438.000    2.575    0.266    0.464  100.079
  438.250    2.416    0.269    0.481  102.510
  438.500    2.339    0.260    0.494  105.550
  438.750    2.423    0.253    0.483  107.375
  439.000    2.834    0.251    0.468  106.773
  439.250    3.244    0.259    0.449  105.561
  439.500    3.735    0.264    0.441  103.137
  439.750    4.226    0.259    0.434  101.925
  440.000    4.555    0.256    0.432  100.106
  440.250    4.884    0.248    0.434   97.074
  440.500    5.131    0.253    0.434   95.863
  440.750    5.379    0.261    0.432   94.651
  441.000    5.465    0.279    0.435   93.441
  441.250    5.468    0.282    0.437   92.230
  441.500    5.471    0.274    0.444   92.234
  441.750    5.475    0.261    0.448   93.451
  442.000    5.478    0.251    0.451   94.670
  442.250    5.481    0.243    0.444   94.673
  442.500    5.566    0.240    0.431   94.678
  442.750    5.651    0.254    0.420   94.680
  443.000    5.818    0.268    0.410   92.254
  443.250    5.903    0.278    0.404   91.043
  443.500    6.069    0.282    0.398   91.047
  443.750    6.153    0.273    0.391   91.052
  444.000    6.238    0.267    0.387   90.448
  444.250    6.242    0.269    0.382   88.630
  444.500    6.245    0.283    0.381   86.204
  444.750    6.005    0.291    0.379   83.778
  445.000    5.848    0.289    0.386   81.352
  445.250    5.769    0.285    0.396   78.319
  445.500    5.691    0.268    0.410   75.894
  445.750    5.777    0.266    0.418   75.897
  446.000    5.942    0.272    0.425   78.331
  446.250    5.944    0.290    0.424   79.548
  446.500    6.111    0.314    0.419   80.158
  446.750    6.278    0.320    0.410   78.948
  447.000    6.443    0.313    0.408   78.344
  447.250    6.691    0.312    0.404   79.563
  447.500    6.857    0.300    0.397   80.173
  447.750    6.941    0.278    0.381   77.748
  448.000    6.540    0.237    0.368   78.359
  448.250    6.217    0.177    0.352   80.184
  448.500    6.221    0.183    0.349   78.973
  448.750    6.712    0.200    0.359   80.191
  449.000    6.634    0.232    0.399   86.268
  449.250    5.743    0.236    0.432   91.130
  449.500    5.341    0.218    0.449   94.777
  449.750    5.508    0.221    0.436   97.211
  450.000    5.756    0.218    0.428   97.820
  450.250    5.922    0.255    0.417   95.396
