~VERSION INFORMATION
 VERS.                 2.0:   CWLS LOG ASCII STANDARD -VERSION 2.0
 WRAP.                  NO:   ONE LINE PER DEPTH STEP
~WELL INFORMATION BLOCK
#MNEM.UNIT           DATA                    DESCRIPTION OF MNEMONIC
#---------    -------------------            -------------------------------
# Generated from Intellog Unique Number	CW_82_90/WELL/3440
WELL.         TEXACO CORN LAKE               : Well_name    - WELL
LOC .         00/10-21-088-25W4/0            : Location     - LOCATION
UWI .         00/10-21-088-25W4/0            : Uwi          - UNIQUE WELL ID
ENTR.         MAX                            : Entered      - ENTERED BY
SRVC.         SCHLUMBERGER                   : Scn          - SERVICE COMPANY
STRT.M        260                            : top_depth    - START DEPTH
STOP.M        462                            : bot_depth    - STOP DEPTH
STEP.M        0.25                           : increment    - STEP LENGTH
 NULL. -999.2500:NULL Value
~CURVE INFORMATION BLOCK
#MNEM UNIT       ERCB CURVE CODE    CURVE DESCRIPTION
#-----------   ------------------   ----------------------------------
DEPT.M        00 001 00 00         : DEPTH        - DEPTH
ILD .OHMM     00 120 00 00         : RESD         - DEEP RESISTIVITY (DIL)
NPHI.V/V      00 330 00 00         : PHIN         - NEUTRON POROSITY (SANDSTONE)
DPHI.V/V      00 890 00 00         : PHID         - DENSITY POROSITY (SANDSTONE)
CALI.MM       00 280 01 00         : CAL          - CALIPER
GR  .API      00 310 00 00         : GR           - GAMMA RAY
~PARAMETER INFORMATION
#MNEM.UNIT           DATA             DESCRIPTION OF MNEMONIC
#---------         -----------     ------------------------------
GL  .M        659.7                : gl           - GROUND LEVEL ELEVATION
EREF.M        663                  : kb           - ELEVATION OF DEPTH REFERENCE
DATM.M        659.7                : datum        - DATUM ELEVATION
TDD .M        465.5                : tdd          - TOTAL DEPTH DRILLER
RUN .         ONE                  : Run          - RUN NUMBER
ENG .         BILL                 : Engineer     - RECORDING ENGINEER
WIT .         JIM                  : Witness      - WITNESSED BY
MUD .         GEL                  : Mud_type     - MUD TYPE
MATR.         SANDSTONE            : Logunit      - NEUTRON MATRIX
TMAX.C        33.4                 : BHT          - MAXIMUM RECORDED TEMPERATURE
BHTD.M        465.5                : BHTDEP       - MAXIMUM RECORDED TEMPERATURE
MATR.         1                    : LOGUNIT      - NEUTRON MATRIX
RMT .C        15.6                 : MDTP         - TEMPERATURE OF MUD
NEUT.         1                    : NEUTRON      - NEUTRON TYPE
RESI.         0                    : RESIST       - RESISTIVITY TYPE
RMC .OHMM     2.17                 : RMC          - RESISTIVITY OF MUD CAKE
RMF .OHMM     2.17                 : RMF          - RESISTIVITY OF MUD FILTRATE
SUFT.C        -5                   : SUFT         - SURFACE TEMPERATURE
~A  DEPTH     RESD     PHIN     PHID      CAL       GR
# ...
  333.000    4.297    0.481    0.262  228.405  106.969
  333.250    3.505    0.482    0.265  235.863  112.336
  333.500    3.196    0.505    0.271  243.325  117.406
  333.750    3.109    0.579    0.272  232.433  119.798
  334.000    3.228    0.606    0.277  228.981  120.406
  334.250    3.447    0.585    0.293  230.984  119.821
  334.500    3.353    0.561    0.302  236.954  116.861
  334.750    3.294    0.548    0.307  236.973  116.573
  335.000    3.484    0.551    0.308  231.042  114.501
  335.250    4.006    0.570    0.309  225.607  109.752
  335.500    4.649    0.577    0.322  230.585  102.624
  335.750    5.867    0.595    0.314  233.084   95.793
  336.000    6.381    0.612    0.314  257.402   90.747
  336.250    6.324    0.617    0.202  238.577   89.272
  336.500    5.874    0.552    0.147  225.704   91.067
  336.750    5.307    0.488    0.178  224.243   94.352
  337.000    5.115    0.427    0.246  224.258   97.933
  337.250    5.262    0.456    0.260  224.279  101.813
  337.500    5.885    0.483    0.286  224.299  105.100
  337.750    6.461    0.466    0.289  223.825  103.325
  338.000    6.770    0.460    0.264  226.814  101.852
  338.250    6.900    0.467    0.254  230.307  102.753
  338.500    7.164    0.466    0.270  223.382  101.277
  338.750    7.301    0.447    0.279  221.418  101.289
  339.000    7.441    0.438    0.255  219.950  100.409
  339.250    7.445    0.440    0.247  219.972   98.637
  339.500    7.382    0.447    0.261  219.991   98.051
  339.750    7.452    0.446    0.264  220.013   97.767
  340.000    7.117    0.443    0.259  218.049   98.375
  340.250    6.860    0.441    0.254  215.592   99.276
  340.500    6.432    0.452    0.256  215.117  101.373
  340.750    5.919    0.479    0.267  215.130  102.276
  341.000    5.297    0.493    0.291  219.118  102.287
  341.250    4.697    0.484    0.312  222.113  105.869
  341.500    4.204    0.489    0.304  228.576  111.535
  341.750    4.128    0.514    0.331  239.008  112.439
  342.000    4.208    0.540    0.351  236.550  112.153
  342.250    4.249    0.569    0.324  235.085  110.082
  342.500    4.134    0.580    0.302  235.106  105.630
  342.750    3.876    0.554    0.298  231.154  105.046
  343.000    3.374    0.540    0.300  221.257  107.142
  343.250    3.019    0.527    0.288  221.774  106.261
  343.500    2.652    0.552    0.278  222.790  106.273
  343.750    2.464    0.586    0.255  223.796  108.367
  344.000    2.353    0.626    0.201  233.730  112.246
  344.250    2.268    0.653    0.343  241.190  117.911
  344.500    2.312    0.675    0.371  246.661  120.601
  344.750    2.400    0.666    0.382  243.708  120.909
  345.000    2.539    0.642    0.349  233.810  120.623
  345.250    2.787    0.643    0.320  234.826  118.552
  345.500    3.031    0.628    0.312  233.353  114.699
  345.750    3.328    0.596    0.330  230.397  112.331
  346.000    4.008    0.574    0.325  228.436  109.962
  346.250    4.319    0.550    0.302  226.965  106.404
  346.500    4.875    0.529    0.276  225.499  101.654
  346.750    5.205    0.516    0.262  224.527   98.393
  347.000    5.112    0.522    0.247  223.555   99.001
  347.250    4.748    0.504    0.258  224.568  100.797
  347.500    4.410    0.513    0.252  229.541  105.272
  347.750    4.212    0.599    0.266  235.018  108.855
  348.000    4.023    0.545    0.313  236.527  106.782
  348.250    3.806    0.518    0.310  229.602  108.875
  348.500    3.669    0.504    0.293  228.630  113.053
  348.750    3.570    0.531    0.265  227.657  115.744
  349.000    3.539    0.539    0.268  227.183  117.539
  349.250    3.443    0.545    0.271  227.200  119.336
  349.500    3.381    0.565    0.287  229.701  120.538
  349.750    3.383    0.581    0.298  231.208  121.443
  350.000    3.448    0.597    0.295  234.696  122.347
  350.250    3.547    0.574    0.287  242.651  123.253
  350.500    3.717    0.560    0.282  240.690  123.559
  350.750    3.968    0.585    0.275  232.773  122.083
  351.000    4.276    0.601    0.273  227.837  117.336
  351.250    4.651    0.578    0.274  232.814  113.184
  351.500    4.965    0.555    0.281  227.873  108.733
  351.750    5.108    0.518    0.272  228.388  105.173
  352.000    5.157    0.510    0.282  238.324  102.808
  352.250    5.065    0.497    0.289  233.881  102.520
  352.500    4.882    0.512    0.299  228.942  104.912
  352.750    4.493    0.536    0.315  226.978  109.682
  353.000    3.947    0.572    0.327  229.477  114.752
  353.250    3.436    0.598    0.337  227.019  118.632
  353.500    3.251    0.582    0.308  234.972  119.239
  353.750    3.134    0.580    0.282  241.440  121.631
  354.000    3.135    0.599    0.267  237.991  124.915
  354.250    3.225    0.618    0.267  237.016  127.011
  354.500    3.541    0.636    0.266  236.540  126.128
  354.750    4.187    0.648    0.286  235.071  119.000
  355.000    4.596    0.603    0.296  230.628  109.788
  355.250    4.999    0.496    0.303  225.191  104.147
  355.500    5.288    0.498    0.285  221.742  101.779
  355.750    5.339    0.508    0.260  223.742   97.328
  356.000    5.052    0.505    0.265  225.747   94.961
  356.250    4.649    0.508    0.257  223.783   96.758
  356.500    4.046    0.558    0.236  221.817  101.232
  356.750    3.331    0.595    0.231  221.841  105.110
  357.000    3.009    0.624    0.262  233.262  109.288
  357.250    3.011    0.629    0.248  231.298  113.465
  357.500    3.097    0.623    0.239  232.808  117.344
  357.750    3.157    0.624    0.259  228.362  118.843
  358.000    3.129    0.591    0.280  230.861  120.640
  358.250    3.160    0.554    0.257  230.387  123.032
  358.500    3.190    0.587    0.233  227.924  127.803
  358.750    3.375    0.606    0.234  224.478  132.278
  359.000    3.536    0.611    0.262  226.971  134.968
  359.250    3.882    0.595    0.254  228.979  129.625
  359.500    4.720    0.573    0.249  228.503  125.471
  359.750    5.229    0.561    0.268  226.043  121.319
  360.000    5.429    0.533    0.279  220.605  118.058
  360.250    5.585    0.510    0.283  217.652  112.118
  360.500    5.800    0.484    0.284  220.644  103.502
  360.750    5.856    0.477    0.282  221.162  100.538
  361.000    5.805    0.468    0.298  220.685   99.360
  361.250    5.807    0.473    0.311  220.702   97.887
  361.500    5.864    0.486    0.306  220.230   97.302
  361.750    5.921    0.490    0.292  219.749   97.018
  362.000    5.924    0.494    0.278  219.773   96.431
  362.250    5.926    0.483    0.260  219.788   95.848
  362.500    5.874    0.482    0.257  220.308   96.157
  362.750    5.822    0.498    0.309  220.821   98.254
  363.000    5.408    0.505    0.331  220.843  100.645
  363.250    4.796    0.496    0.330  220.860  107.796
  363.500    3.467    0.500    0.306  220.386  118.518
  363.750    3.103    0.522    0.234  219.413  123.290
  364.000    2.991    0.539    0.198  222.904  125.682
  364.250    3.049    0.577    0.243  223.416  127.181
  364.500    3.224    0.623    0.266  224.427  127.788
  364.750    3.475    0.620    0.252  225.438  126.312
  365.000    3.779    0.595    0.254  230.915  122.160
  365.250    4.187    0.572    0.292  234.410  120.984
  365.500    4.815    0.551    0.275  233.928  118.912
  365.750    5.093    0.535    0.269  230.973  116.244
  366.000    5.191    0.488    0.271  231.984  115.365
  366.250    5.004    0.473    0.298  232.499  113.591
  366.500    4.520    0.452    0.299  232.518  112.114
  366.750    4.121    0.504    0.272  232.540  115.995
  367.000    3.828    0.553    0.270  231.565  118.683
  367.250    3.830    0.599    0.294  234.064  118.993
  367.500    4.014    0.619    0.296  235.075  118.112
  367.750    4.206    0.631    0.287  233.609  116.636
  368.000    4.491    0.621    0.295  236.609  113.076
  368.250    4.662    0.607    0.305  236.127   99.403
  368.500    4.978    0.585    0.307  233.172   90.191
  368.750    5.265    0.548    0.277  222.781   88.419
  369.000    5.416    0.513    0.234  222.304   91.702
  369.250    5.469    0.499    0.299  222.324   92.013
