~VERSION INFORMATION
 VERS.                 2.0:   CWLS LOG ASCII STANDARD -VERSION 2.0
 WRAP.                  NO:   ONE LINE PER DEPTH STEP
~WELL INFORMATION BLOCK
#MNEM.UNIT           DATA                    DESCRIPTION OF MNEMONIC
#---------    -------------------            -------------------------------
# Generated from Intellog Unique Number	CW_73_75/WELL/1052
WELL.         MANNVILLE ER AL FRANCIS 15-08  : Well_name    - WELL
LOC .         00/15-08-074-22W4/0            : Location     - LOCATION
UWI .         00/15-08-074-22W4/0            : Uwi          - UNIQUE WELL ID
ENTR.         JAYE                           : Entered      - ENTERED BY
SRVC.         SCHLUMBERGER                   : Scn          - SERVICE COMPANY
DATE.         4 DEC 81                       : Date         - LOG DATE
STRT.M        365                            : top_depth    - START DEPTH
STOP.M        587                            : bot_depth    - STOP DEPTH
STEP.M        0.25                           : increment    - STEP LENGTH
 NULL. -999.2500:NULL Value
~CURVE INFORMATION BLOCK
#MNEM UNIT       ERCB CURVE CODE    CURVE DESCRIPTION
#-----------   ------------------   ----------------------------------
DEPT.M        00 001 00 00         : DEPTH        - DEPTH
CALI.MM       00 280 01 00         : CAL          - CALIPER
GR  .API      00 310 00 00         : GR           - GAMMA RAY
NPHI.V/V      00 330 00 00         : PHIN         - NEUTRON POROSITY (SANDSTONE)
DPHI.V/V      00 890 00 00         : PHID         - DENSITY POROSITY (SANDSTONE)
ILD .OHMM     00 120 00 00         : RESD         - DEEP RESISTIVITY (DIL)
~PARAMETER INFORMATION
#MNEM.UNIT           DATA             DESCRIPTION OF MNEMONIC
#---------         -----------     ------------------------------
GL  .M        655.1                : gl           - GROUND LEVEL ELEVATION
EREF.M        658                  : kb           - ELEVATION OF DEPTH REFERENCE
DATM.M        655.1                : datum        - DATUM ELEVATION
TDD .M        588                  : tdd          - TOTAL DEPTH DRILLER
RUN .         ONE                  : Run          - RUN NUMBER
ENG .         WRIGHT               : Engineer     - RECORDING ENGINEER
WIT .         SAMOTA               : Witness      - WITNESSED BY
BASE.         WAUN                 : Branch       - HOME BASE OF LOGGING UNIT
MUD .         GEL CHEM             : Mud_type     - MUD TYPE
MATR.         SANDSTONE            : Logunit      - NEUTRON MATRIX
TMAX.C        25.5                 : BHT          - MAXIMUM RECORDED TEMPERATURE
BHTD.M        588.5                : BHTDEP       - MAXIMUM RECORDED TEMPERATURE
RMT .C        15.5                 : MDTP         - TEMPERATURE OF MUD
MUDD.KG/M     1100                 : MWT          - MUD DENSITY
NEUT.         1                    : NEUTRON      - NEUTRON TYPE
RESI.         0                    : RESIST       - RESISTIVITY TYPE
RM  .OHMM     4.098                : RM           - RESISTIVITY OF MUD
RMC .OHMM     0                    : RMC          - RESISTIVITY OF MUD CAKE
RMF .OHMM     3.54                 : RMF          - RESISTIVITY OF MUD FILTRATE
SUFT.C        0                    : SUFT         - SURFACE TEMPERATURE
~A  DEPTH      CAL       GR     PHIN     PHID     RESD
# ...
  474.500  150.065   78.009    0.476    0.311    4.280
  474.750  150.440   78.851    0.487    0.318    4.304
  475.000  150.814   80.192    0.433    0.322    4.232
  475.250  151.088   83.943    0.420    0.321    4.177
  475.500  151.259   85.343    0.409    0.325    4.115
  475.750  151.321   76.043    0.417    0.338    4.100
  476.000  151.588   71.814    0.441    0.348    4.092
  476.250  151.659   74.637    0.450    0.344    4.069
  476.500  152.135   75.726    0.455    0.329    3.994
  476.750  152.301   76.572    0.466    0.329    3.957
  477.000  152.059   78.653    0.475    0.334    3.905
  477.250  151.513   78.258    0.481    0.337    3.905
  477.500  151.372   77.060    0.478    0.330    3.884
  477.750  151.330   72.771    0.450    0.317    3.884
  478.000  151.397   66.934    0.427    0.304    3.884
  478.250  151.248   63.880    0.445    0.315    3.884
  478.500  151.006   64.166    0.443    0.324    3.869
  478.750  150.867   66.742    0.436    0.334    3.884
  479.000  150.527   68.636    0.451    0.343    3.884
  479.250  150.381   69.976    0.452    0.351    3.898
  479.500  150.759   72.859    0.435    0.349    3.928
  479.750  151.339   73.148    0.429    0.349    3.935
  480.000  151.925   71.269    0.435    0.348    3.957
  480.250  152.812   70.133    0.438    0.330    4.017
  480.500  153.497   69.802    0.446    0.303    4.257
  480.750  154.285   65.326    0.427    0.261    4.746
  481.000  154.355   64.314    0.336    0.200    5.039
  481.250  153.797   68.745    0.309    0.258    4.909
  481.500  153.135   70.701    0.347    0.310    4.495
  481.750  152.797   70.927    0.408    0.334    4.179
  482.000  152.349   70.409    0.432    0.334    3.958
  482.250  151.787   70.201    0.429    0.334    3.827
  482.500  151.242   70.489    0.430    0.341    3.834
  482.750  150.686   67.249    0.431    0.346    3.988
  483.000  150.237   61.907    0.441    0.340    4.210
  483.250  150.203   58.607    0.461    0.282    5.002
  483.500  151.192   59.264    0.342    0.233    6.800
  483.750  153.322   62.580    0.258    0.099    8.740
  484.000  156.998   67.075    0.232    0.048   10.153
  484.250  158.095   73.734    0.253    0.094   10.248
  484.500  158.055   79.340    0.283    0.127    8.889
  484.750  157.500   82.349    0.333    0.193    7.357
  485.000  157.152   82.448    0.382    0.236    6.526
  485.250  156.700   81.314    0.420    0.267    6.135
  485.500  156.460   81.353    0.430    0.270    5.888
  485.750  156.010   93.269    0.430    0.257    5.790
  486.000  155.461   96.463    0.432    0.247    5.725
  486.250  154.491   93.781    0.423    0.241    5.651
  486.500  154.561   88.253    0.419    0.250    5.619
  486.750  155.241   88.602    0.419    0.249    5.609
  487.000  155.618   90.064    0.419    0.232    5.630
  487.250  156.203   96.908    0.426    0.222    5.651
  487.500  156.887   97.504    0.431    0.219    5.651
  487.750  157.157   97.293    0.431    0.218    5.715
  488.000  157.121   98.882    0.435    0.218    5.801
  488.250  156.978   98.488    0.450    0.218    5.867
  488.500  156.838   96.733    0.448    0.210    5.933
  488.750  156.904   92.813    0.422    0.198    5.978
  489.000  157.382   91.306    0.401    0.205    6.080
  489.250  158.169   89.860    0.399    0.216    6.046
  489.500  159.058   90.148    0.410    0.224    6.080
  489.750  159.537   94.024    0.432    0.221    6.035
  490.000  159.710  100.991    0.453    0.212    5.923
  490.250  159.876  100.659    0.462    0.202    5.923
  490.500  160.042   99.276    0.459    0.189    5.857
  490.750  160.009  101.477    0.429    0.197    5.868
  491.000  160.074  101.456    0.420    0.205    5.923
  491.250  160.141  100.693    0.433    0.198    5.923
  491.500  160.407  100.361    0.448    0.183    5.968
  491.750  160.679  102.503    0.449    0.181    5.979
  492.000  160.647  103.905    0.446    0.191    5.890
  492.250  160.398  105.488    0.443    0.184    5.803
  492.500  159.747  102.994    0.441    0.173    5.749
  492.750  159.401   99.198    0.442    0.183    5.569
  493.000  157.919  100.038    0.440    0.214    5.425
  493.250  155.717  101.874    0.432    0.232    5.445
  493.500  154.237  100.738    0.433    0.226    5.642
  493.750  152.963   95.521    0.438    0.221    5.880
  494.000  151.787   93.395    0.431    0.210    6.127
  494.250  152.575   85.022    0.435    0.185    6.457
  494.500  153.881   76.834    0.391    0.095    6.779
  494.750  155.281   79.162    0.340    0.132    6.818
  495.000  156.277   89.409    0.363    0.201    6.421
  495.250  156.861   96.067    0.386    0.209    6.003
  495.500  157.547   96.106    0.399    0.205    5.837
  495.750  158.124   94.290    0.406    0.202    5.782
  496.000  158.397   97.730    0.417    0.202    5.815
  496.250  158.260  101.791    0.431    0.205    5.859
  496.500  158.322  104.674    0.431    0.208    5.892
  496.750  158.596  105.086    0.418    0.206    5.859
  497.000  158.457  103.703    0.408    0.194    5.837
  497.250  157.280  100.712    0.415    0.174    5.804
  497.500  156.110   97.719    0.439    0.190    5.772
  497.750  154.632   94.791    0.441    0.207    5.761
  498.000  153.458   92.912    0.443    0.221    5.783
  498.250  153.732   96.350    0.438    0.219    5.870
  498.500  154.724  100.537    0.427    0.209    5.926
  498.750  155.511  100.577    0.422    0.201    5.926
  499.000  156.194  103.522    0.422    0.195    5.926
  499.250  156.673  105.233    0.423    0.190    5.849
  499.500  157.257  104.344    0.426    0.190    5.762
  499.750  156.905  100.362    0.425    0.200    5.698
  500.000  156.253   97.496    0.422    0.210    5.623
  500.250  155.698   95.182    0.410    0.215    5.613
  500.500  155.659   96.336    0.404    0.222    5.613
  500.750  155.933   99.532    0.415    0.225    5.592
  501.000  157.546  102.539    0.421    0.219    5.540
  501.250  158.440  102.704    0.421    0.211    5.499
  501.500  159.017  103.793    0.422    0.201    5.458
  501.750  159.186  104.452    0.428    0.200    5.438
  502.000  159.045  104.861    0.428    0.199    5.468
  502.250  158.288  100.634    0.424    0.200    5.530
  502.500  157.734   95.478    0.424    0.202    5.635
  502.750  157.486  103.001    0.430    0.197    5.839
  503.000  157.039  115.845    0.429    0.197    6.153
  503.250  156.387  104.194    0.427    0.215    6.924
  503.500  155.316   86.975    0.444    0.229    7.953
  503.750  154.044   74.829    0.456    0.230    9.396
  504.000  153.282   79.508    0.440    0.247   10.146
  504.250  152.527   79.980    0.423    0.254   10.752
  504.500  151.972   80.575    0.423    0.255   11.395
  504.750  152.449   78.819    0.441    0.243   12.190
  505.000  155.197   74.964    0.431    0.188   13.064
  505.250  157.119   71.353    0.385    0.154   14.081
  505.500  158.416   70.032    0.302    0.141   15.667
  505.750  158.998   68.585    0.327    0.152   18.717
  506.000  159.070   64.050    0.358    0.144   20.211
  506.250  159.239   57.594    0.294   -0.004   20.671
  506.500  159.199   58.561    0.146   -0.002   19.615
  506.750  158.439   67.385    0.172    0.032   14.729
  507.000  156.650   73.053    0.250    0.081   11.504
  507.250  154.240   76.925    0.327    0.125    9.310
  507.500  151.626   81.420    0.372    0.167    7.691
  507.750  150.560   83.127    0.383    0.200    6.634
  508.000  150.317   83.232    0.358    0.191    5.929
  508.250  150.788   85.620    0.376    0.185    5.690
  508.500  152.198   89.744    0.404    0.194    5.658
  508.750  153.911  102.834    0.420    0.186    5.690
  509.000  155.732  104.667    0.424    0.175    5.798
  509.250  157.551  100.686    0.431    0.183    5.985
  509.500  158.133  100.664    0.437    0.190    6.167
  509.750  159.538  101.074    0.431    0.190    6.284
  510.000  160.117   99.939    0.422    0.187    6.308
  510.250  160.489  103.010    0.418    0.188    6.296
  510.500  160.458  100.698    0.425    0.184    6.355
  510.750  160.112   98.758    0.435    0.178    6.427
