~VERSION INFORMATION
 VERS.                 2.0:   CWLS LOG ASCII STANDARD -VERSION 2.0
 WRAP.                  NO:   ONE LINE PER DEPTH STEP
~WELL INFORMATION BLOCK
#MNEM.UNIT           DATA                    DESCRIPTION OF MNEMONIC
#---------    -------------------            -------------------------------
# Generated from Intellog Unique Number	CW_76_78/WELL/2779
WELL.         ASHLAND ET AL PELICAN          : Well_name    - WELL
LOC .         00/10-28-077-20W4/0            : Location     - LOCATION
UWI .         00/10-28-077-20W4/0            : Uwi          - UNIQUE WELL ID
ENTR.         JOE                            : Entered      - ENTERED BY
SRVC.         SCHLUMBERGER                   : Scn          - SERVICE COMPANY
STRT.M        228.6                          : top_depth    - START DEPTH
STOP.M        466.35                         : bot_depth    - STOP DEPTH
STEP.M        0.25                           : increment    - STEP LENGTH
 NULL. -999.2500:NULL Value
~CURVE INFORMATION BLOCK
#MNEM UNIT       ERCB CURVE CODE    CURVE DESCRIPTION
#-----------   ------------------   ----------------------------------
DEPT.M        00 001 00 00         : DEPTH        - DEPTH
ILD .OHMM     00 120 00 00         : RESD         - DEEP RESISTIVITY (DIL)
DPHI.V/V      00 890 00 00         : PHID         - DENSITY POROSITY (SANDSTONE)
NPHI.V/V      00 330 00 00         : PHIN         - NEUTRON POROSITY (SANDSTONE)
GR  .API      00 310 00 00         : GR           - GAMMA RAY
CALI.MM       00 280 01 00         : CAL          - CALIPER
~PARAMETER INFORMATION
#MNEM.UNIT           DATA             DESCRIPTION OF MNEMONIC
#---------         -----------     ------------------------------
GL  .M        571.195              : gl           - GROUND LEVEL ELEVATION
EREF.M        574.853              : kb           - ELEVATION OF DEPTH REFERENCE
DATM.M        574.853              : datum        - DATUM ELEVATION
TDD .M        499.872              : tdd          - TOTAL DEPTH DRILLER
RUN .         ONE                  : Run          - RUN NUMBER
ENG .         McNAUGHTON           : Engineer     - RECORDING ENGINEER
WIT .         LINKE                : Witness      - WITNESSED BY
MUD .         GEL                  : Mud_type     - MUD TYPE
MATR.         SANDSTONE            : Logunit      - NEUTRON MATRIX
TMAX.C        22.7778              : BHT          - MAXIMUM RECORDED TEMPERATURE
BHTD.M        499.872              : BHTDEP       - MAXIMUM RECORDED TEMPERATURE
RMT .C        16.1111              : MDTP         - TEMPERATURE OF MUD
MUDD.KG/M     61000                : MWT          - MUD DENSITY
NEUT.         1                    : NEUTRON      - NEUTRON TYPE
RESI.         0                    : RESIST       - RESISTIVITY TYPE
RM  .OHMM     1.1                  : RM           - RESISTIVITY OF MUD
RMC .OHMM     1.34                 : RMC          - RESISTIVITY OF MUD CAKE
RMF .OHMM     2.87                 : RMF          - RESISTIVITY OF MUD FILTRATE
SUFT.C        -12.2222             : SUFT         - SURFACE TEMPERATURE
~A  DEPTH     RESD     PHID     PHIN       GR      CAL
# ...
  374.600    6.752    0.240    0.426   70.388  163.734
  374.850    6.747    0.229    0.437   70.715  164.316
  375.100    6.741    0.231    0.446   71.347  164.362
  375.350    6.736    0.251    0.433   71.983  164.414
  375.600    6.728    0.243    0.414   69.911  164.473
  375.850    6.723    0.242    0.424   69.649  164.017
  376.100    6.716    0.243    0.416   69.372  164.063
  376.350    6.808    0.219    0.422   68.201  163.607
  376.600    7.284    0.214    0.428   68.533  163.660
  376.850    7.763    0.219    0.426   70.367  163.660
  377.100    8.435    0.230    0.420   72.806  163.791
  377.350    9.977    0.227    0.404   74.339  164.333
  377.600   14.422    0.231    0.389   74.070  164.385
  377.850   18.093    0.190    0.374   71.096  164.947
  378.100   20.119    0.121    0.264   65.718  165.013
  378.350   21.272    0.082    0.211   59.740  165.065
  378.600   21.073    0.102    0.245   54.662  165.118
  378.850   19.809    0.131    0.278   51.993  165.170
  379.100   18.159    0.159    0.197   51.423  165.223
  379.350   14.959    0.045    0.163   51.458  165.269
  379.600   13.986    0.035    0.169   52.999  165.328
  379.850   10.303    0.039    0.182   54.825  164.872
  380.100    8.458    0.051    0.218   58.466  164.422
  380.350    7.580    0.077    0.269   61.799  164.481
  380.600    7.285    0.141    0.355   71.453  164.521
  380.850    7.279    0.206    0.410   76.588  164.580
  381.100    7.273    0.225    0.400   81.728  164.646
  381.350    7.267    0.214    0.399   79.659  164.698
  381.600    7.267    0.209    0.396   78.793  164.229
  381.850    7.255    0.201    0.387   79.121  164.288
  382.100    7.247    0.189    0.394   79.456  163.832
  382.350    7.242    0.193    0.406   80.088  163.382
  382.600    7.138    0.203    0.426   80.720  163.435
  382.850    7.134    0.198    0.448   81.653  163.488
  383.100    7.134    0.184    0.452   83.190  163.553
  383.350    6.926    0.193    0.441   84.118  163.639
  383.600    6.728    0.218    0.414   86.561  163.652
  383.850    6.529    0.221    0.419   88.696  163.705
  384.100    6.329    0.216    0.448   91.431  164.259
  384.350    6.329    0.215    0.449   92.668  164.827
  384.600    6.220    0.216    0.433   94.198  165.402
  384.850    6.116    0.224    0.412   93.932  165.957
  385.100    6.111    0.223    0.419   93.663  166.525
  385.350    6.105    0.208    0.424   93.998  167.080
  385.600    6.099    0.191    0.440   95.231  168.163
  385.850    6.099    0.182    0.454   96.460  168.202
  386.100    5.988    0.166    0.462   97.096  168.764
  386.350    5.983    0.144    0.465   96.831  168.823
  386.600    5.977    0.169    0.456   95.664  168.882
  386.850    5.971    0.144    0.433   95.691  168.928
  387.100    6.063    0.164    0.418   96.924  169.490
  387.350    6.152    0.154    0.408   99.355  170.560
  387.600    6.244    0.180    0.414  103.901  172.146
  387.850    6.237    0.219    0.413  102.730  173.738
  388.100    6.328    0.226    0.424   98.851  173.790
  388.350    6.419    0.216    0.442   95.877  171.795
  388.600    6.798    0.189    0.459  102.823  169.818
  388.850    7.277    0.169    0.456  102.253  171.397
  389.100    8.239    0.172    0.431   98.679  175.018
  389.350    9.104    0.163    0.394   94.503  176.597
  389.600    9.582    0.110    0.322   90.331  176.148
  389.850    8.898    0.072    0.254   85.550  175.170
  390.100    8.312    0.091    0.298   84.981  172.189
  390.350    7.628    0.122    0.345   95.532  170.702
  390.600    7.427    0.169    0.389  104.882  170.246
  390.850    7.615    0.180    0.388  103.715  170.298
  391.100    7.996    0.153    0.358   99.235  170.358
  391.350    8.086    0.139    0.336   94.158  170.410
  391.600    8.082    0.121    0.311   90.283  169.967
  391.850    7.881    0.106    0.317   88.211  169.504
  392.100    7.682    0.098    0.336   88.242  169.048
  392.350    7.482    0.144    0.351   90.079  169.094
  392.600    7.477    0.174    0.371   91.913  168.658
  392.850    7.469    0.182    0.370   91.644  168.195
  393.100    7.560    0.175    0.352   89.876  168.241
  393.350    7.651    0.141    0.318   85.997  167.785
  393.600    7.645    0.083    0.321   83.628  167.837
  393.850    7.640    0.128    0.344   85.162  167.896
  394.100    7.537    0.134    0.347   90.601  167.440
  394.350    7.530    0.161    0.355   93.040  167.506
  394.600    7.524    0.175    0.379   93.969  167.552
  394.850    7.422    0.186    0.397   95.506  167.605
  395.100    7.416    0.184    0.392   95.241  167.664
  395.350    7.603    0.183    0.384   91.962  167.664
  395.600    7.500    0.160    0.367   89.594  167.769
  395.850    7.108    0.148    0.354   87.818  167.828
  396.100    6.907    0.173    0.367   86.951  167.920
  396.350    6.902    0.188    0.385   90.889  167.933
  396.600    6.895    0.200    0.381   93.027  167.986
  396.850    6.888    0.206    0.391   93.956  167.986
  397.100    6.883    0.206    0.392   94.591  168.117
  397.350    6.683    0.191    0.392   95.524  168.652
  397.600    6.485    0.176    0.389   94.056  168.712
  397.850    6.091    0.157    0.383   92.281  168.758
  398.100    5.697    0.129    0.395   93.522  168.817
  398.350    5.595    0.140    0.411   96.253  168.876
  398.600    5.395    0.171    0.432  100.791  171.479
  398.850    5.292    0.177    0.448  104.432  175.087
  399.100    5.287    0.154    0.457  101.755  177.677
  399.350    5.184    0.136    0.442   98.180  179.256
  399.600    5.173    0.119    0.387   96.112  179.315
  399.850    5.172    0.172    0.404  100.951  177.842
  400.100    5.166    0.216    0.417  106.390  175.859
  400.350    5.062    0.213    0.439  104.322  173.883
  400.600    5.057    0.205    0.413  102.858  172.918
  400.850    5.050    0.193    0.401  101.379  172.462
  401.100    5.044    0.157    0.410   97.204  172.521
  401.350    4.845    0.112    0.393   90.924  172.567
  401.600    4.161    0.074    0.364   88.856  172.110
  401.850    3.478    0.096    0.383   88.587  172.170
  402.100    2.794    0.188    0.420   91.919  172.235
  402.350    2.497    0.192    0.456   99.767  172.275
  402.600    2.395    0.217    0.470  104.910  171.819
  402.850    2.390    0.240    0.517  105.245  171.369
  403.100    2.382    0.264    0.551  105.276  170.906
  403.350    2.473    0.277    0.565  105.007  170.463
  403.600    2.660    0.285    0.573  103.532  169.492
  403.850    3.042    0.284    0.572   99.356  168.526
  404.100    3.423    0.268    0.564   95.481  168.579
  404.350    4.481    0.221    0.537   92.210  168.632
  404.600    5.637    0.180    0.389   89.233  169.200
  404.850    7.469    0.165    0.358   85.958  169.768
  405.100    9.592    0.177    0.363   82.083  169.820
  405.350   11.521    0.161    0.355   77.006  169.866
  405.600   13.352    0.129    0.323   72.233  169.925
  405.850   12.669    0.070    0.322   68.662  169.985
  406.100   11.696    0.118    0.367   66.289  170.546
  406.350   10.529    0.242    0.391   66.020  171.107
  406.600    8.588    0.260    0.360   68.154  171.153
  406.850    7.131    0.212    0.370   73.294  170.195
  407.100    5.575    0.169    0.378   84.142  169.739
  407.350    4.698    0.170    0.384   95.299  169.798
  407.600    4.016    0.186    0.391   97.133  170.359
  407.850    3.912    0.200    0.428   98.663  170.921
  408.100    4.390    0.202    0.467  101.702  171.489
  408.350    5.546    0.183    0.515  103.536  172.044
  408.600    6.991    0.195    0.490  100.266  172.109
  408.850    8.437    0.219    0.427   96.387  172.155
  409.100    9.494    0.229    0.385   88.906  172.201
  409.350    9.101    0.225    0.379   79.321  172.267
  409.600    8.418    0.217    0.374   79.953  172.313
  409.850    7.540    0.201    0.372   85.397  171.864
  410.100    6.760    0.185    0.394   89.334  171.910
  410.350    5.980    0.175    0.421   94.774  171.962
  410.600    5.393    0.166    0.444  101.119  172.530
  410.850    4.903    0.186    0.446  110.165  174.625
