~VERSION INFORMATION
 VERS.                 2.0:   CWLS LOG ASCII STANDARD -VERSION 2.0
 WRAP.                  NO:   ONE LINE PER DEPTH STEP
~WELL INFORMATION BLOCK
#MNEM.UNIT           DATA                    DESCRIPTION OF MNEMONIC
#---------    -------------------            -------------------------------
# Generated from Intellog Unique Number	CS_73_76/WELL/3268
WELL.         HOUSTON OIL LIMITED            : Well_name    - WELL
LOC .         00/11-27-076-17W4/0            : Location     - LOCATION
UWI .         00/11-27-076-17W4/0            : Uwi          - UNIQUE WELL ID
ENTR.         SP                             : Entered      - ENTERED BY
SRVC.         SCHLUMBERGER                   : Scn          - SERVICE COMPANY
STRT.M        350.52                         : top_depth    - START DEPTH
STOP.M        571.52                         : bot_depth    - STOP DEPTH
STEP.M        0.25                           : increment    - STEP LENGTH
 NULL. -999.2500:NULL Value
~CURVE INFORMATION BLOCK
#MNEM UNIT       ERCB CURVE CODE    CURVE DESCRIPTION
#-----------   ------------------   ----------------------------------
DEPT.M        00 001 00 00         : DEPTH        - DEPTH
GR  .API      00 310 00 00         : GR           - GAMMA RAY
DPHI.V/V      00 890 00 00         : PHID         - DENSITY POROSITY (SANDSTONE)
NPHI.V/V      00 330 00 00         : PHIN         - NEUTRON POROSITY (SANDSTONE)
ILD .OHMM     00 120 00 00         : RESD         - DEEP RESISTIVITY (DIL)
~PARAMETER INFORMATION
#MNEM.UNIT           DATA             DESCRIPTION OF MNEMONIC
#---------         -----------     ------------------------------
GL  .M        714.146              : gl           - GROUND LEVEL ELEVATION
EREF.M        717.194              : kb           - ELEVATION OF DEPTH REFERENCE
DATM.M        714.146              : datum        - DATUM ELEVATION
TDD .M        572.414              : tdd          - TOTAL DEPTH DRILLER
RUN .         ONE                  : Run          - RUN NUMBER
ENG .         BILL                 : Engineer     - RECORDING ENGINEER
WIT .         JIM                  : Witness      - WITNESSED BY
MUD .         GEL                  : Mud_type     - MUD TYPE
MATR.         SANDSTONE            : Logunit      - NEUTRON MATRIX
TMAX.C        25.5556              : BHT          - MAXIMUM RECORDED TEMPERATURE
BHTD.M        572.414              : BHTDEP       - MAXIMUM RECORDED TEMPERATURE
MATR.         1                    : LOGUNIT      - NEUTRON MATRIX
RMT .C        25                   : MDTP         - TEMPERATURE OF MUD
NEUT.         1                    : NEUTRON      - NEUTRON TYPE
RESI.         0                    : RESIST       - RESISTIVITY TYPE
RMC .OHMM     0.25                 : RMC          - RESISTIVITY OF MUD CAKE
RMF .OHMM     0.25                 : RMF          - RESISTIVITY OF MUD FILTRATE
SUFT.C        15                   : SUFT         - SURFACE TEMPERATURE
~A  DEPTH       GR     PHID     PHIN     RESD
  350.520  100.602    0.223    0.522    3.038
  350.770  103.484    0.236    0.533    2.998
  351.020  104.978    0.248    0.544    2.983
  351.270  105.423    0.251    0.543    2.979
  351.520  105.124    0.233    0.538    3.067
  351.770  104.074    0.215    0.533    3.151
  352.020  103.594    0.218    0.523    3.201
  352.270  103.604    0.230    0.532    3.211
  352.520  103.603    0.233    0.544    3.141
  352.770  103.688    0.228    0.554    3.034
  353.020  101.717    0.236    0.552    3.197
  353.270   98.735    0.239    0.527    3.465
  353.520   97.588    0.241    0.512    3.983
  353.770   91.897    0.257    0.489    4.452
  354.020   87.342    0.270    0.443    5.264
  354.270   89.336    0.270    0.430    6.005
  354.520   90.264    0.259    0.429    6.780
  354.770   89.719    0.255    0.429    6.744
  355.020   91.220    0.257    0.446    6.144
  355.270   94.272    0.267    0.460    5.867
  355.520   96.745    0.261    0.468    5.674
  355.770   98.314    0.257    0.478    5.957
  356.020   97.494    0.262    0.457    6.751
  356.270   95.425    0.260    0.409    7.737
  356.520   94.207    0.257    0.393    8.736
  356.770   91.535    0.260    0.384    9.365
  357.020   87.696    0.271    0.380   10.030
  357.270   82.378    0.284    0.383   10.632
  357.520   80.218    0.284    0.396   11.439
  357.770   77.876    0.296    0.399   11.906
  358.020   77.115    0.279    0.397   12.115
  358.270   78.636    0.262    0.396   11.701
  358.520   82.483    0.281    0.390   11.158
  358.770   87.171    0.265    0.401   10.629
  359.020   90.668    0.253    0.404   10.151
  359.270   93.212    0.240    0.404    9.903
  359.520   96.454    0.225    0.416    9.510
  359.770   94.250    0.222    0.418    9.379
  360.020   90.487    0.236    0.421    9.541
  360.270   84.985    0.248    0.428    9.514
  360.520   82.091    0.264    0.416    9.509
  360.770   86.344    0.231    0.419    9.480
  361.020   90.743    0.240    0.425    9.181
  361.270   87.087    0.244    0.430    8.893
  361.520   82.161    0.246    0.437    8.836
  361.770   76.157    0.251    0.444    8.784
  362.020   69.335    0.263    0.441    9.873
  362.270   63.553    0.267    0.442   10.650
  362.520   61.768    0.289    0.444   11.482
  362.770   59.679    0.309    0.436   12.182
  363.020   59.005    0.302    0.439   12.543
  363.270   59.174    0.310    0.439   12.947
  363.520   62.476    0.307    0.433   13.001
  363.770   64.915    0.283    0.428   13.005
  364.020   68.298    0.237    0.417   13.031
  364.270   71.907    0.192    0.398   12.756
  364.520   79.527    0.156    0.373   12.377
  364.770   89.811    0.208    0.391   11.131
  365.020   98.543    0.238    0.412    9.506
  365.270  101.979    0.249    0.424    8.382
  365.520  104.688    0.241    0.446    7.688
  365.770  107.301    0.233    0.466    7.022
  366.020  106.096    0.248    0.468    6.493
  366.270  103.455    0.260    0.449    6.162
  366.520   99.980    0.269    0.449    7.035
  366.770   99.838    0.285    0.450    8.571
  367.020  101.599    0.309    0.450    9.833
  367.270  105.793    0.300    0.442   10.940
  367.520  107.522    0.289    0.429   11.790
  367.770  108.422    0.276    0.420   12.063
  368.020  108.423    0.268    0.427   12.290
  368.270  107.545    0.259    0.437   11.917
  368.520  105.071    0.263    0.443   11.819
  368.770  101.021    0.276    0.444   11.808
  369.020   97.479    0.282    0.441   11.730
  369.270   93.266    0.270    0.427   11.592
  369.520   90.933    0.260    0.413   11.231
  369.770   88.783    0.249    0.405   10.856
  370.020   86.703    0.247    0.401   10.199
  370.270   88.994    0.251    0.422    9.594
  370.520   89.932    0.240    0.435    9.016
  370.770   86.668    0.226    0.441    8.770
  371.020   86.198    0.212    0.434    8.857
  371.270   83.379    0.210    0.439    8.946
  371.520   80.317    0.237    0.430    9.246
  371.770   77.754    0.275    0.431    9.201
  372.020   77.435    0.272    0.440    7.938
  372.270   94.521    0.261    0.455    6.826
  372.520  108.490    0.249    0.466    6.201
  372.770  113.779    0.203    0.483    5.725
  373.020  116.665    0.153    0.492    4.993
  373.270  120.411    0.164    0.506    4.420
  373.520  122.244    0.164    0.524    4.193
  373.770  121.880    0.140    0.507    3.860
  374.020  123.115    0.153    0.511    3.627
  374.270  125.653    0.169    0.524    3.410
  374.520  127.319    0.178    0.532    3.312
  374.770  128.945    0.202    0.539    3.216
  375.020  130.382    0.206    0.534    3.215
  375.270  131.564    0.203    0.542    3.308
  375.520  131.236    0.194    0.536    3.339
  375.770  129.411    0.169    0.536    3.300
  376.020  128.201    0.146    0.536    3.194
  376.270  128.812    0.150    0.535    3.157
  376.520  128.992    0.186    0.517    3.200
  376.770  125.576    0.234    0.494    3.654
  377.020  121.333    0.252    0.478    4.332
  377.270  119.638    0.241    0.470    5.365
  377.520  117.436    0.236    0.470    6.468
  377.770  120.180    0.220    0.476    7.076
  378.020  120.504    0.221    0.467    7.474
  378.270  118.457    0.220    0.470    7.527
  378.520  114.581    0.232    0.470    7.461
  378.770  111.417    0.245    0.474    6.930
  379.020  111.368    0.240    0.480    6.487
  379.270  113.572    0.230    0.476    6.102
  379.520  111.098    0.211    0.478    5.930
  379.770  103.416    0.243    0.459    6.122
  380.020   94.559    0.267    0.445    6.533
  380.270   90.200    0.287    0.443    7.492
  380.520   88.269    0.316    0.443    8.731
  380.770   90.831    0.319    0.446    9.749
  381.020   94.280    0.303    0.450   10.331
  381.270   98.944    0.294    0.452   10.500
  381.520  102.825    0.288    0.450   10.146
  381.770  105.406    0.278    0.446    9.533
  382.020  107.996    0.270    0.461    8.796
  382.270  109.751    0.266    0.473    8.279
  382.520  111.881    0.254    0.476    7.939
  382.770  115.187    0.275    0.458    7.699
  383.020  117.087    0.268    0.451    7.461
  383.270  119.047    0.255    0.449    7.370
  383.520  118.914    0.237    0.455    7.215
  383.770  117.338    0.238    0.455    7.231
  384.020  115.366    0.251    0.453    7.113
  384.270  109.266    0.259    0.450    7.087
  384.520   98.145    0.254    0.453    7.239
  384.770   88.112    0.286    0.445    8.513
  385.020   81.955    0.316    0.433   10.382
  385.270   76.362    0.346    0.433   12.366
  385.520   73.509    0.350    0.446   13.834
  385.770   75.270    0.342    0.453   14.818
  386.020   75.261    0.333    0.461   14.163
  386.270   72.707    0.320    0.469   12.289
  386.520   70.161    0.309    0.469   11.131
  386.770   69.250    0.300    0.459   10.325
  387.020   69.439    0.296    0.477   10.019
  387.270   70.448    0.300    0.493   11.783
  387.520   71.885    0.312    0.484   12.799
  387.770   73.681    0.315    0.488   14.513
  388.020   74.618    0.322    0.496   15.715
  388.270   74.141    0.336    0.496   16.532
  388.520   73.915    0.339    0.475   16.590
  388.770   72.199    0.343    0.481   16.279
  389.020   71.550    0.337    0.488   15.772
  389.270   69.565    0.349    0.496   15.736
  389.520   69.129    0.345    0.489   16.216
  389.770   69.816    0.349    0.481   17.107
  390.020   69.716    0.351    0.476   17.231
  390.270   68.589    0.344    0.476   17.492
  390.520   69.412    0.355    0.473   17.898
  390.770   71.061    0.350    0.480   17.065
  391.020   72.358    0.346    0.483   15.472
  391.270   74.972    0.343    0.490   14.430
  391.520   78.856    0.340    0.497   12.996
  391.770   81.802    0.341    0.508   11.649
  392.020   85.022    0.333    0.491   10.432
  392.270   90.099    0.321    0.475    9.695
  392.520   92.693    0.301    0.455    8.743
  392.770   95.273    0.280    0.441    8.219
  393.020   96.710    0.281    0.444    7.883
  393.270   97.561    0.289    0.442    7.847
  393.520   96.812    0.294    0.437    8.173
  393.770   94.812    0.282    0.435    8.297
