~VERSION INFORMATION
 VERS.                 2.0:   CWLS LOG ASCII STANDARD -VERSION 2.0
 WRAP.                  NO:   ONE LINE PER DEPTH STEP
~WELL INFORMATION BLOCK
#MNEM.UNIT           DATA                    DESCRIPTION OF MNEMONIC
#---------    -------------------            -------------------------------
# Generated from Intellog Unique Number	CW_79_81/WELL/2492
WELL.         HB GODIN                       : Well_name    - WELL
LOC .         00/15-19-081-01W5/0            : Location     - LOCATION
UWI .         00/15-19-081-01W5/0            : Uwi          - UNIQUE WELL ID
ENTR.         MAX                            : Entered      - ENTERED BY
SRVC.         SCHLUMBERGER                   : Scn          - SERVICE COMPANY
STRT.M        243.84                         : top_depth    - START DEPTH
STOP.M        450.84                         : bot_depth    - STOP DEPTH
STEP.M        0.25                           : increment    - STEP LENGTH
 NULL. -999.2500:NULL Value
~CURVE INFORMATION BLOCK
#MNEM UNIT       ERCB CURVE CODE    CURVE DESCRIPTION
#-----------   ------------------   ----------------------------------
DEPT.M        00 001 00 00         : DEPTH        - DEPTH
ILD .OHMM     00 120 00 00         : RESD         - DEEP RESISTIVITY (DIL)
NPHI.V/V      00 330 00 00         : PHIN         - NEUTRON POROSITY (SANDSTONE)
DPHI.V/V      00 890 00 00         : PHID         - DENSITY POROSITY (SANDSTONE)
GR  .API      00 310 00 00         : GR           - GAMMA RAY
CALI.MM       00 280 01 00         : CAL          - CALIPER
~PARAMETER INFORMATION
#MNEM.UNIT           DATA             DESCRIPTION OF MNEMONIC
#---------         -----------     ------------------------------
GL  .M        586.13               : gl           - GROUND LEVEL ELEVATION
EREF.M        590.093              : kb           - ELEVATION OF DEPTH REFERENCE
DATM.M        586.13               : datum        - DATUM ELEVATION
TDD .M        501.091              : tdd          - TOTAL DEPTH DRILLER
RUN .         ONE                  : Run          - RUN NUMBER
ENG .         BILL                 : Engineer     - RECORDING ENGINEER
WIT .         JIM                  : Witness      - WITNESSED BY
MUD .         GEL                  : Mud_type     - MUD TYPE
MATR.         SANDSTONE            : Logunit      - NEUTRON MATRIX
TMAX.C        23.3333              : BHT          - MAXIMUM RECORDED TEMPERATURE
BHTD.M        501.091              : BHTDEP       - MAXIMUM RECORDED TEMPERATURE
MATR.         1                    : LOGUNIT      - NEUTRON MATRIX
RMT .C        11.1111              : MDTP         - TEMPERATURE OF MUD
NEUT.         1                    : NEUTRON      - NEUTRON TYPE
RESI.         0                    : RESIST       - RESISTIVITY TYPE
RMC .OHMM     7.55                 : RMC          - RESISTIVITY OF MUD CAKE
RMF .OHMM     3.88                 : RMF          - RESISTIVITY OF MUD FILTRATE
SUFT.C        -12.2222             : SUFT         - SURFACE TEMPERATURE
~A  DEPTH     RESD     PHIN     PHID       GR      CAL
# ...
  353.340   12.121    0.470    0.284   89.970  207.434
  353.590   11.941    0.491    0.252   96.090  207.878
  353.840   11.385    0.492    0.235   97.642  208.619
  354.090   10.663    0.492    0.236   94.624  209.264
  354.340    9.998    0.498    0.248   89.965  209.910
  354.590    9.515    0.507    0.259   90.505  211.488
  354.840    9.231    0.488    0.280   95.416  213.190
  355.090    9.495    0.515    0.313   93.100  216.803
  355.340    9.924    0.513    0.327   91.838  219.232
  355.590   10.505    0.500    0.317   90.224  219.483
  355.840   11.149    0.478    0.285   87.734  217.845
  356.090   11.824    0.416    0.225   84.284  215.168
  356.340   12.842    0.359    0.125   82.122  211.507
  356.590   13.592    0.412    0.176   83.316  211.540
  356.840   13.938    0.500    0.282   85.922  213.079
  357.090   14.235    0.524    0.337   87.357  215.506
  357.340   14.895    0.474    0.312   86.740  216.638
  357.590   16.840    0.430    0.237   84.359  212.399
  357.840   18.859    0.405    0.133   81.701  210.805
  358.090   19.123    0.375    0.094   79.854  210.852
  358.340   18.261    0.313    0.059   79.591  211.491
  358.590   16.979    0.314    0.036   81.025  212.131
  358.840   15.717    0.381    0.036   84.096  212.673
  359.090   14.426    0.421    0.080   88.631  213.933
  359.340   13.486    0.391    0.117   88.907  216.059
  359.590   12.721    0.439    0.161   87.532  218.481
  359.840   12.203    0.448    0.181   89.840  220.607
  360.090   11.680    0.447    0.190   92.797  222.241
  360.340   11.165    0.454    0.195   94.117  223.381
  360.590   10.795    0.471    0.199   92.370  224.392
  360.840   10.552    0.481    0.211   92.885  225.268
  361.090   10.471    0.490    0.191   95.963  226.510
  361.340   10.447    0.505    0.186   95.696  227.154
  361.590   10.480    0.512    0.198   93.731  227.595
  361.840   10.572    0.507    0.213   91.418  227.945
  362.090   10.815    0.493    0.206   89.715  228.030
  362.340   11.310    0.473    0.204   89.259  228.055
  362.590   11.802    0.477    0.227   89.984  228.102
  362.840   11.864    0.493    0.240   92.650  227.848
  363.090   11.517    0.509    0.244   94.085  227.694
  363.340   11.009    0.516    0.238   94.287  227.739
  363.590   10.661    0.505    0.220   97.112  227.705
  363.840   10.498    0.506    0.214  100.558  227.346
  364.090   10.195    0.500    0.213  101.988  227.799
  364.340   10.010    0.507    0.200  101.139  228.235
  364.590    9.863    0.511    0.195   99.647  228.079
  364.840    9.735    0.504    0.194   99.091  227.831
  365.090    9.647    0.491    0.188  101.243  229.570
  365.340    9.570    0.486    0.247  102.489  232.098
  365.590    9.430    0.508    0.221  101.580  228.585
  365.840    9.393    0.511    0.243   99.675  224.675
  366.090    9.356    0.515    0.285   97.867  225.068
  366.340    9.440    0.531    0.335   96.663  232.091
  366.590   10.228    0.543    0.390   96.141  243.716
  366.840   11.400    0.488    0.366   96.906  233.810
  367.090   12.709    0.423    0.250   92.467  218.320
  367.340   14.693    0.381    0.208   87.147  214.493
  367.590   17.211    0.350    0.199   84.472  214.546
  367.840   19.268    0.328    0.223   85.384  214.491
  368.090   18.331    0.340    0.313   89.522  214.074
  368.340   16.520    0.376    0.283   95.925  213.714
  368.590   14.919    0.403    0.272  102.312  212.976
  368.840   13.791    0.426    0.254  102.166  212.528
  369.090   12.986    0.456    0.229  101.138  212.182
  369.340   12.382    0.483    0.205  101.172  211.939
  369.590   11.798    0.481    0.201  100.307  212.081
  369.840   11.460    0.478    0.207   99.356  212.551
  370.090   11.225    0.475    0.196   98.217  213.013
  370.340   11.057    0.475    0.205   97.774  214.065
  370.590   10.951    0.476    0.212   97.686  216.304
  370.840   10.904    0.479    0.210   97.719  219.242
  371.090   10.936    0.479    0.199   98.099  221.396
  371.340   11.032    0.483    0.193   99.857  221.861
  371.590   11.617    0.497    0.210  100.591  223.502
  371.840   12.890    0.503    0.199  102.208  222.167
  372.090   15.949    0.498    0.187  103.533  220.626
  372.340   22.159    0.482    0.186  102.507  219.577
  372.590   29.968    0.453    0.186   93.640  216.991
  372.840   37.257    0.409    0.164   80.924  213.732
  373.090   42.724    0.366    0.095   70.601  210.985
  373.340   43.669    0.320    0.063   67.688  208.840
  373.590   39.407    0.265    0.035   68.425  208.696
  373.840   31.532    0.219    0.019   70.871  209.752
  374.090   20.929    0.243    0.075   76.382  209.262
  374.340   14.572    0.350    0.139   83.764  210.563
  374.590   12.114    0.408    0.211   89.450  209.421
  374.840   10.821    0.442    0.218   92.485  209.776
  375.090   10.350    0.467    0.211   94.516  211.024
  375.340   10.397    0.489    0.206   96.252  212.669
  375.590   10.583    0.503    0.185   97.369  214.580
  375.840   10.685    0.505    0.173   96.914  215.874
  376.090   10.848    0.503    0.223   94.825  216.724
  376.340   11.196    0.487    0.246   94.855  216.379
  376.590   11.623    0.465    0.256   94.888  215.840
  376.840   12.004    0.445    0.254   94.038  215.502
  377.090   12.179    0.440    0.229   92.363  215.168
  377.340   12.101    0.434    0.200   90.925  215.223
  377.590   11.943    0.434    0.196   92.610  215.669
  377.840   11.784    0.463    0.200   93.932  216.119
  378.090   11.668    0.479    0.201   95.377  216.767
  378.340   11.617    0.471    0.197   96.767  217.614
  378.590   11.670    0.465    0.195   97.319  218.728
  378.840   11.865    0.471    0.205   97.600  220.023
  379.090   12.051    0.484    0.197   96.454  221.282
  379.340   12.240    0.478    0.202   94.601  221.629
  379.590   12.389    0.467    0.219   92.982  222.678
  379.840   12.425    0.457    0.234   92.364  224.431
  380.090   12.169    0.460    0.209   93.690  225.455
  380.340   11.732    0.489    0.197   95.442  226.351
  380.590   11.080    0.501    0.207   96.644  228.003
  380.840   10.698    0.500    0.220   99.089  229.639
  381.090   10.441    0.509    0.230  100.064  232.077
  381.340   10.304    0.518    0.232   97.975  233.629
  381.590   10.471    0.489    0.216   93.147  229.691
  381.840   10.892    0.473    0.195   97.108  227.665
  382.090   11.143    0.479    0.185   97.375  225.726
  382.340   11.340    0.486    0.180   98.700  224.990
  382.590   11.394    0.483    0.177   99.320  225.045
  382.840   11.304    0.472    0.183   98.352  225.393
  383.090   11.157    0.460    0.211   95.751  225.374
  383.340   11.169    0.458    0.229   95.535  225.015
  383.590   11.101    0.472    0.221   99.096  225.067
  383.840   11.034    0.490    0.213   99.480  225.419
  384.090   10.968    0.497    0.200   99.513  225.871
  384.340   10.882    0.487    0.188   99.135  226.423
  384.590   10.707    0.470    0.196   95.650  227.288
  384.840   10.556    0.481    0.191   96.911  227.338
  385.090   10.495    0.503    0.196   96.707  226.987
  385.340   10.545    0.518    0.210   96.501  225.147
  385.590   10.748    0.510    0.224   96.063  222.012
  385.840   11.020    0.481    0.230   95.334  217.981
  386.090   11.116    0.456    0.214   94.083  213.744
  386.340   11.130    0.447    0.225   92.397  214.215
  386.590   11.470    0.460    0.217   91.022  213.880
  386.840   12.462    0.473    0.206   91.756  213.234
  387.090   13.908    0.475    0.200   91.549  212.884
  387.340   15.733    0.456    0.206   88.993  212.534
  387.590   18.578    0.410    0.231   83.199  210.424
  387.840   21.193    0.370    0.238   77.592  207.580
  388.090   23.966    0.332    0.244   76.917  205.635
  388.340   26.851    0.331    0.247   74.122  205.496
  388.590   29.680    0.331    0.224   69.799  205.750
  388.840   32.760    0.315    0.172   64.890  205.799
  389.090   38.140    0.276    0.106   60.502  206.031
  389.340   41.857    0.256    0.088   59.551  206.921
  389.590   41.901    0.230    0.038   59.579  207.766
