~VERSION INFORMATION
 VERS.                 2.0:   CWLS LOG ASCII STANDARD -VERSION 2.0
 WRAP.                  NO:   ONE LINE PER DEPTH STEP
~WELL INFORMATION BLOCK
#MNEM.UNIT           DATA                    DESCRIPTION OF MNEMONIC
#---------    -------------------            -------------------------------
# Generated from Intellog Unique Number	CS_77_79/WELL/1004
WELL.         MAYNARD ET AL THORNBURY        : Well_name    - WELL
LOC .         00/11-31-079-11W4/0            : Location     - LOCATION
UWI .         00/11-31-079-11W4/0            : Uwi          - UNIQUE WELL ID
ENTR.         JHS                            : Entered      - ENTERED BY
SRVC.         SCHLUMBERGER                   : Scn          - SERVICE COMPANY
STRT.M        225                            : top_depth    - START DEPTH
STOP.M        495                            : bot_depth    - STOP DEPTH
STEP.M        0.25                           : increment    - STEP LENGTH
 NULL. -999.2500:NULL Value
~CURVE INFORMATION BLOCK
#MNEM UNIT       ERCB CURVE CODE    CURVE DESCRIPTION
#-----------   ------------------   ----------------------------------
DEPT.M        00 001 00 00         : DEPTH        - DEPTH
DPHI.V/V      00 890 00 00         : PHID         - DENSITY POROSITY (LIMESTONE)
NPHI.V/V      00 330 00 00         : PHIN         - NEUTRON POROSITY (LIMESTONE)
GR  .API      00 310 00 00         : GR           - GAMMA RAY
ILD .OHMM     00 120 00 00         : RESD         - DEEP RESISTIVITY (DIL)
~PARAMETER INFORMATION
#MNEM.UNIT           DATA             DESCRIPTION OF MNEMONIC
#---------         -----------     ------------------------------
GL  .M        688.32               : gl           - GROUND LEVEL ELEVATION
EREF.M        691.52               : kb           - ELEVATION OF DEPTH REFERENCE
DATM.M        691.52               : datum        - DATUM ELEVATION
TDD .M        500                  : tdd          - TOTAL DEPTH DRILLER
RUN .         ONE                  : Run          - RUN NUMBER
ENG .         BILL                 : Engineer     - RECORDING ENGINEER
WIT .         JIM                  : Witness      - WITNESSED BY
MUD .         GEL                  : Mud_type     - MUD TYPE
MATR.         LIMESTONE            : Logunit      - NEUTRON MATRIX
TMAX.C        20                   : BHT          - MAXIMUM RECORDED TEMPERATURE
BHTD.M        500                  : BHTDEP       - MAXIMUM RECORDED TEMPERATURE
MATR.         1                    : LOGUNIT      - NEUTRON MATRIX
RMT .C        25                   : MDTP         - TEMPERATURE OF MUD
NEUT.         1                    : NEUTRON      - NEUTRON TYPE
RESI.         0                    : RESIST       - RESISTIVITY TYPE
RMC .OHMM     0.25                 : RMC          - RESISTIVITY OF MUD CAKE
RMF .OHMM     0.25                 : RMF          - RESISTIVITY OF MUD FILTRATE
SUFT.C        15                   : SUFT         - SURFACE TEMPERATURE
~A  DEPTH     PHID     PHIN       GR     RESD
# ...
  399.000    0.248    0.441   78.656    8.459
  399.250    0.285    0.424   76.155    8.789
  399.500    0.264    0.389   74.271    9.283
  399.750    0.253    0.363   72.380    9.448
  400.000    0.250    0.360   72.950    9.040
  400.250    0.268    0.373   75.972    9.370
  400.500    0.272    0.393   80.230    9.536
  400.750    0.250    0.429   83.261    9.128
  401.000    0.243    0.450   84.455    8.392
  401.250    0.235    0.444   81.330    7.902
  401.500    0.248    0.444   79.448    7.494
  401.750    0.258    0.441   80.004    7.414
  402.000    0.264    0.431   81.798    7.335
  402.250    0.281    0.431   82.388    7.335
  402.500    0.287    0.427   82.953    7.256
  402.750    0.263    0.420   80.446    7.257
  403.000    0.240    0.406   78.566    7.341
  403.250    0.219    0.399   78.509    7.508
  403.500    0.220    0.394   79.701    7.509
  403.750    0.246    0.398   82.118    7.511
  404.000    0.256    0.409   86.358    7.432
  404.250    0.258    0.418   87.559    7.433
  404.500    0.251    0.429   89.360    7.353
  404.750    0.254    0.438   89.315    7.191
  405.000    0.254    0.432   86.811    7.029
  405.250    0.252    0.426   85.541    6.867
  405.500    0.260    0.434   88.561    6.705
  405.750    0.272    0.444   90.363    6.543
  406.000    0.275    0.449   90.318    6.381
  406.250    0.273    0.451   92.110    6.383
  406.500    0.269    0.439   92.686    6.302
  406.750    0.271    0.425   89.567    6.222
  407.000    0.272    0.416   88.301    6.142
  407.250    0.260    0.414   88.866    5.980
  407.500    0.253    0.423   89.433    5.818
  407.750    0.248    0.435   92.467    5.573
  408.000    0.255    0.454   93.024    5.330
  408.250    0.248    0.463   92.993    5.168
  408.500    0.242    0.461   94.791    5.087
  408.750    0.250    0.443   95.332    5.418
  409.000    0.263    0.420   94.081    5.665
  409.250    0.269    0.409   90.357    6.077
  409.500    0.283    0.406   84.774    6.653
  409.750    0.276    0.401   82.276    7.392
  410.000    0.268    0.393   79.160    8.050
  410.250    0.245    0.374   77.279    8.789
  410.500    0.054    0.330   72.918    9.447
  410.750    0.022    0.273   68.586   10.350
  411.000    0.030    0.243   59.942   11.418
  411.250    0.105    0.255   66.650   11.994
  411.500    0.137    0.302   78.277   11.176
  411.750    0.160    0.342   87.456    9.948
  412.000    0.201    0.395   95.393    8.884
  412.250    0.222    0.415   97.798    8.066
  412.500    0.249    0.425   97.148    7.249
  412.750    0.243    0.430   95.876    6.922
  413.000    0.242    0.441   93.365    6.925
  413.250    0.227    0.446   92.100    7.008
  413.500    0.211    0.447   92.051    7.175
  413.750    0.205    0.439   95.076    7.258
  414.000    0.193    0.429   96.864    7.342
  414.250    0.193    0.431   96.215    7.426
  414.500    0.188    0.444   94.320    7.510
  414.750    0.193    0.443   93.044    7.594
  415.000    0.180    0.433   92.403    7.759
  415.250    0.171    0.418   94.196    7.843
  415.500    0.175    0.413   99.062    7.927
  415.750    0.181    0.407  102.703    7.929
  416.000    0.185    0.407  105.119    7.849
  416.250    0.185    0.415  104.464    7.687
  416.500    0.179    0.420  105.042    7.443
  416.750    0.182    0.421  106.210    7.035
  417.000    0.193    0.425  105.566    6.545
  417.250    0.202    0.428  105.510    5.973
  417.500    0.209    0.425  106.702    5.319
  417.750    0.224    0.424  105.427    4.747
  418.000    0.232    0.427  102.913    4.093
  418.250    0.233    0.438  101.646    3.603
  418.500    0.233    0.465  101.613    3.031
  418.750    0.236    0.485  104.641    2.623
  419.000    0.243    0.505   99.681    2.298
  419.250    0.255    0.521   95.946    2.136
  419.500    0.270    0.538   93.445    2.219
  419.750    0.293    0.546   87.241    2.303
  420.000    0.289    0.532   85.984    2.469
  420.250    0.226    0.504   85.940    2.634
  420.500    0.189    0.472   89.567    3.210
  420.750    0.184    0.440   91.381    3.950
  421.000    0.189    0.415   91.328    4.443
  421.250    0.203    0.404   90.669    5.265
  421.500    0.209    0.397   92.470    5.758
  421.750    0.193    0.387   93.040    6.334
  422.000    0.165    0.381   94.846    6.500
  422.250    0.155    0.386   99.099    6.256
  422.500    0.154    0.396  100.287    5.520
  422.750    0.181    0.407  101.466    4.867
  423.000    0.195    0.421  100.197    4.705
  423.250    0.215    0.433   94.621    4.706
  423.500    0.208    0.429   90.887    5.282
  423.750    0.165    0.410   89.004    5.694
  424.000    0.145    0.394   88.336    6.188
  424.250    0.151    0.382   89.531    6.189
  424.500    0.177    0.381   93.160    5.781
  424.750    0.191    0.388   96.809    5.209
  425.000    0.193    0.404  100.452    4.392
  425.250    0.198    0.417  103.477    3.738
  425.500    0.195    0.433  105.894    3.576
  425.750    0.185    0.452  106.447    3.414
  426.000    0.196    0.460  106.420    3.497
  426.250    0.212    0.465  110.675    3.581
  426.500    0.222    0.464  110.017    3.829
  426.750    0.194    0.462  106.274    3.913
  427.000    0.153    0.459  104.397    4.078
  427.250    0.156    0.458  102.497    4.244
  427.500    0.171    0.452  103.693    4.328
  427.750    0.168    0.439  109.170    4.495
  428.000    0.161    0.428  110.978    4.661
  428.250    0.155    0.429  111.552    4.662
  428.500    0.164    0.433  108.430    4.746
  428.750    0.145    0.430  106.537    4.831
  429.000    0.141    0.421  108.948    4.831
  429.250    0.154    0.412  109.518    4.833
  429.500    0.197    0.413  111.936    4.835
  429.750    0.216    0.420  111.282    5.001
  430.000    0.189    0.426  105.081    5.741
  430.250    0.174    0.407  100.128    6.398
  430.500    0.181    0.374   95.170    7.384
  430.750    0.192    0.355   93.261    8.205
  431.000    0.221    0.349   92.619    9.355
  431.250    0.252    0.342   86.436   10.422
  431.500    0.239    0.340   85.768   11.489
  431.750    0.229    0.330   83.273   12.639
  432.000    0.230    0.319   77.701   13.788
  432.250    0.226    0.308   72.745   15.020
  432.500    0.237    0.303   65.929   16.251
  432.750    0.242    0.304   65.276   17.236
  433.000    0.239    0.313   65.219   17.894
  433.250    0.243    0.321   70.718   18.388
  433.500    0.254    0.341   85.417   18.390
  433.750    0.294    0.353   95.827   17.080
  434.000    0.285    0.366  106.834   15.852
  434.250    0.277    0.374  114.165   14.297
  434.500    0.197    0.381  119.648   11.676
  434.750    0.182    0.384  123.274   10.120
  435.000    0.177    0.384  122.613    9.549
  435.250    0.177    0.375  120.745    9.386
  435.500    0.184    0.370  113.936    9.717
  435.750    0.198    0.365  104.062   10.456
  436.000    0.207    0.352   96.644   12.097
  436.250    0.218    0.334   91.076   14.968
  436.500    0.246    0.317   82.433   16.855
  436.750    0.272    0.300   70.716   18.004
  437.000    0.274    0.299   68.208   18.088
  437.250    0.246    0.303   67.555   17.598
  437.500    0.239    0.309   71.197   16.862
  437.750    0.230    0.324   74.833   15.798
  438.000    0.226    0.341   73.555   14.899
  438.250    0.241    0.345   70.448   15.065
  438.500    0.248    0.348   70.387   15.968
  438.750    0.259    0.349   68.514   17.937
  439.000    0.259    0.354   62.322   20.234
  439.250    0.268    0.359   65.969   21.384
  439.500    0.260    0.363   65.310   22.206
  439.750    0.260    0.363   65.874   22.043
  440.000    0.269    0.359   70.747   20.405
  440.250    0.265    0.349   69.476   18.030
  440.500    0.269    0.327   61.447   14.426
  440.750    0.283    0.311   52.166   12.706
  441.000    0.301    0.308   50.287   11.971
  441.250    0.303    0.309   47.181   12.219
  441.500    0.298    0.310   41.607   12.876
  441.750    0.294    0.309   36.020   14.763
  442.000    0.282    0.310   35.374   34.569
  442.250    0.283    0.316   33.482   51.869
