~VERSION INFORMATION
 VERS.                 2.0:   CWLS LOG ASCII STANDARD -VERSION 2.0
 WRAP.                  NO:   ONE LINE PER DEPTH STEP
~WELL INFORMATION BLOCK
#MNEM.UNIT           DATA                    DESCRIPTION OF MNEMONIC
#---------    -------------------            -------------------------------
# Generated from Intellog Unique Number	CW_79_81/WELL/2477
WELL.         10-35-080-20W4                 : Well_name    - WELL
LOC .         00/10-35-080-20W4/0            : Location     - LOCATION
UWI .         00/10-35-080-20W4/0            : Uwi          - UNIQUE WELL ID
ENTR.         MAX                            : Entered      - ENTERED BY
SRVC.         SCHLUMBERGER                   : Scn          - SERVICE COMPANY
STRT.M        149.352                        : top_depth    - START DEPTH
STOP.M        380.852                        : bot_depth    - STOP DEPTH
STEP.M        0.25                           : increment    - STEP LENGTH
 NULL. -999.2500:NULL Value
~CURVE INFORMATION BLOCK
#MNEM UNIT       ERCB CURVE CODE    CURVE DESCRIPTION
#-----------   ------------------   ----------------------------------
DEPT.M        00 001 00 00         : DEPTH        - DEPTH
ILD .OHMM     00 120 00 00         : RESD         - DEEP RESISTIVITY (DIL)
NPHI.V/V      00 330 00 00         : PHIN         - NEUTRON POROSITY (SANDSTONE)
DPHI.V/V      00 890 00 00         : PHID         - DENSITY POROSITY (SANDSTONE)
GR  .API      00 310 00 00         : GR           - GAMMA RAY
CALI.MM       00 280 01 00         : CAL          - CALIPER
~PARAMETER INFORMATION
#MNEM.UNIT           DATA             DESCRIPTION OF MNEMONIC
#---------         -----------     ------------------------------
GL  .M        581.254              : gl           - GROUND LEVEL ELEVATION
EREF.M        578.053              : kb           - ELEVATION OF DEPTH REFERENCE
DATM.M        581.254              : datum        - DATUM ELEVATION
TDD .M        404.165              : tdd          - TOTAL DEPTH DRILLER
RUN .         ONE                  : Run          - RUN NUMBER
ENG .         BILL                 : Engineer     - RECORDING ENGINEER
WIT .         JIM                  : Witness      - WITNESSED BY
MUD .         GEL                  : Mud_type     - MUD TYPE
MATR.         SANDSTONE            : Logunit      - NEUTRON MATRIX
TMAX.C        26.6667              : BHT          - MAXIMUM RECORDED TEMPERATURE
BHTD.M        404.165              : BHTDEP       - MAXIMUM RECORDED TEMPERATURE
MATR.         1                    : LOGUNIT      - NEUTRON MATRIX
RMT .C        20                   : MDTP         - TEMPERATURE OF MUD
NEUT.         1                    : NEUTRON      - NEUTRON TYPE
RESI.         0                    : RESIST       - RESISTIVITY TYPE
RMC .OHMM     2.42                 : RMC          - RESISTIVITY OF MUD CAKE
RMF .OHMM     2.1                  : RMF          - RESISTIVITY OF MUD FILTRATE
SUFT.C        -23.3333             : SUFT         - SURFACE TEMPERATURE
~A  DEPTH     RESD     PHIN     PHID       GR      CAL
# ...
  185.852    2.830    0.512    0.304  105.893  201.676
  186.102    2.861    0.504    0.299  105.650  200.859
  186.352    2.902    0.502    0.295  104.570  199.940
  186.602    2.953    0.501    0.294  104.981  198.547
  186.852    2.998    0.498    0.296  103.484  197.695
  187.102    2.997    0.490    0.292   99.660  197.282
  187.352    2.996    0.476    0.292   98.342  196.869
  187.602    3.006    0.470    0.291   96.070  196.252
  187.852    3.032    0.474    0.288   93.141  195.535
  188.102    3.108    0.483    0.283   92.668  194.783
  188.352    3.279    0.491    0.277   87.940  193.091
  188.602    3.602    0.480    0.280   80.061  190.253
  188.852    4.377    0.435    0.282   71.288  186.203
  189.102    5.644    0.391    0.288   62.812  179.527
  189.352    7.468    0.370    0.304   55.648  171.942
  189.602   10.760    0.389    0.341   50.730  167.874
  189.852   15.839    0.404    0.364   51.220  165.758
  190.102   18.545    0.415    0.382   51.454  163.728
  190.352   20.117    0.417    0.384   52.940  161.699
  190.602   20.644    0.415    0.382   54.604  160.679
  190.852   20.563    0.415    0.381   55.254  160.669
  191.102   20.162    0.420    0.382   54.421  160.657
  191.352   19.700    0.424    0.382   58.640  160.648
  191.602   19.549    0.430    0.379   60.305  160.638
  191.852   19.508    0.438    0.379   62.148  160.629
  192.102   19.858    0.450    0.378   62.978  160.619
  192.352   20.631    0.458    0.378   62.197  160.608
  192.602   21.750    0.445    0.380   59.456  160.597
  192.852   22.766    0.440    0.378   57.710  160.586
  193.102   23.606    0.434    0.378   56.750  160.578
  193.352   24.346    0.424    0.377   56.864  160.568
  193.602   24.883    0.412    0.377   57.216  160.355
  193.852   25.290    0.404    0.379   57.031  160.042
  194.102   25.923    0.408    0.389   55.245  160.032
  194.352   26.314    0.414    0.395   53.499  160.022
  194.602   26.306    0.413    0.395   55.640  160.414
  194.852   26.299    0.412    0.393   56.351  160.809
  195.102   26.291    0.412    0.391   55.868  161.002
  195.352   26.282    0.410    0.390   54.968  160.992
  195.602   26.272    0.404    0.395   55.159  160.897
  195.852   26.263    0.403    0.397   56.147  160.465
  196.102   26.448    0.413    0.399   55.902  160.050
  196.352   26.781    0.425    0.400   56.553  159.940
  196.602   27.071    0.428    0.401   56.190  159.932
  196.852   27.262    0.425    0.400   55.290  160.023
  197.102   27.410    0.430    0.399   56.466  160.414
  197.352   27.193    0.427    0.397   55.217  160.405
  197.602   26.986    0.426    0.394   54.019  160.394
  197.852   26.928    0.424    0.390   55.503  160.384
  198.102   26.821    0.416    0.386   56.571  160.576
  198.352   26.616    0.410    0.384   56.267  160.869
  198.602   26.372    0.427    0.385   55.734  160.858
  198.852   26.163    0.435    0.389   55.480  160.849
  199.102   25.964    0.440    0.389   55.712  160.839
  199.352   25.623    0.433    0.389   56.481  160.829
  199.602   25.336    0.424    0.388   56.714  160.819
  199.852   25.144    0.422    0.388   55.933  160.809
  200.102   24.950    0.430    0.392   53.610  160.798
  200.352   24.941    0.439    0.393   50.373  160.789
  200.602   25.119    0.428    0.386   49.890  160.778
  200.852   25.573    0.416    0.383   49.408  160.768
  201.102   26.321    0.397    0.383   48.567  160.758
  201.352   27.248    0.377    0.382   48.083  160.647
  201.602   28.010    0.370    0.380   49.846  160.231
  201.852   27.789    0.377    0.384   50.337  160.223
  202.102   27.781    0.390    0.384   49.616  160.213
  202.352   27.925    0.395    0.383   48.357  160.203
  202.602   28.224    0.398    0.384   47.874  160.394
  202.852   28.581    0.404    0.386   48.346  160.788
  203.102   28.782    0.415    0.388   48.816  161.264
  203.352   28.771    0.422    0.391   48.810  161.677
  203.602   28.762    0.416    0.391   49.520  161.668
  203.852   28.438    0.424    0.389   51.125  161.657
  204.102   28.223    0.435    0.385   51.716  161.647
  204.352   28.265    0.444    0.380   50.577  161.637
  204.602   28.464    0.444    0.376   48.184  161.625
  204.852   28.454    0.437    0.375   48.177  161.614
  205.102   28.236    0.432    0.378   49.364  161.605
  205.352   28.177    0.427    0.379   50.373  161.596
  205.602   27.962    0.423    0.382   51.322  161.789
  205.852   27.597    0.422    0.384   52.271  161.981
  206.102   27.383    0.423    0.383   53.765  161.648
  206.352   27.376    0.424    0.384   56.491  162.058
  206.602   27.168    0.416    0.386   55.532  162.857
  206.852   27.110    0.414    0.387   55.289  164.262
  207.102   27.002    0.418    0.391   55.163  165.667
  207.352   26.846    0.421    0.395   54.918  166.567
  207.602   26.795    0.411    0.398   54.871  166.638
  207.852   26.584    0.415    0.404   55.860  167.049
  208.102   26.574    0.422    0.403   54.900  167.040
  208.352   26.565    0.422    0.402   53.046  167.030
  208.602   26.556    0.420    0.401   51.847  167.020
  208.852   26.549    0.421    0.401   51.841  167.010
  209.102   26.540    0.425    0.399   52.401  166.998
  209.352   26.531    0.432    0.397   51.650  166.987
  209.602   26.718    0.434    0.396   52.120  166.575
  209.852   26.907    0.432    0.394   55.096  166.160
  210.102   27.096    0.431    0.394   55.926  165.949
  210.352   27.287    0.430    0.397   54.309  165.940
  210.602   27.521    0.422    0.399   54.254  165.844
  210.852   27.723    0.410    0.402   53.999  165.414
  211.102   27.109    0.426    0.401   54.470  165.403
  211.352   26.069    0.434    0.399   53.510  165.090
  211.602   24.369    0.430    0.398   52.431  164.676
  211.852   22.274    0.422    0.397   52.426  164.161
  212.102   20.139    0.431    0.390   54.416  163.258
  212.352   19.530    0.440    0.387   53.665  162.828
  212.602   19.522    0.435    0.389   52.228  162.817
  212.852   19.840    0.431    0.389   51.685  163.110
  213.102   20.712    0.428    0.386   50.844  163.908
  213.352   22.086    0.426    0.382   49.348  165.010
  213.602   23.770    0.425    0.380   47.869  165.889
  213.852   25.663    0.423    0.380   48.857  166.300
  214.102   25.281    0.414    0.379   50.999  166.290
  214.352   24.491    0.412    0.382   52.425  166.282
  214.602   23.602    0.414    0.384   54.328  166.272
  214.852   22.876    0.416    0.384   56.529  166.262
  215.102   22.535    0.415    0.384   57.527  166.419
  215.352   22.526    0.417    0.381   57.769  167.249
  215.602   22.687    0.421    0.380   60.149  168.049
  215.852   22.973    0.422    0.380   59.129  168.847
  216.102   23.220    0.422    0.380   57.692  169.039
  216.352   23.383    0.418    0.381   56.970  168.625
  216.602   23.582    0.408    0.387   56.247  168.295
  216.852   23.757    0.409    0.388   56.242  168.703
  217.102   23.402    0.416    0.387   55.042  169.501
  217.352   22.799    0.412    0.382   54.380  169.695
  217.602   21.967    0.409    0.381   54.136  169.888
  217.852   21.057    0.411    0.385   54.667  170.283
  218.102   20.232    0.420    0.387   56.460  170.675
  218.352   19.920    0.435    0.387   54.715  170.663
  218.602   19.624    0.430    0.384   54.947  170.249
  218.852   19.870    0.420    0.380   55.359  169.533
  219.102   20.232    0.418    0.374   54.518  168.918
  219.352   20.412    0.421    0.367   53.677  169.009
  219.602   20.162    0.403    0.353   56.672  170.697
  219.852   19.700    0.362    0.330   56.170  171.106
  220.102   20.277    0.331    0.311   53.777  170.694
  220.352   20.535    0.272    0.226   53.891  169.372
  220.602   18.992    0.252    0.178   59.850  168.554
  220.852   15.339    0.291    0.194   72.071  169.048
  221.102   10.195    0.371    0.220   89.989  171.730
  221.352    7.372    0.449    0.238   99.675  175.087
  221.602    5.790    0.458    0.243  105.396  179.117
  221.852    4.674    0.468    0.263  113.800  181.027
  222.102    3.932    0.478    0.284  118.805  182.229
