~VERSION INFORMATION
 VERS.                 2.0:   CWLS LOG ASCII STANDARD -VERSION 2.0
 WRAP.                  NO:   ONE LINE PER DEPTH STEP
~WELL INFORMATION BLOCK
#MNEM.UNIT           DATA                    DESCRIPTION OF MNEMONIC
#---------    -------------------            -------------------------------
# Generated from Intellog Unique Number	CS_71_72/WELL/919
WELL.         AMOCO AEC IPIATIK              : Well_name    - WELL
LOC .         00/12-26-072-05W4/0            : Location     - LOCATION
UWI .         00/12-26-072-05W4/0            : Uwi          - UNIQUE WELL ID
ENTR.         SP                             : Entered      - ENTERED BY
SRVC.         SCHLUMBERGER                   : Scn          - SERVICE COMPANY
STRT.M        315                            : top_depth    - START DEPTH
STOP.M        525                            : bot_depth    - STOP DEPTH
STEP.M        0.25                           : increment    - STEP LENGTH
 NULL. -999.2500:NULL Value
~CURVE INFORMATION BLOCK
#MNEM UNIT       ERCB CURVE CODE    CURVE DESCRIPTION
#-----------   ------------------   ----------------------------------
DEPT.M        00 001 00 00         : DEPTH        - DEPTH
ILD .OHMM     00 120 00 00         : RESD         - DEEP RESISTIVITY (DIL)
DPHI.V/V      00 890 00 00         : PHID         - DENSITY POROSITY (LIMESTONE)
NPHI.V/V      00 330 00 00         : PHIN         - NEUTRON POROSITY (LIMESTONE)
GR  .API      00 310 00 00         : GR           - GAMMA RAY
~PARAMETER INFORMATION
#MNEM.UNIT           DATA             DESCRIPTION OF MNEMONIC
#---------         -----------     ------------------------------
GL  .M        693.7                : gl           - GROUND LEVEL ELEVATION
EREF.M        697.8                : kb           - ELEVATION OF DEPTH REFERENCE
DATM.M        693.7                : datum        - DATUM ELEVATION
TDD .M        628                  : tdd          - TOTAL DEPTH DRILLER
RUN .         ONE                  : Run          - RUN NUMBER
ENG .         BILL                 : Engineer     - RECORDING ENGINEER
WIT .         JIM                  : Witness      - WITNESSED BY
MUD .         GEL                  : Mud_type     - MUD TYPE
MATR.         LIMESTONE            : Logunit      - NEUTRON MATRIX
TMAX.C        15                   : BHT          - MAXIMUM RECORDED TEMPERATURE
BHTD.M        628                  : BHTDEP       - MAXIMUM RECORDED TEMPERATURE
MATR.         1                    : LOGUNIT      - NEUTRON MATRIX
RMT .C        25                   : MDTP         - TEMPERATURE OF MUD
NEUT.         1                    : NEUTRON      - NEUTRON TYPE
RESI.         0                    : RESIST       - RESISTIVITY TYPE
RMC .OHMM     0.25                 : RMC          - RESISTIVITY OF MUD CAKE
RMF .OHMM     0.25                 : RMF          - RESISTIVITY OF MUD FILTRATE
SUFT.C        15                   : SUFT         - SURFACE TEMPERATURE
~A  DEPTH     RESD     PHID     PHIN       GR
# ...
  489.000   20.238    0.298    0.408   44.237
  489.250   26.250    0.303    0.394   41.216
  489.500   35.998    0.285    0.376   38.801
  489.750   46.694    0.300    0.363   38.805
  490.000   50.300    0.310    0.350   40.019
  490.250   52.208    0.313    0.346   41.231
  490.500   53.194    0.304    0.346   44.260
  490.750   51.261    0.277    0.369   44.867
  491.000   47.600    0.277    0.376   45.475
  491.250   45.027    0.285    0.371   43.664
  491.500   43.391    0.291    0.361   43.669
  491.750   42.597    0.282    0.377   45.486
  492.000   41.818    0.274    0.370   48.514
  492.250   41.825    0.263    0.365   48.519
  492.500   41.060    0.257    0.368   46.707
  492.750   39.572    0.270    0.378   45.500
  493.000   38.850    0.277    0.393   46.109
  493.250   37.438    0.289    0.402   47.927
  493.500   36.076    0.281    0.412   49.746
  493.750   34.765    0.280    0.406   49.749
  494.000   32.884    0.286    0.406   50.963
  494.250   29.421    0.291    0.414   52.175
  494.500   25.838    0.297    0.422   57.017
  494.750   19.926    0.279    0.411   61.861
  495.000   17.178    0.264    0.397   65.493
  495.250   15.086    0.260    0.414   67.311
  495.500   13.249    0.281    0.419   70.339
  495.750   11.636    0.281    0.379   73.971
  496.000   10.030    0.251    0.362   75.790
  496.250    8.647    0.240    0.356   77.002
  496.500    7.454    0.225    0.350   79.426
  496.750    6.669    0.236    0.349   84.269
  497.000    5.967    0.228    0.354   89.111
  497.250    5.644    0.220    0.362   92.138
  497.500    5.339    0.207    0.374  100.609
  497.750    5.145    0.199    0.382  110.290
  498.000    5.146    0.185    0.391  119.367
  498.250    5.243    0.168    0.400  119.370
  498.500    5.342    0.160    0.406  106.067
  498.750    5.545    0.148    0.407   95.183
  499.000    5.650    0.148    0.403   93.374
  499.250    5.651    0.156    0.407   93.376
  499.500    5.757    0.161    0.418   91.566
  499.750    6.202    0.165    0.423   89.754
  500.000    6.203    0.167    0.416   87.943
  500.250    6.203    0.167    0.411   87.343
  500.500    6.204    0.166    0.411   86.137
  500.750    6.205    0.159    0.418   84.325
  501.000    6.206    0.156    0.411   80.095
  501.250    6.323    0.156    0.407   79.495
  501.500    6.324    0.168    0.399   78.892
  501.750    6.443    0.184    0.396   76.477
  502.000    6.564    0.196    0.394   74.061
  502.250    6.814    0.206    0.411   71.645
  502.500    7.073    0.201    0.415   71.650
  502.750    7.341    0.212    0.406   69.233
  503.000    7.480    0.225    0.401   66.818
  503.250    7.764    0.240    0.396   69.241
  503.500    7.911    0.228    0.401   71.058
  503.750    7.911    0.224    0.412   72.877
  504.000    7.913    0.216    0.419   72.275
  504.250    7.768    0.208    0.406   71.069
  504.500    7.626    0.201    0.386   68.653
  504.750    7.627    0.195    0.372   66.842
  505.000    7.488    0.217    0.360   66.241
  505.250    7.351    0.225    0.396   66.245
  505.500    7.352    0.224    0.403   64.434
  505.750    7.353    0.224    0.396   62.018
  506.000    7.492    0.239    0.392   58.392
  506.250    7.922    0.247    0.386   58.397
  506.500    8.223    0.263    0.379   59.005
  506.750    8.695    0.270    0.377   60.218
  507.000    8.859    0.251    0.383   62.038
  507.250    9.026    0.234    0.397   62.645
  507.500    8.539    0.228    0.417   63.858
  507.750    8.229    0.237    0.424   64.468
  508.000    8.229    0.234    0.417   64.471
  508.250    8.865    0.232    0.406   62.660
  508.500   10.286    0.252    0.412   57.219
  508.750   12.159    0.277    0.404   49.359
  509.000   13.344    0.300    0.400   52.992
  509.250   14.110    0.286    0.397   59.649
  509.500   13.347    0.270    0.396   66.305
  509.750   11.722    0.265    0.395   69.333
  510.000    7.938    0.258    0.396   57.240
  510.250    6.717    0.251    0.412   49.986
  510.500    6.237    0.271    0.418   45.755
  510.750    5.685    0.305    0.431   43.945
  511.000    4.993    0.317    0.424   46.369
  511.250    4.550    0.290    0.398   48.792
  511.500    4.304    0.277    0.387   50.004
  511.750    3.923    0.258    0.377   53.032
  512.000    3.851    0.248    0.369   54.850
  512.250    3.998    0.249    0.379   56.063
  512.500    3.998    0.254    0.369   56.066
  512.750    3.999    0.244    0.347   53.047
  513.000    3.926    0.240    0.344   51.840
  513.250    3.783    0.235    0.344   53.659
  513.500    3.714    0.232    0.344   58.500
  513.750    3.715    0.235    0.353   68.181
  514.000    3.785    0.236    0.384   76.653
  514.250    4.077    0.232    0.383   83.310
  514.500    4.392    0.212    0.366   92.991
  514.750    4.731    0.194    0.366  102.067
  515.000    5.192    0.172    0.385  108.119
  515.250    5.698    0.142    0.413  115.986
  515.500    6.139    0.125    0.401  125.062
  515.750    6.254    0.138    0.374  138.372
  516.000    6.372    0.140    0.369  153.496
  516.250    6.373    0.133    0.375  147.452
  516.500    6.375    0.130    0.387  119.027
  516.750    6.258    0.127    0.399  106.935
  517.000    6.144    0.127    0.403  101.495
  517.250    6.144    0.143    0.397   97.265
  517.500    6.032    0.155    0.391   93.639
  517.750    5.922    0.155    0.374   91.828
  518.000    5.706    0.166    0.363   94.856
  518.250    5.298    0.182    0.365   91.835
  518.500    4.653    0.202    0.379   81.556
  518.750    3.938    0.243    0.380   52.527
  519.000    3.458    0.266    0.379   45.273
  519.250    3.094    0.284    0.369   41.648
  519.500    2.873    0.266    0.345   39.837
  519.750    2.768    0.255    0.342   39.236
  520.000    2.927    0.238    0.307   39.239
  520.250    3.659    0.227    0.278   41.664
  520.500    4.325    0.173    0.156   42.270
  520.750    4.926    0.155    0.163   43.484
  521.000    7.011    0.169    0.171   43.488
  521.250   12.941    0.175    0.174   44.097
  521.500   16.173    0.180    0.177   46.520
  521.750   17.422    0.184    0.178   47.732
  522.000   18.768    0.185    0.178   51.364
  522.250   20.598    0.185    0.179   43.505
  522.500   21.379    0.185    0.180   39.275
  522.750   22.606    0.185    0.180   38.069
  523.000   23.466    0.184    0.180   36.864
  523.250   23.469   -0.001    0.179   36.867
  523.500   23.912   -0.008    0.180   36.870
  523.750   23.477   -0.001    0.181   39.897
  524.000   24.824    0.008    0.185   41.715
  524.250   25.292    0.015    0.188   41.115
  524.500   25.768    0.010    0.188   39.305
  524.750   25.772    0.006    0.186   38.098
  525.000   26.259    0.012    0.185   37.497
