~VERSION INFORMATION
 VERS.                 2.0:   CWLS LOG ASCII STANDARD -VERSION 2.0
 WRAP.                  NO:   ONE LINE PER DEPTH STEP
~WELL INFORMATION BLOCK
#MNEM.UNIT           DATA                    DESCRIPTION OF MNEMONIC
#---------    -------------------            -------------------------------
# Generated from Intellog Unique Number	CS_77_79/WELL/929
WELL.         HOME OIL COMPANY LIMITED       : Well_name    - WELL
LOC .         00/10-04-077-07W4/0            : Location     - LOCATION
UWI .         00/10-04-077-07W4/0            : Uwi          - UNIQUE WELL ID
ENTR.         SP                             : Entered      - ENTERED BY
SRVC.         SCHLUMBERGER                   : Scn          - SERVICE COMPANY
STRT.M        140                            : top_depth    - START DEPTH
STOP.M        375                            : bot_depth    - STOP DEPTH
STEP.M        0.25                           : increment    - STEP LENGTH
 NULL. -999.2500:NULL Value
~CURVE INFORMATION BLOCK
#MNEM UNIT       ERCB CURVE CODE    CURVE DESCRIPTION
#-----------   ------------------   ----------------------------------
DEPT.M        00 001 00 00         : DEPTH        - DEPTH
DPHI.V/V      00 890 00 00         : PHID         - DENSITY POROSITY (LIMESTONE)
NPHI.V/V      00 330 00 00         : PHIN         - NEUTRON POROSITY (LIMESTONE)
GR  .API      00 310 00 00         : GR           - GAMMA RAY
ILD .OHMM     00 120 00 00         : RESD         - DEEP RESISTIVITY (DIL)
~PARAMETER INFORMATION
#MNEM.UNIT           DATA             DESCRIPTION OF MNEMONIC
#---------         -----------     ------------------------------
GL  .M        565.97               : gl           - GROUND LEVEL ELEVATION
EREF.M        569.42               : kb           - ELEVATION OF DEPTH REFERENCE
DATM.M        565.97               : datum        - DATUM ELEVATION
TDD .M        385                  : tdd          - TOTAL DEPTH DRILLER
RUN .         ONE                  : Run          - RUN NUMBER
ENG .         BILL                 : Engineer     - RECORDING ENGINEER
WIT .         JIM                  : Witness      - WITNESSED BY
MUD .         GEL                  : Mud_type     - MUD TYPE
MATR.         LIMESTONE            : Logunit      - NEUTRON MATRIX
TMAX.C        5                    : BHT          - MAXIMUM RECORDED TEMPERATURE
BHTD.M        385                  : BHTDEP       - MAXIMUM RECORDED TEMPERATURE
MATR.         1                    : LOGUNIT      - NEUTRON MATRIX
RMT .C        25                   : MDTP         - TEMPERATURE OF MUD
NEUT.         1                    : NEUTRON      - NEUTRON TYPE
RESI.         0                    : RESIST       - RESISTIVITY TYPE
RMC .OHMM     0.25                 : RMC          - RESISTIVITY OF MUD CAKE
RMF .OHMM     0.25                 : RMF          - RESISTIVITY OF MUD FILTRATE
SUFT.C        15                   : SUFT         - SURFACE TEMPERATURE
~A  DEPTH     PHID     PHIN       GR     RESD
# ...
  227.000    0.294    0.524   92.021    4.933
  227.250    0.304    0.546   91.424    4.842
  227.500    0.305    0.498   92.643    4.753
  227.750    0.267    0.465   93.252    4.413
  228.000    0.229    0.496   96.283    3.949
  228.250    0.246    0.534   98.711    3.735
  228.500    0.249    0.560   96.903    3.469
  228.750    0.267    0.575   95.095    3.281
  229.000    0.267    0.564   94.500    3.281
  229.250    0.274    0.537   94.505    3.404
  229.500    0.267    0.527   95.724    3.533
  229.750    0.282    0.552   96.335    3.666
  230.000    0.280    0.560   95.738    3.734
  230.250    0.275    0.562   94.534    3.804
  230.500    0.279    0.545   92.726    3.804
  230.750    0.277    0.539   96.365    3.734
  231.000    0.279    0.543   97.580    3.598
  231.250    0.289    0.547   96.984    3.403
  231.500    0.300    0.552   97.594    3.219
  231.750    0.289    0.557   98.210    3.160
  232.000    0.294    0.548   96.399    3.279
  232.250    0.299    0.557   89.752    3.733
  232.500    0.312    0.482   84.920    4.095
  232.750    0.286    0.495   80.695    5.020
  233.000    0.298    0.482   78.886    5.405
  233.250    0.293    0.472   80.710    5.930
  233.500    0.265    0.488   81.925    6.153
  233.750    0.272    0.499   81.329    5.820
  234.000    0.277    0.493   80.731    5.405
  234.250    0.274    0.502   79.527    4.747
  234.500    0.282    0.503   78.326    4.490
  234.750    0.296    0.517   80.147    4.327
  235.000    0.312    0.538   81.363    4.327
  235.250    0.316    0.459   77.741    4.574
  235.500    0.317    0.422   72.305    5.111
  235.750    0.343    0.434   67.474    5.504
  236.000    0.365    0.453   64.455    6.265
  236.250    0.347    0.462   64.465    7.132
  236.500    0.340    0.451   64.472    7.970
  236.750    0.337    0.474   64.478    9.073
  237.000    0.334    0.463   63.879    9.591
  237.250    0.330    0.445   61.471    9.414
  237.500    0.331    0.446   60.872    9.241
  237.750    0.331    0.457   60.272    9.071
  238.000    0.331    0.467   59.072    9.071
  238.250    0.337    0.472   58.472    8.904
  238.500    0.341    0.467   61.505    8.740
  238.750    0.339    0.458   62.722    8.740
  239.000    0.344    0.461   63.333    8.739
  239.250    0.349    0.472   63.340    8.739
  239.500    0.359    0.484   63.956    8.739
  239.750    0.350    0.469   63.960    8.738
  240.000    0.342    0.469   63.966    8.578
  240.250    0.337    0.480   66.998    8.114
  240.500    0.342    0.492   70.033    7.818
  240.750    0.325    0.479   70.641    7.395
  241.000    0.301    0.472   70.044    7.126
  241.250    0.318    0.462   70.053    6.867
  241.500    0.315    0.454   70.058    6.995
  241.750    0.307    0.450   67.040    7.394
  242.000    0.322    0.452   64.024    7.673
  242.250    0.319    0.462   70.686    8.111
  242.500    0.322    0.469   73.715    8.262
  242.750    0.316    0.462   83.404    8.416
  243.000    0.308    0.464   87.037    8.261
  243.250    0.292    0.482   87.045    7.961
  243.500    0.283    0.488   84.632    7.530
  243.750    0.283    0.487   84.640    7.392
  244.000    0.285    0.481   85.252    7.391
  244.250    0.272    0.481   84.653    7.529
  244.500    0.268    0.486   81.638    7.669
  244.750    0.262    0.470   80.435    7.669
  245.000    0.263    0.461   79.231    7.669
  245.250    0.268    0.453   80.451    7.669
  245.500    0.266    0.456   81.062    7.527
  245.750    0.266    0.470   81.674    7.527
  246.000    0.262    0.475   81.076    7.389
  246.250    0.255    0.483   79.873    7.388
  246.500    0.267    0.494   79.880    7.388
  246.750    0.258    0.480   81.703    7.388
  247.000    0.257    0.476   85.341    7.252
  247.250    0.263    0.468   86.555    7.252
  247.500    0.258    0.460   87.166    7.118
  247.750    0.250    0.458   90.199    6.987
  248.000    0.246    0.472   92.625    6.733
  248.250    0.243    0.485   93.842    6.609
  248.500    0.241    0.487   96.267    6.369
  248.750    0.239    0.493   96.880    5.913
  249.000    0.237    0.503   93.862    5.698
  249.250    0.241    0.507   89.034    5.491
  249.500    0.264    0.534   87.225    5.390
  249.750    0.316    0.553   85.418    5.291
  250.000    0.369    0.538   84.214    5.098
  250.250    0.394    0.535   84.221    4.396
  250.500    0.309    0.597   84.228    3.721
  250.750    0.299    0.611   87.263    3.329
  251.000    0.276    0.593   87.873    2.818
  251.250    0.281    0.568   87.884    2.569
  251.500    0.286    0.545   87.887    2.430
  251.750    0.293    0.534   84.264    2.617
  252.000    0.312    0.476   81.247    2.870
  252.250    0.336    0.440   80.649    3.267
  252.500    0.330    0.420   80.657    3.860
  252.750    0.310    0.397   77.639    4.156
  253.000    0.330    0.371   70.996    4.910
  253.250    0.329    0.343   69.186    5.487
  253.500    0.330    0.294   66.775    6.980
  253.750    0.345    0.262   68.596    8.246
  254.000    0.346    0.238   73.442   10.490
  254.250    0.319    0.216   74.658   13.594
  254.500    0.397    0.207   74.665   17.294
  254.750    0.414    0.210   77.095   22.000
  255.000    0.406    0.208   77.704   23.691
  255.250    0.409    0.188   77.711   25.988
  255.500    0.417    0.171   70.460   27.985
  255.750    0.412    0.181   63.209   30.699
  256.000    0.391    0.204   58.983   32.451
  256.250    0.385    0.226   59.594   33.674
  256.500    0.391    0.200   59.601   34.302
  256.750    0.402    0.199   58.403   34.300
  257.000    0.412    0.205   58.409   34.298
  257.250    0.407    0.209   58.414   33.668
  257.500    0.418    0.204   58.425   33.049
  257.750    0.431    0.188   58.430   33.047
  258.000    0.438    0.179   58.435   33.046
  258.250    0.431    0.175   58.444   33.663
  258.500    0.425    0.176   58.453   34.931
  258.750    0.420    0.185   58.458   36.248
  259.000    0.408    0.192   59.071   36.923
  259.250    0.414    0.193   59.680   35.579
  259.500    0.431    0.197   58.478   33.037
  259.750    0.446    0.199   59.091   31.835
  260.000    0.451    0.195   60.308   29.560
  260.250    0.456    0.181   61.525   28.484
  260.500    0.460    0.189   62.137   27.447
  260.750    0.451    0.197   62.144   26.448
  261.000    0.446    0.203   59.731   25.962
  261.250    0.436    0.201   58.529   25.016
  261.500    0.431    0.186   58.535   24.557
  261.750    0.440    0.180   58.548   24.556
  262.000    0.455    0.188   58.555   25.481
  262.250    0.432    0.195   59.167   26.441
  262.500    0.416    0.205   59.173   26.934
  262.750    0.413    0.207   59.782   27.949
  263.000    0.409    0.201   59.789   28.471
  263.250    0.416    0.195   57.982   28.469
  263.500    0.415    0.192   55.570   28.468
  263.750    0.410    0.195   54.973   28.467
  264.000    0.407    0.206   54.980   27.943
  264.250    0.411    0.211   54.380   27.429
  264.500    0.415    0.221   53.783   26.431
  264.750    0.416    0.228   53.185   25.001
  265.000    0.410    0.233   53.192   24.091
  265.250    0.406    0.235   53.804   23.648
  265.500    0.402    0.241   55.626   22.787
  265.750    0.404    0.255   56.239   22.368
  266.000    0.398    0.275   56.852   20.770
  266.250    0.390    0.304   57.462   17.258
  266.500    0.381    0.352   55.656   13.316
  266.750    0.370    0.385   56.269   10.466
  267.000    0.367    0.409   56.882    8.697
  267.250    0.368    0.426   57.492    7.639
  267.500    0.363    0.433   57.497    7.361
  267.750    0.359    0.442   57.508    7.361
  268.000    0.347    0.451   56.908    7.360
  268.250    0.340    0.458   56.309    7.360
  268.500    0.334    0.463   55.110    7.360
  268.750    0.337    0.438   53.905    7.497
  269.000    0.349    0.427   53.309    7.359
  269.250    0.353    0.436   53.314    7.224
  269.500    0.359    0.444   53.926    7.091
  269.750    0.363    0.451   53.933    7.090
  270.000    0.356    0.457   53.940    6.960
  270.250    0.358    0.450   53.346    6.960
