~VERSION INFORMATION
 VERS.                 2.0:   CWLS LOG ASCII STANDARD -VERSION 2.0
 WRAP.                  NO:   ONE LINE PER DEPTH STEP
~WELL INFORMATION BLOCK
#MNEM.UNIT           DATA                    DESCRIPTION OF MNEMONIC
#---------    -------------------            -------------------------------
# Generated from Intellog Unique Number	CS_69_70/WELL/889
WELL.         BOW VALLEY INDUSTRIES          : Well_name    - WELL
LOC .         00/11-21-069-13W4/0            : Location     - LOCATION
UWI .         00/11-21-069-13W4/0            : Uwi          - UNIQUE WELL ID
ENTR.         SP                             : Entered      - ENTERED BY
SRVC.         SCHLUMBERGER                   : Scn          - SERVICE COMPANY
STRT.M        270                            : top_depth    - START DEPTH
STOP.M        472                            : bot_depth    - STOP DEPTH
STEP.M        0.25                           : increment    - STEP LENGTH
 NULL. -999.2500:NULL Value
~CURVE INFORMATION BLOCK
#MNEM UNIT       ERCB CURVE CODE    CURVE DESCRIPTION
#-----------   ------------------   ----------------------------------
DEPT.M        00 001 00 00         : DEPTH        - DEPTH
ILD .OHMM     00 120 00 00         : RESD         - DEEP RESISTIVITY (DIL)
DPHI.V/V      00 890 00 00         : PHID         - DENSITY POROSITY (LIMESTONE)
NPHI.V/V      00 330 00 00         : PHIN         - NEUTRON POROSITY (LIMESTONE)
GR  .API      00 310 00 00         : GR           - GAMMA RAY
~PARAMETER INFORMATION
#MNEM.UNIT           DATA             DESCRIPTION OF MNEMONIC
#---------         -----------     ------------------------------
GL  .M        568.76               : gl           - GROUND LEVEL ELEVATION
EREF.M        571.5                : kb           - ELEVATION OF DEPTH REFERENCE
DATM.M        568.76               : datum        - DATUM ELEVATION
TDD .M        480                  : tdd          - TOTAL DEPTH DRILLER
RUN .         ONE                  : Run          - RUN NUMBER
ENG .         BILL                 : Engineer     - RECORDING ENGINEER
WIT .         JIM                  : Witness      - WITNESSED BY
MUD .         GEL                  : Mud_type     - MUD TYPE
MATR.         LIMESTONE            : Logunit      - NEUTRON MATRIX
TMAX.C        24.2                 : BHT          - MAXIMUM RECORDED TEMPERATURE
BHTD.M        480                  : BHTDEP       - MAXIMUM RECORDED TEMPERATURE
MATR.         1                    : LOGUNIT      - NEUTRON MATRIX
RMT .C        25                   : MDTP         - TEMPERATURE OF MUD
NEUT.         1                    : NEUTRON      - NEUTRON TYPE
RESI.         0                    : RESIST       - RESISTIVITY TYPE
RMC .OHMM     0.25                 : RMC          - RESISTIVITY OF MUD CAKE
RMF .OHMM     0.25                 : RMF          - RESISTIVITY OF MUD FILTRATE
SUFT.C        15                   : SUFT         - SURFACE TEMPERATURE
~A  DEPTH     RESD     PHID     PHIN       GR
# ...
  357.000    3.279    0.291    0.466   83.713
  357.250    3.237    0.284    0.474   81.901
  357.500    3.178    0.275    0.472   78.880
  357.750    3.086    0.297    0.456   77.370
  358.000    3.058    0.307    0.447   80.821
  358.250    3.258    0.305    0.440   84.452
  358.500    3.357    0.288    0.437   87.600
  358.750    3.511    0.269    0.445   90.567
  359.000    3.611    0.256    0.456   91.960
  359.250    3.673    0.246    0.452   91.963
  359.500    3.743    0.257    0.463   90.211
  359.750    3.814    0.260    0.457   88.641
  360.000    3.843    0.267    0.447   92.636
  360.250    3.830    0.264    0.447   95.542
  360.500    3.690    0.267    0.451   93.730
  360.750    3.705    0.267    0.463   93.974
  361.000    3.734    0.265    0.475   95.550
  361.250    3.762    0.246    0.467   97.185
  361.500    3.805    0.231    0.458   98.821
  361.750    3.856    0.223    0.451  100.094
  362.000    3.878    0.230    0.448  100.459
  362.250    3.886    0.234    0.454  100.583
  362.500    3.909    0.240    0.460   99.376
  362.750    3.932    0.247    0.467   96.415
  363.000    3.940    0.239    0.472   94.603
  363.250    3.955    0.225    0.456   97.025
  363.500    3.985    0.231    0.448   99.749
  363.750    4.024    0.227    0.441  102.353
  364.000    4.054    0.228    0.448  103.867
  364.250    4.070    0.218    0.460  104.838
  364.500    4.094    0.213    0.469  101.756
  364.750    4.095    0.208    0.454   99.702
  365.000    4.073    0.204    0.449   99.825
  365.250    4.044    0.212    0.443  100.312
  365.500    3.963    0.242    0.444   98.863
  365.750    3.877    0.260    0.453   96.749
  366.000    3.820    0.262    0.455   97.598
  366.250    3.764    0.241    0.453   98.931
  366.500    3.709    0.233    0.450   97.966
  366.750    3.649    0.241    0.446   96.094
  367.000    3.603    0.249    0.443   95.794
  367.250    3.570    0.263    0.441   96.885
  367.500    3.558    0.254    0.441   98.460
  367.750    3.572    0.251    0.445   99.612
  368.000    3.599    0.250    0.450  101.066
  368.250    3.694    0.236    0.451  102.763
  368.500    3.871    0.212    0.452  103.552
  368.750    4.003    0.204    0.454  104.461
  369.000    4.095    0.201    0.458  104.827
  369.250    4.096    0.209    0.465  104.346
  369.500    4.058    0.227    0.469  102.594
  369.750    3.977    0.237    0.457   99.875
  370.000    3.949    0.233    0.445   98.003
  370.250    4.046    0.228    0.430   98.006
  370.500    4.255    0.223    0.420   98.371
  370.750    4.593    0.218    0.418   98.676
  371.000    5.004    0.233    0.407   98.618
  371.250    5.243    0.145    0.392   97.532
  371.500    5.176    0.121    0.364   94.087
  371.750    4.924    0.108    0.344   85.561
  372.000    4.598    0.097    0.332   90.947
  372.250    4.358    0.193    0.371   97.482
  372.500    4.161    0.207    0.433  101.174
  372.750    4.062    0.203    0.431  101.902
  373.000    4.124    0.199    0.446  101.724
  373.250    4.281    0.211    0.456  101.847
  373.500    4.354    0.212    0.447  101.729
  373.750    4.371    0.197    0.441  102.578
  374.000    4.252    0.189    0.438  106.512
  374.250    3.790    0.200    0.440  109.418
  374.500    3.304    0.214    0.455  111.598
  374.750    2.950    0.222    0.471  112.871
  375.000    2.620    0.243    0.472  109.305
  375.250    2.357    0.308    0.466  107.009
  375.500    2.066    0.338    0.506  106.165
  375.750    1.894    0.356    0.546  106.168
  376.000    1.782    0.379    0.559  105.202
  376.250    1.739    0.365    0.574  102.302
  376.500    1.826    0.310    0.551  101.216
  376.750    2.012    0.295    0.561  104.908
  377.000    2.343    0.288    0.573  107.693
  377.250    2.719    0.247    0.530  108.119
  377.500    3.064    0.224    0.490  102.617
  377.750    3.438    0.229    0.469   99.717
  378.000    3.739    0.243    0.457   99.357
  378.250    3.925    0.250    0.450   99.964
  378.500    4.030    0.239    0.444  101.176
  378.750    4.053    0.229    0.439  101.542
  379.000    4.024    0.219    0.443   97.794
  379.250    3.842    0.216    0.455   94.350
  379.500    3.682    0.214    0.458   92.296
  379.750    3.496    0.228    0.453   90.605
  380.000    3.382    0.259    0.450   88.914
  380.250    3.277    0.281    0.452   87.163
  380.500    3.212    0.279    0.454   86.439
  380.750    3.260    0.272    0.450   86.261
  381.000    3.385    0.266    0.447   85.719
  381.250    3.520    0.258    0.447   85.480
  381.500    3.501    0.235    0.451   85.542
  381.750    3.306    0.209    0.460   86.513
  382.000    3.325    0.241    0.457   87.302
  382.250    3.376    0.268    0.436   85.368
  382.500    3.420    0.228    0.382   75.815
  382.750    3.327    0.194    0.342   71.644
  383.000    3.183    0.186    0.373   67.231
  383.250    2.912    0.250    0.393   64.814
  383.500    2.674    0.316    0.431   63.305
  383.750    2.553    0.319    0.426   63.247
  384.000    2.474    0.308    0.421   63.915
  384.250    2.465    0.308    0.420   64.704
  384.500    2.503    0.319    0.414   65.311
  384.750    2.522    0.305    0.403   63.923
  385.000    2.570    0.245    0.395   61.627
  385.250    2.604    0.203    0.378   60.178
  385.500    2.610    0.185    0.365   63.205
  385.750    2.596    0.257    0.392   64.720
  386.000    2.539    0.302    0.425   64.057
  386.250    2.442    0.298    0.418   65.632
  386.500    2.380    0.308    0.424   67.268
  386.750    2.354    0.314    0.431   69.327
  387.000    2.368    0.317    0.436   71.084
  387.250    2.386    0.323    0.440   73.808
  387.500    2.413    0.326    0.446   75.867
  387.750    2.464    0.328    0.461   77.503
  388.000    2.483    0.326    0.477   79.139
  388.250    2.492    0.317    0.464   79.988
  388.500    2.516    0.309    0.452   79.265
  388.750    2.535    0.306    0.441   77.271
  389.000    2.564    0.322    0.443   76.729
  389.250    2.642    0.311    0.452   80.724
  389.500    2.743    0.301    0.455   82.723
  389.750    2.858    0.298    0.451   83.875
  390.000    2.934    0.291    0.451   84.724
  390.250    3.001    0.273    0.465   83.940
  390.500    3.046    0.286    0.473   81.463
  390.750    3.093    0.320    0.473   79.349
  391.000    3.128    0.299    0.466   78.202
  391.250    3.176    0.276    0.459   77.842
  391.500    3.272    0.271    0.451   78.510
  391.750    3.448    0.268    0.445   83.472
  392.000    3.633    0.252    0.439   89.100
  392.250    3.820    0.237    0.432   94.969
  392.500    3.951    0.228    0.427   97.815
  392.750    4.019    0.221    0.431   98.966
  393.000    4.087    0.216    0.440   97.517
  393.250    4.180    0.214    0.454   96.613
  393.500    4.331    0.219    0.462   96.495
  393.750    4.471    0.226    0.449   96.618
  394.000    4.548    0.226    0.437   97.105
  394.250    4.583    0.211    0.428   97.531
  394.500    4.618    0.195    0.431   97.654
  394.750    4.551    0.179    0.432   98.624
  395.000    4.249    0.162    0.436  100.986
  395.250    3.938    0.143    0.450  104.194
  395.500    3.610    0.168    0.462  106.798
  395.750    3.352    0.204    0.463  108.615
  396.000    3.171    0.201    0.460  111.218
  396.250    3.050    0.189    0.471  110.918
  396.500    2.989    0.182    0.498  109.106
  396.750    2.907    0.209    0.533  110.258
  397.000    2.818    0.214    0.532  111.652
  397.250    2.782    0.218    0.535  112.622
  397.500    2.726    0.228    0.533  113.956
  397.750    2.662    0.240    0.523  114.926
  398.000    2.603    0.229    0.509  112.933
  398.250    2.542    0.217    0.506  109.609
  398.500    2.477    0.232    0.511  109.853
  398.750    2.446    0.225    0.522  111.913
  399.000    2.433    0.226    0.528  112.339
  399.250    2.451    0.234    0.536  112.039
  399.500    2.507    0.229    0.530  112.707
  399.750    2.696    0.232    0.518  113.678
  400.000    2.804    0.230    0.506  114.466
  400.250    2.982    0.217    0.500  115.013
