~VERSION INFORMATION
 VERS.                 2.0:   CWLS LOG ASCII STANDARD -VERSION 2.0
 WRAP.                  NO:   ONE LINE PER DEPTH STEP
~WELL INFORMATION BLOCK
#MNEM.UNIT           DATA                    DESCRIPTION OF MNEMONIC
#---------    -------------------            -------------------------------
# Generated from Intellog Unique Number	CN_91_93/WELL/2811
WELL.         11-14-093-21W4                 : Well_name    - WELL
LOC .         00/11-14-093-21W4/0            : Location     - LOCATION
UWI .         00/11-14-093-21W4/0            : Uwi          - UNIQUE WELL ID
ENTR.         JOETTE                         : Entered      - ENTERED BY
SRVC.         SCHLUMBERGER                   : Scn          - SERVICE COMPANY
DATE.         03/24/92                       : Date         - LOG DATE
STRT.F        250                            : top_depth    - START DEPTH
STOP.F        889.764                        : bot_depth    - STOP DEPTH
STEP.F        0.82                           : increment    - STEP LENGTH
 NULL. -999.2500:NULL Value
~CURVE INFORMATION BLOCK
#MNEM UNIT       ERCB CURVE CODE    CURVE DESCRIPTION
#-----------   ------------------   ----------------------------------
DEPT.F        00 001 00 00         : DEPTH        - DEPTH
CALI.IN       00 280 01 00         : CAL          - CALIPER
GR  .API      00 310 00 00         : GR           - GAMMA RAY
NPHI.V/V      00 330 00 00         : PHIN         - NEUTRON POROSITY (SANDSTONE)
DPHI.V/V      00 890 00 00         : PHID         - DENSITY POROSITY (SANDSTONE)
ILD .OHMM     00 120 00 00         : RESD         - DEEP RESISTIVITY (DIL)
~PARAMETER INFORMATION
#MNEM.UNIT           DATA             DESCRIPTION OF MNEMONIC
#---------         -----------     ------------------------------
GL  .M        548.64               : gl           - GROUND LEVEL ELEVATION
EREF.M        550.469              : kb           - ELEVATION OF DEPTH REFERENCE
DATM.M        550.469              : datum        - DATUM ELEVATION
TDD .M        383.134              : tdd          - TOTAL DEPTH DRILLER
RUN .         ONE                  : Run          - RUN NUMBER
ENG .         BILL                 : Engineer     - RECORDING ENGINEER
WIT .         JIM                  : Witness      - WITNESSED BY
MUD .         GEL                  : Mud_type     - MUD TYPE
MATR.         SANDSTONE            : Logunit      - NEUTRON MATRIX
TMAX.F        69.8                 : BHT          - MAXIMUM RECORDED TEMPERATURE
BHTD.F        1257                 : BHTDEP       - MAXIMUM RECORDED TEMPERATURE
RMT .F        65                   : MDTP         - TEMPERATURE OF MUD
MUDD.LB/G     9.2                  : MWT          - MUD DENSITY
NEUT.         1                    : NEUTRON      - NEUTRON TYPE
RESI.         0                    : RESIST       - RESISTIVITY TYPE
RM  .OHMM     3.85                 : RM           - RESISTIVITY OF MUD
RMC .OHMM     3.85                 : RMC          - RESISTIVITY OF MUD CAKE
RMF .OHMM     3.85                 : RMF          - RESISTIVITY OF MUD FILTRATE
SUFT.F        39.2                 : SUFT         - SURFACE TEMPERATURE
~A  DEPTH      CAL       GR     PHIN     PHID     RESD
# ...
  489.501    8.972   81.197    0.480    0.285   12.554
  490.322    9.015   75.680    0.436    0.257   13.281
  491.142    9.018   81.906    0.420    0.236   14.320
  491.962    9.104   94.941    0.375    0.302   13.557
  492.782    9.190  100.548    0.476    0.333   11.479
  493.602    9.275  108.010    0.492    0.332    9.027
  494.423    9.362  112.393    0.498    0.346    7.938
  495.243    9.406  109.348    0.501    0.356    7.795
  496.063    9.409  103.213    0.487    0.354    7.953
  496.883    9.370  100.798    0.483    0.346    7.957
  497.703    9.291   99.608    0.477    0.333    8.267
  498.524    9.252   96.551    0.468    0.331    8.274
  499.344    9.215   90.417    0.495    0.338    7.979
  500.164    9.218   90.473    0.507    0.327    7.415
  500.984    9.222   91.755    0.514    0.304    6.516
  501.804    9.225   90.564    0.504    0.287    5.318
  502.625    9.268   91.857    0.509    0.307    4.421
  503.445    9.396   98.689    0.543    0.335    3.744
  504.265    9.439  106.151    0.568    0.333    3.479
  505.085    9.607  105.578    0.569    0.334    3.295
  505.906    9.817  105.646    0.560    0.333    3.299
  506.726    9.945  107.557    0.542    0.324    3.362
  507.546    9.988  107.580    0.538    0.320    3.624
  508.366    9.991  104.535    0.539    0.325    3.980
  509.186   10.036   99.636    0.540    0.333    4.291
  510.007   10.039   97.828    0.534    0.329    4.626
  510.827   10.042   98.491    0.523    0.326    4.897
  511.647   10.004   99.806    0.508    0.327    4.902
  512.467   10.007   97.986    0.509    0.332    4.814
  513.287    9.969   99.268    0.520    0.346    4.154
  514.108    9.973  102.392    0.535    0.338    4.006
  514.928    9.975  106.146    0.545    0.336    3.864
  515.748    9.979  106.832    0.546    0.343    3.867
  516.568    9.981  108.113    0.535    0.337    3.944
  517.388   10.027  113.091    0.528    0.331    4.022
  518.209   10.029  114.991    0.564    0.329    4.100
  519.029   10.073  112.587    0.559    0.326    4.258
  519.849   10.118  110.160    0.542    0.322    4.423
  520.669   10.122  107.115    0.532    0.318    4.684
  521.490   10.166  104.689    0.524    0.325    4.773
  522.310   10.168  104.734    0.526    0.334    4.959
  523.130   10.172  107.870    0.531    0.332    5.056
  523.950   10.216  109.162    0.527    0.327    5.156
  524.770   10.220  109.208    0.521    0.318    5.159
  525.591   10.181  111.107    0.511    0.310    5.261
  526.411   10.184  112.389    0.502    0.303    5.267
  527.231   10.146  111.827    0.497    0.299    5.272
  528.051   10.067  110.614    0.504    0.298    5.179
  528.871   10.028  110.053    0.511    0.304    4.996
  529.692    9.990  110.716    0.509    0.311    4.819
  530.512    9.952  115.088    0.509    0.304    4.733
  531.332    9.956  116.380    0.516    0.295    4.650
  532.152   10.001  113.954    0.522    0.302    4.569
  532.972   10.004  115.235    0.516    0.288    4.575
  533.793   10.047  118.371    0.518    0.281    4.577
  534.613   10.093  122.147    0.526    0.283    4.581
  535.433   10.096  122.788    0.526    0.284    4.586
  536.253   10.099  127.170    0.530    0.287    4.423
  537.073   10.102  127.834    0.540    0.294    4.426
  537.894   10.022  127.261    0.541    0.305    4.350
  538.714    9.942  127.307    0.539    0.309    4.353
  539.534    9.823  130.442    0.564    0.306    4.356
  540.354    9.743  126.779    0.557    0.292    4.443
  541.175    9.705  123.128    0.539    0.293    4.615
  541.995    9.667  122.555    0.543    0.288    4.706
  542.815    9.629  122.601    0.542    0.297    4.710
  543.635    9.632  122.028    0.534    0.306    4.802
  544.455    9.636  119.601    0.560    0.283    4.718
  545.276    9.638  121.512    0.562    0.273    4.635
  546.096    9.642  120.940    0.562    0.251    4.470
  546.916    9.605  118.502    0.559    0.244    4.311
  547.736    9.565  114.839    0.546    0.235    4.236
  548.556    9.528  111.805    0.522    0.292    4.161
  549.377    9.489  112.480    0.500    0.311    4.166
  550.197    9.451  113.144    0.507    0.321    4.330
  551.017    9.413  108.863    0.511    0.317    4.412
  551.837    9.375  105.189    0.519    0.325    4.757
  552.657    9.337  100.290    0.532    0.327    5.033
  553.478    9.299   96.627    0.524    0.303    5.427
  554.298    9.260   93.582    0.499    0.276    5.638
  555.118    9.182  101.662    0.495    0.279    5.541
  555.938    9.185  110.989    0.504    0.301    5.342
  556.759    9.230  114.754    0.522    0.320    4.963
  557.579    9.232  116.036    0.537    0.331    4.126
  558.399    9.236  114.227    0.555    0.332    3.496
  559.219    9.239  110.553    0.559    0.321    3.248
  560.039    9.243  108.137    0.551    0.318    3.635
  560.860    9.203  109.430    0.540    0.325    3.991
  561.680    9.165  109.476    0.538    0.318    4.549
  562.500    9.128  109.510    0.542    0.302    4.903
  563.320    9.131  106.465    0.542    0.291    5.385
  564.140    9.176  103.420    0.535    0.250    5.698
  564.961    9.220  111.511    0.520    0.237    6.032
  565.781    9.263  116.501    0.484    0.245    6.149
  566.601    9.309  115.951    0.495    0.279    6.044
  567.421    9.311  114.738    0.509    0.313    5.937
  568.241    9.314  114.794    0.519    0.311    5.724
  569.062    9.317  116.694    0.523    0.310    5.624
  569.882    9.280  117.357    0.524    0.320    5.526
  570.702    9.118  115.548    0.513    0.318    5.533
  571.522    8.626  109.414    0.514    0.321    5.536
  572.343    9.165  110.088    0.517    0.320    5.542
  573.163    9.457  111.976    0.518    0.317    5.546
  573.983    9.501  112.640    0.524    0.324    5.656
  574.803    9.545  112.090    0.531    0.330    5.767
  575.623    9.548  111.506    0.542    0.328    5.773
  576.444    9.593  110.933    0.533    0.316    5.777
  577.264    9.597  111.597    0.509    0.315    5.890
  578.084    9.600  112.272    0.498    0.320    6.007
  578.904    9.604  110.463    0.505    0.324    6.124
  579.724    9.605  106.171    0.513    0.318    6.483
  580.545    9.569  105.621    0.511    0.303    6.733
  581.365    9.571  103.183    0.504    0.281    7.124
  582.185    9.575  101.374    0.493    0.276    7.400
  583.005    9.577  104.510    0.469    0.301    7.545
  583.825    9.539  106.409    0.490    0.302    7.693
  584.646    9.543  105.836    0.485    0.265    7.700
  585.466    9.504  105.286    0.474    0.258    7.569
  586.286    9.509  107.804    0.463    0.250    7.433
  587.106    9.510  109.085    0.469    0.256    6.296
  587.927    9.515  109.142    0.489    0.291    5.236
  588.747    9.516  109.165    0.496    0.308    5.048
  589.567    9.561  109.828    0.486    0.310    4.780
  590.387    9.605  118.549    0.482    0.307    4.610
  591.207    9.650  119.830    0.501    0.315    4.445
  592.028    9.694  120.493    0.535    0.305    4.287
  592.848    9.698  124.865    0.556    0.306    4.061
  593.668    9.700  128.000    0.567    0.308    3.987
  594.488    9.663  124.338    0.576    0.307    3.848
  595.308    9.625  125.001    0.593    0.300    3.849
  596.129    9.545  128.148    0.583    0.305    3.925
  596.949    9.426  120.148    0.567    0.313    4.311
  597.769    9.388  114.642    0.561    0.312    4.735
  598.589    9.348  117.766    0.548    0.310    4.827
  599.409    9.311  119.677    0.535    0.313    4.571
  600.230    9.437  119.723    0.519    0.318    4.408
  601.050    9.523  122.251    0.530    0.318    4.411
  601.870    9.650  122.297    0.542    0.321    4.498
  602.690    9.694  119.859    0.536    0.329    4.673
  603.510    9.697  117.432    0.528    0.337    4.765
  604.331    9.742  117.500    0.516    0.332    4.770
  605.151    9.786  122.490    0.507    0.319    4.687
  605.971    9.831  126.255    0.501    0.314    4.690
  606.791    9.917  126.277    0.508    0.308    4.608
  607.612    9.919  123.862    0.517    0.306    4.611
  608.432   10.004  122.065    0.513    0.314    4.531
