~VERSION INFORMATION
 VERS.                 2.0:   CWLS LOG ASCII STANDARD -VERSION 2.0
 WRAP.                  NO:   ONE LINE PER DEPTH STEP
~WELL INFORMATION BLOCK
#MNEM.UNIT           DATA                    DESCRIPTION OF MNEMONIC
#---------    -------------------            -------------------------------
# Generated from Intellog Unique Number	CS_73_76/WELL/2182
WELL.         PEX KIRBY                      : Well_name    - WELL
LOC .         00/10-01-074-08W4/0            : Location     - LOCATION
UWI .         00/10-01-074-08W4/0            : Uwi          - UNIQUE WELL ID
ENTR.         SP                             : Entered      - ENTERED BY
SRVC.         SCHLUMBERGER                   : Scn          - SERVICE COMPANY
STRT.M        340                            : top_depth    - START DEPTH
STOP.M        565                            : bot_depth    - STOP DEPTH
STEP.M        0.25                           : increment    - STEP LENGTH
 NULL. -999.2500:NULL Value
~CURVE INFORMATION BLOCK
#MNEM UNIT       ERCB CURVE CODE    CURVE DESCRIPTION
#-----------   ------------------   ----------------------------------
DEPT.M        00 001 00 00         : DEPTH        - DEPTH
DPHI.V/V      00 890 00 00         : PHID         - DENSITY POROSITY (LIMESTONE)
NPHI.V/V      00 330 00 00         : PHIN         - NEUTRON POROSITY (LIMESTONE)
GR  .API      00 310 00 00         : GR           - GAMMA RAY
ILD .OHMM     00 120 00 00         : RESD         - DEEP RESISTIVITY (DIL)
~PARAMETER INFORMATION
#MNEM.UNIT           DATA             DESCRIPTION OF MNEMONIC
#---------         -----------     ------------------------------
GL  .M        725.14               : gl           - GROUND LEVEL ELEVATION
EREF.M        728.54               : kb           - ELEVATION OF DEPTH REFERENCE
DATM.M        725.14               : datum        - DATUM ELEVATION
TDD .M        573                  : tdd          - TOTAL DEPTH DRILLER
RUN .         ONE                  : Run          - RUN NUMBER
ENG .         BILL                 : Engineer     - RECORDING ENGINEER
WIT .         JIM                  : Witness      - WITNESSED BY
MUD .         GEL                  : Mud_type     - MUD TYPE
MATR.         LIMESTONE            : Logunit      - NEUTRON MATRIX
TMAX.C        30                   : BHT          - MAXIMUM RECORDED TEMPERATURE
BHTD.M        573                  : BHTDEP       - MAXIMUM RECORDED TEMPERATURE
MATR.         1                    : LOGUNIT      - NEUTRON MATRIX
RMT .C        25                   : MDTP         - TEMPERATURE OF MUD
NEUT.         1                    : NEUTRON      - NEUTRON TYPE
RESI.         0                    : RESIST       - RESISTIVITY TYPE
RMC .OHMM     0.25                 : RMC          - RESISTIVITY OF MUD CAKE
RMF .OHMM     0.25                 : RMF          - RESISTIVITY OF MUD FILTRATE
SUFT.C        15                   : SUFT         - SURFACE TEMPERATURE
~A  DEPTH     PHID     PHIN       GR     RESD
# ...
  514.000    0.176    0.342   80.533    7.041
  514.250    0.193    0.356   84.221    7.034
  514.500    0.206    0.360   87.295    7.094
  514.750    0.221    0.371   79.918    7.291
  515.000    0.228    0.353   76.230    7.492
  515.250    0.215    0.340   77.459    7.627
  515.500    0.226    0.352   71.926    7.692
  515.750    0.182    0.370   76.844    7.615
  516.000    0.173    0.355   78.689    7.331
  516.250    0.165    0.360   93.443    6.993
  516.500    0.171    0.365   95.287    6.795
  516.750    0.177    0.358   92.213    6.542
  517.000    0.163    0.359   91.598    6.417
  517.250    0.187    0.365   90.984    6.352
  517.500    0.201    0.374   85.451    6.406
  517.750    0.196    0.376   83.607    6.462
  518.000    0.184    0.374   89.139    7.022
  518.250    0.185    0.387   90.984    7.629
  518.500    0.195    0.358   89.139    8.062
  518.750    0.207    0.349   83.607    8.924
  519.000    0.222    0.364   82.992    9.788
  519.250    0.226    0.352   79.303   10.538
  519.500    0.248    0.377   79.918   12.222
  519.750    0.277    0.375   62.090   15.131
  520.000    0.271    0.354   49.180   22.777
  520.250    0.273    0.334   37.500   32.422
  520.500    0.300    0.342   36.270   45.728
  520.750    0.312    0.358   35.041   84.483
  521.000    0.309    0.373   32.582  112.682
  521.250    0.322    0.382   32.582  101.625
  521.500    0.318    0.387   37.500   87.493
  521.750    0.318    0.395   40.574   73.936
  522.000    0.322    0.384   43.033   64.243
  522.250    0.311    0.378   44.877   54.289
  522.500    0.310    0.361   47.951   47.617
  522.750    0.302    0.361   53.484   41.383
  523.000    0.296    0.350   56.557   35.288
  523.250    0.296    0.346   57.787   32.132
  523.500    0.282    0.366   62.705   26.902
  523.750    0.285    0.355   68.853   23.377
  524.000    0.285    0.366   71.926   20.890
  524.250    0.279    0.362   76.230   19.376
  524.500    0.290    0.347   78.074   18.138
  524.750    0.291    0.335   76.230   17.300
  525.000    0.290    0.329   70.697   16.656
  525.250    0.281    0.343   68.238   15.739
  525.500    0.252    0.361   71.311   14.328
  525.750    0.228    0.360   78.074   12.685
  526.000    0.204    0.366   76.230   10.718
  526.250    0.207    0.361   73.156    9.229
  526.500    0.228    0.366   74.385    7.872
  526.750    0.241    0.379   77.459    7.033
  527.000    0.232    0.364   71.926    6.646
  527.250    0.195    0.361   75.615    6.280
  527.500    0.179    0.370   84.836    6.161
  527.750    0.176    0.377   92.213    6.042
  528.000    0.182    0.364   98.975    5.926
  528.250    0.185    0.380  103.893    5.921
  528.500    0.190    0.359  106.967    5.972
  528.750    0.183    0.341   99.590    6.081
  529.000    0.176    0.323  108.197    6.190
  529.250    0.185    0.326  101.434    6.420
  529.500    0.166    0.342   95.287    6.597
  529.750    0.150    0.353   90.369    6.716
  530.000    0.158    0.339   87.910    6.837
  530.250    0.160    0.323   76.230    7.091
  530.500    0.176    0.307   70.082    7.355
  530.750    0.210    0.296   67.008    7.627
  531.000    0.235    0.313   63.934    7.622
  531.250    0.231    0.326   63.320    7.406
  531.500    0.220    0.341   71.926    7.265
  531.750    0.232    0.354   73.156    7.125
  532.000    0.230    0.356   70.697    7.054
  532.250    0.209    0.343   65.779    7.115
  532.500    0.198    0.352   70.082    7.379
  532.750    0.192    0.354   73.770    8.323
  533.000    0.210    0.347   78.074    9.743
  533.250    0.228    0.357   62.090   12.175
  533.500    0.259    0.368   52.869   15.789
  533.750    0.256    0.361   51.639   15.486
  534.000    0.247    0.364   54.713   14.364
  534.250    0.287    0.349   45.492   12.598
  534.500    0.253    0.344   48.566   10.647
  534.750    0.216    0.331   63.320    8.997
  535.000    0.187    0.324   83.607    8.422
  535.250    0.179    0.325   89.139    7.596
  535.500    0.171    0.315   94.057    7.734
  535.750    0.176    0.326   98.975    8.641
  536.000    0.185    0.317   76.230    9.478
  536.250    0.193    0.322   53.484   10.396
  536.500    0.289    0.325   49.180   11.190
  536.750    0.282    0.330   50.410   11.182
  537.000    0.223    0.334   63.934   10.086
  537.250    0.166    0.326   81.762    7.141
  537.500    0.142    0.333   91.598    6.502
  537.750    0.164    0.329   88.525    6.377
  538.000    0.162    0.332   82.377    6.371
  538.250    0.160    0.339   84.836    6.671
  538.500    0.161    0.346   79.303    7.315
  538.750    0.169    0.342   74.385    8.099
  539.000    0.214    0.334   68.238    9.482
  539.250    0.230    0.340   66.393   10.997
  539.500    0.235    0.327   62.090   12.993
  539.750    0.213    0.335   73.770   15.495
  540.000    0.207    0.344   83.607   17.317
  540.250    0.223    0.340   81.147   24.196
  540.500    0.247    0.346   68.238   27.802
  540.750    0.267    0.356   55.328   31.066
  541.000    0.280    0.352   59.631   34.069
  541.250    0.293    0.356   62.705   35.339
  541.500    0.306    0.371   55.328   35.643
  541.750    0.314    0.388   54.713   34.632
  542.000    0.310    0.376   49.795   32.422
  542.250    0.283    0.369   46.107   28.707
  542.500    0.280    0.372   49.795   25.412
  542.750    0.281    0.361   47.336   24.465
  543.000    0.297    0.366   44.877   23.775
  543.250    0.319    0.367   49.180   21.643
  543.500    0.302    0.353   44.262   19.523
  543.750    0.284    0.340   51.025   17.284
  544.000    0.276    0.338   47.336   15.588
  544.250    0.257    0.356   58.402   14.457
  544.500    0.296    0.355   63.934   12.920
  544.750    0.314    0.348   45.492   11.439
  545.000    0.289    0.353   41.188    9.757
  545.250    0.290    0.357   43.648    7.725
  545.500    0.286    0.355   40.574    6.115
  545.750    0.286    0.331   43.648    5.120
  546.000    0.285    0.335   57.787    4.207
  546.250    0.274    0.336   68.238    3.522
  546.500    0.286    0.329   71.926    3.004
  546.750    0.310    0.331   71.926    2.760
  547.000    0.304    0.345   65.164    2.633
  547.250    0.299    0.350   51.639    2.535
  547.500    0.291    0.345   47.951    2.463
  547.750    0.291    0.336   52.869    2.603
  548.000    0.304    0.329   56.557    2.802
  548.250    0.263    0.341   65.164    3.102
  548.500    0.133    0.348   77.459    3.531
  548.750    0.088    0.332   91.598    4.134
  549.000    0.154    0.345  103.893    4.750
  549.250    0.106    0.359  100.820    5.019
  549.500    0.117    0.346  134.631    5.661
  549.750    0.145    0.315  144.467    5.709
  550.000    0.176    0.315  118.648    5.705
  550.250    0.170    0.335  101.434    5.754
  550.500    0.172    0.346   96.516    5.913
  550.750    0.181    0.342   90.984    5.964
  551.000    0.179    0.347   80.533    5.960
  551.250    0.159    0.353   86.680    5.900
  551.500    0.148    0.346   89.754    5.894
  551.750    0.150    0.346   92.828    5.891
  552.000    0.162    0.342   87.910    5.997
  552.250    0.166    0.332   95.287    5.993
  552.500    0.167    0.325   91.598    5.988
  552.750    0.171    0.322   86.066    5.984
  553.000    0.206    0.317   78.689    5.979
  553.250    0.216    0.315   68.853    5.975
  553.500    0.205    0.309   73.770    5.970
  553.750    0.196    0.319   73.770    5.911
  554.000    0.190    0.323   76.230    5.797
  554.250    0.194    0.334   75.000    5.686
  554.500    0.188    0.332   85.451    5.628
  554.750    0.199    0.331   87.295    5.677
  555.000    0.202    0.325   84.221    5.779
  555.250    0.180    0.325   77.459    5.829
  555.500    0.173    0.322   80.533    5.880
  555.750    0.161    0.321   78.074    5.766
  556.000    0.163    0.320   78.689    5.656
  556.250    0.159    0.329   75.000    5.245
  556.500    0.170    0.334   82.992    5.004
  556.750    0.168    0.328   87.295    4.598
  557.000    0.180    0.322   84.836    4.264
  557.250    0.180    0.328   80.533    3.955
