~VERSION INFORMATION
 VERS.                 2.0:   CWLS LOG ASCII STANDARD -VERSION 2.0
 WRAP.                  NO:   ONE LINE PER DEPTH STEP
~WELL INFORMATION BLOCK
#MNEM.UNIT           DATA                    DESCRIPTION OF MNEMONIC
#---------    -------------------            -------------------------------
# Generated from Intellog Unique Number	CW_79_81/WELL/2473
WELL.         HB GODIN                       : Well_name    - WELL
LOC .         00/10-23-081-02W5/0            : Location     - LOCATION
UWI .         00/10-23-081-02W5/0            : Uwi          - UNIQUE WELL ID
ENTR.         MAX                            : Entered      - ENTERED BY
SRVC.         SCHLUMBERGER                   : Scn          - SERVICE COMPANY
STRT.M        243.84                         : top_depth    - START DEPTH
STOP.M        460.09                         : bot_depth    - STOP DEPTH
STEP.M        0.25                           : increment    - STEP LENGTH
 NULL. -999.2500:NULL Value
~CURVE INFORMATION BLOCK
#MNEM UNIT       ERCB CURVE CODE    CURVE DESCRIPTION
#-----------   ------------------   ----------------------------------
DEPT.M        00 001 00 00         : DEPTH        - DEPTH
ILD .OHMM     00 120 00 00         : RESD         - DEEP RESISTIVITY (DIL)
NPHI.V/V      00 330 00 00         : PHIN         - NEUTRON POROSITY (SANDSTONE)
DPHI.V/V      00 890 00 00         : PHID         - DENSITY POROSITY (SANDSTONE)
GR  .API      00 310 00 00         : GR           - GAMMA RAY
CALI.MM       00 280 01 00         : CAL          - CALIPER
~PARAMETER INFORMATION
#MNEM.UNIT           DATA             DESCRIPTION OF MNEMONIC
#---------         -----------     ------------------------------
GL  .M        586.435              : gl           - GROUND LEVEL ELEVATION
EREF.M        590.093              : kb           - ELEVATION OF DEPTH REFERENCE
DATM.M        586.435              : datum        - DATUM ELEVATION
TDD .M        445.008              : tdd          - TOTAL DEPTH DRILLER
RUN .         ONE                  : Run          - RUN NUMBER
ENG .         BILL                 : Engineer     - RECORDING ENGINEER
WIT .         JIM                  : Witness      - WITNESSED BY
MUD .         GEL                  : Mud_type     - MUD TYPE
MATR.         SANDSTONE            : Logunit      - NEUTRON MATRIX
TMAX.C        23.8889              : BHT          - MAXIMUM RECORDED TEMPERATURE
BHTD.M        445.008              : BHTDEP       - MAXIMUM RECORDED TEMPERATURE
MATR.         1                    : LOGUNIT      - NEUTRON MATRIX
RMT .C        18.8889              : MDTP         - TEMPERATURE OF MUD
NEUT.         1                    : NEUTRON      - NEUTRON TYPE
RESI.         0                    : RESIST       - RESISTIVITY TYPE
RMC .OHMM     3.22                 : RMC          - RESISTIVITY OF MUD CAKE
RMF .OHMM     3.22                 : RMF          - RESISTIVITY OF MUD FILTRATE
SUFT.C        -20.5556             : SUFT         - SURFACE TEMPERATURE
~A  DEPTH     RESD     PHIN     PHID       GR      CAL
# ...
  280.340    7.456    0.478    0.307   59.857  206.871
  280.590    9.046    0.489    0.316   59.289  207.291
  280.840   11.985    0.492    0.327   56.849  207.708
  281.090   20.691    0.489    0.336   53.668  208.218
  281.340   29.820    0.481    0.344   51.732  208.661
  281.590   27.723    0.479    0.352   51.748  208.288
  281.840   19.399    0.483    0.363   51.939  206.731
  282.090   12.149    0.489    0.367   53.357  205.369
  282.340    7.694    0.496    0.359   56.177  204.796
  282.590    4.752    0.514    0.338   60.386  204.909
  282.840    3.501    0.530    0.313   63.813  205.347
  283.090    3.022    0.549    0.277   69.676  207.353
  283.340    3.002    0.560    0.279   75.189  208.471
  283.590    3.188    0.561    0.287   77.779  208.695
  283.840    3.623    0.557    0.286   77.326  208.123
  284.090    5.005    0.558    0.286   75.296  206.303
  284.340    5.969    0.566    0.291   70.925  203.033
  284.590    7.270    0.531    0.309   66.729  203.053
  284.840    8.067    0.511    0.327   61.480  203.082
  285.090    8.159    0.504    0.335   57.868  202.910
  285.340    8.026    0.501    0.331   56.890  202.634
  285.590    8.902    0.487    0.320   57.748  202.665
  285.840   11.040    0.484    0.296   57.275  202.693
  286.090   12.373    0.491    0.305   54.250  203.112
  286.340   14.164    0.494    0.317   52.625  203.237
  286.590   16.211    0.489    0.323   51.586  203.065
  286.840   17.827    0.483    0.325   50.840  202.892
  287.090   17.608    0.496    0.334   50.480  203.319
  287.340   16.585    0.506    0.340   49.764  203.350
  287.590   15.418    0.514    0.338   47.673  203.373
  287.840   14.419    0.511    0.338   47.162  203.098
  288.090   13.969    0.497    0.338   47.761  202.925
  288.340   14.118    0.481    0.334   49.060  202.951
  288.590   14.922    0.479    0.329   50.813  202.981
  288.840   15.855    0.484    0.335   51.316  203.004
  289.090   17.770    0.479    0.337   51.096  203.423
  289.340   19.124    0.476    0.337   50.175  204.140
  289.590   20.123    0.475    0.334   49.020  204.960
  289.840   20.607    0.474    0.327   48.041  205.484
  290.090   19.570    0.476    0.316   47.788  204.789
  290.340   18.161    0.480    0.317   48.779  203.160
  290.590   15.444    0.477    0.328   49.494  200.414
  290.840   11.730    0.475    0.336   49.684  198.857
  291.090    8.675    0.473    0.338   49.816  198.088
  291.340    7.018    0.476    0.337   49.889  198.010
  291.590    7.079    0.506    0.342   49.636  198.998
  291.840    7.696    0.532    0.333   50.627  199.849
  292.090    8.747    0.519    0.322   51.575  201.458
  292.340   10.207    0.507    0.326   50.946  202.180
  292.590   11.589    0.494    0.334   49.675  202.205
  292.840   12.448    0.481    0.339   48.697  201.534
  293.090   13.023    0.471    0.339   48.996  199.901
  293.340   13.122    0.462    0.338   49.255  199.509
  293.590   13.028    0.469    0.336   48.570  201.517
  293.840   12.934    0.468    0.335   47.531  203.224
  294.090   12.654    0.464    0.334   47.662  203.644
  294.340   12.161    0.461    0.337   48.731  202.481
  294.590   11.458    0.465    0.349   48.651  200.056
  294.840   10.954    0.472    0.354   48.179  199.677
  295.090   10.641    0.497    0.363   48.894  199.697
  295.340   10.395    0.505    0.364   48.734  199.718
  295.590   10.172    0.501    0.362   48.749  199.742
  295.840    9.991    0.488    0.357   49.465  199.669
  296.090    9.949    0.470    0.353   50.936  199.307
  296.340   10.101    0.461    0.347   51.195  199.328
  296.590   10.396    0.462    0.347   50.974  199.353
  296.840   10.816    0.479    0.340   50.580  200.570
  297.090   11.335    0.496    0.337   50.127  202.380
  297.340   12.047    0.502    0.339   49.615  203.889
  297.590   13.589    0.484    0.336   48.640  203.751
  297.840   15.591    0.465    0.327   47.193  202.949
  298.090   17.721    0.444    0.308   45.102  200.597
  298.340   18.947    0.391    0.283   44.590  197.950
  298.590   19.160    0.325    0.227   44.721  196.589
  298.840   18.539    0.274    0.156   44.913  196.909
  299.090   17.083    0.271    0.140   44.932  198.296
  299.340   15.736    0.304    0.192   44.947  199.150
  299.590   13.381    0.378    0.296   44.961  200.363
  299.840   11.797    0.434    0.330   44.975  200.683
  300.090   11.403    0.469    0.344   44.873  200.312
  300.340   12.012    0.480    0.350   44.773  199.744
  300.590   12.998    0.465    0.322   45.025  199.607
  300.840   12.901    0.430    0.307   45.037  198.813
  301.090   12.261    0.440    0.297   44.353  198.835
  301.340   11.525    0.457    0.306   44.542  198.858
  301.590   11.003    0.466    0.317   45.608  198.882
  301.840   10.749    0.462    0.322   47.085  198.909
  302.090   10.672    0.455    0.321   48.137  198.937
  302.340   10.673    0.447    0.330   48.640  198.968
  302.590   10.673    0.440    0.344   49.358  198.993
  302.840   10.789    0.425    0.342   49.723  199.313
  303.090   10.947    0.418    0.338   49.854  200.723
  303.340   11.067    0.424    0.335   49.811  202.630
  303.590   11.101    0.447    0.328   49.496  202.973
  303.840   11.270    0.448    0.327   49.024  202.587
  304.090   11.434    0.459    0.335   49.974  203.409
  304.340   11.539    0.464    0.343   48.645  203.629
  304.590   11.581    0.464    0.351   47.374  202.661
  304.840   11.539    0.462    0.357   47.447  200.805
  305.090   11.374    0.461    0.358   49.199  199.086
  305.340   11.375    0.462    0.350   49.701  198.292
  305.590   10.810    0.462    0.339   49.483  198.710
  305.840   10.390    0.461    0.346   49.615  198.834
  306.090   10.133    0.460    0.346   49.980  199.055
  306.340   10.006    0.460    0.334   50.286  199.772
  306.590    9.904    0.462    0.329   49.927  201.637
  306.840    9.756    0.463    0.335   49.209  202.900
  307.090    9.616    0.462    0.335   49.692  200.945
  307.340    9.017    0.462    0.329   51.052  200.771
  307.590    8.071    0.461    0.328   53.056  201.789
  307.840    6.801    0.459    0.331   55.295  203.401
  308.090    5.014    0.455    0.327   58.013  205.258
  308.340    3.881    0.456    0.303   62.169  206.522
  308.590    3.202    0.478    0.266   68.264  207.341
  308.840    2.806    0.503    0.254   74.363  208.456
  309.090    2.636    0.522    0.254   78.005  209.074
  309.340    2.636    0.530    0.254   78.662  209.296
  309.590    2.801    0.515    0.241   77.794  210.203
  309.840    3.069    0.501    0.239   78.051  210.639
  310.090    3.391    0.488    0.248   72.686  209.475
  310.340    3.540    0.480    0.258   69.252  209.203
  310.590    3.669    0.478    0.266   68.682  208.634
  310.840    3.854    0.484    0.269   70.275  207.372
  311.090    4.084    0.504    0.268   71.549  205.576
  311.340    4.407    0.511    0.276   70.833  204.369
  311.590    4.802    0.503    0.292   67.808  203.996
  311.840    5.180    0.499    0.311   66.184  204.218
  312.090    5.569    0.511    0.312   64.561  205.034
  312.340    6.019    0.526    0.299   62.177  206.344
  312.590    6.781    0.515    0.309   58.579  207.628
  312.840    7.720    0.507    0.320   56.889  206.004
  313.090    9.021    0.502    0.332   54.798  202.463
  313.340   10.772    0.496    0.340   51.655  201.595
  313.590   12.634    0.494    0.345   49.681  202.414
  313.840   14.162    0.496    0.348   49.696  203.827
  314.090   15.593    0.495    0.348   51.168  204.893
  314.340   16.952    0.492    0.344   51.428  206.159
  314.590   18.472    0.490    0.339   51.911  206.580
  314.840   20.243    0.481    0.335   52.392  208.190
  315.090   22.165    0.473    0.337   52.406  209.205
  315.340   24.065    0.471    0.340   51.369  209.132
  315.590   25.736    0.482    0.334   48.532  208.770
  315.840   25.932    0.496    0.335   48.303  208.794
  316.090   24.108    0.504    0.336   48.550  208.818
  316.340   22.043    0.509    0.338   48.624  208.544
  316.590   19.205    0.498    0.337   48.758  208.173
