~VERSION INFORMATION
 VERS.                 2.0:   CWLS LOG ASCII STANDARD -VERSION 2.0
 WRAP.                  NO:   ONE LINE PER DEPTH STEP
~WELL INFORMATION BLOCK
#MNEM.UNIT           DATA                    DESCRIPTION OF MNEMONIC
#---------    -------------------            -------------------------------
# Generated from Intellog Unique Number	CW_76_78/WELL/2579
WELL.         10-23-078-23W4                 : Well_name    - WELL
LOC .         00/10-23-078-23W4/0            : Location     - LOCATION
UWI .         00/10-23-078-23W4/0            : Uwi          - UNIQUE WELL ID
ENTR.         MAX                            : Entered      - ENTERED BY
SRVC.         SCHLUMBERGER                   : Scn          - SERVICE COMPANY
STRT.M        207.264                        : top_depth    - START DEPTH
STOP.M        493.764                        : bot_depth    - STOP DEPTH
STEP.M        0.25                           : increment    - STEP LENGTH
 NULL. -999.2500:NULL Value
~CURVE INFORMATION BLOCK
#MNEM UNIT       ERCB CURVE CODE    CURVE DESCRIPTION
#-----------   ------------------   ----------------------------------
DEPT.M        00 001 00 00         : DEPTH        - DEPTH
ILD .OHMM     00 120 00 00         : RESD         - DEEP RESISTIVITY (DIL)
NPHI.V/V      00 330 00 00         : PHIN         - NEUTRON POROSITY (SANDSTONE)
DPHI.V/V      00 890 00 00         : PHID         - DENSITY POROSITY (SANDSTONE)
CALI.MM       00 280 01 00         : CAL          - CALIPER
GR  .API      00 310 00 00         : GR           - GAMMA RAY
~PARAMETER INFORMATION
#MNEM.UNIT           DATA             DESCRIPTION OF MNEMONIC
#---------         -----------     ------------------------------
GL  .M        566.623              : gl           - GROUND LEVEL ELEVATION
EREF.M        570.159              : kb           - ELEVATION OF DEPTH REFERENCE
DATM.M        566.623              : datum        - DATUM ELEVATION
TDD .M        495.91               : tdd          - TOTAL DEPTH DRILLER
RUN .         ONE                  : Run          - RUN NUMBER
ENG .         BILL                 : Engineer     - RECORDING ENGINEER
WIT .         JIM                  : Witness      - WITNESSED BY
MUD .         GEL                  : Mud_type     - MUD TYPE
MATR.         SANDSTONE            : Logunit      - NEUTRON MATRIX
TMAX.C        21.6667              : BHT          - MAXIMUM RECORDED TEMPERATURE
BHTD.M        495.91               : BHTDEP       - MAXIMUM RECORDED TEMPERATURE
RMT .C        14.4444              : MDTP         - TEMPERATURE OF MUD
MUDD.KG/M     9000                 : MWT          - MUD DENSITY
NEUT.         1                    : NEUTRON      - NEUTRON TYPE
RESI.         0                    : RESIST       - RESISTIVITY TYPE
RM  .OHMM     6                    : RM           - RESISTIVITY OF MUD
RMC .OHMM     4.35                 : RMC          - RESISTIVITY OF MUD CAKE
RMF .OHMM     7.02                 : RMF          - RESISTIVITY OF MUD FILTRATE
SUFT.C        -6.66667             : SUFT         - SURFACE TEMPERATURE
~A  DEPTH     RESD     PHIN     PHID      CAL       GR
# ...
  389.764   26.176    0.376    0.088  196.802   68.118
  390.014   38.262    0.270    0.038  196.757   63.065
  390.264   48.827    0.246    0.017  196.200   60.077
  390.514   57.435    0.262    0.068  196.149   60.339
  390.764   43.347    0.283    0.096  196.098   62.081
  391.014   35.185    0.326    0.139  196.053   64.714
  391.264   24.928    0.383    0.180  197.990   70.297
  391.514   20.788    0.430    0.214  200.948   80.312
  391.764   18.975    0.477    0.226  201.891   85.596
  392.014   18.793    0.467    0.231  202.346   82.316
  392.264   20.193    0.459    0.247  203.290   75.195
  392.514   23.325    0.458    0.221  203.739   67.775
  392.764   29.499    0.441    0.198  203.688   63.609
  393.014   34.697    0.393    0.133  203.624   59.144
  393.264   40.081    0.325    0.084  203.567   54.387
  393.514   43.462    0.305    0.129  203.529   52.573
  393.764   42.270    0.330    0.171  203.972   54.023
  394.014   40.012    0.343    0.162  203.921   55.175
  394.264   35.868    0.335    0.147  203.857   57.213
  394.514   32.450    0.384    0.172  203.319   61.020
  394.764   29.624    0.433    0.201  198.752   63.357
  395.014   26.556    0.444    0.231  196.200   65.986
  395.264   25.139    0.439    0.231  196.149   65.657
  395.514   23.796    0.432    0.236  197.086   63.850
  395.764   23.145    0.443    0.244  197.548   64.119
  396.014   22.512    0.456    0.245  198.992   68.517
  396.264   21.895    0.482    0.226  200.448   69.672
  396.514   21.488    0.490    0.223  201.885   68.158
  396.764   21.281    0.485    0.227  201.334   66.650
  397.014   21.854    0.474    0.234  199.282   66.329
  397.264   22.239    0.468    0.235  199.231   67.181
  397.514   22.027    0.472    0.227  202.175   67.738
  397.764   22.005    0.476    0.229  204.632   68.007
  398.014   21.607    0.452    0.234  204.575   68.860
  398.264   21.400    0.413    0.197  204.524   68.826
  398.514   22.175    0.388    0.172  205.473   66.728
  398.764   23.825    0.364    0.135  206.410   64.633
  399.014   29.322    0.321    0.088  206.859   60.759
  399.264   33.267    0.273    0.052  206.808   58.070
  399.514   39.488    0.219    0.030  206.264   55.081
  399.764   38.402    0.208    0.025  203.705   52.983
  400.014   30.058    0.214    0.019  198.645   54.135
  400.264   20.352    0.248    0.034  197.099   77.740
  400.514   18.249    0.299    0.069  196.542   83.032
  400.764   15.920    0.360    0.180  196.978   88.020
  401.014   14.403    0.407    0.192  196.934   87.983
  401.264   13.510    0.415    0.194  196.389   86.775
  401.514   13.140    0.423    0.193  196.325   85.263
  401.764   13.252    0.427    0.166  197.262   84.351
  402.014   13.608    0.418    0.151  197.718   84.317
  402.264   13.850    0.423    0.145  198.674   84.582
  402.514   13.841    0.419    0.153  200.618   86.026
  402.764   13.832    0.409    0.177  202.574   88.064
  403.014   13.825    0.421    0.184  206.012   88.924
  403.264   13.817    0.443    0.194  207.469   88.303
  403.514   13.808    0.454    0.213  206.911   88.564
  403.764   13.808    0.468    0.201  205.366   88.826
  404.014   13.667    0.453    0.187  200.312   92.345
  404.264   13.536    0.446    0.190  198.754   91.428
  404.514   13.405    0.439    0.172  199.190   89.031
  404.764   13.519    0.420    0.158  200.146   88.111
  405.014   13.758    0.427    0.149  200.596   88.971
  405.264   13.875    0.428    0.168  201.039   90.710
  405.514   13.867    0.438    0.159  201.995   90.680
  405.764   13.858    0.441    0.152  204.439   89.464
  406.014   13.851    0.434    0.153  205.395   88.843
  406.264   13.843    0.436    0.161  205.838   89.396
  406.514   13.708    0.431    0.171  205.286   90.252
  406.764   13.701    0.414    0.166  204.228   91.116
  407.014   13.447    0.452    0.170  205.159   93.741
  407.264   13.317    0.461    0.176  207.122   96.666
  407.514   13.189    0.458    0.180  209.566   95.158
  407.764   12.946    0.449    0.175  209.521   90.098
  408.014   12.821    0.455    0.188  208.457   90.655
  408.264   12.582    0.453    0.178  207.912   90.928
  408.514   12.350    0.457    0.170  207.861   91.485
  408.764   12.120    0.460    0.167  208.804   92.932
  409.014   12.005    0.444    0.190  209.260   95.853
  409.264   11.996    0.433    0.175  209.203   94.641
  409.514   11.996    0.425    0.165  209.152   93.721
  409.764   12.092    0.422    0.159  207.594   91.327
  410.014   12.418    0.424    0.149  206.549   89.528
  410.264   12.985    0.399    0.144  204.490   86.828
  410.514   13.702    0.378    0.189  202.932   85.033
  410.764   14.720    0.381    0.189  203.888   81.450
  411.014   15.394    0.393    0.187  203.330   81.424
  411.264   16.390    0.382    0.174  201.772   80.212
  411.514   17.611    0.360    0.158  200.220   76.632
  411.764   18.752    0.347    0.139  200.163   74.239
  412.014   18.741    0.341    0.113  201.626   71.546
  412.264   17.902    0.356    0.111  205.070   73.588
  412.514   16.639    0.381    0.139  207.021   87.443
  412.764   15.330    0.406    0.178  206.457   93.618
  413.014   13.743    0.413    0.164  206.906   92.103
  413.264   13.247    0.387    0.150  207.362   88.236
  413.514   13.602    0.377    0.140  205.803   84.070
  413.764   14.883    0.349    0.130  204.245   74.286
  414.014   18.483    0.309    0.102  204.188   67.457
  414.264   22.956    0.283    0.065  204.644   73.037
  414.514   27.747    0.344    0.106  205.093   79.510
  414.764   27.479    0.362    0.131  205.542   88.638
  415.014   23.976    0.358    0.156  205.985   96.290
  415.264   20.173    0.356    0.159  205.434   99.210
  415.514   18.418    0.371    0.148  203.382  102.729
  415.764   16.660    0.377    0.155  203.325  105.945
  416.014   15.771    0.385    0.165  205.281  104.442
  416.264   15.761    0.395    0.178  207.732  102.635
  416.514   15.752    0.459    0.169  209.682   99.946
  416.764   16.177    0.446    0.169  210.125   92.526
  417.014   17.068    0.411    0.164  213.075   87.178
  417.264   17.529    0.388    0.154  212.024   83.891
  417.514   18.329    0.383    0.149  207.958   84.456
  417.764   19.165    0.402    0.161  206.413   89.448
  418.014   19.680    0.407    0.185  205.361   89.122
  418.264   19.491    0.403    0.194  204.797   89.384
  418.514   18.957    0.389    0.189  204.746   89.350
  418.764   18.441    0.394    0.188  205.202   89.612
  419.014   18.261    0.411    0.174  204.144   90.172
  419.264   18.253    0.419    0.178  204.587   89.851
  419.514   18.078    0.403    0.172  206.030   91.294
  419.764   17.581    0.396    0.188  206.493   91.268
  420.014   17.255    0.396    0.192  206.429   88.575
  420.264   16.937    0.394    0.179  206.378   85.882
  420.514   15.183    0.397    0.163  205.820   84.666
  420.764   13.011    0.393    0.155  205.782   82.864
  421.014   11.046    0.389    0.141  205.224   80.769
  421.264   10.362    0.397    0.112  204.667   80.440
  421.514    9.809    0.411    0.105  204.616   83.952
  421.764    9.454    0.427    0.141  204.565   88.054
  422.014    9.364    0.425    0.173  205.014   88.327
  422.264   11.420    0.405    0.158  204.963   84.448
  422.514   13.802    0.402    0.158  205.406   73.192
  422.764   16.835    0.386    0.220  204.348   63.117
  423.014   24.166    0.370    0.228  201.296   58.356
  423.264   36.297    0.378    0.239  198.743   53.890
  423.514   47.166    0.380    0.242  197.692   50.910
  423.764   54.981    0.384    0.254  197.141   48.217
  424.014   60.702    0.400    0.270  196.590   44.641
  424.264   68.864    0.405    0.278  196.026   39.585
  424.514   78.828    0.401    0.282  196.469   35.419
  424.764   87.031    0.385    0.279  196.430   30.355
  425.014   94.364    0.379    0.285  196.367   27.969
  425.264   99.566    0.382    0.286  196.316   27.049
  425.514  102.248    0.374    0.280  196.265   28.193
  425.764  102.174    0.364    0.287  196.708   28.758
  426.014   97.603    0.346    0.287  196.657   28.724
