~VERSION INFORMATION
 VERS.                 2.0:   CWLS LOG ASCII STANDARD -VERSION 2.0
 WRAP.                  NO:   ONE LINE PER DEPTH STEP
~WELL INFORMATION BLOCK
#MNEM.UNIT           DATA                    DESCRIPTION OF MNEMONIC
#---------    -------------------            -------------------------------
# Generated from Intellog Unique Number	CS_73_76/WELL/805
WELL.         BOW VALLEY INDUSTRIES LTD      : Well_name    - WELL
LOC .         00/10-01-073-15W4/0            : Location     - LOCATION
UWI .         00/10-01-073-15W4/0            : Uwi          - UNIQUE WELL ID
ENTR.         SP                             : Entered      - ENTERED BY
SRVC.         SCHLUMBERGER                   : Scn          - SERVICE COMPANY
STRT.M        289.56                         : top_depth    - START DEPTH
STOP.M        482.06                         : bot_depth    - STOP DEPTH
STEP.M        0.25                           : increment    - STEP LENGTH
 NULL. -999.2500:NULL Value
~CURVE INFORMATION BLOCK
#MNEM UNIT       ERCB CURVE CODE    CURVE DESCRIPTION
#-----------   ------------------   ----------------------------------
DEPT.M        00 001 00 00         : DEPTH        - DEPTH
GR  .API      00 310 00 00         : GR           - GAMMA RAY
DPHI.V/V      00 890 00 00         : PHID         - DENSITY POROSITY (SANDSTONE)
NPHI.V/V      00 330 00 00         : PHIN         - NEUTRON POROSITY (SANDSTONE)
ILD .OHMM     00 120 00 00         : RESD         - DEEP RESISTIVITY (DIL)
~PARAMETER INFORMATION
#MNEM.UNIT           DATA             DESCRIPTION OF MNEMONIC
#---------         -----------     ------------------------------
GL  .M        625.45               : gl           - GROUND LEVEL ELEVATION
EREF.M        629.107              : kb           - ELEVATION OF DEPTH REFERENCE
DATM.M        625.45               : datum        - DATUM ELEVATION
TDD .M        490.728              : tdd          - TOTAL DEPTH DRILLER
RUN .         ONE                  : Run          - RUN NUMBER
ENG .         BILL                 : Engineer     - RECORDING ENGINEER
WIT .         JIM                  : Witness      - WITNESSED BY
MUD .         GEL                  : Mud_type     - MUD TYPE
MATR.         SANDSTONE            : Logunit      - NEUTRON MATRIX
TMAX.C        15.5556              : BHT          - MAXIMUM RECORDED TEMPERATURE
BHTD.M        490.728              : BHTDEP       - MAXIMUM RECORDED TEMPERATURE
MATR.         1                    : LOGUNIT      - NEUTRON MATRIX
RMT .C        25                   : MDTP         - TEMPERATURE OF MUD
NEUT.         1                    : NEUTRON      - NEUTRON TYPE
RESI.         0                    : RESIST       - RESISTIVITY TYPE
RMC .OHMM     0.25                 : RMC          - RESISTIVITY OF MUD CAKE
RMF .OHMM     0.25                 : RMF          - RESISTIVITY OF MUD FILTRATE
SUFT.C        15                   : SUFT         - SURFACE TEMPERATURE
~A  DEPTH       GR     PHID     PHIN     RESD
# ...
  376.560   99.070    0.259    0.467    6.145
  376.810   95.407    0.257    0.478    6.201
  377.060   99.270    0.277    0.491    6.263
  377.310   96.438    0.285    0.489    6.271
  377.560   97.954    0.265    0.480    6.322
  377.810   99.362    0.249    0.476    6.396
  378.060   98.285    0.247    0.478    6.511
  378.310   98.181    0.247    0.470    6.647
  378.560  101.165    0.252    0.458    6.766
  378.810  102.251    0.252    0.455    6.689
  379.060  103.788    0.253    0.474    6.636
  379.310  103.704    0.257    0.493    6.428
  379.560  102.405    0.253    0.493    6.240
  379.810  100.261    0.237    0.477    6.057
  380.060   96.979    0.233    0.483    5.957
  380.310   99.945    0.240    0.488    6.085
  380.560  103.178    0.245    0.478    6.208
  380.810  104.729    0.251    0.479    6.193
  381.060  104.295    0.257    0.484    6.338
  381.310  101.832    0.251    0.490    6.329
  381.560  101.150    0.255    0.485    6.341
  381.810  101.932    0.258    0.470    6.177
  382.060  101.311    0.254    0.461    6.112
  382.310   99.445    0.242    0.456    5.924
  382.560  101.735    0.235    0.452    5.883
  382.810  103.638    0.243    0.459    5.692
  383.060  103.252    0.245    0.457    5.640
  383.310  100.527    0.252    0.469    5.589
  383.560   99.146    0.249    0.482    5.591
  383.810   98.573    0.240    0.477    5.592
  384.060  101.375    0.236    0.462    5.593
  384.310  102.980    0.224    0.454    5.489
  384.560  102.972    0.227    0.461    5.468
  384.810  101.320    0.233    0.468    5.404
  385.060   97.591    0.248    0.468    5.235
  385.310   94.355    0.244    0.454    5.195
  385.560   92.215    0.231    0.441    5.120
  385.810   92.418    0.147    0.423    5.107
  386.060   85.180    0.067    0.391    5.517
  386.310   81.600    0.050    0.232    6.645
  386.560   77.791    0.066    0.234    8.101
  386.810   81.458    0.079    0.257    9.893
  387.060   82.395    0.049    0.266   11.165
  387.310   84.696    0.125    0.272   12.134
  387.560   91.791    0.207    0.351   11.153
  387.810   97.441    0.229    0.421    9.632
  388.060  102.619    0.244    0.465    7.962
  388.310  103.171    0.254    0.488    6.840
  388.560  103.549    0.278    0.474    6.141
  388.810  103.871    0.264    0.452    5.379
  389.060  104.422    0.222    0.471    5.184
  389.310  103.165    0.198    0.468    4.947
  389.560  101.906    0.191    0.455    5.191
  389.810  100.479    0.192    0.451    5.359
  390.060   95.968    0.194    0.452    5.446
  390.310   90.287    0.046    0.416    5.687
  390.560   84.183    0.022    0.218    5.935
  390.810   78.713    0.055    0.242    6.522
  391.060   75.355    0.121    0.310    7.231
  391.310   83.261    0.196    0.359    7.837
  391.560   93.433    0.213    0.404    8.268
  391.810   97.635    0.232    0.438    7.454
  392.060   97.426    0.254    0.432    6.386
  392.310   96.388    0.267    0.440    5.755
  392.560   94.307    0.280    0.447    5.342
  392.810   92.981    0.284    0.452    5.164
  393.060   92.462    0.294    0.442    5.012
  393.310   93.986    0.287    0.434    5.034
  393.560   95.561    0.273    0.438    5.068
  393.810   94.778    0.268    0.447    5.128
  394.060   96.223    0.262    0.456    5.202
  394.310   98.524    0.270    0.461    5.257
  394.560  101.426    0.279    0.467    5.331
  394.810  101.254    0.285    0.473    5.505
  395.060   98.817    0.279    0.470    5.535
  395.310   97.333    0.288    0.464    5.549
  395.560   97.196    0.296    0.450    5.444
  395.810   97.880    0.290    0.433    5.343
  396.060   97.865    0.283    0.430    5.269
  396.310   96.755    0.278    0.448    5.219
  396.560   94.752    0.267    0.458    5.165
  396.810   94.156    0.248    0.461    5.084
  397.060   95.117    0.223    0.450    5.174
  397.310   98.466    0.255    0.445    5.268
  397.560  100.137    0.272    0.458    5.337
  397.810  102.106    0.276    0.468    5.393
  398.060  103.709    0.277    0.474    5.482
  398.310  108.460    0.267    0.480    5.380
  398.560  111.858    0.256    0.492    5.265
  398.810  116.358    0.218    0.525    5.034
  399.060  119.860    0.248    0.543    4.487
  399.310  120.278    0.244    0.559    3.539
  399.560  119.492    0.237    0.554    3.097
  399.810  115.682    0.225    0.555    2.746
  400.060  111.734    0.238    0.550    2.433
  400.310  109.805    0.242    0.543    2.280
  400.560  107.885    0.229    0.534    2.237
  400.810  108.174    0.242    0.495    2.310
  401.060  109.218    0.229    0.462    2.542
  401.310  109.395    0.238    0.455    2.883
  401.560  109.456    0.254    0.459    3.257
  401.810  108.759    0.234    0.462    3.690
  402.060  108.819    0.248    0.450    4.066
  402.310  108.828    0.238    0.455    4.323
  402.560  108.831    0.236    0.469    4.440
  402.810  108.836    0.252    0.485    4.439
  403.060  108.826    0.235    0.488    4.378
  403.310  108.673    0.229    0.477    4.363
  403.560  107.633    0.234    0.469    4.365
  403.810  106.245    0.240    0.477    4.535
  404.060  105.150    0.227    0.476    4.613
  404.310  105.812    0.214    0.465    4.618
  404.560  106.359    0.199    0.457    4.711
  404.810  110.231    0.189    0.441    4.827
  405.060  118.175    0.222    0.425    4.883
  405.310  127.172    0.299    0.407    5.132
  405.560  122.587    0.313    0.390    5.406
  405.810  110.395    0.296    0.381    5.630
  406.060   99.882    0.276    0.377    6.187
  406.310   89.216    0.168    0.213    6.614
  406.560   80.636    0.135    0.218    7.453
  406.810   85.007    0.158    0.260    8.303
  407.060   87.108    0.194    0.302    8.877
  407.310   88.882    0.182    0.337    9.691
  407.560   84.608    0.088    0.249   10.238
  407.810   81.909   -0.002    0.137   10.885
  408.060   81.293   -0.001    0.114   11.837
  408.310   83.702   -0.000    0.117   13.790
  408.560   85.764    0.000    0.122   16.095
  408.810   86.881    0.000    0.127   19.344
  409.060   87.227    0.000    0.133   24.471
  409.310   91.318    0.017    0.148   28.681
  409.560   95.119    0.036    0.175   30.609
  409.810   99.943    0.060    0.207   29.113
  410.060  106.821    0.111    0.304   24.913
  410.310  112.620    0.181    0.367   20.404
  410.560  115.602    0.262    0.399   15.714
  410.810  116.878    0.254    0.414   12.463
  411.060  118.823    0.230    0.427   10.134
  411.310  119.706    0.247    0.447    8.438
  411.560  118.969    0.216    0.454    7.281
  411.810  112.684    0.200    0.460    6.132
  412.060  105.823    0.220    0.471    5.333
  412.310  106.645    0.223    0.479    4.868
  412.560  108.864    0.237    0.469    4.450
  412.810  102.511    0.242    0.465    4.321
  413.060   97.865    0.251    0.464    4.326
  413.310   93.326    0.282    0.454    4.465
  413.560   91.347    0.281    0.446    4.665
  413.810   92.447    0.277    0.439    4.863
  414.060   92.253    0.285    0.448    4.999
  414.310   91.088    0.288    0.455    5.161
  414.560   92.257    0.293    0.455    5.206
  414.810   91.274    0.297    0.437    5.306
  415.060   90.109    0.298    0.421    5.189
  415.310   91.549    0.286    0.433    5.196
  415.560   92.129    0.279    0.444    5.103
  415.810   92.119    0.284    0.454    5.080
  416.060   92.117    0.286    0.460    5.025
  416.310   92.760    0.280    0.468    4.960
  416.560   91.450    0.274    0.476    4.915
  416.810   92.002    0.267    0.469    4.850
  417.060   93.506    0.261    0.461    4.862
  417.310   91.954    0.252    0.455    4.759
  417.560   90.456    0.242    0.458    4.769
  417.810   91.186    0.247    0.459    4.729
  418.060   93.542    0.237    0.454    4.690
  418.310   94.617    0.266    0.450    4.688
  418.560   94.780    0.253    0.444    4.657
  418.810   96.562    0.246    0.445    4.612
  419.060  100.698    0.236    0.448    4.622
  419.310  104.132    0.250    0.448    4.523
  419.560  107.264    0.229    0.444    4.534
  419.810  110.937    0.204    0.449    4.483
