~VERSION INFORMATION
 VERS.                 2.0:   CWLS LOG ASCII STANDARD -VERSION 2.0
 WRAP.                  NO:   ONE LINE PER DEPTH STEP
~WELL INFORMATION BLOCK
#MNEM.UNIT           DATA                    DESCRIPTION OF MNEMONIC
#---------    -------------------            -------------------------------
# Generated from Intellog Unique Number	CS_71_72/WELL/865
WELL.         ALLIED ET AL WANDER            : Well_name    - WELL
LOC .         00/10-20-072-14W4/0            : Location     - LOCATION
UWI .         00/10-20-072-14W4/0            : Uwi          - UNIQUE WELL ID
ENTR.         SP                             : Entered      - ENTERED BY
SRVC.         SCHLUMBERGER                   : Scn          - SERVICE COMPANY
STRT.M        265.176                        : top_depth    - START DEPTH
STOP.M        487.426                        : bot_depth    - STOP DEPTH
STEP.M        0.25                           : increment    - STEP LENGTH
 NULL. -999.2500:NULL Value
~CURVE INFORMATION BLOCK
#MNEM UNIT       ERCB CURVE CODE    CURVE DESCRIPTION
#-----------   ------------------   ----------------------------------
DEPT.M        00 001 00 00         : DEPTH        - DEPTH
GR  .API      00 310 00 00         : GR           - GAMMA RAY
DPHI.V/V      00 890 00 00         : PHID         - DENSITY POROSITY (SANDSTONE)
NPHI.V/V      00 330 00 00         : PHIN         - NEUTRON POROSITY (SANDSTONE)
ILD .OHMM     00 120 00 00         : RESD         - DEEP RESISTIVITY (DIL)
~PARAMETER INFORMATION
#MNEM.UNIT           DATA             DESCRIPTION OF MNEMONIC
#---------         -----------     ------------------------------
GL  .M        606.095              : gl           - GROUND LEVEL ELEVATION
EREF.M        609.143              : kb           - ELEVATION OF DEPTH REFERENCE
DATM.M        606.095              : datum        - DATUM ELEVATION
TDD .M        534.924              : tdd          - TOTAL DEPTH DRILLER
RUN .         ONE                  : Run          - RUN NUMBER
ENG .         BILL                 : Engineer     - RECORDING ENGINEER
WIT .         JIM                  : Witness      - WITNESSED BY
MUD .         GEL                  : Mud_type     - MUD TYPE
MATR.         SANDSTONE            : Logunit      - NEUTRON MATRIX
TMAX.C        30.5556              : BHT          - MAXIMUM RECORDED TEMPERATURE
BHTD.M        534.924              : BHTDEP       - MAXIMUM RECORDED TEMPERATURE
MATR.         1                    : LOGUNIT      - NEUTRON MATRIX
RMT .C        25                   : MDTP         - TEMPERATURE OF MUD
NEUT.         1                    : NEUTRON      - NEUTRON TYPE
RESI.         0                    : RESIST       - RESISTIVITY TYPE
RMC .OHMM     0.25                 : RMC          - RESISTIVITY OF MUD CAKE
RMF .OHMM     0.25                 : RMF          - RESISTIVITY OF MUD FILTRATE
SUFT.C        15                   : SUFT         - SURFACE TEMPERATURE
~A  DEPTH       GR     PHID     PHIN     RESD
# ...
  308.676  132.133    0.204    0.505    5.057
  308.926  127.045    0.200    0.493    5.391
  309.176  123.624    0.188    0.474    5.847
  309.426  122.405    0.179    0.460    6.166
  309.676  122.419    0.192    0.447    6.483
  309.926  122.647    0.215    0.435    6.639
  310.176  118.313    0.256    0.430    6.837
  310.426  112.043    0.251    0.426    6.882
  310.676  106.084    0.249    0.426    6.926
  310.926  103.445    0.271    0.436    6.970
  311.176  106.184    0.273    0.446    7.034
  311.426  106.909    0.270    0.444    7.115
  311.676  107.557    0.267    0.438    7.193
  311.926  107.908    0.264    0.429    7.114
  312.176  109.862    0.270    0.424    6.973
  312.426  111.165    0.263    0.420    6.794
  312.676  114.637    0.247    0.418    6.662
  312.926  117.002    0.237    0.425    6.527
  313.176  120.019    0.225    0.434    6.479
  313.426  122.675    0.243    0.452    6.391
  313.676  124.657    0.250    0.443    6.400
  313.926  127.411    0.242    0.452    6.325
  314.176  121.765    0.236    0.458    6.317
  314.426  115.915    0.270    0.463    6.311
  314.676  110.422    0.278    0.463    6.447
  314.926  106.512    0.278    0.454    6.487
  315.176  103.302    0.248    0.436    6.714
  315.426  103.086    0.236    0.418    6.828
  315.676  104.903    0.224    0.422    6.890
  315.926  109.415    0.241    0.420    6.947
  316.176  112.205    0.244    0.418    6.993
  316.426  116.440    0.243    0.422    7.130
  316.676  119.427    0.225    0.427    7.185
  316.926  121.615    0.224    0.430    7.188
  317.176  121.417    0.215    0.433    7.072
  317.426  122.491    0.208    0.438    6.885
  317.676  124.434    0.224    0.441    6.518
  317.926  125.639    0.220    0.443    6.043
  318.176  125.527    0.211    0.444    5.736
  318.426  127.395    0.220    0.455    5.359
  318.676  128.673    0.205    0.478    5.192
  318.926  130.781    0.181    0.492    5.046
  319.176  131.792    0.168    0.502    5.127
  319.426  127.510    0.189    0.490    5.040
  319.676  123.614    0.241    0.480    4.871
  319.926  117.476    0.232    0.489    4.784
  320.176  112.103    0.251    0.474    4.860
  320.426  108.037    0.269    0.466    5.126
  320.676  108.090    0.259    0.476    5.298
  320.926  111.033    0.235    0.468    5.698
  321.176  111.583    0.252    0.449    6.060
  321.426  109.570    0.256    0.457    6.314
  321.676  112.139    0.263    0.459    6.519
  321.926  114.526    0.260    0.441    6.644
  322.176  117.955    0.268    0.431    6.775
  322.426  118.634    0.259    0.432    6.770
  322.676  117.855    0.243    0.425    6.752
  322.926  115.203    0.235    0.426    6.694
  323.176  111.124    0.235    0.433    6.562
  323.426  111.004    0.243    0.439    6.548
  323.676  112.536    0.254    0.447    6.611
  323.926  109.961    0.268    0.460    6.772
  324.176  106.356    0.280    0.479    6.942
  324.426  103.464    0.281    0.477    7.221
  324.676  104.326    0.258    0.460    7.240
  324.926  103.614    0.236    0.449    7.243
  325.176  103.167    0.217    0.456    7.050
  325.426  106.477    0.228    0.462    6.889
  325.676  112.574    0.213    0.461    6.533
  325.926  115.778    0.208    0.463    6.344
  326.176  113.602    0.226    0.474    6.276
  326.426  108.209    0.211    0.490    6.207
  326.676  103.313    0.227    0.497    6.199
  326.926  103.090    0.227    0.506    6.291
  327.176  100.525    0.249    0.499    6.348
  327.426   96.707    0.267    0.473    6.487
  327.676   92.869    0.275    0.455    6.527
  327.926   91.597    0.279    0.461    6.659
  328.176   89.940    0.291    0.458    6.761
  328.426   90.025    0.300    0.452    6.840
  328.676   93.754    0.297    0.451    6.844
  328.926   97.652    0.286    0.462    6.738
  329.176   99.478    0.261    0.468    6.531
  329.426  103.205    0.234    0.478    6.218
  329.676  104.581    0.241    0.480    5.899
  329.926  106.654    0.264    0.481    5.572
  330.176  107.731    0.256    0.503    5.484
  330.426  108.019    0.261    0.519    5.507
  330.676  107.059    0.274    0.524    5.848
  330.926  105.701    0.260    0.482    6.251
  331.176  105.035    0.244    0.475    6.684
  331.426  105.027    0.224    0.482    7.000
  331.676  105.040    0.227    0.475    7.279
  331.926  105.042    0.253    0.464    7.543
  332.176  104.714    0.249    0.467    7.620
  332.426  103.684    0.247    0.475    7.711
  332.676  103.263    0.247    0.475    7.702
  332.926  103.248    0.253    0.447    7.702
  333.176   99.432    0.258    0.431    7.701
  333.426   97.739    0.249    0.436    7.701
  333.676   94.174    0.245    0.446    7.701
  333.926   93.700    0.255    0.443    7.701
  334.176   93.205    0.272    0.477    7.635
  334.426   91.492    0.300    0.511    7.594
  334.676   89.564    0.321    0.531    7.456
  334.926   89.564    0.339    0.518    7.165
  335.176   90.525    0.334    0.482    6.945
  335.426   92.487    0.318    0.474    6.902
  335.676   94.843    0.288    0.474    6.902
  335.926   95.829    0.276    0.494    6.901
  336.176   93.056    0.281    0.545    6.905
  336.426   79.992    0.318    0.559    6.785
  336.676   71.530    0.331    0.531    6.556
  336.926   65.258    0.296    0.474    6.366
  337.176   60.153    0.327    0.435    6.143
  337.426   57.300    0.346    0.419    6.023
  337.676   56.014    0.352    0.424    5.966
  337.926   57.776    0.336    0.426    5.941
  338.176   60.359    0.335    0.418    6.022
  338.426   64.759    0.335    0.409    6.012
  338.676   69.006    0.346    0.403    6.111
  338.926   72.756    0.346    0.410    6.096
  339.176   74.510    0.332    0.423    6.178
  339.426   76.149    0.332    0.441    6.262
  339.676   76.792    0.332    0.461    6.329
  339.926   74.090    0.327    0.463    6.410
  340.176   72.903    0.315    0.449    6.498
  340.426   72.663    0.307    0.449    6.631
  340.676   75.093    0.293    0.455    6.711
  340.926   76.617    0.287    0.461    6.567
  341.176   77.300    0.283    0.464    6.276
  341.426   75.525    0.318    0.464    6.043
  341.676   74.814    0.336    0.459    5.783
  341.926   75.863    0.346    0.461    5.692
  342.176   77.408    0.340    0.463    5.688
  342.426   79.495    0.333    0.461    5.841
  342.676   80.522    0.331    0.441    6.137
  342.926   80.654    0.310    0.405    7.047
  343.176   77.047    0.260    0.333    8.126
  343.426   74.907    0.219    0.308    9.348
  343.676   74.350    0.161    0.295   10.692
  343.926   77.429    0.181    0.317   12.202
  344.176   79.645    0.225    0.362   12.725
  344.426   82.645    0.249    0.414   11.406
  344.676   86.056    0.247    0.448    9.935
  344.926   91.228    0.259    0.463    8.598
  345.176   94.989    0.272    0.467    7.773
  345.426   98.157    0.262    0.460    7.207
  345.676   97.394    0.255    0.455    6.843
  345.926   93.181    0.243    0.453    6.578
  346.176   91.277    0.232    0.456    6.564
  346.426   87.947    0.240    0.449    6.561
  346.676   85.085    0.260    0.439    6.552
  346.926   82.065    0.268    0.429    6.648
  347.176   78.455    0.266    0.419    6.639
  347.426   74.752    0.266    0.411    6.780
  347.676   70.731    0.272    0.413    6.813
  347.926   66.553    0.280    0.399    6.950
  348.176   71.850    0.279    0.395    7.077
  348.426   77.212    0.271    0.390    7.192
  348.676   78.902    0.267    0.391    7.262
  348.926   81.636    0.259    0.399    7.279
  349.176   83.624    0.254    0.419    7.080
  349.426   86.593    0.253    0.423    6.827
  349.676   89.314    0.252    0.426    6.430
  349.926   91.205    0.252    0.429    6.221
  350.176   93.086    0.258    0.432    5.822
  350.426   94.351    0.269    0.440    5.455
  350.676   94.748    0.254    0.449    5.200
  350.926   92.754    0.237    0.457    5.124
  351.176   90.640    0.232    0.455    5.012
  351.426   89.331    0.248    0.449    4.960
  351.676   91.043    0.242    0.461    4.951
  351.926   91.204    0.255    0.469    5.043
