~VERSION INFORMATION
 VERS.                 2.0:   CWLS LOG ASCII STANDARD -VERSION 2.0
 WRAP.                  NO:   ONE LINE PER DEPTH STEP
~WELL INFORMATION BLOCK
#MNEM.UNIT           DATA                    DESCRIPTION OF MNEMONIC
#---------    -------------------            -------------------------------
# Generated from Intellog Unique Number	CW_82_90/WELL/879
WELL.         10-20-083-20W4                 : Well_name    - WELL
LOC .         00/10-20-083-20W4/0            : Location     - LOCATION
UWI .         00/10-20-083-20W4/0            : Uwi          - UNIQUE WELL ID
ENTR.         JAYE                           : Entered      - ENTERED BY
SRVC.         SCHLUMBERGER                   : Scn          - SERVICE COMPANY
DATE.         16 MAR 74                      : Date         - LOG DATE
STRT.M        222.504                        : top_depth    - START DEPTH
STOP.M        436.504                        : bot_depth    - STOP DEPTH
STEP.M        0.25                           : increment    - STEP LENGTH
 NULL. -999.2500:NULL Value
~CURVE INFORMATION BLOCK
#MNEM UNIT       ERCB CURVE CODE    CURVE DESCRIPTION
#-----------   ------------------   ----------------------------------
DEPT.M        00 001 00 00         : DEPTH        - DEPTH
ILD .OHMM     00 120 00 00         : RESD         - DEEP RESISTIVITY (DIL)
CALI.MM       00 280 01 00         : CAL          - CALIPER
GR  .API      00 310 00 00         : GR           - GAMMA RAY
NPHI.V/V      00 330 00 00         : PHIN         - NEUTRON POROSITY (SANDSTONE)
DPHI.V/V      00 890 00 00         : PHID         - DENSITY POROSITY (SANDSTONE)
~PARAMETER INFORMATION
#MNEM.UNIT           DATA             DESCRIPTION OF MNEMONIC
#---------         -----------     ------------------------------
GL  .M        632.765              : gl           - GROUND LEVEL ELEVATION
EREF.M        637.032              : kb           - ELEVATION OF DEPTH REFERENCE
DATM.M        632.765              : datum        - DATUM ELEVATION
TDD .M        444.094              : tdd          - TOTAL DEPTH DRILLER
RUN .         ONE                  : Run          - RUN NUMBER
ENG .         AUGUSTIN             : Engineer     - RECORDING ENGINEER
WIT .         FYFFE                : Witness      - WITNESSED BY
BASE.         EDMONTON             : Branch       - HOME BASE OF LOGGING UNIT
MUD .         GEL CHEM             : Mud_type     - MUD TYPE
MATR.         SANDSTONE            : Logunit      - NEUTRON MATRIX
TMAX.C        22.2222              : BHT          - MAXIMUM RECORDED TEMPERATURE
BHTD.M        444.094              : BHTDEP       - MAXIMUM RECORDED TEMPERATURE
RMT .C        15.5556              : MDTP         - TEMPERATURE OF MUD
MUDD.KG/M     8500                 : MWT          - MUD DENSITY
NEUT.         1                    : NEUTRON      - NEUTRON TYPE
RESI.         0                    : RESIST       - RESISTIVITY TYPE
RM  .OHMM     4.85                 : RM           - RESISTIVITY OF MUD
RMC .OHMM     0                    : RMC          - RESISTIVITY OF MUD CAKE
RMF .OHMM     0                    : RMF          - RESISTIVITY OF MUD FILTRATE
SUFT.C        -17.7778             : SUFT         - SURFACE TEMPERATURE
~A  DEPTH     RESD      CAL       GR     PHIN     PHID
# ...
  332.004    7.028  200.149   74.837    0.555    0.257
  332.254    7.376  199.489   70.611    0.559    0.284
  332.504    7.670  198.713   72.102    0.563    0.283
  332.754    7.832  198.148   73.230    0.554    0.281
  333.004    7.911  198.107   73.989    0.548    0.278
  333.254    7.959  197.852   74.266    0.549    0.272
  333.504    7.996  197.804   75.153    0.532    0.270
  333.754    8.016  197.961   76.099    0.522    0.275
  334.004    8.007  198.741   74.185    0.516    0.266
  334.254    7.969  199.920   74.765    0.532    0.249
  334.504    7.718  200.493   75.649    0.521    0.277
  334.754    7.543  201.570   76.468    0.509    0.280
  335.004    7.438  202.770   78.935    0.514    0.263
  335.254    7.364  205.809   83.468    0.516    0.253
  335.504    7.409  207.200   83.560    0.529    0.263
  335.754    7.511  207.154   80.308    0.539    0.251
  336.004    7.711  206.892   79.124    0.543    0.259
  336.254    7.845  206.236   80.132    0.556    0.254
  336.504    7.922  205.053   83.019    0.563    0.241
  336.754    7.814  207.463   85.302    0.555    0.253
  337.004    7.594  208.973   88.134    0.509    0.251
  337.254    7.155  210.979   90.718    0.529    0.266
  337.504    6.841  212.688   90.628    0.539    0.297
  337.754    6.661  214.490   87.805    0.536    0.305
  338.004    6.691  214.961   85.586    0.520    0.309
  338.254    6.945  214.903   84.221    0.521    0.308
  338.504    7.356  215.581   84.620    0.519    0.289
  338.754    7.862  216.156   85.802    0.504    0.268
  339.004    8.402  210.549   86.508    0.475    0.262
  339.254    9.248  197.836   87.147    0.493    0.249
  339.504    9.938  196.239   85.843    0.501    0.280
  339.754   10.857  196.391   81.011    0.504    0.286
  340.004   11.394  196.246   76.181    0.494    0.284
  340.254   12.202  196.399   71.410    0.461    0.273
  340.504   13.137  197.480   68.583    0.417    0.255
  340.754   14.247  198.060   64.239    0.257    0.223
  341.004   16.412  199.653   60.198    0.186    0.107
  341.254   20.340  200.742   51.775    0.145    0.011
  341.504   35.413  201.207   51.807    0.147    0.018
  341.754   73.078  201.570   54.329    0.155    0.024
  342.004   89.417  201.524   56.673    0.164    0.050
  342.254   73.605  201.064   59.200    0.220    0.087
  342.504   61.574  201.019   63.005    0.279    0.120
  342.754   34.211  201.173   67.900    0.337    0.145
  343.004   23.241  201.439   71.766    0.395    0.163
  343.254   19.339  201.391   75.204    0.453    0.217
  343.504   15.655  201.446   79.368    0.535    0.278
  343.754   14.066  198.721   82.868    0.491    0.267
  344.004   12.896  198.049   85.394    0.502    0.257
  344.254   11.843  198.207   84.330    0.493    0.255
  344.504   11.407  197.755   83.451    0.460    0.252
  344.754   11.414  197.602   85.671    0.425    0.235
  345.004   11.634  197.545   89.353    0.417    0.218
  345.254   11.880  197.603   92.671    0.434    0.206
  345.504   11.999  198.176   90.028    0.498    0.243
  345.754   11.746  198.440   87.806    0.510    0.250
  346.004   11.232  198.481   85.105    0.516    0.252
  346.254   10.719  198.446   84.835    0.522    0.244
  346.504   10.341  198.182   85.233    0.531    0.236
  346.754   10.052  198.337   87.209    0.537    0.245
  347.004    9.896  198.201   89.610    0.533    0.249
  347.254    9.884  198.453   91.343    0.522    0.243
  347.504    9.964  198.619   91.198    0.504    0.236
  347.754   10.101  198.664   90.199    0.489    0.230
  348.004   10.238  198.722   89.927    0.484    0.236
  348.254   10.474  198.877   90.564    0.481    0.248
  348.504   10.654  198.626   89.315    0.471    0.253
  348.754   10.839  198.584   87.836    0.484    0.251
  349.004   11.047  198.945   85.921    0.509    0.242
  349.254   11.260  199.620   85.343    0.500    0.257
  349.504   11.416  200.192   83.312    0.478    0.268
  349.754   11.550  198.287   82.245    0.489    0.271
  350.004   11.664  198.338   84.528    0.507    0.268
  350.254   11.823  199.323   86.140    0.506    0.253
  350.504   11.789  199.480   86.358    0.486    0.247
  350.754   11.734  199.952   86.575    0.492    0.257
  351.004   11.550  200.507   87.579    0.518    0.264
  351.254   11.226  200.567   88.398    0.513    0.268
  351.504   10.913  200.835   88.372    0.492    0.264
  351.754   10.704  200.891   88.037    0.483    0.254
  352.004   10.518  201.765   87.650    0.485    0.247
  352.254   10.316  203.369   87.437    0.491    0.235
  352.504   10.119  207.127   88.565    0.497    0.231
  352.754   10.015  209.027   87.803    0.496    0.224
  353.004    9.914  209.084   85.584    0.493    0.221
  353.254    9.814  209.757   85.071    0.511    0.227
  353.504    9.680  210.433   85.347    0.502    0.237
  353.754    9.650  212.746   86.174    0.518    0.244
  354.004    9.604  213.640   86.565    0.527    0.249
  354.254    9.612  213.684   85.995    0.530    0.246
  354.504    9.637  213.645   85.177    0.534    0.233
  354.754    9.717  213.593   83.871    0.533    0.223
  355.004    9.723  213.749   83.654    0.503    0.237
  355.254    9.748  213.808   83.936    0.485    0.246
  355.504    9.632  212.004   83.664    0.499    0.259
  355.754    9.378  210.212   83.814    0.527    0.258
  356.004    8.950  215.003   84.275    0.557    0.279
  356.254    8.556  227.931   85.403    0.587    0.283
  356.504    8.047  228.708   85.011    0.601    0.289
  356.754    7.609  226.083   84.191    0.568    0.318
  357.004    7.289  232.626   83.069    0.541    0.316
  357.254    7.403  209.205   75.988    0.518    0.291
  357.504    7.641  201.022   73.402    0.499    0.261
  357.754    8.078  198.086   72.891    0.496    0.257
  358.004    8.510  197.736   69.335    0.505    0.265
  358.254    9.079  196.967   67.840    0.495    0.269
  358.504    9.900  196.597   67.085    0.479    0.279
  358.754   10.619  195.835   67.118    0.469    0.284
  359.004   11.308  195.583   67.335    0.484    0.283
  359.254   11.569  195.330   67.005    0.492    0.281
  359.504   11.749  195.485   68.005    0.478    0.268
  359.754   11.864  195.632   68.525    0.453    0.253
  360.004   12.272  196.729   67.284    0.418    0.186
  360.254   12.997  197.404   64.458    0.259    0.144
  360.504   14.540  198.589   64.793    0.229    0.120
  360.754   16.843  200.400   66.830    0.225    0.098
  361.004   20.086  201.885   68.266    0.242    0.069
  361.254   23.352  202.462   69.940    0.274    0.151
  361.504   21.057  202.724   73.011    0.370    0.179
  361.754   15.761  202.267   75.231    0.436    0.207
  362.004   13.802  199.850   75.632    0.429    0.245
  362.254   11.978  198.666   76.333    0.450    0.319
  362.504    9.912  200.470   78.431    0.503    0.293
  362.754    8.681  204.133   81.688    0.547    0.290
  363.004    7.673  210.470   86.463    0.566    0.302
  363.254    7.429  215.773   86.557    0.547    0.288
  363.504    7.450  220.356   84.398    0.507    0.285
  363.754    7.760  224.837   83.092    0.479    0.265
  364.004    8.604  203.689   80.816    0.503    0.262
  364.254    9.315  198.905   74.585    0.503    0.254
  364.504    9.828  197.704   74.070    0.489    0.245
  364.754   10.409  197.883   77.079    0.468    0.259
  365.004   10.905  200.908   78.087    0.470    0.260
  365.254   11.073  201.798   78.790    0.491    0.262
  365.504   10.882  202.266   79.613    0.487    0.256
  365.754   10.462  202.926   81.223    0.478    0.248
  366.004    9.965  203.604   83.808    0.468    0.239
  366.254    9.526  204.590   87.793    0.509    0.234
  366.504    9.226  205.365   89.958    0.504    0.229
  366.754    9.182  206.756   90.535    0.488    0.248
  367.004    9.325  208.255   89.535    0.528    0.245
  367.254    9.453  209.651   87.913    0.541    0.243
  367.504    9.598  210.945   87.773    0.532    0.241
  367.754    9.695  211.820   90.301    0.536    0.235
  368.004    9.737  213.006   92.584    0.533    0.222
  368.254    9.817  214.602   91.821    0.535    0.210
