~VERSION INFORMATION
 VERS.                 2.0:   CWLS LOG ASCII STANDARD -VERSION 2.0
 WRAP.                  NO:   ONE LINE PER DEPTH STEP
~WELL INFORMATION BLOCK
#MNEM.UNIT           DATA                    DESCRIPTION OF MNEMONIC
#---------    -------------------            -------------------------------
# Generated from Intellog Unique Number	CS_71_72/WELL/3248
WELL.         AEC KIRBY                      : Well_name    - WELL
LOC .         00/15-32-071-04W4/0            : Location     - LOCATION
UWI .         00/15-32-071-04W4/0            : Uwi          - UNIQUE WELL ID
ENTR.         T                              : Entered      - ENTERED BY
SRVC.         COMPUTALOG                     : Scn          - SERVICE COMPANY
DATE.         03/24/92                       : Date         - LOG DATE
STRT.M        300                            : top_depth    - START DEPTH
STOP.M        500                            : bot_depth    - STOP DEPTH
STEP.M        0.25                           : increment    - STEP LENGTH
 NULL. -999.2500:NULL Value
~CURVE INFORMATION BLOCK
#MNEM UNIT       ERCB CURVE CODE    CURVE DESCRIPTION
#-----------   ------------------   ----------------------------------
DEPT.M        00 001 00 00         : DEPTH        - DEPTH
NPHI.V/V      00 330 00 00         : PHIN         - NEUTRON POROSITY (SANDSTONE)
GR  .API      00 310 00 00         : GR           - GAMMA RAY
DPHI.V/V      00 890 00 00         : PHID         - DENSITY POROSITY (SANDSTONE)
ILD .OHMM     00 120 00 00         : RESD         - DEEP RESISTIVITY (DIL)
~PARAMETER INFORMATION
#MNEM.UNIT           DATA             DESCRIPTION OF MNEMONIC
#---------         -----------     ------------------------------
GL  .M        679                  : gl           - GROUND LEVEL ELEVATION
EREF.M        682.5                : kb           - ELEVATION OF DEPTH REFERENCE
DATM.M        682.5                : datum        - DATUM ELEVATION
TDD .M        503                  : tdd          - TOTAL DEPTH DRILLER
RUN .         ONE                  : Run          - RUN NUMBER
ENG .         BILL                 : Engineer     - RECORDING ENGINEER
WIT .         JIM                  : Witness      - WITNESSED BY
MUD .         GEL                  : Mud_type     - MUD TYPE
MATR.         SANDSTONE            : Logunit      - NEUTRON MATRIX
TMAX.C        18                   : BHT          - MAXIMUM RECORDED TEMPERATURE
BHTD.M        503                  : BHTDEP       - MAXIMUM RECORDED TEMPERATURE
RMT .C        17                   : MDTP         - TEMPERATURE OF MUD
MUDD.KG/M     1100                 : MWT          - MUD DENSITY
NEUT.         1                    : NEUTRON      - NEUTRON TYPE
RESI.         0                    : RESIST       - RESISTIVITY TYPE
RM  .OHMM     4.4                  : RM           - RESISTIVITY OF MUD
RMC .OHMM     5.2                  : RMC          - RESISTIVITY OF MUD CAKE
RMF .OHMM     4.2                  : RMF          - RESISTIVITY OF MUD FILTRATE
SUFT.C        4                    : SUFT         - SURFACE TEMPERATURE
~A  DEPTH     PHIN       GR     PHID     RESD
  300.000    0.469   93.228    0.263    3.399
  300.250    0.469  111.143    0.254    3.403
  300.500    0.441  114.244    0.256    3.407
  300.750    0.435  118.580    0.263    3.411
  301.000    0.438  114.887    0.270    3.413
  301.250    0.431  110.574    0.273    3.481
  301.500    0.425  105.647    0.270    3.551
  301.750    0.436  103.189    0.269    3.555
  302.000    0.457  105.052    0.268    3.558
  302.250    0.466  103.829    0.268    3.629
  302.500    0.454  102.605    0.268    3.701
  302.750    0.423  103.852    0.269    3.705
  303.000    0.412  105.721    0.269    3.709
  303.250    0.402  106.344    0.268    3.646
  303.500    0.406  106.973    0.268    3.647
  303.750    0.413  105.749    0.265    3.583
  304.000    0.418  102.059    0.263    3.655
  304.250    0.422  105.772    0.261    3.728
  304.500    0.422  111.340    0.261    3.732
  304.750    0.425  115.056    0.263    3.666
  305.000    0.434  114.450    0.261    3.670
  305.250    0.433  113.844    0.251    3.606
  305.500    0.422  112.003    0.243    3.542
  305.750    0.417  107.075    0.206    3.479
  306.000    0.413   95.974    0.190    3.483
  306.250    0.422   95.985    0.240    3.487
  306.500    0.436   97.849    0.262    3.556
  306.750    0.452  100.330    0.270    3.696
  307.000    0.478  104.669    0.276    3.913
  307.250    0.491  103.442    0.287    4.144
  307.500    0.442   95.428    0.298    4.388
  307.750    0.400   73.211    0.324    4.917
  308.000    0.386   65.199    0.372    5.304
  308.250    0.367   65.210    0.397    6.056
  308.500    0.341   63.987    0.418    6.914
  308.750    0.352   61.529    0.445    7.892
  309.000    0.356   57.836    0.475    8.838
  309.250    0.368   55.378    0.496   10.089
  309.500    0.384   56.007    0.496   11.956
  309.750    0.396   63.427    0.364   12.660
  310.000    0.289   73.322    0.324   13.926
  310.250    0.268   72.093    0.352   14.750
  310.500    0.247   66.551    0.359   15.040
  310.750    0.241   60.385    0.364   15.059
  311.000    0.275   53.605    0.373   15.066
  311.250    0.286   44.974    0.379   15.085
  311.500    0.310   48.072    0.365   14.277
  311.750    0.332   57.344    0.357   14.019
  312.000    0.342   63.529    0.365   13.025
  312.250    0.333   53.663    0.366   13.031
  312.500    0.357   52.439    0.354   12.337
  312.750    0.380   62.334    0.331   12.113
  313.000    0.392   58.636    0.311   11.685
  313.250    0.395   51.856    0.310   11.696
  313.500    0.408   54.954    0.308   11.487
  313.750    0.422   69.168    0.310   11.285
  314.000    0.429   76.588    0.311   11.089
  314.250    0.422   88.948    0.313   10.894
  314.500    0.414   95.133    0.317   10.699
  314.750    0.406   99.466    0.316   10.514
  315.000    0.408   99.480    0.314   10.521
  315.250    0.414   92.700    0.317   10.341
  315.500    0.414   94.567    0.320    9.968
  315.750    0.403   96.427    0.323    9.790
  316.000    0.397   98.906    0.323    9.443
  316.250    0.408  103.239    0.317    9.100
  316.500    0.421  107.572    0.309    8.774
  316.750    0.424  109.438    0.297    8.304
  317.000    0.419  110.067    0.280    7.857
  317.250    0.418  111.316    0.262    7.297
  317.500    0.413  106.385    0.257    6.904
  317.750    0.414  100.840    0.256    6.913
  318.000    0.415  100.234    0.255    6.921
  318.250    0.425  100.866    0.253    6.926
  318.500    0.434   99.640    0.253    6.935
  318.750    0.442   94.712    0.261    7.071
  319.000    0.445   93.489    0.264    7.080
  319.250    0.416   96.593    0.273    7.218
  319.500    0.403   99.068    0.285    7.229
  319.750    0.389  105.253    0.285    7.369
  320.000    0.395  113.908    0.289    7.239
  320.250    0.410  119.476    0.285    6.852
  320.500    0.427  120.722    0.258    6.604
  320.750    0.428  116.415    0.221    6.134
  321.000    0.426  115.809    0.189    5.803
  321.250    0.423  120.756    0.170    5.389
  321.500    0.423  128.176    0.168    5.099
  321.750    0.421  140.538    0.202    4.735
  322.000    0.424  144.254    0.233    4.397
  322.250    0.429  135.622    0.244    4.010
  322.500    0.437  130.080    0.246    3.794
  322.750    0.442  130.091    0.244    3.590
  323.000    0.447  128.865    0.249    3.460
  323.250    0.450  127.642    0.254    3.336
  323.500    0.449  128.271    0.259    3.339
  323.750    0.451  130.134    0.264    3.343
  324.000    0.469  126.441    0.269    3.540
  324.250    0.448  119.044    0.271    3.965
  324.500    0.396  112.264    0.272    4.527
  324.750    0.345  104.867    0.276    5.073
  325.000    0.322   82.035    0.309    5.579
  325.250    0.377   72.169    0.355    5.687
  325.500    0.412   69.096    0.380    6.022
  325.750    0.425   66.638    0.359    6.259
  326.000    0.398   65.412    0.333    6.385
  326.250    0.368   70.362    0.315    6.391
  326.500    0.367   80.252    0.299    6.399
  326.750    0.373   94.463    0.296    6.285
  327.000    0.386   97.564    0.300    6.291
  327.250    0.404   95.103    0.309    6.180
  327.500    0.420   79.680    0.321    6.073
  327.750    0.418   71.048    0.330    5.963
  328.000    0.397   67.972    0.340    5.972
  328.250    0.378   65.514    0.345    5.978
  328.500    0.372   64.908    0.336    5.873
  328.750    0.380   68.007    0.319    5.769
  329.000    0.390   72.340    0.305    5.775
  329.250    0.403   79.760    0.292    5.779
  329.500    0.406   87.800    0.280    5.788
  329.750    0.396   85.342    0.274    5.792
  330.000    0.390   69.922    0.294    5.909
  330.250    0.390   62.522    0.338    5.913
  330.500    0.385   55.745    0.356    5.918
  330.750    0.381   58.225    0.351    5.924
  331.000    0.389   59.469    0.333    5.819
  331.250    0.397   63.185    0.320    5.826
  331.500    0.397   66.903    0.309    5.724
  331.750    0.391   69.381    0.302    5.521
  332.000    0.391   71.862    0.294    5.525
  332.250    0.401   73.726    0.284    5.428
  332.500    0.391   80.528    0.278    5.433
  332.750    0.376   90.418    0.273    5.437
  333.000    0.382   91.049    0.270    5.444
  333.250    0.391   93.531    0.268    5.450
  333.500    0.400   96.626    0.269    5.454
  333.750    0.397  101.576    0.271    5.460
  334.000    0.391  102.828    0.271    5.466
  334.250    0.388  101.602    0.270    5.368
  334.500    0.388   98.529    0.266    5.375
  334.750    0.382   96.686    0.265    5.383
  335.000    0.378   90.523    0.266    5.385
  335.250    0.381   80.657    0.277    5.293
  335.500    0.387   70.790    0.290    5.296
  335.750    0.389   65.862    0.299    5.301
  336.000    0.388   66.491    0.302    5.310
  336.250    0.388   70.207    0.307    5.314
  336.500    0.392   72.073    0.309    5.317
  336.750    0.394   72.082    0.303    5.322
  337.000    0.400   72.093    0.315    5.327
  337.250    0.410   70.870    0.323    5.235
  337.500    0.413   66.560    0.334    5.141
  337.750    0.371   64.104    0.324    5.052
  338.000    0.376   61.646    0.321    4.963
  338.250    0.387   57.950    0.327    4.876
  338.500    0.395   57.962    0.335    4.791
  338.750    0.405   62.295    0.332    4.796
  339.000    0.420   61.072    0.326    4.800
  339.250    0.431   58.614    0.327    4.805
  339.500    0.420   58.010    0.319    4.810
  339.750    0.404   59.259    0.310    4.814
  340.000    0.398   61.117    0.301    4.729
  340.250    0.405   67.302    0.306    4.733
  340.500    0.414   68.549    0.306    4.651
  340.750    0.431   69.798    0.293    4.569
  341.000    0.444   71.044    0.288    4.573
  341.250    0.450   70.438    0.293    4.492
  341.500    0.453   67.362    0.306    4.585
  341.750    0.447   65.525    0.312    4.590
  342.000    0.432   68.620    0.283    4.595
  342.250    0.416   78.510    0.273    4.599
  342.500    0.418   88.399    0.268    4.601
  342.750    0.419   94.587    0.263    4.607
  343.000    0.402   97.071    0.260    4.527
  343.250    0.386   98.311    0.259    4.529
