~VERSION INFORMATION
 VERS.                 2.0:   CWLS LOG ASCII STANDARD -VERSION 2.0
 WRAP.                  NO:   ONE LINE PER DEPTH STEP
~WELL INFORMATION BLOCK
#MNEM.UNIT           DATA                    DESCRIPTION OF MNEMONIC
#---------    -------------------            -------------------------------
# Generated from Intellog Unique Number	CC_84_87/WELL/2341
NULL.         -999.25                        : NULL_VALUE
WELL.         COSEKA ET AL SALESKI           : Well_name    - WELL              
LOC .         12-34-087-18W4                 : Location     - LOCATION          
UWI .         00/12-34-087-18W400            : Uwi          - UNIQUE WELL ID    
ENTR.         JHS                            : Entered      - ENTERED BY        
SRVC.         COMPUTALOG                     : Scn          - SERVICE COMPANY   
DATE.         06 MAR 82                      : Date         - LOG DATE
STRT.M        175                            : top_depth    - START DEPTH       
STOP.M        223                            : bot_depth    - STOP DEPTH        
STEP.M        0.3                            : increment    - STEP LENGTH       
~CURVE INFORMATION BLOCK
#MNEM UNIT       ERCB CURVE CODE    CURVE DESCRIPTION
#-----------   ------------------   ----------------------------------
DEPT.M        00 001 00 00         : DEPTH        - DEPTH                       
DPHI.V/V      00 890 00 00         : PHID         - DENSITY POROSITY (LIMESTONE)
NPHI.V/V      00 330 00 00         : PHIN         - NEUTRON POROSITY (LIMESTONE)
GR  .API      00 310 00 00         : GR           - GAMMA RAY                   
ILD .OHMM     00 120 00 00         : RESD         - DEEP RESISTIVITY (DIL)      
~PARAMETER INFORMATION       
#MNEM.UNIT           DATA             DESCRIPTION OF MNEMONIC
#---------         -----------     ------------------------------
GL  .M        512.91               : gl           - GROUND LEVEL ELEVATION      
EREF.M        515.91               : kb           - ELEVATION OF DEPTH REFERENCE
DATM.M        515.91               : datum        - DATUM ELEVATION             
TDD .M        223.6                : tdd          - TOTAL DEPTH DRILLER         
RUN .         ONE                  : Run          - RUN NUMBER                  
ENG .         BILL                 : Engineer     - RECORDING ENGINEER          
WIT .         JIM                  : Witness      - WITNESSED BY                
MUD .         GEL                  : Mud_type     - MUD TYPE                    
MATR.         LIMESTONE            : Logunit      - NEUTRON MATRIX              
TMAX.C        20                   : BHT          - MAXIMUM RECORDED TEMPERATURE
BHTD.M        223.6                : BHTDEP       - MAXIMUM RECORDED TEMPERATURE
MATR.         1                    : LOGUNIT      - NEUTRON MATRIX              
RMT .C        25                   : MDTP         - TEMPERATURE OF MUD          
NEUT.         1                    : NEUTRON      - NEUTRON TYPE                
RESI.         0                    : RESIST       - RESISTIVITY TYPE            
RMC .OHMM     0.25                 : RMC          - RESISTIVITY OF MUD CAKE     
RMF .OHMM     0.25                 : RMF          - RESISTIVITY OF MUD FILTRATE 
SUFT.C        15                   : SUFT         - SURFACE TEMPERATURE         
~A  DEPTH     PHID     PHIN       GR     RESD
  175.000    0.206    0.348   84.576   13.017
  175.300    0.141    0.398   85.096   14.062
  175.600    0.143    0.461   85.643   17.055
  175.900    0.166    0.309   82.420   18.423
  176.200    0.188    0.323   80.433   17.055
  176.500    0.167    0.383   93.499   15.486
  176.800    0.161    0.397  103.432   15.190
  177.100    0.178    0.392  102.705   15.190
  177.400    0.187    0.401   98.220   14.336
  177.700    0.156    0.424   98.128   12.769
  178.000    0.146    0.455  101.795   11.820
  178.300    0.110    0.430   99.186   11.594
  178.600    0.115    0.367   95.957   11.820
  178.900    0.134    0.357   95.246   12.525
  179.200    0.166    0.351   93.260   12.769
  179.500    0.180    0.367   96.305   12.525
  179.800    0.175    0.388  106.235   11.373
  180.100    0.166    0.368  108.011   10.528
  180.400    0.163    0.367  107.920    9.936
  180.700    0.165    0.376  107.197    9.746
  181.000    0.173    0.405  107.734    9.936
  181.300    0.176    0.497  105.751   10.733
  181.600    0.175    0.523  105.653   10.327
  181.900    0.107    0.500  104.301   10.130
  182.200    0.103    0.457  106.097   10.528
  182.500    0.125    0.369  100.984   12.285
  182.800    0.173    0.367   95.252   13.793
  183.100    0.196    0.377   97.662   13.530
  183.400    0.196    0.409  101.327   13.271
  183.700    0.177    0.409  101.231   12.525
  184.000    0.166    0.403  104.892   12.285
  184.300    0.169    0.408  107.931   11.820
  184.600    0.188    0.423  107.205   11.373
  184.900    0.206    0.390  103.980   12.285
  185.200    0.216    0.348   99.496   14.336
  185.500    0.212    0.337  103.145   14.900
  185.800    0.198    0.355  105.571   14.336
  186.100    0.186    0.381  104.854   13.530
  186.400    0.176    0.392  102.878   13.530
  186.700    0.056    0.399  104.645   14.336
  187.000    0.056    0.422  103.306   14.900
  187.300    0.095    0.236   98.829   18.782
  187.600    0.155    0.250   94.957   21.087
  187.900    0.171    0.320  104.278   21.087
  188.200    0.176    0.354  112.310   19.521
  188.500    0.182    0.375  110.338   16.096
  188.800    0.193    0.387  109.628   14.062
  189.100    0.194    0.401  111.415   13.530
  189.400    0.175    0.425  113.198   13.793
  189.700    0.108    0.424  114.982   14.336
  190.000    0.103    0.404  114.257   14.615
  190.300    0.122    0.307  109.150   15.486
  190.600    0.159    0.319  100.902   15.486
  190.900    0.183    0.339  102.693   14.336
  191.200    0.183    0.371  118.888   11.594
  191.500    0.183    0.396  123.798    9.560
  191.800    0.176    0.428  123.709    8.352
  192.100    0.182    0.432  122.986    7.882
  192.400    0.169    0.433  117.871    8.515
  192.700    0.051    0.481  104.625   10.130
  193.000    0.090    0.519   86.983   13.271
  193.300    0.143    0.262   84.378   15.486
  193.600    0.175    0.312   96.817   16.409
  193.900    0.174    0.365  107.377   15.486
  194.200    0.177    0.380  109.160   12.050
  194.500    0.178    0.365  110.945   10.528
  194.800    0.174    0.363  111.469    9.198
  195.100    0.178    0.389  117.016    8.192
  195.400    0.178    0.395  118.795    7.732
  195.700    0.173    0.371  117.446    7.732
  196.000    0.171    0.392  119.233    8.036
  196.300    0.166    0.419  120.386    8.192
  196.600    0.176    0.422  119.028    8.192
  196.900    0.187    0.378  117.697    8.352
  197.200    0.184    0.391  119.482    9.022
  197.500    0.184    0.411  125.025    9.746
  197.800    0.166    0.457  128.057   10.733
  198.100    0.137    0.452  126.085   12.050
  198.400    0.063    0.373  119.719   13.793
  198.700    0.078    0.332  111.473   16.409
  199.000    0.133    0.290  110.758   16.729
  199.300    0.164    0.313  117.548   16.409
  199.600    0.176    0.347  120.581   15.788
  199.900    0.180    0.340  119.229   15.190
  200.200    0.177    0.294  120.392   14.062
  200.500    0.170    0.297  119.663   13.530
  200.800    0.174    0.351  118.311   13.530
  201.100    0.183    0.375  115.715   14.615
  201.400    0.173    0.384  111.236   17.055
  201.700    0.020    0.356  103.627   21.917
  202.000    0.061    0.205   94.765   24.137
  202.300    0.108    0.214   92.152   23.676
  202.600    0.142    0.266   97.068   21.917
  202.900    0.176    0.331  105.119   20.684
  203.200    0.180    0.373  109.411   17.387
  203.500    0.183    0.366  110.568   15.190
  203.800    0.168    0.351  111.100   14.900
  204.100    0.160    0.336  110.363   14.900
  204.400    0.162    0.356  109.021   15.190
  204.700    0.132    0.369  108.317   15.788
  205.000    0.101    0.414  106.965   17.055
  205.300    0.112    0.349  101.232   16.409
  205.600    0.148    0.332  102.382   14.336
  205.900    0.171    0.346  112.313   11.820
  206.200    0.168    0.382  119.721    9.560
  206.500    0.167    0.410  117.135    8.681
  206.800    0.200    0.429  110.773    8.681
  207.100    0.236    0.487   87.495   12.050
  207.400    0.267    0.515   64.220   26.074
  207.700    0.288    0.456   45.327   81.398
  208.000    0.281    0.395   41.462   87.929
  208.300    0.282    0.382   41.370   81.398
  208.600    0.273    0.395   42.529   86.249
  208.900    0.264    0.393   43.065   91.389
  209.200    0.275    0.388   41.087  102.606
  209.500    0.284    0.382   35.980  108.721
  209.800    0.279    0.397   40.262  106.643
  210.100    0.270    0.412   42.055  110.839
  210.400    0.273    0.443   41.332  110.839
  210.700    0.272    0.409   41.860  104.605
  211.000    0.277    0.374   45.515   96.835
  211.300    0.275    0.364   47.929   86.249
  211.600    0.279    0.376   48.463   73.912
  211.900    0.283    0.392   48.361   59.777
  212.200    0.289    0.381   52.030   52.225
  212.500    0.274    0.351   56.322   47.422
  212.800    0.267    0.360   62.485   41.430
  213.100    0.276    0.385   69.917   36.901
  213.400    0.277    0.408  119.324   31.623
  213.700    0.261    0.396  124.863   27.099
  214.000    0.172    0.312  119.121   21.498
  214.300    0.196    0.299  115.896   15.486
  214.600    0.109    0.350  116.432   10.130
  214.900    0.117    0.364  248.544    7.297
  215.200    0.170    0.361  246.559    5.359
  215.500    0.200    0.363  238.324    4.170
  215.800    0.199    0.388  192.494    3.935
  216.100    0.195    0.396  169.215    4.012
  216.400    0.182    0.397  140.919    4.504
  216.700    0.177    0.455  135.801    5.156
  217.000    0.146    0.462  133.829    6.134
  217.300    0.134    0.470  132.465    6.253
  217.600    0.144    0.436  130.512    6.626
  217.900    0.182    0.392  126.660    8.036
  218.200    0.226    0.382  127.186   10.327
  218.500    0.245    0.465  131.474   14.336
  218.800    0.263    0.508  129.506   19.521
  219.100    0.273    0.289  132.532   26.582
  219.400    0.232    0.282  134.322   25.575
  219.700    0.205    0.305  131.092   23.223
  220.000    0.211    0.358  126.612   24.137
  220.300    0.226    0.380  128.393   22.779
  220.600    0.225    0.367  131.426   19.901
  220.900    0.211    0.330  126.951   17.726
  221.200    0.206    0.334   55.428   14.336
  221.500    0.246    0.349   18.360   14.615
  221.800    0.265    0.362   17.005   14.615
  222.100    0.281    0.349   17.549   14.615
  222.400    0.291    0.315   17.442   14.900
  222.700    0.285    0.326   17.968   15.190
  223.000    0.263    0.364   17.868   15.190
