~VERSION INFORMATION
 VERS.                 2.0:   CWLS LOG ASCII STANDARD -VERSION 2.0
 WRAP.                  NO:   ONE LINE PER DEPTH STEP
~WELL INFORMATION BLOCK
#MNEM.UNIT           DATA                    DESCRIPTION OF MNEMONIC
#---------    -------------------            -------------------------------
# Generated from Intellog Unique Number	CX_WELLS/WELL/3977
WELL.         BOW VALLEY INDUSTRIES          : Well_name    - WELL
LOC .         00/11-02-071-15W4/0            : Location     - LOCATION
UWI .         00/11-02-071-15W4/0            : Uwi          - UNIQUE WELL ID
ENTR.         SP                             : Entered      - ENTERED BY
SRVC.         SCHLUMBERGER                   : Scn          - SERVICE COMPANY
STRT.M        265                            : top_depth    - START DEPTH
STOP.M        485                            : bot_depth    - STOP DEPTH
STEP.M        0.25                           : increment    - STEP LENGTH
 NULL. -999.2500:NULL Value
~CURVE INFORMATION BLOCK
#MNEM UNIT       ERCB CURVE CODE    CURVE DESCRIPTION
#-----------   ------------------   ----------------------------------
DEPT.M        00 001 00 00         : DEPTH        - DEPTH
NPHI.V/V      00 330 00 00         : PHIN         - NEUTRON POROSITY (LIMESTONE)
ILD .OHMM     00 120 00 00         : RESD         - DEEP RESISTIVITY (DIL)
GR  .API      00 310 00 00         : GR           - GAMMA RAY
DPHI.V/V      00 890 00 00         : PHID         - DENSITY POROSITY (LIMESTONE)
~PARAMETER INFORMATION
#MNEM.UNIT           DATA             DESCRIPTION OF MNEMONIC
#---------         -----------     ------------------------------
GL  .M        569.5                : gl           - GROUND LEVEL ELEVATION
EREF.M        572.7                : kb           - ELEVATION OF DEPTH REFERENCE
DATM.M        569.5                : datum        - DATUM ELEVATION
TDD .M        484                  : tdd          - TOTAL DEPTH DRILLER
RUN .         ONE                  : Run          - RUN NUMBER
ENG .         BILL                 : Engineer     - RECORDING ENGINEER
WIT .         JIM                  : Witness      - WITNESSED BY
MUD .         GEL                  : Mud_type     - MUD TYPE
MATR.         LIMESTONE            : Logunit      - NEUTRON MATRIX
TMAX.C        26                   : BHT          - MAXIMUM RECORDED TEMPERATURE
BHTD.M        484                  : BHTDEP       - MAXIMUM RECORDED TEMPERATURE
MATR.         1                    : LOGUNIT      - NEUTRON MATRIX
RMT .C        25                   : MDTP         - TEMPERATURE OF MUD
NEUT.         1                    : NEUTRON      - NEUTRON TYPE
RESI.         0                    : RESIST       - RESISTIVITY TYPE
RMC .OHMM     0.25                 : RMC          - RESISTIVITY OF MUD CAKE
RMF .OHMM     0.25                 : RMF          - RESISTIVITY OF MUD FILTRATE
SUFT.C        15                   : SUFT         - SURFACE TEMPERATURE
~A  DEPTH     PHIN     RESD       GR     PHID
# ...
  439.000    0.319   24.314   68.140    0.195
  439.250    0.320   25.076   66.193    0.182
  439.500    0.325   25.716   61.804    0.165
  439.750    0.318   24.879   61.755    0.161
  440.000    0.313   20.863   62.683    0.169
  440.250    0.316   17.927   64.773    0.186
  440.500    0.321   15.464   68.084    0.203
  440.750    0.320   13.440   74.758    0.201
  441.000    0.314   11.769   83.755    0.193
  441.250    0.323   10.094   95.319    0.190
  441.500    0.332    8.529  108.963    0.188
  441.750    0.342    7.624  118.142    0.187
  442.000    0.348    7.077  123.900    0.188
  442.250    0.338    6.924  128.129    0.188
  442.500    0.326    7.236  124.964    0.189
  442.750    0.321    8.137  123.568    0.189
  443.000    0.326    9.237  122.233    0.184
  443.250    0.326   10.787  115.826    0.168
  443.500    0.325   12.335   90.103    0.131
  443.750    0.315   14.704   78.683    0.091
  444.000    0.302   16.849   69.831    0.148
  444.250    0.290   18.664   65.075    0.203
  444.500    0.296   17.261   64.659    0.223
  444.750    0.302   15.373   70.783    0.211
  445.000    0.304   13.691   81.430    0.199
  445.250    0.298   12.494   83.214    0.191
  445.500    0.294   11.296   87.077    0.182
  445.750    0.291   10.311   93.995    0.175
  446.000    0.290    9.899  105.253    0.169
  446.250    0.297    9.399  110.216    0.167
  446.500    0.303    9.094  112.244    0.166
  446.750    0.300    8.966  100.825    0.170
  447.000    0.305    9.022   83.660    0.181
  447.250    0.313    9.410   64.906    0.204
  447.500    0.321   10.581   59.598    0.231
  447.750    0.312   12.080   56.920    0.253
  448.000    0.302   13.560   62.189    0.251
  448.250    0.295   14.113   71.002    0.231
  448.500    0.290   13.861   87.151    0.208
  448.750    0.293   13.210   94.558    0.197
  449.000    0.310   12.590   87.663    0.208
  449.250    0.323   12.271   82.906    0.221
  449.500    0.325   12.490   78.027    0.229
  449.750    0.318   13.076   72.540    0.237
  450.000    0.313   13.798   70.105    0.239
  450.250    0.312   14.013   69.381    0.242
  450.500    0.321   14.317   73.610    0.243
  450.750    0.329   14.410   76.067    0.240
  451.000    0.340   13.941   76.936    0.234
  451.250    0.351   13.063   77.617    0.227
  451.500    0.337   12.262   74.633    0.220
  451.750    0.327   11.446   73.055    0.211
  452.000    0.320   10.745   79.423    0.199
  452.250    0.311   10.088   89.521    0.185
  452.500    0.308    9.364   98.641    0.162
  452.750    0.352    8.464  106.843    0.108
  453.000    0.415    7.274  114.861    0.085
  453.250    0.439    6.419  116.890    0.124
  453.500    0.404    6.048  104.798    0.172
  453.750    0.378    5.928   88.794    0.201
  454.000    0.359    5.779   79.270    0.225
  454.250    0.340    5.750   84.966    0.212
  454.500    0.328    6.066   99.158    0.192
  454.750    0.318    6.495  103.816    0.176
  455.000    0.308    7.376  100.893    0.169
  455.250    0.301    7.721  100.537    0.165
  455.500    0.299    7.947  101.771    0.167
  455.750    0.300    8.046   99.704    0.169
  456.000    0.304    8.064   99.471    0.171
  456.250    0.309    8.070  101.685    0.172
  456.500    0.312    7.852  101.389    0.174
  456.750    0.314    7.754   95.776    0.180
  457.000    0.316    7.790   91.386    0.187
  457.250    0.315    7.915   89.015    0.180
  457.500    0.314    8.055   92.998    0.169
  457.750    0.314    8.386  100.834    0.161
  458.000    0.318    8.829  108.669    0.155
  458.250    0.323    9.278  111.065    0.142
  458.500    0.327   10.012   98.484    0.124
  458.750    0.322   10.722   87.126    0.107
  459.000    0.308   11.459   82.981    0.165
  459.250    0.301   12.343   82.442    0.195
  459.500    0.299   12.945   79.091    0.217
  459.750    0.305   13.475   73.416    0.236
  460.000    0.309   14.057   68.540    0.239
  460.250    0.311   14.334   65.065    0.215
  460.500    0.304   14.426   60.675    0.181
  460.750    0.296   14.359   60.625    0.173
  461.000    0.290   14.124   70.296    0.183
  461.250    0.284   12.678   79.109    0.180
  461.500    0.287   11.810   90.615    0.162
  461.750    0.303   10.778   98.393    0.143
  462.000    0.314    9.781  101.087    0.135
  462.250    0.323    9.182  110.206    0.139
  462.500    0.323    8.783  102.638    0.161
  462.750    0.319    8.675   95.620    0.184
  463.000    0.315    8.947   86.891    0.201
  463.250    0.319    9.366   81.216    0.215
  463.500    0.322    9.918   75.543    0.222
  463.750    0.321   10.286   78.428    0.219
  464.000    0.323   10.274   80.272    0.217
  464.250    0.327    9.682   80.711    0.224
  464.500    0.324    9.021   79.874    0.231
  464.750    0.316    8.468   79.451    0.232
  465.000    0.308    7.290   77.388    0.226
  465.250    0.304    6.079   76.357    0.233
  465.500    0.312    5.293   73.188    0.252
  465.750    0.322    4.705   65.559    0.267
  466.000    0.325    4.223   60.131    0.275
  466.250    0.329    3.971   60.935    0.262
  466.500    0.325    3.763   62.780    0.266
  466.750    0.320    3.600   59.552    0.281
  467.000    0.317    3.496   57.242    0.289
  467.250    0.317    3.401   59.147    0.288
  467.500    0.319    3.328   61.481    0.276
  467.750    0.322    3.293   65.836    0.262
  468.000    0.323    3.308   68.657    0.249
  468.250    0.326    3.341   71.600    0.232
  468.500    0.329    3.414   77.972    0.215
  468.750    0.323    3.608   81.464    0.200
  469.000    0.314    3.893   84.595    0.191
  469.250    0.316    4.076   81.732    0.206
  469.500    0.327    4.056   73.552    0.227
  469.750    0.326    3.844   58.102    0.246
  470.000    0.318    3.581   49.801    0.263
  470.250    0.318    3.274   45.101    0.271
  470.500    0.326    2.955   40.099    0.280
  470.750    0.332    2.748   37.422    0.296
  471.000    0.335    2.575   31.381    0.314
  471.250    0.336    2.381   23.813    0.330
  471.500    0.336    2.227   25.110    0.333
  471.750    0.335    2.102   29.827    0.320
  472.000    0.331    2.045   34.912    0.307
  472.250    0.326    2.089   39.506    0.296
  472.500    0.319    2.399   45.449    0.286
  472.750    0.311    2.623   49.004    0.272
  473.000    0.303    2.840   57.389    0.248
  473.250    0.299    2.963   66.753    0.231
  473.500    0.306    2.839   70.860    0.259
  473.750    0.319    2.665   57.546    0.305
  474.000    0.329    2.516   38.729    0.318
  474.250    0.330    2.349   28.044    0.319
  474.500    0.325    2.239   32.456    0.317
  474.750    0.320    2.153   39.074    0.315
  475.000    0.322    2.143   43.791    0.315
  475.250    0.326    2.256   48.020    0.302
  475.500    0.325    2.430   50.411    0.289
  475.750    0.326    2.554   47.551    0.282
  476.000    0.330    2.609   41.937    0.288
  476.250    0.334    2.587   37.305    0.297
  476.500    0.323    2.406   34.380    0.313
  476.750    0.316    2.180   22.534    0.326
  477.000    0.317    2.148   20.160    0.335
  477.250    0.344    2.098   18.216    0.337
  477.500    0.339    2.095   18.045    0.332
  477.750    0.329    2.125   17.871    0.324
  478.000    0.325    2.187   17.394    0.320
  478.250    0.323    2.226   17.223    0.318
  478.500    0.322    2.249   17.539    0.321
  478.750    0.323    2.259   18.528    0.327
  479.000    0.329    2.269   20.375    0.332
  479.250    0.332    2.271   22.035    0.331
  479.500    0.331    2.239   24.681    0.328
  479.750    0.332    2.211   24.872    0.326
  480.000    0.332    2.183   24.576    0.327
  480.250    0.327    2.145   23.120    0.328
  480.500    0.326    2.106   21.546    0.329
  480.750    0.329    2.092   20.943    0.329
  481.000    0.331    2.097   20.282    0.326
  481.250    0.333    2.091   20.047    0.320
  481.500    0.334    2.097   20.486    0.313
  481.750    0.335    2.098   21.597    0.312
  482.000    0.335    2.124   22.160    0.317
  482.250    0.338    2.150   21.865    0.326
