~VERSION INFORMATION
 VERS.                 2.0:   CWLS LOG ASCII STANDARD -VERSION 2.0
 WRAP.                  NO:   ONE LINE PER DEPTH STEP
~WELL INFORMATION BLOCK
#MNEM.UNIT           DATA                    DESCRIPTION OF MNEMONIC
#---------    -------------------            -------------------------------
# Generated from Intellog Unique Number	CS_71_72/WELL/913
WELL.         MAYNARD EXPLORATION            : Well_name    - WELL
LOC .         00/11-34-071-11W4/0            : Location     - LOCATION
UWI .         00/11-34-071-11W4/0            : Uwi          - UNIQUE WELL ID
ENTR.         SP                             : Entered      - ENTERED BY
SRVC.         SCHLUMBERGER                   : Scn          - SERVICE COMPANY
STRT.M        290                            : top_depth    - START DEPTH
STOP.M        490                            : bot_depth    - STOP DEPTH
STEP.M        0.25                           : increment    - STEP LENGTH
 NULL. -999.2500:NULL Value
~CURVE INFORMATION BLOCK
#MNEM UNIT       ERCB CURVE CODE    CURVE DESCRIPTION
#-----------   ------------------   ----------------------------------
DEPT.M        00 001 00 00         : DEPTH        - DEPTH
ILD .OHMM     00 120 00 00         : RESD         - DEEP RESISTIVITY (DIL)
DPHI.V/V      00 890 00 00         : PHID         - DENSITY POROSITY (LIMESTONE)
NPHI.V/V      00 330 00 00         : PHIN         - NEUTRON POROSITY (LIMESTONE)
GR  .API      00 310 00 00         : GR           - GAMMA RAY
~PARAMETER INFORMATION
#MNEM.UNIT           DATA             DESCRIPTION OF MNEMONIC
#---------         -----------     ------------------------------
GL  .M        652.3                : gl           - GROUND LEVEL ELEVATION
EREF.M        635.5                : kb           - ELEVATION OF DEPTH REFERENCE
DATM.M        652.3                : datum        - DATUM ELEVATION
TDD .M        507.3                : tdd          - TOTAL DEPTH DRILLER
RUN .         ONE                  : Run          - RUN NUMBER
ENG .         BILL                 : Engineer     - RECORDING ENGINEER
WIT .         JIM                  : Witness      - WITNESSED BY
MUD .         GEL                  : Mud_type     - MUD TYPE
MATR.         LIMESTONE            : Logunit      - NEUTRON MATRIX
TMAX.C        22                   : BHT          - MAXIMUM RECORDED TEMPERATURE
BHTD.M        507.3                : BHTDEP       - MAXIMUM RECORDED TEMPERATURE
MATR.         1                    : LOGUNIT      - NEUTRON MATRIX
RMT .C        25                   : MDTP         - TEMPERATURE OF MUD
NEUT.         1                    : NEUTRON      - NEUTRON TYPE
RESI.         0                    : RESIST       - RESISTIVITY TYPE
RMC .OHMM     0.25                 : RMC          - RESISTIVITY OF MUD CAKE
RMF .OHMM     0.25                 : RMF          - RESISTIVITY OF MUD FILTRATE
SUFT.C        15                   : SUFT         - SURFACE TEMPERATURE
~A  DEPTH     RESD     PHID     PHIN       GR
# ...
  420.500    4.270    0.246    0.429   94.354
  420.750    4.386    0.235    0.417   94.835
  421.000    4.452    0.233    0.408   96.234
  421.250    4.509    0.240    0.417   97.878
  421.500    4.534    0.237    0.426   98.910
  421.750    4.559    0.227    0.431   97.192
  422.000    4.543    0.218    0.437   96.575
  422.250    4.535    0.212    0.444   97.303
  422.500    4.519    0.213    0.448   97.663
  422.750    4.495    0.221    0.452   96.251
  423.000    4.479    0.214    0.444   97.589
  423.250    4.471    0.216    0.431   98.927
  423.500    4.447    0.235    0.430  100.142
  423.750    4.398    0.252    0.436  100.808
  424.000    4.300    0.262    0.465  101.901
  424.250    4.128    0.293    0.488  103.056
  424.500    3.662    0.314    0.501  103.722
  424.750    3.211    0.328    0.517  103.593
  425.000    2.883    0.331    0.522  103.159
  425.250    2.400    0.332    0.512  101.747
  425.500    2.146    0.348    0.519  100.824
  425.750    2.007    0.325    0.503  100.328
  426.000    2.106    0.296    0.473  100.383
  426.250    2.344    0.285    0.447  101.171
  426.500    2.533    0.293    0.432  100.921
  426.750    2.763    0.301    0.454  100.426
  427.000    2.977    0.293    0.461   98.464
  427.250    3.157    0.310    0.446   96.380
  427.500    3.256    0.322    0.437   96.924
  427.750    3.314    0.309    0.444   99.972
  428.000    3.339    0.292    0.453  102.471
  428.250    3.348    0.276    0.458  104.053
  428.500    3.356    0.267    0.466  104.413
  428.750    3.389    0.261    0.467  103.490
  429.000    3.406    0.251    0.459  100.918
  429.250    3.456    0.241    0.452   97.306
  429.500    3.579    0.228    0.448   96.079
  429.750    3.768    0.202    0.443   93.873
  430.000    4.023    0.147    0.431   90.994
  430.250    4.384    0.119    0.372   90.133
  430.500    4.811    0.143    0.361   93.120
  430.750    5.401    0.216    0.410   96.046
  431.000    5.746    0.229    0.433   98.422
  431.250    5.607    0.220    0.456  100.248
  431.500    5.165    0.206    0.466  100.854
  431.750    4.706    0.206    0.452   99.564
  432.000    4.444    0.211    0.445   99.130
  432.250    4.387    0.216    0.441   99.979
  432.500    4.330    0.222    0.445  101.500
  432.750    4.240    0.225    0.448  100.211
  433.000    4.167    0.235    0.438   97.822
  433.250    4.143    0.246    0.429   96.838
  433.500    4.126    0.253    0.423   97.320
  433.750    4.143    0.244    0.423   99.451
  434.000    4.193    0.231    0.424  101.095
  434.250    4.210    0.232    0.431  102.739
  434.500    4.226    0.242    0.446  104.137
  434.750    4.227    0.249    0.457  104.680
  435.000    4.219    0.246    0.427  103.880
  435.250    4.211    0.238    0.412  102.713
  435.500    4.179    0.224    0.423  101.851
  435.750    4.146    0.216    0.432  101.600
  436.000    4.114    0.223    0.436  100.738
  436.250    4.082    0.227    0.430  100.060
  436.500    4.049    0.228    0.425   99.504
  436.750    4.050    0.234    0.436  100.291
  437.000    4.124    0.232    0.442  102.850
  437.250    4.239    0.223    0.438  105.472
  437.500    4.370    0.234    0.438  108.032
  437.750    4.486    0.246    0.450  109.308
  438.000    4.437    0.255    0.457  106.552
  438.250    4.249    0.255    0.453  102.818
  438.500    3.962    0.247    0.456  101.407
  438.750    3.692    0.244    0.459  100.790
  439.000    3.471    0.249    0.456  100.417
  439.250    3.365    0.259    0.450  100.899
  439.500    3.275    0.274    0.445  101.504
  439.750    3.078    0.290    0.445  100.276
  440.000    2.808    0.302    0.472   98.925
  440.250    2.579    0.316    0.506   98.430
  440.500    2.309    0.301    0.520  100.196
  440.750    2.096    0.290    0.527  103.183
  441.000    1.957    0.284    0.527  105.682
  441.250    1.875    0.276    0.528  107.203
  441.500    1.884    0.287    0.519  106.402
  441.750    1.966    0.288    0.505  103.524
  442.000    2.196    0.258    0.489  100.646
  442.250    2.516    0.239    0.471   98.501
  442.500    3.017    0.234    0.453   98.616
  442.750    3.198    0.237    0.444   99.466
  443.000    3.338    0.251    0.446  101.170
  443.250    3.379    0.254    0.448  102.325
  443.500    3.330    0.259    0.449  102.990
  443.750    3.126    0.268    0.450  100.662
  444.000    2.954    0.271    0.458  100.900
  444.250    2.708    0.264    0.468  100.955
  444.500    2.668    0.263    0.459   98.749
  444.750    2.848    0.247    0.452   92.693
  445.000    3.242    0.201    0.433   89.144
  445.250    3.571    0.117    0.409   90.848
  445.500    3.809    0.174    0.382   95.730
  445.750    4.064    0.236    0.418   97.923
  446.000    4.138    0.255    0.434   94.128
  446.250    3.638    0.245    0.439   93.144
  446.500    3.253    0.236    0.448   99.431
  446.750    2.933    0.230    0.457  105.779
  447.000    2.663    0.226    0.464  111.149
  447.250    2.532    0.230    0.473  111.753
  447.500    2.426    0.232    0.482  108.081
  447.750    2.418    0.245    0.495  107.220
  448.000    2.386    0.252    0.502  108.680
  448.250    2.354    0.252    0.500  108.917
  448.500    2.313    0.256    0.493  108.483
  448.750    2.272    0.260    0.486  106.522
  449.000    2.199    0.255    0.487  105.599
  449.250    2.183    0.245    0.496  107.914
  449.500    2.216    0.240    0.487  110.046
  449.750    2.323    0.239    0.479  111.934
  450.000    2.414    0.239    0.472  112.844
  450.250    2.529    0.238    0.480  112.043
  450.500    2.562    0.237    0.488  109.531
  450.750    2.473    0.239    0.484  108.609
  451.000    2.448    0.239    0.476  108.175
  451.250    2.416    0.226    0.464  105.358
  451.500    2.506    0.215    0.456  105.962
  451.750    2.654    0.206    0.448  107.910
  452.000    2.745    0.224    0.457  109.494
  452.250    2.762    0.249    0.473  112.236
  452.500    2.713    0.248    0.488  115.101
  452.750    2.533    0.248    0.507  116.867
  453.000    2.361    0.255    0.512  115.089
  453.250    2.247    0.261    0.514  110.928
  453.500    2.247    0.262    0.512  109.027
  453.750    2.420    0.252    0.501  106.516
  454.000    2.625    0.241    0.475  103.332
  454.250    2.929    0.236    0.450  102.287
  454.500    3.175    0.230    0.434  100.265
  454.750    3.389    0.224    0.424  101.664
  455.000    3.496    0.228    0.422  102.696
  455.250    3.578    0.234    0.426  100.612
  455.500    3.702    0.239    0.420   93.579
  455.750    4.022    0.242    0.405   85.752
  456.000    4.588    0.251    0.387   81.713
  456.250    5.548    0.261    0.367   78.102
  456.500    6.278    0.233    0.349   78.524
  456.750    6.746    0.205    0.339   81.265
  457.000    7.049    0.189    0.344   84.131
  457.250    7.025    0.240    0.358   86.508
  457.500    6.689    0.263    0.376   86.441
  457.750    6.173    0.252    0.393   83.318
  458.000    5.657    0.230    0.393   83.495
  458.250    5.346    0.204    0.382   85.260
  458.500    5.117    0.180    0.377   86.595
  458.750    4.978    0.242    0.382   86.833
  459.000    4.888    0.274    0.389   86.769
  459.250    5.044    0.286    0.383   84.073
  459.500    5.651    0.293    0.373   81.196
  459.750    6.849    0.312    0.361   77.524
  460.000    7.907    0.327    0.355   76.479
  460.250    8.842    0.318    0.356   76.594
  460.500    9.359    0.305    0.377   74.938
  460.750    9.778    0.293    0.374   72.671
  461.000   10.131    0.300    0.365   70.404
  461.250   10.295    0.281    0.368   69.970
  461.500   10.156    0.256    0.379   72.530
  461.750    9.820    0.231    0.385   74.112
  462.000    9.230    0.219    0.388   75.389
  462.250    8.558    0.251    0.390   69.700
  462.500    7.829    0.288    0.392   68.166
  462.750    7.936    0.301    0.389   72.559
  463.000    8.699    0.308    0.387   75.913
  463.250    9.700    0.305    0.385   71.568
  463.500   10.545    0.314    0.380   74.922
  463.750   10.955    0.306    0.379   85.364
