~VERSION INFORMATION
 VERS.                 2.0:   CWLS LOG ASCII STANDARD -VERSION 2.0
 WRAP.                  NO:   ONE LINE PER DEPTH STEP
~WELL INFORMATION BLOCK
#MNEM.UNIT           DATA                    DESCRIPTION OF MNEMONIC
#---------    -------------------            -------------------------------
# Generated from Intellog Unique Number	CS_69_70/WELL/2902
WELL.         12-30-069-07W4                 : Well_name    - WELL
LOC .         00/12-30-069-07W4/0            : Location     - LOCATION
UWI .         00/12-30-069-07W4/0            : Uwi          - UNIQUE WELL ID
ENTR.         ANDERSEN                       : Entered      - ENTERED BY
SRVC.         SCHLUMBERGER                   : Scn          - SERVICE COMPANY
STRT.M        350                            : top_depth    - START DEPTH
STOP.M        540                            : bot_depth    - STOP DEPTH
STEP.M        0.25                           : increment    - STEP LENGTH
 NULL. -999.2500:NULL Value
~CURVE INFORMATION BLOCK
#MNEM UNIT       ERCB CURVE CODE    CURVE DESCRIPTION
#-----------   ------------------   ----------------------------------
DEPT.M        00 001 00 00         : DEPTH        - DEPTH
GR  .API      00 310 00 00         : GR           - GAMMA RAY
CALI.MM       00 280 01 00         : CAL          - CALIPER
NPHI.V/V      00 330 00 00         : PHIN         - NEUTRON POROSITY (SANDSTONE)
DPHI.V/V      00 890 00 00         : PHID         - DENSITY POROSITY (SANDSTONE)
ILD .OHMM     00 120 00 00         : RESD         - DEEP RESISTIVITY (DIL)
~PARAMETER INFORMATION
#MNEM.UNIT           DATA             DESCRIPTION OF MNEMONIC
#---------         -----------     ------------------------------
GL  .M        656.9                : gl           - GROUND LEVEL ELEVATION
EREF.M        660.6                : kb           - ELEVATION OF DEPTH REFERENCE
DATM.M        660.6                : datum        - DATUM ELEVATION
TDD .M        543                  : tdd          - TOTAL DEPTH DRILLER
RUN .         ONE                  : Run          - RUN NUMBER
ENG .         BILL                 : Engineer     - RECORDING ENGINEER
WIT .         JIM                  : Witness      - WITNESSED BY
MUD .         GEL                  : Mud_type     - MUD TYPE
MATR.         SANDSTONE            : Logunit      - NEUTRON MATRIX
TMAX.C        23                   : BHT          - MAXIMUM RECORDED TEMPERATURE
BHTD.M        543                  : BHTDEP       - MAXIMUM RECORDED TEMPERATURE
MATR.         1                    : LOGUNIT      - NEUTRON MATRIX
RMT .C        17                   : MDTP         - TEMPERATURE OF MUD
NEUT.         1                    : NEUTRON      - NEUTRON TYPE
RESI.         0                    : RESIST       - RESISTIVITY TYPE
RMC .OHMM     3.24                 : RMC          - RESISTIVITY OF MUD CAKE
RMF .OHMM     8.92                 : RMF          - RESISTIVITY OF MUD FILTRATE
SUFT.C        15                   : SUFT         - SURFACE TEMPERATURE
~A  DEPTH       GR      CAL     PHIN     PHID     RESD
  350.000   92.446  172.550    0.475    0.218    5.988
  350.250   89.648  171.691    0.482    0.213    5.789
  350.500   87.970  171.763    0.476    0.217    5.688
  350.750   92.017  170.885    0.465    0.221    5.493
  351.000   93.202  170.958    0.456    0.219    5.304
  351.250   93.234  171.031    0.459    0.221    5.314
  351.500   94.989  171.104    0.466    0.222    5.322
  351.750   99.037  170.226    0.473    0.223    5.331
  352.000   96.799  170.335    0.477    0.223    5.339
  352.250   93.420  170.371    0.475    0.223    5.347
  352.500   91.753  170.462    0.478    0.219    5.355
  352.750   92.378  172.436    0.482    0.212    5.366
  353.000   92.421  175.361    0.480    0.210    5.370
  353.250   91.324  177.372    0.477    0.216    5.380
  353.500   90.227  176.457    0.482    0.223    5.389
  353.750   89.700  175.579    0.496    0.226    5.397
  354.000   88.603  173.751    0.488    0.227    5.405
  354.250   87.495  173.842    0.457    0.229    5.414
  354.500   89.831  172.032    0.457    0.233    5.422
  354.750   90.445  170.203    0.468    0.238    5.430
  355.000   88.789  168.356    0.471    0.235    5.439
  355.250   90.533  168.429    0.467    0.236    5.447
  355.500   92.858  169.453    0.484    0.216    5.458
  355.750   91.190  171.427    0.472    0.211    5.466
  356.000   87.823  171.499    0.472    0.215    5.475
  356.250   87.856  172.523    0.475    0.218    5.483
  356.500   90.192  172.632    0.477    0.218    5.392
  356.750   89.094  171.772    0.475    0.225    5.401
  357.000   89.149  170.858    0.472    0.226    5.509
  357.250   87.482  169.030    0.478    0.230    5.725
  357.500   84.092  166.250    0.491    0.237    6.166
  357.750   80.713  162.521    0.500    0.241    6.769
  358.000   77.335  160.692    0.477    0.241    6.904
  358.250   75.667  158.882    0.457    0.221    7.042
  358.500   77.433  158.955    0.440    0.203    7.053
  358.750   79.188  159.978    0.444    0.211    7.064
  359.000   79.791  161.001    0.459    0.222    6.579
  359.250   80.427  161.074    0.476    0.234    6.125
  359.500   79.330  160.196    0.468    0.243    6.248
  359.750   75.940  159.319    0.479    0.246    6.490
  360.000   71.991  157.490    0.480    0.248    6.739
  360.250   65.761  155.662    0.466    0.259    6.880
  360.500   68.097  154.802    0.437    0.283    6.890
  360.750   64.707  154.875    0.433    0.302    6.901
  361.000   54.473  154.947    0.439    0.314    6.909
  361.250   49.383  155.020    0.434    0.329    6.794
  361.500   52.860  155.093    0.435    0.336    6.563
  361.750   52.333  155.166    0.435    0.342    6.455
  362.000   48.384  155.257    0.433    0.347    6.462
  362.250   43.865  155.329    0.440    0.349    6.472
  362.500   42.768  155.402    0.433    0.348    6.485
  362.750   50.797  155.457    0.416    0.343    6.495
  363.000   55.985  155.548    0.392    0.338    6.505
  363.250   53.747  155.621    0.398    0.339    6.517
  363.500   50.368  155.693    0.425    0.343    6.648
  363.750   50.423  155.766    0.425    0.346    6.656
  364.000   52.167  155.839    0.423    0.345    6.666
  364.250   58.485  155.912    0.423    0.339    6.676
  364.500   68.236  156.003    0.422    0.332    6.686
  364.750   72.843  156.057    0.414    0.327    6.820
  365.000   73.457  156.130    0.412    0.318    6.831
  365.250   72.930  156.239    0.442    0.310    6.970
  365.500   71.833  156.276    0.455    0.309    6.984
  365.750   70.176  156.385    0.449    0.308    7.121
  366.000   68.509  156.458    0.432    0.312    7.137
  366.250   67.982  155.580    0.412    0.314    7.146
  366.500   70.889  154.702    0.420    0.309    7.157
  366.750   70.932  154.756    0.427    0.306    7.165
  367.000   70.406  154.829    0.428    0.310    7.176
  367.250   69.879  154.920    0.429    0.314    7.187
  367.500   72.193  156.894    0.427    0.313    7.204
  367.750   83.655  162.671    0.424    0.301    7.218
  368.000   91.125  167.497    0.442    0.276    7.223
  368.250   92.869  169.489    0.459    0.250    7.235
  368.500   91.772  169.562    0.466    0.247    7.249
  368.750   87.823  163.913    0.462    0.262    7.260
  369.000   78.170  158.281    0.461    0.281    7.271
  369.250   73.650  156.471    0.464    0.297    7.280
  369.500   71.413  155.593    0.481    0.307    7.032
  369.750   69.745  155.666    0.489    0.317    7.043
  370.000   69.218  154.806    0.476    0.318    6.929
  370.250   69.273  154.897    0.468    0.319    6.814
  370.500   69.317  154.934    0.450    0.316    6.825
  370.750   69.360  155.043    0.427    0.311    6.835
  371.000   70.556  155.098    0.407    0.305    6.846
  371.250   71.740  155.152    0.422    0.303    6.856
  371.500   71.213  155.243    0.435    0.308    6.991
  371.750   68.394  155.298    0.448    0.311    7.002
  372.000   61.023  155.407    0.448    0.319    7.142
  372.250   57.644  155.480    0.428    0.323    7.285
  372.500   60.540  155.552    0.401    0.316    7.296
  372.750   64.587  155.643    0.380    0.298    7.178
  373.000   63.479  155.680    0.396    0.301    6.931
  373.250   66.386  155.771    0.397    0.308    6.574
  373.500   73.274  155.843    0.373    0.318    6.584
  373.750   79.592  155.898    0.390    0.312    6.595
  374.000   79.635  155.989    0.434    0.285    6.727
  374.250   76.827  156.080    0.416    0.297    6.861
  374.500   74.019  156.135    0.403    0.295    6.869
  374.750   77.496  156.226    0.433    0.274    6.755
  375.000   82.103  156.298    0.422    0.253    6.407
  375.250   84.998  156.371    0.422    0.235    6.301
  375.500   90.746  157.395    0.433    0.234    6.197
  375.750   96.515  158.418    0.440    0.233    6.206
  376.000   96.559  158.491    0.440    0.226    6.447
  376.250   94.891  158.545    0.441    0.219    6.576
  376.500   93.213  158.654    0.441    0.221    6.837
  376.750   92.116  158.727    0.441    0.233    6.842
  377.000   91.589  160.701    0.438    0.241    6.979
  377.250   92.784  162.675    0.429    0.244    6.995
  377.500   93.398  163.699    0.416    0.249    7.001
  377.750   86.586  164.722    0.416    0.264    7.011
  378.000   75.793  164.777    0.434    0.291    7.025
  378.250   67.281  162.948    0.471    0.315    7.039
  378.500   58.209  158.304    0.459    0.331    6.922
  378.750   53.119  157.445    0.443    0.329    6.807
  379.000   51.441  157.481    0.450    0.331    6.692
  379.250   49.773  157.554    0.457    0.338    6.581
  379.500   53.810  157.645    0.447    0.344    6.355
  379.750   56.135  157.717    0.433    0.338    6.249
  380.000   57.901  157.772    0.423    0.335    6.146
  380.250   63.078  157.845    0.438    0.334    6.158
  380.500   69.977  157.918    0.467    0.330    6.055
  380.750   70.021  158.009    0.468    0.326    6.065
  381.000   68.342  158.081    0.461    0.318    5.964
  381.250   66.675  158.172    0.457    0.312    5.759
  381.500   65.007  159.196    0.456    0.317    5.364
  381.750   65.632  159.250    0.462    0.323    5.086
  382.000   73.091  160.292    0.457    0.311    4.999
  382.250   78.279  160.347    0.457    0.294    4.740
  382.500   78.882  162.339    0.474    0.271    4.663
  382.750   78.355  162.412    0.470    0.264    4.671
  383.000   76.129  162.484    0.470    0.264    4.676
  383.250   79.594  162.557    0.473    0.265    4.683
  383.500   78.497  161.697    0.475    0.271    4.957
  383.750   73.989  159.869    0.467    0.282    5.149
  384.000   69.459  158.991    0.456    0.302    5.447
  384.250   57.524  157.163    0.455    0.312    5.763
  384.500   54.716  156.303    0.454    0.323    5.987
  384.750   53.048  156.339    0.457    0.332    6.222
  385.000   49.670  156.430    0.466    0.351    6.582
  385.250   46.302  156.521    0.473    0.367    6.835
  385.500   45.205  156.594    0.468    0.371    7.503
  385.750   45.238  156.685    0.471    0.364    8.234
  386.000   45.281  156.758    0.469    0.361    9.205
  386.250   43.614  156.794    0.462    0.359    9.563
