~VERSION INFORMATION
 VERS.                 2.0:   CWLS LOG ASCII STANDARD -VERSION 2.0
 WRAP.                  NO:   ONE LINE PER DEPTH STEP
~WELL INFORMATION BLOCK
#MNEM.UNIT           DATA                    DESCRIPTION OF MNEMONIC
#---------    -------------------            -------------------------------
# Generated from Intellog Unique Number	CS_77_79/WELL/998
WELL.         MESA HB THORNBURY              : Well_name    - WELL
LOC .         00/11-25-078-13W4/0            : Location     - LOCATION
UWI .         00/11-25-078-13W4/0            : Uwi          - UNIQUE WELL ID
ENTR.         JHS                            : Entered      - ENTERED BY
SRVC.         SCHLUMBERGER                   : Scn          - SERVICE COMPANY
STRT.M        253.234                        : top_depth    - START DEPTH
STOP.M        475.234                        : bot_depth    - STOP DEPTH
STEP.M        0.25                           : increment    - STEP LENGTH
 NULL. -999.2500:NULL Value
~CURVE INFORMATION BLOCK
#MNEM UNIT       ERCB CURVE CODE    CURVE DESCRIPTION
#-----------   ------------------   ----------------------------------
DEPT.M        00 001 00 00         : DEPTH        - DEPTH
RHOB.KG/M3    00 350 00 00         : DENS         - BULK DENSITY
GR  .API      00 310 00 00         : GR           - GAMMA RAY
DPHI.V/V      00 890 00 00         : PHID         - DENSITY POROSITY (SANDSTONE)
NPHI.V/V      00 330 00 00         : PHIN         - NEUTRON POROSITY (SANDSTONE)
ILD .OHMM     00 120 00 00         : RESD         - DEEP RESISTIVITY (DIL)
~PARAMETER INFORMATION
#MNEM.UNIT           DATA             DESCRIPTION OF MNEMONIC
#---------         -----------     ------------------------------
GL  .M        669.127              : gl           - GROUND LEVEL ELEVATION
EREF.M        673.349              : kb           - ELEVATION OF DEPTH REFERENCE
DATM.M        673.349              : datum        - DATUM ELEVATION
TDD .M        486.156              : tdd          - TOTAL DEPTH DRILLER
RUN .         ONE                  : Run          - RUN NUMBER
ENG .         BILL                 : Engineer     - RECORDING ENGINEER
WIT .         JIM                  : Witness      - WITNESSED BY
MUD .         GEL                  : Mud_type     - MUD TYPE
MATR.         SANDSTONE            : Logunit      - NEUTRON MATRIX
TMAX.C        60                   : BHT          - MAXIMUM RECORDED TEMPERATURE
BHTD.M        486.156              : BHTDEP       - MAXIMUM RECORDED TEMPERATURE
MATR.         1                    : LOGUNIT      - NEUTRON MATRIX
RMT .C        25                   : MDTP         - TEMPERATURE OF MUD
NEUT.         1                    : NEUTRON      - NEUTRON TYPE
RESI.         0                    : RESIST       - RESISTIVITY TYPE
RMC .OHMM     0.25                 : RMC          - RESISTIVITY OF MUD CAKE
RMF .OHMM     0.25                 : RMF          - RESISTIVITY OF MUD FILTRATE
SUFT.C        15                   : SUFT         - SURFACE TEMPERATURE
~A  DEPTH     DENS       GR     PHID     PHIN     RESD
  253.234    0.000   92.677    0.192    0.518    3.797
  253.484    0.000   96.843    0.224    0.541    3.886
  253.734    0.000   98.526    0.236    0.545    3.874
  253.984    0.000   99.655    0.228    0.540    3.950
  254.234    0.000  104.004    0.213    0.542    4.031
  254.484    0.000  105.842    0.199    0.530    4.088
  254.734    0.000  106.568    0.197    0.539    4.209
  254.984    0.000   97.809    0.188    0.550    4.432
  255.234    0.000   93.090    0.178    0.520    4.482
  255.484    0.000   96.349    0.161    0.476    4.601
  255.734    0.000  101.093    0.204    0.483    4.595
  255.984    0.000  101.404    0.214    0.516    4.531
  256.234    0.000   98.966    0.192    0.528    4.486
  256.484    0.000   99.802    0.186    0.527    4.425
  256.734    0.000  100.686    0.181    0.531    4.234
  256.984    0.000  106.612    0.191    0.545    4.176
  257.234    0.000  110.437    0.178    0.554    3.967
  257.484    0.000  107.152    0.181    0.564    3.852
  257.734    0.000  102.922    0.192    0.572    3.659
  257.984    0.000   98.815    0.207    0.566    3.609
  258.234    0.000   97.623    0.207    0.538    3.593
  258.484    0.000   98.019    0.211    0.526    3.668
  258.734    0.000   99.985    0.201    0.525    3.767
  258.984    0.000  101.468    0.210    0.530    3.904
  259.234    0.000  102.260    0.220    0.538    4.029
  259.484    0.000  100.918    0.215    0.564    4.162
  259.734    0.000   99.127    0.203    0.552    4.176
  259.984    0.000   95.713    0.194    0.521    4.259
  260.234    0.000   93.165    0.229    0.506    4.301
  260.484    0.000   87.557    0.233    0.510    4.442
  260.734    0.000   80.585    0.226    0.527    4.645
  260.984    0.000   71.584    0.184    0.480    5.241
  261.234    0.000   65.159    0.157    0.433    5.917
  261.484    0.000   64.763    0.173    0.440    7.111
  261.734    0.000   64.456    0.163    0.463    8.591
  261.984    0.000   63.059    0.217    0.469   10.795
  262.234    0.000   61.864    0.239    0.455   13.165
  262.484    0.000   56.361    0.264    0.445   16.004
  262.734    0.000   52.737    0.279    0.452   19.540
  262.984    0.000   49.408    0.256    0.447   22.364
  263.234    0.000   47.653    0.266    0.446   25.390
  263.484    0.000   48.330    0.288    0.435   27.885
  263.734    0.000   49.391    0.299    0.439   28.782
  263.984    0.000   49.630    0.303    0.447   29.604
  264.234    0.000   49.145    0.313    0.446   28.651
  264.484    0.000   48.156    0.306    0.447   26.731
  264.734    0.000   47.210    0.291    0.454   25.424
  264.984    0.000   52.236    0.301    0.455   24.194
  265.234    0.000   56.645    0.313    0.468   23.611
  265.484    0.000   60.058    0.328    0.509   23.651
  265.734    0.000   60.518    0.300    0.564   24.362
  265.984    0.000   56.118    0.247    0.536   25.788
  266.234    0.000   52.775    0.229    0.507   27.448
  266.484    0.000   50.427    0.239    0.502   28.630
  266.734    0.000   47.194    0.296    0.507   29.737
  266.984    0.000   42.540    0.288    0.450   28.228
  267.234    0.000   42.539    0.288    0.420   26.045
  267.484    0.000   49.025    0.274    0.420   18.610
  267.734    0.000   56.528    0.272    0.413   10.676
  267.984    0.000   65.077    0.277    0.411    8.120
  268.234    0.000   83.884    0.218    0.433    6.916
  268.484    0.000   89.482    0.207    0.457    6.005
  268.734    0.000   90.027    0.219    0.462    5.989
  268.984    0.000   89.439    0.211    0.458    5.986
  269.234    0.000   89.780    0.201    0.450    6.254
  269.484    0.000   90.719    0.210    0.463    6.514
  269.734    0.000   90.602    0.224    0.472    6.813
  269.984    0.000   92.362    0.222    0.465    7.187
  270.234    0.000   91.614    0.205    0.462    7.209
  270.484    0.000   88.485    0.189    0.475    6.980
  270.734    0.000   86.419    0.204    0.471    6.713
  270.984    0.000   89.075    0.212    0.450    6.446
  271.234    0.000   92.093    0.193    0.442    6.225
  271.484    0.000   93.041    0.191    0.463    6.347
  271.734    0.000   89.961    0.203    0.501    6.463
  271.984    0.000   84.638    0.205    0.516    6.683
  272.234    0.000   80.491    0.203    0.490    7.195
  272.484    0.000   80.741    0.194    0.462    7.635
  272.734    0.000   83.732    0.215    0.448    7.799
  272.984    0.000   86.562    0.219    0.449    7.780
  273.234    0.000   85.341    0.195    0.475    7.389
  273.484    0.000   83.702    0.205    0.479    7.316
  273.734    0.000   89.996    0.191    0.466    7.087
  273.984    0.000   91.363    0.192    0.488    7.094
  274.234    0.000   87.284    0.228    0.494    7.081
  274.484    0.000   83.259    0.251    0.471    7.231
  274.734    0.000   82.045    0.234    0.466    7.426
  274.984    0.000   82.353    0.233    0.457    7.742
  275.234    0.000   85.158    0.242    0.464    8.094
  275.484    0.000   85.171    0.235    0.472    8.010
  275.734    0.000   85.483    0.220    0.476    7.786
  275.984    0.000   85.871    0.212    0.442    7.791
  276.234    0.000   83.368    0.217    0.431    8.032
  276.484    0.000   78.587    0.219    0.459    8.558
  276.734    0.000   72.288    0.235    0.482   10.218
  276.984    0.000   60.739    0.256    0.481   12.013
  277.234    0.000   46.164    0.272    0.456   19.012
  277.484    0.000   41.087    0.302    0.441   24.781
  277.734    0.000   41.459    0.294    0.439   27.479
  277.984    0.000   43.580    0.286    0.435   28.050
  278.234    0.000   43.750    0.304    0.440   28.604
  278.484    0.000   43.622    0.304    0.437   28.456
  278.734    0.000   45.928    0.300    0.426   27.537
  278.984    0.000   46.367    0.295    0.424   26.440
  279.234    0.000   44.651    0.302    0.435   24.838
  279.484    0.000   45.269    0.301    0.442   23.001
  279.734    0.000   48.940    0.294    0.428   19.849
  279.984    0.000   50.974    0.282    0.412   17.888
  280.234    0.000   54.058    0.284    0.400   14.771
  280.484    0.000   58.291    0.271    0.400   12.369
  280.734    0.000   72.548    0.251    0.405    9.649
  280.984    0.000   88.485    0.222    0.421    7.384
  281.234    0.000   98.499    0.199    0.454    5.222
  281.484    0.000  104.773    0.185    0.484    4.692
  281.734    0.000  109.422    0.173    0.491    4.585
  281.984    0.000  110.088    0.186    0.503    4.838
  282.234    0.000  109.599    0.160    0.518    5.134
  282.484    0.000  114.343    0.129    0.502    5.517
  282.734    0.000  116.129    0.150    0.491    5.797
  282.984    0.000  113.847    0.159    0.496    5.596
  283.234    0.000  117.959    0.152    0.481    5.267
  283.484    0.000  121.395    0.125    0.474    4.845
  283.734    0.000  120.870    0.155    0.488    4.506
  283.984    0.000  120.175    0.175    0.516    3.995
  284.234    0.000  121.963    0.192    0.529    3.460
  284.484    0.000  123.305    0.198    0.548    3.229
  284.734    0.000  125.075    0.200    0.558    3.207
  284.984    0.000  124.995    0.213    0.572    3.464
  285.234    0.000  123.999    0.224    0.594    3.991
  285.484    0.000  121.901    0.224    0.600    5.103
  285.734    0.000  119.641    0.226    0.505    7.349
  285.984    0.000  115.366    0.234    0.478    9.277
  286.234    0.000  111.826    0.232    0.466   11.120
  286.484    0.000  109.960    0.243    0.455   12.372
  286.734    0.000  108.521    0.222    0.439   13.102
  286.984    0.000  110.361    0.228    0.425   13.179
  287.234    0.000  109.519    0.236    0.421   12.776
  287.484    0.000  105.401    0.232    0.418   11.451
  287.734    0.000  102.329    0.248    0.442   10.145
  287.984    0.000  102.677    0.253    0.475    7.913
  288.234    0.000  114.576    0.201    0.491    5.612
  288.484    0.000  126.052    0.185    0.512    5.558
  288.734    0.000  122.472    0.203    0.529    5.699
  288.984    0.000  120.183    0.191    0.507    6.306
  289.234    0.000  119.794    0.195    0.486    7.216
  289.484    0.000  116.112    0.194    0.475    9.310
