~VERSION INFORMATION
 VERS.                 2.0:   CWLS LOG ASCII STANDARD -VERSION 2.0
 WRAP.                  NO:   ONE LINE PER DEPTH STEP
~WELL INFORMATION BLOCK
#MNEM.UNIT           DATA                    DESCRIPTION OF MNEMONIC
#---------    -------------------            -------------------------------
# Generated from Intellog Unique Number	CN_91_93/WELL/2621
WELL.         PETRO-CANADA INC.              : Well_name    - WELL
LOC .         00/11-30-091-17W4/0            : Location     - LOCATION
UWI .         00/11-30-091-17W400            : Uwi          - UNIQUE WELL ID
ENTR.         JOETTE                         : Entered      - ENTERED BY
SRVC.         SCHLUMBERGER                   : Scn          - SERVICE COMPANY
DATE.         02/05/92                       : Date         - LOG DATE
STRT.M        75                             : top_depth    - START DEPTH
STOP.M        255                            : bot_depth    - STOP DEPTH
STEP.M        0.25                           : increment    - STEP LENGTH
 NULL. -999.2500:NULL Value
~CURVE INFORMATION BLOCK
#MNEM UNIT       ERCB CURVE CODE    CURVE DESCRIPTION
#-----------   ------------------   ----------------------------------
DEPT.M        00 001 00 00         : DEPTH        - DEPTH
GR  .API      00 310 00 00         : GR           - GAMMA RAY
CALI.MM       00 280 01 00         : CAL          - CALIPER
NPHI.V/V      00 330 00 00         : PHIN         - NEUTRON POROSITY (SANDSTONE)
DPHI.V/V      00 890 00 00         : PHID         - DENSITY POROSITY (SANDSTONE)
ILD .OHMM     00 120 00 00         : RESD         - DEEP RESISTIVITY (DIL)
~PARAMETER INFORMATION
#MNEM.UNIT           DATA             DESCRIPTION OF MNEMONIC
#---------         -----------     ------------------------------
GL  .M        513.2                : gl           - GROUND LEVEL ELEVATION
EREF.M        516.6                : kb           - ELEVATION OF DEPTH REFERENCE
DATM.M        516.6                : datum        - DATUM ELEVATION
TDD .M        260.5                : tdd          - TOTAL DEPTH DRILLER
RUN .         ONE                  : Run          - RUN NUMBER
ENG .         BILL                 : Engineer     - RECORDING ENGINEER
WIT .         JIM                  : Witness      - WITNESSED BY
MUD .         GEL                  : Mud_type     - MUD TYPE
MATR.         SANDSTONE            : Logunit      - NEUTRON MATRIX
TMAX.C        28                   : BHT          - MAXIMUM RECORDED TEMPERATURE
BHTD.M        260.5                : BHTDEP       - MAXIMUM RECORDED TEMPERATURE
RMT .C        8.33333              : MDTP         - TEMPERATURE OF MUD
MUDD.KG/M     1030                 : MWT          - MUD DENSITY
NEUT.         1                    : NEUTRON      - NEUTRON TYPE
RESI.         0                    : RESIST       - RESISTIVITY TYPE
RM  .OHMM     6.97                 : RM           - RESISTIVITY OF MUD
RMC .OHMM     6.97                 : RMC          - RESISTIVITY OF MUD CAKE
RMF .OHMM     6.97                 : RMF          - RESISTIVITY OF MUD FILTRATE
SUFT.C        4                    : SUFT         - SURFACE TEMPERATURE
~A  DEPTH       GR      CAL     PHIN     PHID     RESD
# ...
  148.000   76.422  162.030    0.341    0.175   21.140
  148.250   81.886  162.590    0.370    0.233   16.698
  148.500   90.357  164.179    0.421    0.248   14.635
  148.750   99.133  165.258    0.453    0.238   12.644
  149.000   96.167  165.308    0.477    0.245   11.416
  149.250   98.912  162.866    0.461    0.250   10.780
  149.500  102.274  162.439    0.447    0.258   10.405
  149.750  104.422  162.506    0.482    0.254   10.273
  150.000  105.967  163.075    0.478    0.217   10.221
  150.250  107.211  164.647    0.455    0.172   10.240
  150.500  111.472  167.231    0.422    0.182   10.264
  150.750  110.915  170.317    0.461    0.216   10.288
  151.000  109.745  171.396    0.547    0.243   10.230
  151.250  106.770  171.956    0.558    0.246   10.251
  151.500  100.186  173.528    0.553    0.243   10.429
  151.750   93.909  171.588    0.522    0.222   10.769
  152.000  102.981  167.138    0.486    0.211   11.194
  152.250  109.047  164.194    0.521    0.216   12.269
  152.500   89.507  164.269    0.529    0.210   13.242
  152.750   78.709  166.343    0.458    0.180   14.187
  153.000   79.356  165.908    0.400    0.162   15.313
  153.250   82.106  164.461    0.408    0.244   16.900
  153.500   88.167  162.529    0.419    0.271   18.382
  153.750   87.003  163.600    0.411    0.262   19.988
  154.000   88.554  165.180    0.421    0.262   21.267
  154.250   84.675  163.240    0.439    0.259   21.954
  154.500   82.311  161.801    0.436    0.258   22.832
  154.750   79.943  161.860    0.429    0.252   23.928
  155.000   68.236  162.437    0.341    0.229   24.701
  155.250   73.695  163.005    0.273    0.080   24.752
  155.500   84.880  162.579    0.303    0.132   24.251
  155.750   90.345  163.641    0.398    0.267   23.421
  156.000   93.400  164.711    0.437    0.260   22.947
  156.250   94.344  164.284    0.444    0.242   22.327
  156.500   94.078  164.861    0.415    0.241   21.880
  156.750   93.219  161.909    0.421    0.237   21.758
  157.000   92.959  165.488    0.424    0.241   21.482
  157.250   92.095  165.053    0.427    0.238   21.526
  157.500   90.931  160.604    0.423    0.236   21.582
  157.750   89.471  165.204    0.422    0.240   21.456
  158.000   89.511  169.285    0.428    0.233   20.876
  158.250   91.056  169.351    0.426    0.215   21.076
  158.500   96.817  169.418    0.444    0.186   21.751
  158.750   98.362  169.987    0.446    0.229   22.453
  159.000   95.091  165.036    0.421    0.244   23.184
  159.250   90.017  160.578    0.396    0.251   23.945
  159.500   86.741  160.168    0.380    0.271   24.523
  159.750   85.576  161.723    0.384    0.241   24.757
  160.000   90.444  165.311    0.397    0.217   25.381
  160.250   86.269  165.370    0.409    0.208   25.610
  160.500   86.610  165.445    0.411    0.211   25.855
  160.750   84.236  165.528    0.407    0.205   26.122
  161.000   80.668  164.073    0.392    0.203   26.162
  161.250   89.741  162.149    0.402    0.238   26.251
  161.500   93.098  162.199    0.405    0.258   26.271
  161.750   91.632  162.283    0.399    0.258   26.144
  162.000   88.055  162.358    0.390    0.259   26.185
  162.250   83.885  161.906    0.396    0.272   26.052
  162.500   88.140  161.973    0.406    0.269   26.106
  162.750   92.099  164.055    0.398    0.255   26.154
  163.000   93.338  165.636    0.389    0.254   26.410
  163.250   92.174  166.196    0.387    0.259   26.662
  163.500   91.010  166.280    0.389    0.261   26.910
  163.750   89.554  166.330    0.411    0.259   27.181
  164.000   88.987  166.898    0.418    0.250   27.244
  164.250   86.619  168.479    0.423    0.251   27.294
  164.500   86.057  170.569    0.424    0.267   27.547
  164.750   90.016  167.609    0.427    0.278   27.400
  165.000   92.163  161.152    0.435    0.272   26.859
  165.250   99.429  160.215    0.436    0.243   25.940
  165.500   98.867  160.282    0.451    0.240   25.227
  165.750   92.886  161.353    0.490    0.213   24.722
  166.000   89.619  161.921    0.458    0.183   24.048
  166.250   91.767  161.996    0.400    0.155   23.920
  166.500   92.409  163.067    0.392    0.139   24.142
  166.750   92.153  167.164    0.435    0.164   24.379
  167.000   90.381  169.222    0.460    0.230   23.891
  167.250   86.814  168.302    0.474    0.234   22.387
  167.500   84.741  164.362    0.436    0.216   19.475
  167.750   86.889  162.422    0.396    0.204   16.947
  168.000  108.014  160.967    0.391    0.227   15.301
  168.250  109.861  160.532    0.486    0.261   13.716
  168.500  106.594  160.607    0.549    0.260   12.573
  168.750   92.172  160.665    0.552    0.238   11.872
  169.000   89.804  161.752    0.487    0.215   12.072
  169.250   88.042  162.823    0.450    0.162   13.231
  169.500   85.373  162.881    0.387    0.135   14.708
  169.750   91.133  163.450    0.392    0.126   17.750
  170.000   94.189  165.030    0.407    0.168   20.795
  170.250   93.627  167.113    0.417    0.214   22.285
  170.500   93.070  167.171    0.424    0.236   22.503
  170.750   94.008  164.729    0.443    0.228   21.087
  171.000   96.156  166.301    0.446    0.226   19.473
  171.250  101.324  168.893    0.447    0.207   19.658
  171.500   87.204  170.457    0.459    0.125   20.592
  171.750   81.227  168.015    0.400    0.113   23.592
  172.000   83.671  164.578    0.346    0.115   26.632
  172.250   86.130  162.629    0.370    0.194   29.183
  172.500   88.578  161.199    0.382    0.216   31.033
  172.750   90.726  160.764    0.396    0.227   32.524
  173.000   92.271  160.830    0.393    0.231   33.816
  173.250   92.924  160.395    0.404    0.235   36.790
  173.500   92.050  160.479    0.413    0.244   37.697
  173.750   86.370  160.537    0.399    0.254   38.067
  174.000   77.975  160.094    0.388    0.282   39.579
  174.250   76.214  159.676    0.382    0.292   42.078
  174.500   79.264  159.743    0.374    0.241   46.109
  174.750   76.595  159.801    0.335    0.158   52.062
  175.000   69.414  159.909    0.304    0.153   54.144
  175.250   66.739  160.436    0.284    0.152   66.306
  175.500   55.038  160.511    0.267    0.137   79.430
  175.750   54.772  160.587    0.244    0.113   88.976
  176.000   53.010  160.703    0.232    0.105  108.990
  176.250   49.136  161.222    0.215    0.090  127.719
  176.500   47.972  161.280    0.201    0.061  131.878
  176.750   51.329  161.356    0.218    0.053  128.217
  177.000   54.676  161.932    0.295    0.131  118.403
  177.250   59.237  164.508    0.321    0.197  101.512
  177.500   63.492  164.583    0.319    0.199   84.462
  177.750   69.860  164.148    0.364    0.259   77.400
  178.000   68.094  164.198    0.393    0.280   74.199
  178.250   66.026  164.282    0.399    0.286   74.353
  178.500   65.464  164.340    0.403    0.282   79.089
  178.750   64.902  164.415    0.403    0.263   84.128
  179.000   63.447  164.474    0.396    0.248   88.122
  179.250   62.573  164.549    0.383    0.260   95.163
  179.500   60.817  164.106    0.403    0.302  101.927
  179.750   59.949  163.679    0.430    0.303  109.200
  180.000   58.489  163.244    0.344    0.292  118.804
  180.250   56.416  162.809    0.218    0.111  123.524
  180.500   56.762  162.876    0.217    0.040  119.267
  180.750   59.813  162.943    0.219    0.034  110.931
  181.000   64.670  164.030    0.286    0.117   94.378
  181.250   68.624  165.602    0.322    0.162   83.977
  181.500   75.594  167.676    0.366    0.225   67.861
  181.750   81.656  168.738    0.399    0.254   62.618
  182.000   83.814  168.311    0.431    0.256   53.288
  182.250   82.950  168.378    0.435    0.254   45.001
  182.500   81.786  170.460    0.431    0.242   38.286
  182.750   81.224  172.032    0.435    0.233   34.076
  183.000   76.743  171.589    0.432    0.214   32.408
  183.250   77.691  169.147    0.392    0.095   32.013
  183.500   86.463  167.717    0.435    0.123   31.826
  183.750   91.621  166.780    0.444    0.208   32.369
  184.000   92.268  165.341    0.410    0.232   33.432
  184.250   92.920  164.906    0.425    0.233   33.994
