~VERSION INFORMATION
 VERS.                 2.0:   CWLS LOG ASCII STANDARD -VERSION 2.0
 WRAP.                  NO:   ONE LINE PER DEPTH STEP
~WELL INFORMATION BLOCK
#MNEM.UNIT           DATA                    DESCRIPTION OF MNEMONIC
#---------    -------------------            -------------------------------
# Generated from Intellog Unique Number	CS_73_76/WELL/3270
WELL.         TOTAL PETROLEUM (N.A) LTD.     : Well_name    - WELL
LOC .         00/12-10-075-09W4/0            : Location     - LOCATION
UWI .         00/12-10-075-09W4/0            : Uwi          - UNIQUE WELL ID
ENTR.         SP                             : Entered      - ENTERED BY
SRVC.         SCHLUMBERGER                   : Scn          - SERVICE COMPANY
STRT.M        270                            : top_depth    - START DEPTH
STOP.M        490                            : bot_depth    - STOP DEPTH
STEP.M        0.25                           : increment    - STEP LENGTH
 NULL. -999.2500:NULL Value
~CURVE INFORMATION BLOCK
#MNEM UNIT       ERCB CURVE CODE    CURVE DESCRIPTION
#-----------   ------------------   ----------------------------------
DEPT.M        00 001 00 00         : DEPTH        - DEPTH
ILD .OHMM     00 120 00 00         : RESD         - DEEP RESISTIVITY (DIL)
GR  .API      00 310 00 00         : GR           - GAMMA RAY
NPHI.V/V      00 330 00 00         : PHIN         - NEUTRON POROSITY (LIMESTONE)
DPHI.V/V      00 890 00 00         : PHID         - DENSITY POROSITY (LIMESTONE)
~PARAMETER INFORMATION
#MNEM.UNIT           DATA             DESCRIPTION OF MNEMONIC
#---------         -----------     ------------------------------
GL  .M        659.92               : gl           - GROUND LEVEL ELEVATION
EREF.M        662.92               : kb           - ELEVATION OF DEPTH REFERENCE
DATM.M        659.92               : datum        - DATUM ELEVATION
TDD .M        502                  : tdd          - TOTAL DEPTH DRILLER
RUN .         ONE                  : Run          - RUN NUMBER
ENG .         BILL                 : Engineer     - RECORDING ENGINEER
WIT .         JIM                  : Witness      - WITNESSED BY
MUD .         GEL                  : Mud_type     - MUD TYPE
MATR.         LIMESTONE            : Logunit      - NEUTRON MATRIX
TMAX.C        22.5                 : BHT          - MAXIMUM RECORDED TEMPERATURE
BHTD.M        502                  : BHTDEP       - MAXIMUM RECORDED TEMPERATURE
MATR.         1                    : LOGUNIT      - NEUTRON MATRIX
RMT .C        25                   : MDTP         - TEMPERATURE OF MUD
NEUT.         1                    : NEUTRON      - NEUTRON TYPE
RESI.         0                    : RESIST       - RESISTIVITY TYPE
RMC .OHMM     0.25                 : RMC          - RESISTIVITY OF MUD CAKE
RMF .OHMM     0.25                 : RMF          - RESISTIVITY OF MUD FILTRATE
SUFT.C        15                   : SUFT         - SURFACE TEMPERATURE
~A  DEPTH     RESD       GR     PHIN     PHID
# ...
  357.000    4.659  104.550    0.551    0.277
  357.250    4.929  102.106    0.557    0.283
  357.500    5.314   99.662    0.557    0.284
  357.750    5.623   95.993    0.560    0.303
  358.000    5.838   92.937    0.549    0.292
  358.250    5.950   91.105    0.530    0.309
  358.500    5.950   90.498    0.522    0.302
  358.750    5.951   93.567    0.508    0.286
  359.000    5.952   96.021    0.504    0.277
  359.250    5.952   97.249    0.503    0.276
  359.500    6.066   98.476    0.497    0.275
  359.750    6.181   98.481    0.495    0.271
  360.000    6.418   96.650    0.493    0.289
  360.250    6.791   96.653    0.491    0.293
  360.500    6.920   97.270    0.502    0.289
  360.750    6.921   96.051    0.511    0.297
  361.000    5.846   92.995    0.523    0.298
  361.250    4.667   89.940    0.541    0.292
  361.500    3.589   90.556    0.538    0.288
  361.750    2.975   89.336    0.504    0.306
  362.000    2.760   96.078    0.490    0.315
  362.250    2.609  100.367    0.545    0.292
  362.500    2.513  106.496    0.583    0.266
  362.750    2.710  108.335    0.600    0.286
  363.000    3.395  110.176    0.583    0.284
  363.250    3.872  108.344    0.584    0.278
  363.500    4.672  104.064    0.596    0.284
  363.750    5.229   99.784    0.585    0.299
  364.000    5.744   96.728    0.566    0.288
  364.250    6.078   94.895    0.546    0.287
  364.500    6.194   97.962    0.529    0.272
  364.750    5.967   99.190    0.521    0.272
  365.000    5.967   96.746    0.518    0.263
  365.250    6.081   96.139    0.508    0.244
  365.500    6.196   97.368    0.499    0.255
  365.750    6.681   96.149    0.514    0.286
  366.000    6.937   96.153    0.519    0.295
  366.250    7.069   96.771    0.507    0.297
  366.500    7.070   98.000    0.497    0.295
  366.750    7.204   95.556    0.497    0.276
  367.000    7.205   93.724    0.509    0.267
  367.250    7.206   92.505    0.510    0.281
  367.500    7.207   91.285    0.494    0.282
  367.750    7.207   90.065    0.476    0.288
  368.000    7.345   91.908    0.465    0.293
  368.250    7.626   91.912    0.492    0.281
  368.500    7.627   89.467    0.503    0.272
  368.750    7.486   87.635    0.491    0.274
  369.000    7.348   85.194    0.488    0.274
  369.250    7.349   84.585    0.483    0.284
  369.500    7.213   86.426    0.481    0.289
  369.750    7.213   90.718    0.492    0.276
  370.000    7.215   93.171    0.489    0.276
  370.250    7.215   95.011    0.483    0.277
  370.500    7.216   95.630    0.487    0.274
  370.750    7.083   95.022    0.497    0.273
  371.000    6.951   95.639    0.499    0.263
  371.250    6.952   97.481    0.494    0.246
  371.500    6.697   97.487    0.495    0.236
  371.750    6.573   96.266    0.497    0.267
  372.000    6.332   99.332    0.505    0.269
  372.250    6.214  104.237    0.510    0.251
  372.500    6.215  106.077    0.509    0.247
  372.750    6.100  107.918    0.498    0.257
  373.000    5.987  107.310    0.486    0.257
  373.250    5.876  108.540    0.510    0.238
  373.500    5.877  109.156    0.517    0.247
  373.750    5.878  103.653    0.483    0.245
  374.000    5.769  103.043    0.473    0.261
  374.250    5.770  105.500    0.501    0.267
  374.500    5.557  107.952    0.525    0.257
  374.750    4.874  112.245    0.553    0.257
  375.000    3.678  112.859    0.580    0.305
  375.250    3.107  106.741    0.592    0.312
  375.500    2.389  102.461    0.604    0.301
  375.750    2.056  103.691    0.611    0.288
  376.000    2.056  104.308    0.602    0.277
  376.250    2.259  103.087    0.561    0.272
  376.500    2.675  100.031    0.516    0.268
  376.750    2.884   98.199    0.504    0.273
  377.000    3.289   99.430    0.505    0.288
  377.250    3.969   95.761    0.506    0.280
  377.500    4.360   92.093    0.490    0.296
  377.750    5.067   91.484    0.468    0.304
  378.000    5.671   85.979    0.460    0.322
  378.250    6.001   68.230    0.463    0.345
  378.500    6.001   61.500    0.474    0.348
  378.750    6.115   58.444    0.461    0.356
  379.000    6.232   59.062    0.452    0.358
  379.250    6.117   58.454    0.460    0.355
  379.500    6.233   59.684    0.463    0.358
  379.750    6.118   61.526    0.473    0.359
  380.000    6.119   62.754    0.480    0.358
  380.250    6.006   62.761    0.471    0.359
  380.500    5.895   63.377    0.475    0.360
  380.750    5.895   63.382    0.482    0.361
  381.000    5.787   63.385    0.477    0.361
  381.250    5.787   62.780    0.474    0.360
  381.500    5.788   63.396    0.464    0.355
  381.750    5.680   64.013    0.464    0.353
  382.000    5.681   65.856    0.466    0.358
  382.250    5.682   67.696    0.472    0.360
  382.500    5.682   70.150    0.477    0.358
  382.750    5.683   71.991    0.464    0.356
  383.000    5.683   73.832    0.456    0.355
  383.250    5.684   75.673    0.451    0.354
  383.500    5.685   76.291    0.450    0.359
  383.750    5.685   76.296    0.465    0.356
  384.000    5.686   76.301    0.475    0.350
  384.250    5.686   77.530    0.486    0.350
  384.500    5.582   78.760    0.499    0.350
  384.750    5.582   78.765    0.483    0.355
  385.000    5.583   79.381    0.473    0.345
  385.250    5.583   80.610    0.465    0.323
  385.500    5.584   83.066    0.465    0.300
  385.750    5.690   84.294    0.465    0.295
  386.000    5.691   85.523    0.478    0.327
  386.250    5.691   83.691    0.496    0.348
  386.500    5.586   74.513    0.519    0.356
  386.750    5.587   67.783    0.521    0.351
  387.000    5.587   69.012    0.534    0.349
  387.250    5.484   72.691    0.533    0.339
  387.500    5.382   73.924    0.496    0.334
  387.750    5.283   73.928    0.483    0.340
  388.000    5.185   74.544    0.497    0.343
  388.250    5.090   75.771    0.496    0.350
  388.500    4.995   73.328    0.495    0.349
  388.750    4.903   71.495    0.501    0.338
  389.000    4.903   71.501    0.482    0.342
  389.250    4.904   72.118    0.476    0.350
  389.500    4.997   71.509    0.495    0.359
  389.750    5.189   71.514    0.503    0.364
  390.000    4.998   73.358    0.491    0.362
  390.250    5.094   75.812    0.479    0.357
  390.500    5.191   76.427    0.470    0.345
  390.750    5.290   75.209    0.487    0.343
  391.000    5.390   73.988    0.484    0.348
  391.250    5.598   72.768    0.479    0.349
  391.500    5.598   70.936    0.479    0.337
  391.750    5.705   72.167    0.490    0.335
  392.000    5.705   74.622    0.487    0.346
  392.250    5.706   75.237    0.498    0.354
  392.500    5.707   75.242    0.512    0.361
  392.750    5.707   73.412    0.519    0.360
  393.000    5.708   72.803    0.502    0.349
  393.250    5.602   72.808    0.493    0.340
  393.500    5.603   72.200    0.488    0.346
  393.750    5.603   71.596    0.482    0.351
  394.000    5.500   71.599    0.485    0.359
  394.250    5.501   71.604    0.488    0.362
  394.500    5.501   70.996    0.498    0.366
  394.750    5.501   70.389    0.513    0.365
  395.000    5.400   70.394    0.502    0.360
  395.250    5.400   70.398    0.486    0.350
  395.500    5.401   71.015    0.460    0.341
  395.750    5.401   69.797    0.431    0.280
  396.000    5.402   68.575    0.361    0.222
  396.250    5.302   66.131    0.433    0.205
  396.500    5.303   64.300    0.470    0.279
  396.750    5.303   64.916    0.487    0.329
  397.000    5.304   67.984    0.492    0.348
  397.250    5.405   69.824    0.507    0.360
  397.500    5.827   70.441    0.521    0.366
  397.750    6.282   71.672    0.503    0.367
  398.000    6.773   71.064    0.487    0.367
  398.250    6.902   70.457    0.489    0.366
  398.500    6.902   69.850    0.502    0.365
  398.750    6.168   70.467    0.504    0.365
  399.000    5.831   71.083    0.503    0.361
  399.250    5.512   72.311    0.503    0.360
  399.500    5.410   72.316    0.508    0.356
  399.750    5.310   69.873    0.511    0.351
  400.000    5.311   68.654    0.516    0.350
  400.250    5.311   69.883    0.505    0.351
