~VERSION INFORMATION
 VERS.                 2.0:   CWLS LOG ASCII STANDARD -VERSION 2.0
 WRAP.                  NO:   ONE LINE PER DEPTH STEP
~WELL INFORMATION BLOCK
#MNEM.UNIT           DATA                    DESCRIPTION OF MNEMONIC
#---------    -------------------            -------------------------------
# Generated from Intellog Unique Number	CS_73_76/WELL/811
WELL.         FOREST OIL CORPORATION         : Well_name    - WELL
LOC .         00/10-05-073-18W4/0            : Location     - LOCATION
UWI .         00/10-05-073-18W4/0            : Uwi          - UNIQUE WELL ID
ENTR.         SP                             : Entered      - ENTERED BY
SRVC.         SCHLUMBERGER                   : Scn          - SERVICE COMPANY
STRT.M        274.32                         : top_depth    - START DEPTH
STOP.M        496.57                         : bot_depth    - STOP DEPTH
STEP.M        0.25                           : increment    - STEP LENGTH
 NULL. -999.2500:NULL Value
~CURVE INFORMATION BLOCK
#MNEM UNIT       ERCB CURVE CODE    CURVE DESCRIPTION
#-----------   ------------------   ----------------------------------
DEPT.M        00 001 00 00         : DEPTH        - DEPTH
GR  .API      00 310 00 00         : GR           - GAMMA RAY
DPHI.V/V      00 890 00 00         : PHID         - DENSITY POROSITY (SANDSTONE)
NPHI.V/V      00 330 00 00         : PHIN         - NEUTRON POROSITY (SANDSTONE)
ILD .OHMM     00 120 00 00         : RESD         - DEEP RESISTIVITY (DIL)
~PARAMETER INFORMATION
#MNEM.UNIT           DATA             DESCRIPTION OF MNEMONIC
#---------         -----------     ------------------------------
GL  .M        594.543              : gl           - GROUND LEVEL ELEVATION
EREF.M        598.201              : kb           - ELEVATION OF DEPTH REFERENCE
DATM.M        594.543              : datum        - DATUM ELEVATION
TDD .M        520.903              : tdd          - TOTAL DEPTH DRILLER
RUN .         ONE                  : Run          - RUN NUMBER
ENG .         BILL                 : Engineer     - RECORDING ENGINEER
WIT .         JIM                  : Witness      - WITNESSED BY
MUD .         GEL                  : Mud_type     - MUD TYPE
MATR.         SANDSTONE            : Logunit      - NEUTRON MATRIX
TMAX.C        81.1111              : BHT          - MAXIMUM RECORDED TEMPERATURE
BHTD.M        520.903              : BHTDEP       - MAXIMUM RECORDED TEMPERATURE
MATR.         1                    : LOGUNIT      - NEUTRON MATRIX
RMT .C        25                   : MDTP         - TEMPERATURE OF MUD
NEUT.         1                    : NEUTRON      - NEUTRON TYPE
RESI.         0                    : RESIST       - RESISTIVITY TYPE
RMC .OHMM     0.25                 : RMC          - RESISTIVITY OF MUD CAKE
RMF .OHMM     0.25                 : RMF          - RESISTIVITY OF MUD FILTRATE
SUFT.C        15                   : SUFT         - SURFACE TEMPERATURE
~A  DEPTH       GR     PHID     PHIN     RESD
# ...
  448.320   76.957    0.144    0.399    6.333
  448.570   81.683    0.170    0.428    7.032
  448.820   85.644    0.194    0.491    6.508
  449.070   85.745    0.217    0.500    5.695
  449.320   84.240    0.208    0.499    5.271
  449.570   83.938    0.189    0.492    4.950
  449.820   82.980    0.182    0.502    4.791
  450.070   81.973    0.203    0.496    4.757
  450.320   79.999    0.189    0.490    4.755
  450.570   78.227    0.191    0.494    4.791
  450.820   78.815    0.166    0.428    4.838
  451.070   83.833    0.099    0.431    5.073
  451.320   88.616    0.077    0.454    5.139
  451.570   91.838    0.138    0.463    5.099
  451.820   90.879    0.196    0.474    5.022
  452.070   85.744    0.229    0.484    4.805
  452.320   81.759    0.195    0.499    4.827
  452.570   82.065    0.181    0.490    4.686
  452.820   82.099    0.172    0.489    4.565
  453.070   80.543    0.157    0.490    4.413
  453.320   82.016    0.149    0.472    4.330
  453.570   84.312    0.142    0.471    4.159
  453.820   85.857    0.130    0.490    4.110
  454.070   87.103    0.155    0.494    3.898
  454.320   88.476    0.207    0.487    3.789
  454.570   91.687    0.194    0.489    3.676
  454.820   93.422    0.208    0.498    3.562
  455.070   94.382    0.202    0.519    3.522
  455.320   93.448    0.198    0.499    3.513
  455.570   91.640    0.209    0.469    3.586
  455.820   90.793    0.221    0.465    3.644
  456.070   93.389    0.212    0.480    3.675
  456.320   95.887    0.220    0.478    3.786
  456.570   96.882    0.217    0.479    3.774
  456.820   96.635    0.206    0.495    3.861
  457.070   95.577    0.188    0.491    3.773
  457.320   93.994    0.177    0.483    3.720
  457.570   94.107    0.185    0.502    3.682
  457.820   95.148    0.197    0.516    3.636
  458.070   94.804    0.221    0.535    3.637
  458.320   92.820    0.234    0.522    3.663
  458.570   90.448    0.213    0.512    3.900
  458.820   88.716    0.214    0.530    4.168
  459.070   88.292    0.226    0.506    4.657
  459.320   87.183    0.118    0.465    5.188
  459.570   91.487    0.053    0.423    5.396
  459.820   93.380    0.111    0.440    5.719
  460.070   92.159    0.145    0.415    5.886
  460.320   94.536    0.172    0.395    5.908
  460.570   97.188    0.141    0.405    6.038
  460.820   96.953    0.129    0.406    6.205
  461.070   89.541    0.137    0.391    6.526
  461.320   80.418    0.133    0.394    6.838
  461.570   75.480    0.130    0.392    7.166
  461.820   70.662    0.147    0.389    7.529
  462.070   70.882    0.142    0.391    7.883
  462.320   70.913    0.110    0.400    8.137
  462.570   66.308    0.060    0.407    8.191
  462.820   66.613    0.020    0.409    8.072
  463.070   69.098   -0.003    0.409    7.947
  463.320   71.700    0.049    0.388    8.028
  463.570   74.749    0.101    0.380    8.028
  463.820   76.654    0.130    0.375    8.011
  464.070   77.614    0.145    0.370    8.171
  464.320   76.968    0.150    0.364    8.273
  464.570   70.516    0.128    0.356    8.345
  464.820   63.947    0.108    0.356    8.608
  465.070   60.811    0.058    0.387    9.128
  465.320   62.221    0.019    0.415    9.654
  465.570   64.819   -0.000    0.429   10.089
  465.820   66.568   -0.006    0.443   10.628
  466.070   68.285    0.084    0.454   10.938
  466.320   67.922    0.146    0.474   11.093
  466.570   63.075    0.115    0.460   10.946
  466.820   59.569    0.085    0.450   10.274
  467.070   55.568    0.086    0.425    9.668
  467.320   57.719    0.092    0.413    9.050
  467.570   59.836    0.110    0.419    8.419
  467.820   63.167    0.154    0.439    8.042
  468.070   66.214    0.149    0.456    7.470
  468.320   68.119    0.139    0.507    7.286
  468.570   70.766    0.163    0.479    6.919
  468.820   72.678    0.178    0.457    6.703
  469.070   74.746    0.168    0.471    6.506
  469.320   71.561    0.177    0.490    6.259
  469.570   64.344    0.135    0.503    6.142
  469.820   60.858    0.120    0.508    5.833
  470.070   58.152    0.130    0.489    5.782
  470.320   59.487    0.139    0.472    5.714
  470.570   61.984    0.155    0.471    5.603
  470.820   67.156    0.139    0.490    5.601
  471.070   72.466    0.142    0.551    5.707
  471.320   76.385    0.160    0.580    5.637
  471.570   81.195    0.195    0.625    5.581
  471.820   80.412    0.207    0.641    5.500
  472.070   80.154    0.218    0.630    5.333
  472.320   78.275    0.225    0.615    5.299
  472.570   77.218    0.190    0.588    5.294
  472.820   79.529    0.174    0.587    5.295
  473.070   80.403    0.169    0.607    5.296
  473.320   79.056    0.158    0.622    5.390
  473.570   77.513    0.165    0.619    5.376
  473.820   76.309    0.166    0.616    5.480
  474.070   77.602    0.174    0.614    5.474
  474.320   78.489    0.164    0.613    5.472
  474.570   79.901    0.146    0.613    5.561
  474.820   80.886    0.149    0.604    5.793
  475.070   81.840    0.160    0.581    5.772
  475.320   81.157    0.178    0.574    5.859
  475.570   84.508    0.187    0.571    5.992
  475.820   87.965    0.175    0.549    5.982
  476.070   91.999    0.164    0.523    5.979
  476.320   91.055    0.157    0.487    5.977
  476.570   79.454    0.170    0.432    5.974
  476.820   61.344    0.194    0.421    5.980
  477.070   47.069    0.218    0.405    5.816
  477.320   38.895    0.265    0.396    5.753
  477.570   35.574    0.256    0.387    5.750
  477.820   35.532    0.255    0.382    5.749
  478.070   37.584    0.274    0.376    5.740
  478.320   39.377    0.270    0.379    5.859
  478.570   38.805    0.260    0.385    5.848
  478.820   37.811    0.256    0.395    5.835
  479.070   37.724    0.257    0.397    5.950
  479.320   38.432    0.245    0.386    6.061
  479.570   39.773    0.225    0.375    6.049
  479.820   42.369    0.195    0.365    6.011
  480.070   46.255    0.221    0.367    5.939
  480.320   50.401    0.233    0.377    5.933
  480.570   56.861    0.239    0.382    5.905
  480.820   60.969    0.248    0.396    5.819
  481.070   67.850    0.237    0.407    5.613
  481.320   73.524    0.229    0.403    5.740
  481.570   81.607    0.219    0.384    5.708
  481.820   85.952    0.177    0.375    5.656
  482.070   90.090    0.185    0.379    5.605
  482.320   90.996    0.185    0.388    5.601
  482.570   92.216    0.202    0.409    5.599
  482.820   94.259    0.205    0.428    5.597
  483.070   96.053    0.193    0.457    5.594
  483.320   96.026    0.184    0.438    5.592
  483.570   95.383    0.169    0.423    5.589
  483.820   95.308    0.162    0.410    5.587
  484.070   96.980    0.164    0.412    5.584
  484.320   98.367    0.178    0.424    5.582
  484.570   99.501    0.191    0.425    5.580
  484.820   98.177    0.201    0.427    5.577
  485.070   96.268    0.200    0.436    5.575
  485.320   94.328    0.189    0.450    5.575
  485.570   92.409    0.178    0.442    5.579
  485.820   91.523    0.171    0.436    5.675
  486.070   89.660    0.173    0.438    5.668
  486.320   87.723    0.190    0.430    5.665
  486.570   85.817    0.213    0.417    5.736
  486.820   84.237    0.234    0.421    5.761
  487.070   85.405    0.205    0.460    5.762
  487.320   85.507    0.187    0.499    5.764
  487.570   84.924    0.156    0.481    5.785
  487.820   79.904    0.150    0.492    5.879
  488.070   72.836    0.191    0.455    5.981
  488.320   69.918    0.205    0.409    6.238
  488.570   75.502    0.215    0.381    6.401
  488.820   80.561    0.216    0.367    6.740
  489.070   81.642    0.196    0.367    6.932
  489.320   82.275    0.188    0.376    7.492
  489.570   81.386    0.174    0.383    7.600
  489.820   77.508    0.153    0.395    7.035
  490.070   75.012    0.135    0.402    6.651
  490.320   77.183    0.141    0.411    5.947
  490.570   77.751    0.174    0.467    5.353
  490.820   73.394    0.017    0.508    5.609
  491.070   71.978    0.030    0.544    5.999
  491.320   75.251    0.043    0.518    6.278
  491.570   83.228    0.047    0.469    6.245
