~VERSION INFORMATION
 VERS.                 2.0:   CWLS LOG ASCII STANDARD -VERSION 2.0
 WRAP.                  NO:   ONE LINE PER DEPTH STEP
~WELL INFORMATION BLOCK
#MNEM.UNIT           DATA                    DESCRIPTION OF MNEMONIC
#---------    -------------------            -------------------------------
# Generated from Intellog Unique Number	CS_73_76/WELL/856
WELL.         SULPETRO LIMITED               : Well_name    - WELL
LOC .         00/14-25-073-11W4/0            : Location     - LOCATION
UWI .         00/14-25-073-11W4/0            : Uwi          - UNIQUE WELL ID
ENTR.         SP                             : Entered      - ENTERED BY
SRVC.         SCHLUMBERGER                   : Scn          - SERVICE COMPANY
STRT.M        300                            : top_depth    - START DEPTH
STOP.M        525                            : bot_depth    - STOP DEPTH
STEP.M        0.25                           : increment    - STEP LENGTH
 NULL. -999.2500:NULL Value
~CURVE INFORMATION BLOCK
#MNEM UNIT       ERCB CURVE CODE    CURVE DESCRIPTION
#-----------   ------------------   ----------------------------------
DEPT.M        00 001 00 00         : DEPTH        - DEPTH
ILD .OHMM     00 120 00 00         : RESD         - DEEP RESISTIVITY (DIL)
DPHI.V/V      00 890 00 00         : PHID         - DENSITY POROSITY (LIMESTONE)
NPHI.V/V      00 330 00 00         : PHIN         - NEUTRON POROSITY (LIMESTONE)
GR  .API      00 310 00 00         : GR           - GAMMA RAY
~PARAMETER INFORMATION
#MNEM.UNIT           DATA             DESCRIPTION OF MNEMONIC
#---------         -----------     ------------------------------
GL  .M        654.38               : gl           - GROUND LEVEL ELEVATION
EREF.M        657.23               : kb           - ELEVATION OF DEPTH REFERENCE
DATM.M        654.38               : datum        - DATUM ELEVATION
TDD .M        535                  : tdd          - TOTAL DEPTH DRILLER
RUN .         ONE                  : Run          - RUN NUMBER
ENG .         BILL                 : Engineer     - RECORDING ENGINEER
WIT .         JIM                  : Witness      - WITNESSED BY
MUD .         GEL                  : Mud_type     - MUD TYPE
MATR.         LIMESTONE            : Logunit      - NEUTRON MATRIX
TMAX.C        22                   : BHT          - MAXIMUM RECORDED TEMPERATURE
BHTD.M        535                  : BHTDEP       - MAXIMUM RECORDED TEMPERATURE
MATR.         1                    : LOGUNIT      - NEUTRON MATRIX
RMT .C        25                   : MDTP         - TEMPERATURE OF MUD
NEUT.         1                    : NEUTRON      - NEUTRON TYPE
RESI.         0                    : RESIST       - RESISTIVITY TYPE
RMC .OHMM     0.25                 : RMC          - RESISTIVITY OF MUD CAKE
RMF .OHMM     0.25                 : RMF          - RESISTIVITY OF MUD FILTRATE
SUFT.C        15                   : SUFT         - SURFACE TEMPERATURE
~A  DEPTH     RESD     PHID     PHIN       GR
# ...
  474.000   19.335    0.265    0.338   62.279
  474.250   18.290    0.248    0.330   67.761
  474.500   16.669    0.244    0.324   68.370
  474.750   16.062    0.235    0.335   70.195
  475.000   16.068    0.227    0.345   73.240
  475.250   17.018    0.228    0.351   75.676
  475.500   18.023    0.229    0.352   79.330
  475.750   18.034    0.218    0.360   80.547
  476.000   18.046    0.218    0.363   81.764
  476.250   17.071    0.237    0.374   76.273
  476.500   15.549    0.252    0.359   67.733
  476.750   13.902    0.239    0.337   67.118
  477.000   13.152    0.206    0.330   70.775
  477.250   12.912    0.186    0.330   76.259
  477.500   12.684    0.180    0.331   79.305
  477.750   12.934    0.172    0.345   79.301
  478.000   13.696    0.166    0.331   80.516
  478.250   14.501    0.197    0.323   81.124
  478.500   19.250    0.220    0.331   73.802
  478.750   25.545    0.250    0.347   71.969
  479.000   35.208    0.275    0.367   70.748
  479.250   57.477    0.292    0.421   57.940
  479.500   64.404    0.296    0.430   48.790
  479.750   57.584    0.291    0.393   40.250
  480.000   48.639    0.291    0.359   34.149
  480.250   30.987    0.287    0.339   42.072
  480.500   18.306    0.281    0.328   56.093
  480.750   11.664    0.258    0.312   71.334
  481.000    7.862    0.183    0.378   82.915
  481.250    5.932    0.140    0.435   94.497
  481.500    4.919    0.128    0.470  106.079
  481.750    8.339    0.124    0.513  117.052
  482.000   13.110    0.190    0.548  113.390
  482.250   17.075    0.228    0.549  100.582
  482.500   23.095    0.257    0.434   84.114
  482.750   27.375    0.268    0.385   71.307
  483.000   29.540    0.277    0.374   52.401
  483.250   24.959    0.296    0.370   45.080
  483.500   21.493    0.295    0.365   43.857
  483.750   20.324    0.292    0.358   42.635
  484.000   18.866    0.294    0.352   36.534
  484.250   17.843    0.291    0.348   32.872
  484.500   17.523    0.286    0.363   41.404
  484.750   18.212    0.284    0.361   48.717
  485.000   18.929    0.278    0.355   51.154
  485.250   19.305    0.274    0.368   53.589
  485.500   19.682    0.283    0.374   54.197
  485.750   20.073    0.288    0.386   56.631
  486.000   19.716    0.275    0.379   60.286
  486.250   18.647    0.267    0.383   66.989
  486.500   16.670    0.260    0.383   70.036
  486.750   15.181    0.244    0.362   74.301
  487.000   13.321    0.234    0.352   74.908
  487.250   11.686    0.237    0.345   77.342
  487.500   10.446    0.251    0.355   77.949
  487.750    9.514    0.258    0.364   77.945
  488.000    8.666    0.265    0.375   76.723
  488.250    7.747    0.267    0.359   74.890
  488.500    7.329    0.246    0.355   76.107
  488.750    7.335    0.230    0.355   77.322
  489.000    7.479    0.213    0.351   79.758
  489.250    7.773    0.201    0.359   84.023
  489.500    8.231    0.182    0.358   87.679
  489.750    8.394    0.174    0.338   88.284
  490.000    8.091    0.172    0.339   91.331
  490.250    7.796    0.179    0.368  100.474
  490.500    7.103    0.184    0.383  109.617
  490.750    6.845    0.173    0.383  115.710
  491.000    6.598    0.156    0.405  118.756
  491.250    6.729    0.127    0.434  121.192
  491.500    6.994    0.046    0.428  118.139
  491.750    7.130    0.030    0.397  105.332
  492.000    7.553    0.074    0.350   85.816
  492.250    7.700    0.127    0.330   89.471
  492.500    8.156    0.151    0.380   96.785
  492.750    8.161    0.165    0.364  100.440
  493.000    8.323    0.154    0.336   94.338
  493.250    8.489    0.149    0.312   90.676
  493.500    8.658    0.148    0.327   90.064
  493.750    8.661    0.142    0.343   88.840
  494.000    8.834    0.145    0.347   86.398
  494.250    9.009    0.179    0.355   77.247
  494.500    9.187    0.203    0.378   72.977
  494.750    9.549    0.229    0.367   64.437
  495.000    9.735    0.250    0.358   58.945
  495.250    9.745    0.249    0.369   58.942
  495.500    9.569    0.242    0.372   60.159
  495.750    9.223    0.239    0.354   58.326
  496.000    8.404    0.239    0.345   58.321
  496.250    7.802    0.234    0.329   59.538
  496.500    7.379    0.231    0.329   60.145
  496.750    6.979    0.226    0.346   59.532
  497.000    6.852    0.239    0.358   54.040
  497.250    6.482    0.267    0.361   51.598
  497.500    6.132    0.267    0.355   56.471
  497.750    5.908    0.239    0.339   60.127
  498.000    5.804    0.229    0.332   65.612
  498.250    5.701    0.220    0.339   63.170
  498.500    5.705    0.248    0.349   60.118
  498.750    5.708    0.254    0.332   57.065
  499.000    5.606    0.253    0.327   57.061
  499.250    5.405    0.260    0.329   57.669
  499.500    5.408    0.267    0.330   57.055
  499.750    5.311    0.245    0.338   55.832
  500.000    5.026    0.240    0.346   54.000
  500.250    5.028    0.259    0.333   50.948
  500.500    4.846    0.256    0.328   52.164
  500.750    4.759    0.249    0.323   53.379
  501.000    4.674    0.244    0.329   54.596
  501.250    4.857    0.253    0.332   55.812
  501.500    5.047    0.243    0.331   55.199
  501.750    5.245    0.230    0.324   54.585
  502.000    5.151    0.226    0.318   53.973
  502.250    4.873    0.238    0.327   55.188
  502.500    4.523    0.259    0.343   55.186
  502.750    4.360    0.271    0.348   50.914
  503.000    4.282    0.276    0.355   47.860
  503.250    4.285    0.275    0.354   47.248
  503.500    4.370    0.273    0.340   46.636
  503.750    4.544    0.259    0.332   50.291
  504.000    4.633    0.255    0.332   55.775
  504.250    4.725    0.247    0.337   60.040
  504.500    4.728    0.244    0.344   58.817
  504.750    4.731    0.245    0.349   56.374
  505.000    4.646    0.249    0.351   53.933
  505.250    4.562    0.254    0.355   50.271
  505.500    4.567    0.253    0.343   50.267
  505.750    4.571    0.244    0.332   59.409
  506.000    4.573    0.239    0.316   61.846
  506.250    4.577    0.236    0.333   60.621
  506.500    4.668    0.238    0.354   60.010
  506.750    4.760    0.264    0.353   58.786
  507.000    4.948    0.236    0.339   60.612
  507.250    4.951    0.221    0.344   62.439
  507.500    4.956    0.235    0.342   63.044
  507.750    4.866    0.244    0.322   63.040
  508.000    4.690    0.263    0.332   61.818
  508.250    4.606    0.267    0.349   57.547
  508.500    4.610    0.264    0.355   59.373
  508.750    4.702    0.235    0.332   63.636
  509.000    4.980    0.233    0.328   66.073
  509.250    5.077    0.235    0.332   70.947
  509.500    5.278    0.230    0.336   75.212
  509.750    5.381    0.209    0.332   78.258
  510.000    5.487    0.199    0.327   81.304
  510.250    5.596    0.199    0.319   81.910
  510.500    5.601    0.202    0.320   76.418
  510.750    5.500    0.204    0.321   73.977
  511.000    5.302    0.205    0.321   80.679
  511.250    5.110    0.207    0.320   83.116
  511.500    4.833    0.207    0.319   89.209
  511.750    4.487    0.225    0.356   69.695
  512.000    4.323    0.264    0.373   61.765
  512.250    3.865    0.271    0.388   53.834
  512.500    3.588    0.209    0.383   56.270
  512.750    3.393    0.199    0.356   66.632
  513.000    3.150    0.215    0.367   69.678
  513.250    3.153    0.263    0.414   40.407
  513.500    3.096    0.297    0.406   27.598
  513.750    3.157    0.272    0.383   31.863
  514.000    3.161    0.254    0.360   44.054
  514.250    3.223    0.274    0.375   51.368
  514.500    3.224    0.296    0.394   40.999
  514.750    3.168    0.317    0.381   33.678
  515.000    3.170    0.300    0.343   31.846
  515.250    3.056    0.280    0.369   38.548
  515.500    3.001    0.275    0.376   40.376
  515.750    2.892    0.297    0.377   34.275
  516.000    2.736    0.326    0.367   31.223
  516.250    2.686    0.336    0.386   29.998
  516.500    2.740    0.341    0.392   29.996
  516.750    3.129    0.335    0.372   30.602
  517.000    3.313    0.285    0.339   39.136
  517.250    3.854    0.238    0.308   58.035
