~VERSION INFORMATION
 VERS.                 2.0:   CWLS LOG ASCII STANDARD -VERSION 2.0
 WRAP.                  NO:   ONE LINE PER DEPTH STEP
~WELL INFORMATION BLOCK
#MNEM.UNIT           DATA                    DESCRIPTION OF MNEMONIC
#---------    -------------------            -------------------------------
# Generated from Intellog Unique Number	CS_73_76/WELL/3232
WELL.         HOME OIL COMPANY LIMITED       : Well_name    - WELL
LOC .         00/10-08-076-06W4/0            : Location     - LOCATION
UWI .         00/10-08-076-06W4/0            : Uwi          - UNIQUE WELL ID
ENTR.         SP                             : Entered      - ENTERED BY
SRVC.         SCHLUMBERGER                   : Scn          - SERVICE COMPANY
STRT.M        173.736                        : top_depth    - START DEPTH
STOP.M        412.986                        : bot_depth    - STOP DEPTH
STEP.M        0.25                           : increment    - STEP LENGTH
 NULL. -999.2500:NULL Value
~CURVE INFORMATION BLOCK
#MNEM UNIT       ERCB CURVE CODE    CURVE DESCRIPTION
#-----------   ------------------   ----------------------------------
DEPT.M        00 001 00 00         : DEPTH        - DEPTH
GR  .API      00 310 00 00         : GR           - GAMMA RAY
DPHI.V/V      00 890 00 00         : PHID         - DENSITY POROSITY (SANDSTONE)
NPHI.V/V      00 330 00 00         : PHIN         - NEUTRON POROSITY (SANDSTONE)
ILD .OHMM     00 120 00 00         : RESD         - DEEP RESISTIVITY (DIL)
~PARAMETER INFORMATION
#MNEM.UNIT           DATA             DESCRIPTION OF MNEMONIC
#---------         -----------     ------------------------------
GL  .M        580.278              : gl           - GROUND LEVEL ELEVATION
EREF.M        584.119              : kb           - ELEVATION OF DEPTH REFERENCE
DATM.M        580.278              : datum        - DATUM ELEVATION
TDD .M        389.23               : tdd          - TOTAL DEPTH DRILLER
RUN .         ONE                  : Run          - RUN NUMBER
ENG .         BILL                 : Engineer     - RECORDING ENGINEER
WIT .         JIM                  : Witness      - WITNESSED BY
MUD .         GEL                  : Mud_type     - MUD TYPE
MATR.         SANDSTONE            : Logunit      - NEUTRON MATRIX
TMAX.C        16.6667              : BHT          - MAXIMUM RECORDED TEMPERATURE
BHTD.M        389.23               : BHTDEP       - MAXIMUM RECORDED TEMPERATURE
MATR.         1                    : LOGUNIT      - NEUTRON MATRIX
RMT .C        25                   : MDTP         - TEMPERATURE OF MUD
NEUT.         1                    : NEUTRON      - NEUTRON TYPE
RESI.         0                    : RESIST       - RESISTIVITY TYPE
RMC .OHMM     0.25                 : RMC          - RESISTIVITY OF MUD CAKE
RMF .OHMM     0.25                 : RMF          - RESISTIVITY OF MUD FILTRATE
SUFT.C        15                   : SUFT         - SURFACE TEMPERATURE
~A  DEPTH       GR     PHID     PHIN     RESD
# ...
  391.236  101.824    0.222    0.419    9.863
  391.486  103.922    0.205    0.412    9.731
  391.736  106.023    0.183    0.401    9.965
  391.986  109.094    0.160    0.413   10.257
  392.236  112.512    0.172    0.421   11.081
  392.486  110.139    0.168    0.415   11.587
  392.736  107.178    0.191    0.419   11.878
  392.986  106.495    0.203    0.424   12.257
  393.236  101.794    0.214    0.419   12.306
  393.486   99.405    0.227    0.432   12.325
  393.736   98.248    0.227    0.415   12.099
  393.986   94.535    0.222    0.409   11.595
  394.236   90.407    0.228    0.412   11.441
  394.486   88.188    0.242    0.426   11.402
  394.736   91.216    0.247    0.432   11.391
  394.986   97.736    0.244    0.424   11.403
  395.236  101.374    0.236    0.417   11.094
  395.486  104.507    0.235    0.420   10.549
  395.736  102.308    0.246    0.422    9.760
  395.986   97.121    0.257    0.416    8.457
  396.236   96.023    0.263    0.398    7.286
  396.486   95.595    0.257    0.392    6.710
  396.736   96.341    0.241    0.384    6.155
  396.986   92.758    0.231    0.383    5.806
  397.236   86.565    0.218    0.400    5.509
  397.486   83.660    0.235    0.384    5.350
  397.736   94.629    0.241    0.374    5.251
  397.986  100.949    0.214    0.379    5.378
  398.236  102.441    0.220    0.395    5.253
  398.486  104.511    0.198    0.407    5.253
  398.736  105.671    0.195    0.418    5.222
  398.986  106.150    0.206    0.422    5.150
  399.236  101.907    0.226    0.413    5.097
  399.486   96.230    0.227    0.413    4.945
  399.736   93.400    0.230    0.410    5.040
  399.986   95.120    0.237    0.400    5.033
  400.236   99.960    0.225    0.383    5.147
  400.486  101.888    0.209    0.385    5.047
  400.736  102.290    0.196    0.395    4.939
  400.986   99.436    0.185    0.403    4.487
  401.236   94.103    0.216    0.416    4.301
  401.486   87.019    0.239    0.421    4.053
  401.736   81.314    0.256    0.408    4.015
  401.986   79.709    0.256    0.395    3.941
  402.236   75.977    0.254    0.393    3.855
  402.486   71.778    0.264    0.402    3.865
  402.736   69.792    0.273    0.400    3.782
  402.986   66.933    0.276    0.390    3.786
  403.236   65.450    0.281    0.397    3.785
  403.486   66.889    0.277    0.399    3.789
  403.736   67.529    0.271    0.401    3.705
  403.986   67.051    0.271    0.402    3.709
  404.236   66.214    0.274    0.400    3.712
  404.486   66.990    0.271    0.399    3.633
  404.736   67.579    0.268    0.398    3.633
  404.986   68.579    0.271    0.397    3.610
  405.236   71.275    0.275    0.395    3.562
  405.486   76.274    0.274    0.393    3.561
  405.736   78.239    0.279    0.391    3.575
  405.986   78.704    0.280    0.397    3.620
  406.236   80.723    0.269    0.396    3.690
  406.486   92.573    0.260    0.392    3.768
  406.736  104.474    0.257    0.391    3.950
  406.986  113.861    0.259    0.392    4.140
  407.236  134.817    0.251    0.398    4.448
  407.486  146.938    0.223    0.395    4.879
  407.736  131.279    0.159    0.402    5.071
  407.986  122.311    0.167    0.421    5.341
  408.236  117.858    0.172    0.432    5.507
  408.486  117.113    0.170    0.437    5.508
  408.736  114.128    0.178    0.443    5.335
  408.986  110.115    0.195    0.429    5.232
  409.236  108.239    0.205    0.430    5.131
  409.486  112.353    0.194    0.431    5.313
  409.736  119.193    0.198    0.430    5.357
  409.986  123.798    0.189    0.420    5.531
  410.236  127.815    0.173    0.398    5.698
  410.486  131.738    0.155    0.391    5.863
  410.736  135.756    0.141    0.396    6.172
  410.986  139.073    0.139    0.401    6.269
  411.236  134.003    0.143    0.397    6.204
  411.486  125.310    0.159    0.393    5.815
  411.736  120.622    0.164    0.392    5.421
  411.986  117.497    0.166    0.401    5.131
  412.236  115.024    0.188    0.417    4.911
  412.486  113.434    0.204    0.431    4.757
  412.736  111.235    0.221    0.426    4.734
  412.986  109.722    0.241    0.415    4.882
