~VERSION INFORMATION
 VERS.                 2.0:   CWLS LOG ASCII STANDARD -VERSION 2.0
 WRAP.                  NO:   ONE LINE PER DEPTH STEP
~WELL INFORMATION BLOCK
#MNEM.UNIT           DATA                    DESCRIPTION OF MNEMONIC
#---------    -------------------            -------------------------------
# Generated from Intellog Unique Number	CS_73_76/WELL/2190
WELL.         BOW VALLEY EXPLORATION         : Well_name    - WELL
LOC .         00/10-15-074-17W4/0            : Location     - LOCATION
UWI .         00/10-15-074-17W4/0            : Uwi          - UNIQUE WELL ID
ENTR.         SP                             : Entered      - ENTERED BY
SRVC.         SCHLUMBERGER                   : Scn          - SERVICE COMPANY
STRT.M        235                            : top_depth    - START DEPTH
STOP.M        420                            : bot_depth    - STOP DEPTH
STEP.M        0.25                           : increment    - STEP LENGTH
 NULL. -999.2500:NULL Value
~CURVE INFORMATION BLOCK
#MNEM UNIT       ERCB CURVE CODE    CURVE DESCRIPTION
#-----------   ------------------   ----------------------------------
DEPT.M        00 001 00 00         : DEPTH        - DEPTH
ILD .OHMM     00 120 00 00         : RESD         - DEEP RESISTIVITY (DIL)
DPHI.V/V      00 890 00 00         : PHID         - DENSITY POROSITY (LIMESTONE)
NPHI.V/V      00 330 00 00         : PHIN         - NEUTRON POROSITY (LIMESTONE)
GR  .API      00 310 00 00         : GR           - GAMMA RAY
~PARAMETER INFORMATION
#MNEM.UNIT           DATA             DESCRIPTION OF MNEMONIC
#---------         -----------     ------------------------------
GL  .M        580.9                : gl           - GROUND LEVEL ELEVATION
EREF.M        583.2                : kb           - ELEVATION OF DEPTH REFERENCE
DATM.M        580.9                : datum        - DATUM ELEVATION
TDD .M        421                  : tdd          - TOTAL DEPTH DRILLER
RUN .         ONE                  : Run          - RUN NUMBER
ENG .         BILL                 : Engineer     - RECORDING ENGINEER
WIT .         JIM                  : Witness      - WITNESSED BY
MUD .         GEL                  : Mud_type     - MUD TYPE
MATR.         LIMESTONE            : Logunit      - NEUTRON MATRIX
TMAX.C        20                   : BHT          - MAXIMUM RECORDED TEMPERATURE
BHTD.M        421                  : BHTDEP       - MAXIMUM RECORDED TEMPERATURE
MATR.         1                    : LOGUNIT      - NEUTRON MATRIX
RMT .C        25                   : MDTP         - TEMPERATURE OF MUD
NEUT.         1                    : NEUTRON      - NEUTRON TYPE
RESI.         0                    : RESIST       - RESISTIVITY TYPE
RMC .OHMM     0.25                 : RMC          - RESISTIVITY OF MUD CAKE
RMF .OHMM     0.25                 : RMF          - RESISTIVITY OF MUD FILTRATE
SUFT.C        15                   : SUFT         - SURFACE TEMPERATURE
~A  DEPTH     RESD     PHID     PHIN       GR
# ...
  365.500   10.739    0.198    0.340   54.656
  365.750   11.352    0.236    0.356   54.656
  366.000   11.999    0.248    0.385   54.656
  366.250   11.997    0.287    0.403   55.263
  366.500   11.777    0.268    0.419   55.870
  366.750   11.347    0.228    0.408   56.478
  367.000   10.934    0.194    0.393   57.085
  367.250   10.732    0.217    0.352   56.478
  367.500   11.136    0.227    0.378   54.656
  367.750   11.771    0.167    0.362   52.834
  368.000   11.990    0.060    0.323   52.227
  368.250   11.552    0.103    0.204   57.085
  368.500   10.530    0.206    0.211   63.765
  368.750    9.960    0.256    0.343   68.016
  369.000    9.078    0.287    0.371   66.802
  369.250    8.274    0.298    0.407   67.409
  369.500    7.826    0.291    0.422   71.053
  369.750    7.541    0.283    0.404   72.874
  370.000    7.402    0.275    0.399   72.874
  370.250    7.401    0.257    0.392   68.624
  370.500    7.131    0.269    0.405   64.373
  370.750    6.872    0.279    0.423   62.551
  371.000    6.621    0.298    0.433   58.907
  371.250    6.499    0.314    0.440   58.300
  371.500    6.379    0.311    0.427   64.373
  371.750    6.378    0.312    0.417   66.194
  372.000    6.497    0.315    0.410   66.802
  372.250    6.496    0.315    0.419   66.802
  372.500    6.617    0.315    0.431   67.409
  372.750    6.616    0.315    0.437   67.409
  373.000    6.494    0.304    0.440   69.838
  373.250    6.374    0.288    0.419   72.874
  373.500    6.374    0.276    0.410   78.340
  373.750    6.141    0.264    0.414   83.198
  374.000    6.028    0.251    0.431   86.842
  374.250    5.808    0.230    0.449   89.271
  374.500    5.701    0.222    0.460   91.093
  374.750    5.493    0.235    0.442   94.737
  375.000    5.392    0.222    0.429   96.559
  375.250    5.292    0.213    0.426   97.773
  375.500    5.292    0.230    0.446   98.381
  375.750    5.292    0.245    0.456   95.951
  376.000    5.390    0.247    0.468   94.130
  376.250    5.389    0.240    0.471   92.308
  376.500    5.490    0.238    0.454   89.879
  376.750    5.592    0.248    0.442   88.057
  377.000    6.021    0.239    0.438   86.235
  377.250    6.364    0.228    0.422   85.627
  377.500    6.981    0.206    0.407   84.413
  377.750    7.244    0.183    0.401   84.413
  378.000    7.243    0.166    0.386   85.020
  378.250    7.242    0.207    0.381   86.235
  378.500    7.242    0.228    0.402   88.664
  378.750    7.108    0.245    0.421   90.486
  379.000    7.107    0.256    0.434   89.271
  379.250    7.106    0.235    0.427   86.842
  379.500    6.478    0.238    0.438   85.627
  379.750    6.477    0.223    0.439   86.842
  380.000    6.476    0.209    0.437   88.664
  380.250    6.597    0.230    0.432   90.486
  380.500    6.596    0.248    0.417   91.093
  380.750    6.719    0.261    0.408   87.449
  381.000    6.718    0.256    0.414   90.486
  381.250    6.594    0.263    0.421   92.308
  381.500    6.472    0.204    0.416   91.093
  381.750    6.353    0.210    0.407   92.308
  382.000    6.121    0.218    0.409   94.130
  382.250    5.898    0.216    0.423   96.559
  382.500    5.579    0.217    0.433   97.773
  382.750    5.277    0.248    0.420   97.773
  383.000    5.084    0.234    0.430   99.595
  383.250    4.899    0.216    0.433   98.988
  383.500    4.899    0.205    0.432  101.417
  383.750    5.178    0.182    0.434  102.024
  384.000    5.473    0.182    0.439  103.846
  384.250    6.465    0.189    0.443   93.522
  384.500    6.962    0.191    0.430   82.591
  384.750    7.636    0.178    0.341   79.555
  385.000   11.476    0.201    0.326   74.089
  385.250   14.330    0.140    0.314   68.624
  385.500   14.869    0.049    0.296   66.194
  385.750   14.868    0.073    0.257   63.765
  386.000   14.063    0.026    0.240   67.409
  386.250   12.583    0.036    0.240   73.482
  386.500   10.650    0.069    0.285   77.126
  386.750    9.529    0.119    0.337   86.842
  387.000    8.065    0.165    0.367   92.915
  387.250    7.629    0.199    0.391   92.915
  387.500    7.488    0.215    0.404   88.664
  387.750    7.487    0.158    0.395   85.020
  388.000    7.349    0.129    0.390   83.806
  388.250    7.213    0.151    0.381   85.627
  388.500    7.212    0.181    0.395   91.093
  388.750    7.080    0.191    0.404   91.700
  389.000    7.079    0.185    0.421   91.093
  389.250    7.078    0.168    0.425   94.130
  389.500    7.078    0.145    0.426  100.202
  389.750    7.077    0.152    0.425  103.239
  390.000    7.076    0.185    0.425  109.312
  390.250    7.342    0.175    0.432  113.563
  390.500    7.761    0.166    0.420  114.170
  390.750    8.053    0.191    0.421  110.526
  391.000    8.203    0.204    0.414  103.846
  391.250    8.356    0.172    0.405   95.951
  391.500    8.832    0.160    0.402   86.842
  391.750    8.996    0.146    0.413   79.555
  392.000    9.163    0.098    0.391   76.518
  392.250    9.162    0.084    0.374   84.413
  392.500    8.666    0.111    0.334   91.093
  392.750    8.197    0.130    0.350   93.522
  393.000    7.611    0.141    0.381   95.344
  393.250    7.199    0.168    0.414   95.951
  393.500    7.066    0.174    0.430   95.344
  393.750    6.936    0.153    0.414   98.381
  394.000    7.197    0.166    0.405   97.166
  394.250    7.331    0.160    0.411   95.344
  394.500    7.606    0.154    0.419   94.737
  394.750    7.748    0.134    0.399   95.951
  395.000    7.747    0.156    0.397   97.773
  395.250    7.891    0.179    0.404   99.595
  395.500    7.890    0.201    0.387   98.988
  395.750    7.745    0.175    0.372   98.988
  396.000    7.602    0.172    0.360   97.166
  396.250    7.462    0.170    0.370   94.130
  396.500    7.461    0.164    0.381   92.915
  396.750    7.323    0.168    0.393   92.308
  397.000    7.323    0.159    0.395   92.915
  397.250    7.188    0.141    0.390   92.308
  397.500    7.187    0.104    0.375   91.700
  397.750    7.054    0.096    0.352   94.737
  398.000    6.797    0.107    0.346   97.166
  398.250    6.429    0.159    0.367   97.166
  398.500    5.442    0.176    0.386   94.737
  398.750    4.692    0.186    0.401   91.700
  399.000    3.488    0.198    0.428   90.486
  399.250    3.064    0.223    0.457   92.308
  399.500    2.741    0.244    0.485   94.130
  399.750    2.593    0.259    0.501   96.559
  400.000    2.453    0.247    0.518   99.595
  400.250    2.363    0.234    0.519  102.024
  400.500    2.363    0.226    0.521  103.239
  400.750    2.452    0.224    0.529  103.846
  401.000    2.497    0.220    0.504   97.166
  401.250    2.689    0.198    0.506   91.700
  401.500    2.950    0.169    0.526   87.449
  401.750    3.358    0.145    0.523   86.235
  402.000    3.894    0.130    0.483   89.271
  402.250    4.351    0.118    0.421   97.166
  402.500    6.072    0.152    0.381   98.988
  402.750    6.911    0.162    0.381   97.773
  403.000    7.305    0.141    0.387   93.522
  403.250    7.866    0.129    0.361   91.093
  403.500    8.012    0.111    0.340   92.915
  403.750    8.314    0.133    0.357   96.559
  404.000    8.468    0.177    0.368   98.988
  404.250    8.468    0.173    0.391   98.988
  404.500    8.159    0.136    0.399   94.130
  404.750    8.158    0.110    0.415   89.879
  405.000    8.157    0.129    0.395   86.235
  405.250    8.156    0.118    0.371   83.806
  405.500    8.155    0.105    0.343   88.664
  405.750    8.155    0.124    0.351   92.915
  406.000    8.154    0.144    0.358   94.130
  406.250    8.153    0.146    0.369   94.130
  406.500    8.152    0.130    0.373   94.130
  406.750    8.151    0.134    0.378   95.344
  407.000    8.303    0.111    0.367   98.988
  407.250    8.616    0.100    0.372  101.417
  407.500    8.776    0.134    0.374  100.202
  407.750    9.106    0.113    0.367   93.522
  408.000    9.625    0.098    0.381   88.664
  408.250    9.987    0.087    0.360   90.486
  408.500    9.986    0.100    0.332   93.522
  408.750   10.172    0.118    0.345   91.093
