~VERSION INFORMATION
 VERS.                 2.0:   CWLS LOG ASCII STANDARD -VERSION 2.0
 WRAP.                  NO:   ONE LINE PER DEPTH STEP
~WELL INFORMATION BLOCK
#MNEM.UNIT           DATA                    DESCRIPTION OF MNEMONIC
#---------    -------------------            -------------------------------
# Generated from Intellog Unique Number	CS_69_70/WELL/2903
WELL.         HUSKY OIL OPERATIONS LTD.      : Well_name    - WELL
LOC .         00/12-31-069-08W4/0            : Location     - LOCATION
UWI .         00/12-31-069-08W4/0            : Uwi          - UNIQUE WELL ID
ENTR.         JOETTE                         : Entered      - ENTERED BY
SRVC.         SCHLUMBERGER                   : Scn          - SERVICE COMPANY
DATE.         05/15/92                       : Date         - LOG DATE
STRT.M        350                            : top_depth    - START DEPTH
STOP.M        560                            : bot_depth    - STOP DEPTH
STEP.M        0.25                           : increment    - STEP LENGTH
 NULL. -999.2500:NULL Value
~CURVE INFORMATION BLOCK
#MNEM UNIT       ERCB CURVE CODE    CURVE DESCRIPTION
#-----------   ------------------   ----------------------------------
DEPT.M        00 001 00 00         : DEPTH        - DEPTH
GR  .API      00 310 00 00         : GR           - GAMMA RAY
NPHI.V/V      00 330 00 00         : PHIN         - NEUTRON POROSITY (SANDSTONE)
DPHI.V/V      00 890 00 00         : PHID         - DENSITY POROSITY (SANDSTONE)
ILD .OHMM     00 120 00 00         : RESD         - DEEP RESISTIVITY (DIL)
CALI.MM       00 280 01 00         : CAL          - CALIPER
~PARAMETER INFORMATION
#MNEM.UNIT           DATA             DESCRIPTION OF MNEMONIC
#---------         -----------     ------------------------------
GL  .M        683.4                : gl           - GROUND LEVEL ELEVATION
EREF.M        687.1                : kb           - ELEVATION OF DEPTH REFERENCE
DATM.M        687.1                : datum        - DATUM ELEVATION
TDD .M        561.7                : tdd          - TOTAL DEPTH DRILLER
RUN .         ONE                  : Run          - RUN NUMBER
ENG .         BILL                 : Engineer     - RECORDING ENGINEER
WIT .         JIM                  : Witness      - WITNESSED BY
MUD .         GEL                  : Mud_type     - MUD TYPE
MATR.         SANDSTONE            : Logunit      - NEUTRON MATRIX
TMAX.C        23                   : BHT          - MAXIMUM RECORDED TEMPERATURE
BHTD.M        561.7                : BHTDEP       - MAXIMUM RECORDED TEMPERATURE
RMT .C        14.4                 : MDTP         - TEMPERATURE OF MUD
MUDD.KG/M     1100                 : MWT          - MUD DENSITY
NEUT.         1                    : NEUTRON      - NEUTRON TYPE
RESI.         0                    : RESIST       - RESISTIVITY TYPE
RM  .OHMM     4.51                 : RM           - RESISTIVITY OF MUD
RMC .OHMM     5.23                 : RMC          - RESISTIVITY OF MUD CAKE
RMF .OHMM     5.23                 : RMF          - RESISTIVITY OF MUD FILTRATE
SUFT.C        4                    : SUFT         - SURFACE TEMPERATURE
~A  DEPTH       GR     PHIN     PHID     RESD      CAL
# ...
  423.000   91.108    0.413    0.267    5.446  163.088
  423.250   93.619    0.424    0.273    5.267  163.140
  423.500   96.120    0.433    0.267    5.182  163.243
  423.750   97.391    0.436    0.262    5.011  162.253
  424.000   99.891    0.438    0.252    4.849  161.331
  424.250  101.787    0.441    0.241    4.610  161.366
  424.500  103.038    0.448    0.237    4.382  161.452
  424.750  105.559    0.450    0.249    4.166  161.503
  425.000  107.444    0.460    0.257    4.169  166.730
  425.250  108.715    0.450    0.273    4.247  165.774
  425.500  100.754    0.432    0.303    4.324  163.776
  425.750   91.573    0.450    0.298    4.405  160.788
  426.000   89.780    0.441    0.280    4.562  158.808
  426.250   93.500    0.444    0.271    4.645  162.958
  426.500   97.240    0.418    0.290    4.730  167.126
  426.750   94.208    0.411    0.312    4.737  167.212
  427.000   92.394    0.425    0.307    4.660  165.231
  427.250   91.821    0.448    0.286    4.432  163.251
  427.500   93.091    0.466    0.272    4.284  164.362
  427.750   93.758    0.435    0.273    4.005  167.522
  428.000   93.184    0.437    0.279    3.872  169.606
  428.250   97.540    0.473    0.273    3.811  176.864
  428.500   96.352    0.500    0.268    4.086  177.941
  428.750   92.694    0.495    0.274    4.381  177.002
  429.000   87.827    0.479    0.282    4.698  176.046
  429.250   80.480    0.453    0.292    5.124  174.066
  429.500   77.457    0.446    0.305    5.887  168.994
  429.750   74.424    0.447    0.326    6.420  162.949
  430.000   71.996    0.450    0.322    6.886  160.968
  430.250   74.497    0.451    0.323    6.773  159.005
  430.500   77.623    0.460    0.333    6.117  159.039
  430.750   75.819    0.469    0.329    5.915  159.108
  431.000   74.016    0.460    0.318    5.820  159.194
  431.250   76.517    0.455    0.309    5.828  159.280
  431.500   80.247    0.457    0.317    5.937  159.315
  431.750   79.059    0.459    0.322    5.940  159.401
  432.000   77.255    0.459    0.311    6.050  159.470
  432.250   77.912    0.448    0.303    6.163  159.521
  432.500   79.183    0.438    0.304    6.166  159.607
  432.750   77.994    0.445    0.289    6.279  159.693
  433.000   81.724    0.445    0.311    6.506  158.755
  433.250   84.235    0.434    0.316    6.511  158.806
  433.500   77.514    0.437    0.317    6.868  158.892
  433.750   70.792    0.431    0.335    6.992  158.944
  434.000   65.904    0.422    0.362    7.118  160.055
  434.250   61.642    0.438    0.371    7.251  160.089
  434.500   58.005    0.453    0.361    7.512  160.192
  434.750   55.576    0.426    0.361    7.521  160.244
  435.000   51.939    0.419    0.369    7.655  160.347
  435.250   53.825    0.416    0.376    7.663  160.399
  435.500   56.325    0.416    0.378    7.672  160.451
  435.750   56.981    0.420    0.375    7.680  160.554
  436.000   55.178    0.409    0.368    7.822  160.605
  436.250   50.926    0.415    0.366    7.832  161.716
  436.500   50.363    0.419    0.368    7.836  161.751
  436.750   51.613    0.424    0.366    7.712  164.894
  437.000   55.354    0.424    0.359    7.718  161.923
  437.250   57.854    0.428    0.356    7.727  158.935
  437.500   54.842    0.422    0.360    7.869  156.937
  437.750   51.809    0.415    0.366    7.875  155.964
  438.000   51.215    0.426    0.369    7.886  156.033
  438.250   50.642    0.432    0.357    7.894  157.161
  438.500   51.913    0.426    0.357    7.900  157.212
  438.750   53.184    0.417    0.359    7.908  158.306
  439.000   52.620    0.419    0.362    7.908  159.416
  439.250   51.422    0.416    0.359    7.929  160.493
  439.500   49.619    0.417    0.358    7.278  162.645
  439.750   50.900    0.427    0.358    7.285  163.722
  440.000   53.421    0.432    0.360    7.168  164.833
  440.250   53.442    0.435    0.363    7.175  164.884
  440.500   54.108    0.448    0.361    7.060  164.936
  440.750   55.994    0.431    0.356    6.948  165.022
  441.000   52.346    0.418    0.361    6.958  165.073
  441.250   50.543    0.425    0.362    7.084  164.118
  441.500   54.263    0.424    0.361    7.091  164.186
  441.750   56.764    0.433    0.358    7.223  164.272
  442.000   54.366    0.438    0.361    7.352  162.309
  442.250   54.397    0.433    0.361    7.488  161.336
  442.500   54.439    0.437    0.355    7.758  158.331
  442.750   53.865    0.444    0.325    8.910  157.392
  443.000   53.302    0.452    0.293   11.346  156.419
  443.250   52.728    0.413    0.221   13.035  156.488
  443.500   52.145    0.252    0.183   12.828  156.557
  443.750   46.038    0.254    0.145   11.781  157.667
  444.000   38.086    0.259    0.151   10.634  157.736
  444.250   36.283    0.274    0.195    8.965  158.864
  444.500   41.858    0.429    0.228    8.093  159.923
  444.750   44.358    0.464    0.351    7.307  160.009
  445.000   48.724    0.461    0.368    7.191  158.029
  445.250   51.829    0.428    0.368    7.325  158.098
  445.500   53.111    0.430    0.368    7.457  163.273
  445.750   53.152    0.416    0.374    7.212  163.359
  446.000   52.578    0.421    0.394    6.404  162.403
  446.250   54.464    0.488    0.392    6.085  160.440
  446.500   56.954    0.484    0.335    5.689  160.491
  446.750   64.999    0.469    0.275    5.692  160.560
  447.000   74.262    0.469    0.271    5.698  160.629
  447.250   90.914    0.462    0.279    5.705  160.732
  447.500   90.955    0.459    0.271    5.709  160.767
  447.750   90.392    0.467    0.261    5.814  160.835
  448.000   92.882    0.472    0.250    5.819  160.939
  448.250   95.383    0.456    0.241    5.931  160.973
  448.500   96.049    0.437    0.230    5.933  162.101
  448.750   97.331    0.432    0.228    5.939  162.153
  449.000   98.591    0.425    0.233    6.051  162.222
  449.250   97.413    0.428    0.235    6.056  163.350
  449.500   96.829    0.449    0.234    6.060  163.384
  449.750   98.715    0.467    0.228    6.068  163.470
  450.000   99.996    0.452    0.230    5.969  162.531
  450.250  100.038    0.442    0.241    5.873  162.583
  450.500  101.309    0.462    0.248    5.878  161.627
  450.750  101.350    0.483    0.249    5.690  160.654
  451.000   98.307    0.496    0.254    5.595  159.715
  451.250   94.044    0.483    0.249    5.416  159.767
  451.500   95.941    0.465    0.238    5.418  159.853
  451.750  100.900    0.451    0.235    5.331  160.947
  452.000  104.016    0.449    0.229    5.156  162.057
  452.250  102.827    0.466    0.227    5.072  164.193
  452.500  102.869    0.498    0.241    4.908  164.227
  452.750  104.754    0.487    0.240    4.826  165.338
  453.000  104.191    0.478    0.235    4.750  165.407
  453.250  101.773    0.511    0.240    4.674  165.458
  453.500  105.503    0.514    0.237    4.599  165.544
  453.750  109.234    0.487    0.237    4.449  166.655
  454.000  108.045    0.460    0.247    4.301  167.766
  454.250  104.398    0.452    0.251    3.953  167.800
  454.500  102.595    0.465    0.245    3.757  168.894
  454.750  104.480    0.489    0.237    3.450  171.029
  455.000  108.846    0.503    0.229    3.115  173.130
  455.250  113.191    0.514    0.223    2.861  176.308
  455.500  115.067    0.512    0.233    2.768  177.384
  455.750  108.345    0.507    0.256    2.918  179.519
  456.000  104.697    0.518    0.263    3.074  180.596
  456.250   99.820    0.542    0.269    3.593  181.689
  456.500   96.172    0.549    0.276    4.056  181.775
  456.750   93.754    0.514    0.272    4.502  181.844
  457.000   93.181    0.474    0.268    4.744  180.888
  457.250   92.628    0.450    0.276    4.915  176.841
  457.500   93.263    0.452    0.266    5.007  169.754
  457.750   93.920    0.445    0.249    5.013  166.749
  458.000   95.805    0.464    0.232    4.930  165.776
  458.250   95.242    0.479    0.240    4.852  164.837
  458.500   95.898    0.470    0.261    4.774  164.923
  458.750  100.868    0.478    0.271    4.781  164.992
  459.000  100.285    0.468    0.282    4.703  164.036
  459.250   94.793    0.454    0.297    4.703  164.088
