~VERSION INFORMATION
 VERS.                 2.0:   CWLS LOG ASCII STANDARD -VERSION 2.0
 WRAP.                  NO:   ONE LINE PER DEPTH STEP
~WELL INFORMATION BLOCK
#MNEM.UNIT           DATA                    DESCRIPTION OF MNEMONIC
#---------    -------------------            -------------------------------
# Generated from Intellog Unique Number	CN_94_101/WELL/3811
WELL.         11-09-096-17W4                 : Well_name    - WELL
LOC .         00/11-09-096-17W4/0            : Location     - LOCATION
UWI .         00/11-09-096-17W400            : Uwi          - UNIQUE WELL ID
ENTR.         T                              : Entered      - ENTERED BY
SRVC.         SCHLUMBERGER                   : Scn          - SERVICE COMPANY
DATE.         07/31/92                       : Date         - LOG DATE
STRT.M        300                            : top_depth    - START DEPTH
STOP.M        475                            : bot_depth    - STOP DEPTH
STEP.M        0.25                           : increment    - STEP LENGTH
 NULL. -999.2500:NULL Value
~CURVE INFORMATION BLOCK
#MNEM UNIT       ERCB CURVE CODE    CURVE DESCRIPTION
#-----------   ------------------   ----------------------------------
DEPT.M        00 001 00 00         : DEPTH        - DEPTH
GR  .API      00 310 00 00         : GR           - GAMMA RAY
CALI.MM       00 280 01 00         : CAL          - CALIPER
NPHI.V/V      00 330 00 00         : PHIN         - NEUTRON POROSITY (SANDSTONE)
DPHI.V/V      00 890 00 00         : PHID         - DENSITY POROSITY (SANDSTONE)
ILD .OHMM     00 120 00 00         : RESD         - DEEP RESISTIVITY (DIL)
~PARAMETER INFORMATION
#MNEM.UNIT           DATA             DESCRIPTION OF MNEMONIC
#---------         -----------     ------------------------------
GL  .M        743                  : gl           - GROUND LEVEL ELEVATION
EREF.M        747.4                : kb           - ELEVATION OF DEPTH REFERENCE
DATM.M        747.4                : datum        - DATUM ELEVATION
TDD .M        482                  : tdd          - TOTAL DEPTH DRILLER
RUN .         0.000000             : Run          - RUN NUMBER
MUD .         GEL                  : Mud_type     - MUD TYPE
MATR.         SANDSTONE            : Logunit      - NEUTRON MATRIX
TMAX.C        0                    : BHT          - MAXIMUM RECORDED TEMPERATURE
BHTD.M        103.632              : BHTDEP       - MAXIMUM RECORDED TEMPERATURE
RMT .C        -1.11111             : MDTP         - TEMPERATURE OF MUD
MUDD.KG/M     8900                 : MWT          - MUD DENSITY
NEUT.         1                    : NEUTRON      - NEUTRON TYPE
RESI.         0                    : RESIST       - RESISTIVITY TYPE
RM  .OHMM     3.69                 : RM           - RESISTIVITY OF MUD
RMC .OHMM     3.69                 : RMC          - RESISTIVITY OF MUD CAKE
RMF .OHMM     0                    : RMF          - RESISTIVITY OF MUD FILTRATE
SUFT.C        -15                  : SUFT         - SURFACE TEMPERATURE
BTZC.MM       0                    : BITZC        - BIT SIZE CONSTANT
MDW .KG/M     0                    : MDW          - MUD WEIGHT
~A  DEPTH       GR      CAL     PHIN     PHID     RESD
# ...
  373.000  120.886  158.266    0.551    0.278    2.818
  373.250  122.152  148.185    0.535    0.277    2.880
  373.500  121.519  147.177    0.526    0.268    2.880
  373.750  119.748  157.258    0.516    0.257    3.007
  374.000  117.857  157.258    0.489    0.259    3.208
  374.250  107.773  156.250    0.467    0.262    3.731
  374.500  104.622  155.242    0.477    0.255    4.532
  374.750  101.471  155.242    0.465    0.239    5.746
  375.000   92.647  154.234    0.387    0.187    7.131
  375.250   79.412  155.242    0.298    0.126    8.849
  375.500   80.042  156.250    0.356    0.165    9.647
  375.750   90.756  157.258    0.443    0.204   10.072
  376.000   94.538  157.258    0.447    0.210    9.647
  376.250   96.429  158.266    0.453    0.226    8.849
  376.500   97.059  158.266    0.478    0.259    8.294
  376.750  103.361  158.266    0.478    0.265    7.943
  377.000  108.403  158.266    0.479    0.249    7.774
  377.250  110.924  158.266    0.484    0.249    7.445
  377.500  103.992  158.266    0.452    0.291    7.131
  377.750   96.429  159.274    0.447    0.282    6.829
  378.000  101.471  159.274    0.477    0.243    6.829
  378.250  107.773  159.274    0.486    0.235    6.829
  378.500  112.185  159.274    0.479    0.235    6.683
  378.750  114.076  159.274    0.474    0.235    6.683
  379.000  111.555  159.274    0.482    0.247    6.683
  379.250  108.403  159.274    0.491    0.268    6.541
  379.500  104.622  159.274    0.492    0.291    6.829
  379.750   96.429  160.282    0.496    0.297    7.131
  380.000   87.605  160.282    0.497    0.296    9.042
  380.250   76.261  160.282    0.465    0.252    9.647
  380.500   68.697  160.282    0.358    0.156   12.499
  380.750   65.546  160.282    0.283    0.059   16.909
  381.000   67.437  160.282    0.248    0.070   19.248
  381.250   69.328  160.282    0.270    0.113   17.278
  381.500   73.739  161.290    0.356    0.209   11.715
  381.750   80.042  161.290    0.538    0.281    6.978
  382.000   90.126  161.290    0.532    0.272    6.000
  382.250   96.429  161.290    0.560    0.257    5.158
  382.500  107.143  161.290    0.552    0.240    4.435
  382.750  116.597  161.290    0.562    0.235    3.813
  383.000  117.857  161.290    0.565    0.235    3.813
  383.250  117.227  162.298    0.566    0.236    3.896
  383.500  119.118  162.298    0.562    0.236    3.981
  383.750  115.966  162.298    0.543    0.233    4.340
  384.000  112.185  162.298    0.511    0.228    4.532
  384.250  112.185  162.298    0.477    0.228    4.835
  384.500  112.185  162.298    0.503    0.231    5.271
  384.750  112.815  161.290    0.542    0.231    5.746
  385.000  112.815  161.290    0.550    0.229    6.131
  385.250  112.185  161.290    0.539    0.199    6.264
  385.500   97.689  161.290    0.350    0.129    6.541
  385.750   75.000  161.290    0.286    0.034    6.683
  386.000   61.134  160.282    0.353    0.058    6.829
  386.250   79.114  160.282    0.403    0.201    6.978
  386.500   99.367  160.282    0.509    0.223    7.131
  386.750  105.696  160.282    0.503    0.242    7.286
  387.000  104.430  160.282    0.468    0.257    7.445
  387.250  102.532  159.274    0.462    0.254    7.445
  387.500  102.532  159.274    0.477    0.245    7.608
  387.750  104.430  159.274    0.478    0.242    7.943
  388.000  106.962  159.274    0.478    0.242    8.475
  388.250  107.595  159.274    0.486    0.247    8.660
  388.500  103.165  158.266    0.486    0.239    8.660
  388.750   96.835  158.266    0.460    0.213    8.849
  389.000   91.772  158.266    0.436    0.214    8.849
  389.250   89.241  158.266    0.439    0.248    9.042
  389.500   89.873  157.258    0.448    0.265    9.042
  389.750   93.038  157.258    0.436    0.253    9.239
  390.000   93.038  157.258    0.396    0.228    8.660
  390.250   85.443  157.258    0.393    0.178    8.294
  390.500   87.342  157.258    0.430    0.204    7.943
  390.750   94.937  156.250    0.432    0.242    7.608
  391.000   98.734  156.250    0.430    0.241    7.286
  391.250   98.734  156.250    0.464    0.253    6.978
  391.500  103.165  156.250    0.474    0.275    6.683
  391.750  100.633  155.242    0.478    0.295    6.683
  392.000   91.139  155.242    0.493    0.306    6.978
  392.250   82.278  155.242    0.498    0.311    7.286
  392.500   81.646  155.242    0.501    0.288    7.608
  392.750   88.608  155.242    0.507    0.254    7.774
  393.000  100.000  154.234    0.519    0.248    6.829
  393.250  112.025  154.234    0.522    0.253    6.000
  393.500  114.557  155.242    0.518    0.263    5.271
  393.750  117.089  153.226    0.535    0.267    4.630
  394.000  117.089  153.226    0.551    0.272    4.532
  394.250  110.759  154.234    0.528    0.258    5.158
  394.500   98.101  154.234    0.496    0.236    6.264
  394.750   80.380  154.234    0.493    0.233    7.131
  395.000   81.013  155.242    0.492    0.304    7.608
  395.250   84.177  155.242    0.487    0.308    8.660
  395.500   85.443  155.242    0.494    0.306    8.849
  395.750   88.608  156.250    0.497    0.297    9.239
  396.000   91.772  156.250    0.478    0.284    9.647
  396.250   96.203  156.250    0.459    0.265    9.857
  396.500  102.532  157.258    0.474    0.243    9.647
  396.750  104.430  157.258    0.507    0.241    8.849
  397.000  106.962  157.258    0.526    0.251    8.294
  397.250  106.329  157.258    0.527    0.256    7.608
  397.500  106.329  158.266    0.514    0.250    7.131
  397.750  106.962  158.266    0.519    0.245    6.264
  398.000  106.962  153.226    0.512    0.246    6.000
  398.250  105.063  153.226    0.492    0.250    6.000
  398.500  104.430  154.234    0.498    0.260    6.264
  398.750  104.237  154.234    0.493    0.265    6.541
  399.000   99.788  154.234    0.465    0.258    6.978
  399.250   97.246  157.258    0.463    0.216    7.286
  399.500   99.153  157.258    0.469    0.214    7.608
  399.750  104.873  157.258    0.477    0.216    8.117
  400.000  111.864  157.258    0.478    0.224    8.475
  400.250  114.407  157.258    0.474    0.232    8.475
  400.500  111.229  157.258    0.469    0.237    8.660
  400.750  108.686  157.258    0.470    0.233    8.660
  401.000  109.322  157.258    0.473    0.226    8.117
  401.250  108.686  158.266    0.480    0.227    7.445
  401.500  110.593  160.282    0.488    0.232    6.978
  401.750  112.500  163.306    0.488    0.227    6.683
  402.000  112.500  163.306    0.499    0.226    6.264
  402.250  114.407  163.306    0.507    0.219    5.623
  402.500  114.407  163.306    0.503    0.211    5.386
  402.750  118.220  162.298    0.518    0.212    5.158
  403.000  121.398  162.298    0.553    0.219    4.940
  403.250  127.754  162.298    0.556    0.224    4.940
  403.500  130.932  162.298    0.556    0.217    4.940
  403.750  127.754  162.298    0.541    0.190    4.835
  404.000  119.492  161.290    0.479    0.120    4.835
  404.250   99.788  161.290    0.359    0.025    5.623
  404.500   67.373  161.290    0.262    0.030    7.943
  404.750   59.110  161.290    0.253    0.073   10.292
  405.000   70.551  161.290    0.465    0.125   11.220
  405.250   95.975  161.290    0.526    0.178   11.715
  405.500  117.585  160.282    0.514    0.190   10.072
  405.750  126.483  160.282    0.485    0.209    7.774
  406.000  121.398  160.282    0.449    0.213    8.475
  406.250  119.492  160.282    0.431    0.211    9.239
  406.500  125.212  160.282    0.418    0.204   10.292
  406.750  130.297  159.274    0.408    0.204   10.746
  407.000  123.305  159.274    0.403    0.217   11.715
  407.250  116.314  159.274    0.412    0.224   13.050
  407.500  113.136  159.274    0.418    0.218   14.538
  407.750  114.407  159.274    0.403    0.188   14.538
  408.000  113.136  158.266    0.392    0.182   14.538
  408.250  108.686  158.266    0.389    0.195   14.538
  408.500  108.051  158.266    0.396    0.211   14.538
  408.750  113.771  158.266    0.429    0.216   13.335
  409.000  116.456  158.266    0.450    0.214   12.232
  409.250  118.354  158.266    0.469    0.213   11.465
