~VERSION INFORMATION
 VERS.                 2.0:   CWLS LOG ASCII STANDARD -VERSION 2.0
 WRAP.                  NO:   ONE LINE PER DEPTH STEP
~WELL INFORMATION BLOCK
#MNEM.UNIT           DATA                    DESCRIPTION OF MNEMONIC
#---------    -------------------            -------------------------------
# Generated from Intellog Unique Number	CS_73_76/WELL/3236
WELL.         PACIFIC KIRBY                  : Well_name    - WELL
LOC .         00/10-16-075-06W4/0            : Location     - LOCATION
UWI .         00/10-16-075-06W4/0            : Uwi          - UNIQUE WELL ID
ENTR.         SP                             : Entered      - ENTERED BY
SRVC.         SCHLUMBERGER                   : Scn          - SERVICE COMPANY
STRT.M        230                            : top_depth    - START DEPTH
STOP.M        493                            : bot_depth    - STOP DEPTH
STEP.M        0.25                           : increment    - STEP LENGTH
 NULL. -999.2500:NULL Value
~CURVE INFORMATION BLOCK
#MNEM UNIT       ERCB CURVE CODE    CURVE DESCRIPTION
#-----------   ------------------   ----------------------------------
DEPT.M        00 001 00 00         : DEPTH        - DEPTH
GR  .API      00 310 00 00         : GR           - GAMMA RAY
NPHI.V/V      00 330 00 00         : PHIN         - NEUTRON POROSITY (LIMESTONE)
DPHI.V/V      00 890 00 00         : PHID         - DENSITY POROSITY (LIMESTONE)
ILD .OHMM     00 120 00 00         : RESD         - DEEP RESISTIVITY (DIL)
~PARAMETER INFORMATION
#MNEM.UNIT           DATA             DESCRIPTION OF MNEMONIC
#---------         -----------     ------------------------------
GL  .M        621.4                : gl           - GROUND LEVEL ELEVATION
EREF.M        625.6                : kb           - ELEVATION OF DEPTH REFERENCE
DATM.M        621.4                : datum        - DATUM ELEVATION
TDD .M        490                  : tdd          - TOTAL DEPTH DRILLER
RUN .         ONE                  : Run          - RUN NUMBER
ENG .         BILL                 : Engineer     - RECORDING ENGINEER
WIT .         JIM                  : Witness      - WITNESSED BY
MUD .         GEL                  : Mud_type     - MUD TYPE
MATR.         LIMESTONE            : Logunit      - NEUTRON MATRIX
TMAX.C        22                   : BHT          - MAXIMUM RECORDED TEMPERATURE
BHTD.M        490                  : BHTDEP       - MAXIMUM RECORDED TEMPERATURE
MATR.         1                    : LOGUNIT      - NEUTRON MATRIX
RMT .C        25                   : MDTP         - TEMPERATURE OF MUD
NEUT.         1                    : NEUTRON      - NEUTRON TYPE
RESI.         0                    : RESIST       - RESISTIVITY TYPE
RMC .OHMM     0.25                 : RMC          - RESISTIVITY OF MUD CAKE
RMF .OHMM     0.25                 : RMF          - RESISTIVITY OF MUD FILTRATE
SUFT.C        15                   : SUFT         - SURFACE TEMPERATURE
~A  DEPTH       GR     PHIN     PHID     RESD
  230.000  102.627    0.550    0.221    3.523
  230.250  111.121    0.546    0.207    3.655
  230.500  112.327    0.540    0.226    3.655
  230.750  110.498    0.535    0.221    3.588
  231.000  108.667    0.536    0.209    3.521
  231.250  108.049    0.548    0.216    3.456
  231.500  107.435    0.555    0.211    3.456
  231.750  105.606    0.565    0.213    3.520
  232.000  105.598    0.545    0.217    3.653
  232.250  106.805    0.526    0.204    3.720
  232.500  108.013    0.542    0.214    3.860
  232.750  111.041    0.552    0.215    3.789
  233.000  113.462    0.563    0.194    3.719
  233.250  114.669    0.557    0.177    3.651
  233.500  113.446    0.533    0.197    3.517
  233.750  112.223    0.545    0.221    3.389
  234.000  109.785    0.543    0.228    3.327
  234.250  106.742    0.527    0.209    3.326
  234.500  102.480    0.536    0.203    3.388
  234.750  101.261    0.541    0.205    3.388
  235.000   98.215    0.537    0.191    3.581
  235.250   96.385    0.530    0.186    3.785
  235.500   98.199    0.504    0.169    4.309
  235.750   97.584    0.463    0.215    5.481
  236.000   95.146    0.423    0.239    7.235
  236.250   95.140    0.406    0.233    9.550
  236.500   96.346    0.392    0.225   11.492
  236.750   99.981    0.400    0.215   12.606
  237.000  101.188    0.419    0.213   13.574
  237.250  101.788    0.426    0.241   14.084
  237.500  100.563    0.434    0.252   15.165
  237.750   98.127    0.443    0.265   16.329
  238.000   96.297    0.430    0.272   16.944
  238.250   96.290    0.434    0.261   17.259
  238.500   97.497    0.419    0.243   17.580
  238.750  102.952    0.411    0.214   16.628
  239.000  107.801    0.417    0.218   15.728
  239.250  110.832    0.419    0.235   15.154
  239.500  109.002    0.412    0.212   15.152
  239.750  101.100    0.396    0.229   15.150
  240.000   95.626    0.402    0.246   15.432
  240.250   91.368    0.415    0.257   15.719
  240.500   85.287    0.425    0.260   16.311
  240.750   79.207    0.429    0.257   17.563
  241.000   74.341    0.399    0.257   18.911
  241.250   73.723    0.393    0.263   19.989
  241.500   71.287    0.410    0.275   20.741
  241.750   69.458    0.418    0.285   21.126
  242.000   70.058    0.434    0.287   21.124
  242.250   74.300    0.434    0.272   21.122
  242.500   80.360    0.429    0.257   20.732
  242.750   81.570    0.427    0.247   19.609
  243.000   82.171    0.427    0.245   18.548
  243.250   83.984    0.430    0.237   17.544
  243.500   88.225    0.434    0.237   16.904
  243.750   91.859    0.434    0.231   16.902
  244.000   93.675    0.422    0.228   16.900
  244.250   90.022    0.414    0.246   17.535
  244.500   87.588    0.420    0.263   18.536
  244.750   82.721    0.423    0.265   19.592
  245.000   85.140    0.422    0.262   19.590
  245.250   86.955    0.417    0.268   17.856
  245.500   89.984    0.421    0.279   15.977
  245.750   96.048    0.419    0.249   13.030
  246.000  113.045    0.437    0.207   10.432
  246.250  118.503    0.450    0.199    8.995
  246.500  116.065    0.460    0.198    7.613
  246.750  111.806    0.442    0.194    6.939
  247.000  107.548    0.431    0.189    6.939
  247.250  103.895    0.420    0.188    7.471
  247.500  102.065    0.418    0.189    8.825
  247.750  100.236    0.434    0.204    9.680
  248.000   95.977    0.447    0.245   10.817
  248.250   88.075    0.450    0.271   13.016
  248.500   81.387    0.450    0.303   14.816
  248.750   84.413    0.448    0.274   15.373
  249.000   92.300    0.443    0.237   15.371
  249.250   97.760    0.429    0.226   15.370
  249.500   86.820    0.416    0.220   15.655
  249.750   75.880    0.406    0.216   15.947
  250.000   74.657    0.394    0.229   16.546
  250.250   74.651    0.409    0.233   16.854
  250.500   75.251    0.412    0.233   15.941
  250.750   80.099    0.411    0.186   15.079
  251.000   88.594    0.414    0.154   13.491
  251.250  101.337    0.435    0.119   10.604
  251.500  114.083    0.454    0.130    8.181
  251.750  118.323    0.475    0.135    6.550
  252.000  120.744    0.488    0.133    5.753
  252.250  125.596    0.483    0.156    5.148
  252.500  129.233    0.501    0.184    4.692
  252.750  131.652    0.511    0.174    4.521
  253.000  130.431    0.506    0.165    4.276
  253.250  130.421    0.500    0.170    3.970
  253.500  131.629    0.534    0.196    3.755
  253.750  135.261    0.533    0.191    3.487
  254.000  135.865    0.534    0.199    3.298
  254.250  124.315    0.538    0.199    3.237
  254.500  117.630    0.541    0.219    3.617
  254.750  102.440    0.547    0.229    5.142
  255.000   90.895    0.521    0.236    6.915
  255.250   86.027    0.479    0.219    8.960
  255.500   85.413    0.436    0.227   10.782
  255.750   82.976    0.408    0.235   11.827
  256.000   78.718    0.412    0.261   12.272
  256.250   76.281    0.419    0.259   12.270
  256.500   76.270    0.402    0.231   12.498
  256.750   75.657    0.417    0.235   13.211
  257.000   65.931    0.424    0.259   13.964
  257.250   58.636    0.419    0.270   14.489
  257.500   61.059    0.405    0.253   14.487
  257.750   68.945    0.399    0.257   14.220
  258.000   79.864    0.409    0.271   13.701
  258.250   84.716    0.416    0.265   13.202
  258.500   91.385    0.427    0.256   12.487
  258.750   92.596    0.421    0.241   11.811
  259.000   96.231    0.420    0.218   10.966
  259.250   97.435    0.420    0.205   10.567
  259.500   97.428    0.428    0.191    9.995
  259.750   96.812    0.434    0.184    9.630
  260.000   96.200    0.443    0.182    9.109
  260.250   94.367    0.417    0.166    8.777
  260.500   94.362    0.405    0.151    8.301
  260.750   96.780    0.425    0.200    7.999
  261.000   98.597    0.433    0.205    7.707
  261.250   99.803    0.443    0.219    7.706
  261.500   99.184    0.450    0.234    8.453
  261.750   98.570    0.438    0.247    8.935
  262.000   97.955    0.448    0.258   10.170
  262.250   96.734    0.449    0.262   11.577
  262.500   96.120    0.446    0.286   12.698
  262.750   98.541    0.461    0.292   13.176
  263.000   99.138    0.468    0.285   13.672
  263.250   97.308    0.472    0.289   14.186
  263.500   93.050    0.467    0.284   14.450
  263.750   86.969    0.459    0.277   14.718
  264.000   82.102    0.436    0.265   14.992
  264.250   81.485    0.403    0.262   14.715
  264.500   80.872    0.399    0.266   14.714
  264.750   80.256    0.402    0.268   14.442
  265.000   77.822    0.403    0.261   14.440
  265.250   83.278    0.402    0.249   14.174
  265.500   88.125    0.408    0.239   13.913
  265.750   88.728    0.409    0.228   13.911
  266.000   86.288    0.401    0.211   13.654
  266.250   83.245    0.400    0.215   13.653
  266.500   83.235    0.398    0.225   13.650
  266.750   83.230    0.389    0.233   13.904
  267.000   80.185    0.382    0.224   13.903
  267.250   77.749    0.382    0.222   14.161
  267.500   78.954    0.384    0.227   14.161
  267.750   77.126    0.384    0.234   14.423
  268.000   76.511    0.394    0.241   14.421
  268.250   75.893    0.405    0.248   14.690
  268.500   74.671    0.406    0.254   14.963
  268.750   72.843    0.412    0.255   15.240
  269.000   71.014    0.417    0.258   15.239
  269.250   67.968    0.406    0.260   15.522
  269.500   70.389    0.401    0.249   15.521
  269.750   86.777    0.408    0.229   14.681
  270.000   97.701    0.418    0.214   13.135
  270.250  104.373    0.436    0.204   12.196
  270.500  106.187    0.448    0.229   11.324
  270.750  101.317    0.445    0.238   11.115
  271.000   98.276    0.430    0.221   11.748
  271.250   95.232    0.427    0.207   12.418
  271.500   92.187    0.421    0.234   12.886
  271.750   91.571    0.399    0.242   13.125
  272.000   90.349    0.387    0.251   13.123
  272.250   98.236    0.401    0.236   12.645
  272.500  104.299    0.405    0.231   11.525
  272.750  103.684    0.406    0.223   10.902
  273.000  103.070    0.407    0.209    9.754
  273.250  114.598    0.410    0.194    9.057
