~VERSION INFORMATION
 VERS.                 2.0:   CWLS LOG ASCII STANDARD -VERSION 2.0
 WRAP.                  NO:   ONE LINE PER DEPTH STEP
~WELL INFORMATION BLOCK
#MNEM.UNIT           DATA                    DESCRIPTION OF MNEMONIC
#---------    -------------------            -------------------------------
# Generated from Intellog Unique Number	CS_73_76/WELL/4864
WELL.         ALBERTA ENERGY CO.LTD.         : Well_name    - WELL
LOC .         00/12-36-072-03W4/0            : Location     - LOCATION
UWI .         00/12-36-072-03W4/0            : Uwi          - UNIQUE WELL ID
ENTR.         JOETTE                         : Entered      - ENTERED BY
SRVC.         SCHLUMBERGER                   : Scn          - SERVICE COMPANY
DATE.         05/13/92                       : Date         - LOG DATE
STRT.M        345                            : top_depth    - START DEPTH
STOP.M        575                            : bot_depth    - STOP DEPTH
STEP.M        0.25                           : increment    - STEP LENGTH
 NULL. -999.2500:NULL Value
~CURVE INFORMATION BLOCK
#MNEM UNIT       ERCB CURVE CODE    CURVE DESCRIPTION
#-----------   ------------------   ----------------------------------
DEPT.M        00 001 00 00         : DEPTH        - DEPTH
ILD .OHMM     00 120 00 00         : RESD         - DEEP RESISTIVITY (DIL)
DPHI.V/V      00 890 00 00         : PHID         - DENSITY POROSITY (SANDSTONE)
NPHI.V/V      00 330 00 00         : PHIN         - NEUTRON POROSITY (SANDSTONE)
GR  .API      00 310 00 00         : GR           - GAMMA RAY
CALI.MM       00 280 01 00         : CAL          - CALIPER
~PARAMETER INFORMATION
#MNEM.UNIT           DATA             DESCRIPTION OF MNEMONIC
#---------         -----------     ------------------------------
GL  .M        698.81               : gl           - GROUND LEVEL ELEVATION
EREF.M        702.22               : kb           - ELEVATION OF DEPTH REFERENCE
DATM.M        702.22               : datum        - DATUM ELEVATION
TDD .M        588                  : tdd          - TOTAL DEPTH DRILLER
RUN .         ONE                  : Run          - RUN NUMBER
ENG .         BILL                 : Engineer     - RECORDING ENGINEER
WIT .         JIM                  : Witness      - WITNESSED BY
MUD .         GEL                  : Mud_type     - MUD TYPE
MATR.         SANDSTONE            : Logunit      - NEUTRON MATRIX
TMAX.C        30                   : BHT          - MAXIMUM RECORDED TEMPERATURE
BHTD.M        588                  : BHTDEP       - MAXIMUM RECORDED TEMPERATURE
MATR.         1                    : LOGUNIT      - NEUTRON MATRIX
RMT .C        12                   : MDTP         - TEMPERATURE OF MUD
NEUT.         1                    : NEUTRON      - NEUTRON TYPE
RESI.         0                    : RESIST       - RESISTIVITY TYPE
RMC .OHMM     2.7                  : RMC          - RESISTIVITY OF MUD CAKE
RMF .OHMM     2.6                  : RMF          - RESISTIVITY OF MUD FILTRATE
SUFT.C        15                   : SUFT         - SURFACE TEMPERATURE
~A  DEPTH     RESD     PHID     PHIN       GR      CAL
# ...
  454.500    6.155    0.249    0.461   80.205  147.159
  454.750    5.715    0.248    0.440   78.481  148.020
  455.000    5.306    0.240    0.478   73.797  148.065
  455.250    5.116    0.243    0.501   65.587  148.154
  455.500    5.024    0.266    0.523   66.811  148.184
  455.750    5.219    0.285    0.516   71.573  148.244
  456.000    5.422    0.284    0.516   72.797  148.304
  456.250    5.960    0.286    0.525   72.264  148.378
  456.500    6.676    0.292    0.537   70.540  148.438
  456.750    6.934    0.300    0.535   68.215  148.483
  457.000    7.344    0.308    0.548   65.912  148.543
  457.250    7.211    0.314    0.555   64.188  148.618
  457.500    6.570    0.320    0.547   63.065  148.677
  457.750    3.748    0.309    0.545   64.278  148.737
  458.000    2.832    0.296    0.555   68.450  148.797
  458.250    2.349    0.244    0.533   73.223  148.857
  458.500    2.181    0.237    0.547   73.268  149.703
  458.750    2.225    0.249    0.591   79.788  150.549
  459.000    2.356    0.260    0.654   88.700  151.409
  459.250    2.447    0.264    0.666   89.346  151.454
  459.500    2.639    0.269    0.652   88.801  151.544
  459.750    2.742    0.257    0.644   88.846  151.574
  460.000    2.796    0.244    0.653   88.868  150.847
  460.250    2.799    0.230    0.644   90.682  150.121
  460.500    2.854    0.228    0.622   96.623  150.181
  460.750    2.965    0.226    0.596  100.217  149.484
  461.000    3.023    0.227    0.572   99.083  148.743
  461.250    3.387    0.231    0.554   96.780  148.031
  461.500    3.517    0.233    0.570   99.172  148.076
  461.750    3.793    0.234    0.583   98.627  148.136
  462.000    4.329    0.232    0.591   96.903  148.211
  462.250    5.034    0.232    0.592   95.190  148.255
  462.500    5.531    0.235    0.586   95.235  148.330
  462.750    6.079    0.266    0.578   90.552  148.375
  463.000    6.199    0.278    0.574   80.572  148.450
  463.250    6.440    0.296    0.587   75.900  148.495
  463.500    6.568    0.316    0.569   74.777  148.554
  463.750    6.696    0.347    0.560   74.822  147.843
  464.000    6.701    0.367    0.588   72.497  147.101
  464.250    6.708    0.367    0.592   64.876  146.390
  464.500    6.838    0.379    0.611   60.192  145.693
  464.750    6.844    0.375    0.596   56.132  144.937
  465.000    6.978    0.364    0.584   56.154  145.012
  465.250    7.118    0.355    0.582   53.841  145.057
  465.500    7.258    0.353    0.563   52.706  145.116
  465.750    7.263    0.356    0.512   55.722  145.191
  466.000    7.547    0.358    0.508   57.535  145.236
  466.250    7.696    0.362    0.489   56.401  145.326
  466.500    7.995    0.355    0.500   55.267  145.356
  466.750    8.305    0.348    0.520   57.659  145.445
  467.000    8.629    0.342    0.522   58.894  145.475
  467.250    9.308    0.341    0.520   54.222  145.535
  467.500   10.425    0.347    0.521   53.076  145.639
  467.750   11.893    0.350    0.526   55.491  144.898
  468.000   13.827    0.352    0.531   59.663  144.973
  468.250   17.011    0.346    0.517   60.887  145.003
  468.500   18.005    0.324    0.349   62.712  145.077
  468.750   17.684    0.306    0.313   63.347  145.152
  469.000   16.115    0.243    0.284   58.663  145.197
  469.250   14.412    0.108    0.262   51.632  145.242
  469.500   12.650    0.103    0.258   52.278  146.133
  469.750   10.498    0.158    0.272   54.670  146.147
  470.000    9.043    0.108    0.198   51.767  146.207
  470.250    8.395   -0.003    0.173   46.505  146.267
  470.500    7.798    0.006    0.262   40.063  146.327
  470.750    7.801    0.111    0.396   44.236  147.203
  471.000    7.956    0.296    0.478   53.715  147.262
  471.250    7.960    0.333    0.512   65.564  147.322
  471.500    7.968    0.335    0.503   68.557  148.168
  471.750    7.827    0.332    0.462   63.295  148.213
  472.000    7.686    0.334    0.464   59.813  148.273
  472.250    7.548    0.341    0.476   58.679  148.333
  472.500    7.415    0.350    0.503   59.313  148.392
  472.750    7.420    0.346    0.511   62.885  148.452
  473.000    7.427    0.347    0.524   65.878  148.527
  473.250    7.572    0.349    0.521   62.385  148.587
  473.500    7.578    0.348    0.486   66.557  147.845
  473.750    7.582    0.337    0.423   70.151  147.935
  474.000    7.588    0.305    0.416   68.427  147.208
  474.250    7.593    0.226    0.462   64.344  147.283
  474.500    7.602    0.190    0.490   62.041  147.313
  474.750    7.466    0.277    0.510   60.896  147.388
  475.000    7.333    0.299    0.517   59.761  147.448
  475.250    7.201    0.323    0.520   59.217  147.507
  475.500    7.073    0.313    0.527   60.441  147.567
  475.750    6.819    0.315    0.529   65.792  147.627
  476.000    6.696    0.313    0.516   63.490  147.687
  476.250    6.219    0.276    0.506   62.344  147.731
  476.500    5.993    0.251    0.510   67.696  147.791
  476.750    5.779    0.252    0.511   74.238  147.851
  477.000    5.675    0.256    0.497   79.011  147.956
  477.250    5.681    0.246    0.496   80.224  148.000
  477.500    5.790    0.241    0.501   82.038  148.831
  477.750    6.131    0.257    0.504   85.632  148.906
  478.000    6.370    0.268    0.507   83.908  148.966
  478.250    6.494    0.282    0.515   80.993  149.011
  478.500    6.622    0.288    0.532   76.332  149.071
  478.750    6.627    0.294    0.514   72.839  149.130
  479.000    6.509    0.300    0.504   71.103  149.205
  479.250    6.393    0.309    0.498   68.200  149.265
  479.500    6.162    0.308    0.493   66.476  149.310
  479.750    5.723    0.310    0.484   66.532  149.399
  480.000    5.313    0.309    0.471   67.155  149.429
  480.250    4.933    0.307    0.474   68.402  149.519
  480.500    4.581    0.297    0.467   69.615  149.594
  480.750    4.253    0.284    0.451   70.839  148.837
  481.000    3.876    0.275    0.449   73.265  148.912
  481.250    3.667    0.268    0.456   74.478  148.972
  481.500    3.405    0.273    0.474   76.881  149.046
  481.750    3.281    0.280    0.548   79.874  149.076
  482.000    3.047    0.283    0.596   79.930  149.952
  482.250    2.992    0.276    0.608   81.733  150.768
  482.500    3.053    0.266    0.610   84.726  151.629
  482.750    3.230    0.262    0.608   87.129  151.674
  483.000    3.618    0.261    0.613   87.174  152.520
  483.250    4.127    0.250    0.594   84.860  152.610
  483.500    4.799    0.237    0.568   84.327  151.868
  483.750    5.375    0.237    0.532   87.898  151.172
  484.000    5.181    0.233    0.493   90.891  151.202
  484.250    4.900    0.223    0.497   86.219  150.490
  484.500    4.636    0.225    0.524   80.968  149.779
  484.750    4.226    0.228    0.529   82.771  149.808
  485.000    4.150    0.228    0.532   84.006  149.883
  485.250    4.076    0.225    0.527   84.051  149.928
  485.500    4.157    0.221    0.545   84.096  150.018
  485.750    4.318    0.219    0.528   87.678  150.048
  486.000    4.837    0.220    0.514   86.555  150.122
  486.250    5.317    0.217    0.477   85.421  151.740
  486.500    5.419    0.213    0.457   78.979  153.387
  486.750    5.426    0.209    0.441   77.244  155.034
  487.000    5.327    0.223    0.447   78.468  155.094
  487.250    5.135    0.229    0.456   79.103  153.596
  487.500    4.594    0.223    0.493   79.737  152.854
  487.750    4.345    0.218    0.530   80.972  152.914
  488.000    4.110    0.216    0.543   82.208  153.760
  488.250    3.678    0.212    0.529   84.611  153.820
  488.500    3.478    0.211    0.515   88.194  150.735
  488.750    3.353    0.209    0.524   90.586  150.780
  489.000    3.549    0.210    0.520   90.041  150.068
  489.250    3.900    0.215    0.526   87.739  150.128
  489.500    4.707    0.224    0.540   89.541  150.173
  489.750    5.791    0.228    0.491   91.945  150.263
  490.000    6.365    0.242    0.406   89.631  150.307
  490.250    6.370    0.268    0.350   80.831  151.183
  490.500    6.139    0.286    0.350   68.493  151.228
  490.750    6.146    0.273    0.390   68.538  151.273
