~VERSION INFORMATION
 VERS.                 2.0:   CWLS LOG ASCII STANDARD -VERSION 2.0
 WRAP.                  NO:   ONE LINE PER DEPTH STEP
~WELL INFORMATION BLOCK
#MNEM.UNIT           DATA                    DESCRIPTION OF MNEMONIC
#---------    -------------------            -------------------------------
# Generated from Intellog Unique Number	CS_73_76/WELL/2023
WELL.         10-22-076-03W4                 : Well_name    - WELL
LOC .         00/10-22-076-03W4/0            : Location     - LOCATION
UWI .         00/10-22-076-03W4/0            : Uwi          - UNIQUE WELL ID
ENTR.         JO                             : Entered      - ENTERED BY
SRVC.         SCHLUMBERGER                   : Scn          - SERVICE COMPANY
DATE.         05/25/92                       : Date         - LOG DATE
STRT.M        259.08                         : top_depth    - START DEPTH
STOP.M        524.33                         : bot_depth    - STOP DEPTH
STEP.M        0.25                           : increment    - STEP LENGTH
 NULL. -999.2500:NULL Value
~CURVE INFORMATION BLOCK
#MNEM UNIT       ERCB CURVE CODE    CURVE DESCRIPTION
#-----------   ------------------   ----------------------------------
DEPT.M        00 001 00 00         : DEPTH        - DEPTH
GR  .API      00 310 00 00         : GR           - GAMMA RAY
DPHI.V/V      00 890 00 00         : PHID         - DENSITY POROSITY (SANDSTONE)
ILD .OHMM     00 120 00 00         : RESD         - DEEP RESISTIVITY (DIL)
~PARAMETER INFORMATION
#MNEM.UNIT           DATA             DESCRIPTION OF MNEMONIC
#---------         -----------     ------------------------------
GL  .M        632.155              : gl           - GROUND LEVEL ELEVATION
EREF.M        634.594              : kb           - ELEVATION OF DEPTH REFERENCE
DATM.M        634.594              : datum        - DATUM ELEVATION
TDD .M        526.694              : tdd          - TOTAL DEPTH DRILLER
RUN .         ONE                  : Run          - RUN NUMBER
ENG .         BILL                 : Engineer     - RECORDING ENGINEER
WIT .         JIM                  : Witness      - WITNESSED BY
MUD .         GEL                  : Mud_type     - MUD TYPE
MATR.         SANDSTONE            : Logunit      - NEUTRON MATRIX
TMAX.C        25                   : BHT          - MAXIMUM RECORDED TEMPERATURE
BHTD.M        526.694              : BHTDEP       - MAXIMUM RECORDED TEMPERATURE
MATR.         1                    : LOGUNIT      - NEUTRON MATRIX
RMT .C        15.5556              : MDTP         - TEMPERATURE OF MUD
NEUT.         1                    : NEUTRON      - NEUTRON TYPE
RESI.         0                    : RESIST       - RESISTIVITY TYPE
RMC .OHMM     4.66                 : RMC          - RESISTIVITY OF MUD CAKE
RMF .OHMM     5.44                 : RMF          - RESISTIVITY OF MUD FILTRATE
SUFT.C        15                   : SUFT         - SURFACE TEMPERATURE
~A  DEPTH       GR     PHID     RESD
# ...
  313.330   67.385    0.134    8.382
  313.580   66.729    0.134    8.072
  313.830   65.477    0.129    8.066
  314.080   63.022    0.126    7.632
  314.330   59.941    0.121    7.489
  314.580   57.456    0.120    7.215
  314.830   56.820    0.119    7.598
  315.080   54.346    0.119    8.289
  315.330   53.719    0.119    9.372
  315.580   55.498    0.120   10.975
  315.830   59.095    0.120   11.762
  316.080   60.257    0.120   11.539
  316.330   58.995    0.120   12.808
  316.580   58.955    0.120   12.344
  316.830   60.117    0.123   12.109
  317.080   58.874    0.124   12.746
  317.330   55.197    0.124   13.426
  317.580   50.308    0.118   11.843
  317.830   46.015    0.112   10.079
  318.080   45.379    0.107   14.864
  318.330   49.582    0.108   21.912
  318.580   56.209    0.109   28.035
  318.830   60.413    0.113   14.277
  319.080   64.606    0.112    8.234
  319.330   63.969    0.107    7.257
  319.580   54.827    0.107    8.206
  319.830   51.756    0.106   11.269
  320.080   54.131    0.106   15.477
  320.330   55.919    0.108   18.130
  320.580   57.698    0.110   21.996
  320.830   59.476    0.113   27.163
  321.080   60.638    0.117   29.622
  321.330   59.386    0.118   27.072
  321.580   56.295    0.117   26.100
  321.830   55.659    0.116   23.014
  322.080   55.013    0.116   19.945
  322.330   54.367    0.116   18.884
  322.580   56.761    0.118   21.328
  322.830   57.327    0.120   20.210
  323.080   55.459    0.123   16.595
  323.330   54.196    0.126   15.172
  323.580   54.146    0.127   13.866
  323.830   54.116    0.122   13.597
  324.080   53.460    0.116   15.374
  324.330   52.834    0.111   15.076
  324.580   53.390    0.109   15.596
  324.830   55.775    0.110   18.921
  325.080   55.128    0.109   17.916
  325.330   53.876    0.104   13.006
  325.580   53.836    0.100   11.469
  325.830   55.614    0.099   11.250
  326.080   57.393    0.099   11.233
  326.330   58.545    0.101   11.413
  326.580   59.121    0.099   11.396
  326.830   59.071    0.100   11.175
  327.080   59.647    0.103   10.962
  327.330   58.385    0.108   10.569
  327.580   57.123    0.113    9.651
  327.830   55.880    0.113    9.142
  328.080   52.809    0.110    8.507
  328.330   48.526    0.106    7.632
  328.580   44.849    0.104    8.037
  328.830   41.162    0.100    8.771
  329.080   43.547    0.099   10.641
  329.330   45.325    0.099   12.684
  329.580   47.710    0.102   12.891
  329.830   49.478    0.103   11.781
  330.080   49.448    0.103   10.570
  330.330   48.186    0.101   10.376
  330.580   46.944    0.096   10.171
  330.830   42.660    0.095   10.906
  331.080   38.974    0.095   12.547
  331.330   35.903    0.099   14.429
  331.580   31.003    0.101   16.028
  331.830   29.741    0.104   17.798
  332.080   29.711    0.104   19.756
  332.330   29.641    0.104   21.561
  332.580   29.621    0.104   24.361
  332.830   29.581    0.102   26.120
  333.080   29.541    0.101   27.483
  333.330   29.501    0.099   27.462
  333.580   29.461    0.099   26.930
  333.830   29.411    0.100   26.889
  334.080   29.371    0.102   25.905
  334.330   29.937    0.103   25.422
  334.580   30.513    0.104   24.938
  334.830   31.685    0.100   24.025
  335.080   32.847    0.099   23.989
  335.330   33.424    0.099   23.945
  335.580   34.586    0.105   24.345
  335.830   34.536    0.110   24.308
  336.080   34.506    0.111   24.696
  336.330   35.072    0.111   24.669
  336.580   36.234    0.110   25.510
  336.830   37.406    0.109   25.927
  337.080   37.983    0.109   24.987
  337.330   39.741    0.107   23.244
  337.580   39.721    0.103   24.922
  337.830   37.246    0.101   24.010
  338.080   33.569    0.101   22.334
  338.330   36.560    0.102   22.301
  338.580   40.763    0.106   23.482
  338.830   44.966    0.109   24.292
  339.080   46.118    0.115   25.131
  339.330   45.482    0.125   25.093
  339.580   44.836    0.130   25.939
  339.830   44.180    0.131   15.504
  340.080   44.130    0.131   13.910
  340.330   43.493    0.131   16.889
  340.580   42.847    0.133   17.777
  340.830   42.201    0.133   12.900
  341.080   42.161    0.134   13.111
  341.330   42.727    0.135   15.359
  341.580   43.293    0.135   17.664
  341.830   44.455    0.135   17.024
  342.080   46.234    0.132   16.400
  342.330   46.810    0.132   16.675
  342.580   47.366    0.136   16.351
  342.830   48.538    0.139   17.218
  343.080   49.114    0.142   17.805
  343.330   50.287    0.143   18.110
  343.580   52.055    0.143   18.082
  343.830   48.984    0.141   18.699
  344.080   43.479    0.135   19.352
  344.330   42.833    0.130   20.004
  344.580   44.611    0.127   20.339
  344.830   47.006    0.125   20.671
  345.080   49.986    0.124   21.001
  345.330   51.755    0.124   20.969
  345.580   51.705    0.126   20.578
  345.830   51.069    0.127   18.469
  346.080   49.816    0.128   16.006
  346.330   50.988    0.130   13.388
  346.580   52.171    0.131   10.615
  346.830   54.555    0.132    9.701
  347.080   56.940    0.132    9.350
  347.330   59.294    0.133    9.841
  347.580   59.264    0.133   10.552
  347.830   58.628    0.133   12.139
  348.080   57.366    0.132   14.215
  348.330   55.497    0.129   15.773
  348.580   54.861    0.128   15.479
  348.830   54.225    0.122   15.185
  349.080   53.569    0.117   13.872
  349.330   53.509    0.114   12.909
  349.580   54.085    0.114   11.590
  349.830   54.661    0.115   10.224
  350.080   55.813    0.118    8.698
  350.330   57.005    0.119    8.094
  350.580   57.571    0.120    7.394
  350.830   56.905    0.119    7.129
  351.080   55.653    0.114    6.866
  351.330   54.401    0.112    6.614
  351.580   52.542    0.107    6.609
  351.830   51.906    0.104    6.957
  352.080   50.644    0.101    7.325
  352.330   51.200    0.099    7.716
  352.580   53.574    0.099    8.270
  352.830   54.766    0.100    7.971
  353.080   56.535    0.106    7.282
  353.330   56.505    0.114    7.018
  353.580   56.455    0.119    6.645
  353.830   55.819    0.125    6.289
  354.080   55.769    0.134    6.059
  354.330   55.708    0.144    5.946
  354.580   56.295    0.146    5.935
  354.830   57.447    0.151    6.034
  355.080   57.417    0.151    6.465
  355.330   56.781    0.145    6.810
  355.580   54.922    0.135    7.562
  355.830   51.235    0.132    8.855
  356.080   55.428    0.132    9.829
  356.330   57.823    0.141    9.303
  356.580   58.389    0.152    8.509
  356.830   54.096    0.170    4.819
  357.080   50.429    0.179    3.200
  357.330   47.348    0.172    3.140
  357.580   43.651    0.154    3.548
  357.830   41.813    0.142    3.941
  358.080   40.550    0.123    4.532
  358.330   39.894    0.111    5.124
  358.580   39.258    0.117    7.416
  358.830   39.218    0.127    7.677
  359.080   39.178    0.134    8.990
  359.330   39.744    0.139   10.528
  359.580   39.694    0.145   11.086
  359.830   40.260    0.147   11.065
  360.080   40.826    0.142   10.858
  360.330   40.786    0.137   10.274
  360.580   41.352    0.137   10.266
  360.830   42.504    0.137   10.422
  361.080   43.090    0.137   10.596
  361.330   43.040    0.134   10.399
  361.580   43.010    0.130   10.383
  361.830   42.950    0.128   10.182
  362.080   42.920    0.127   10.166
  362.330   42.880    0.128   10.332
  362.580   42.830    0.128   10.689
  362.830   42.174    0.128   10.864
  363.080   42.154    0.122   11.037
  363.330   42.094    0.122   11.016
  363.580   42.064    0.125   11.008
  363.830   42.034    0.125   10.791
  364.080   42.590    0.126   10.778
  364.330   43.762    0.126   10.762
  364.580   45.541    0.126   10.746
  364.830   45.480    0.124   10.538
  365.080   44.238    0.122   10.518
  365.330   43.602    0.119   10.510
  365.580   42.340    0.117   10.682
  365.830   42.300    0.117   11.248
  366.080   42.856    0.117   12.055
  366.330   42.816    0.117   12.028
  366.580   42.776    0.117   10.800
  366.830   43.342    0.117   10.226
  367.080   43.302    0.115    9.855
  367.330   43.878    0.114    9.667
