~VERSION INFORMATION
 VERS.                 2.0:   CWLS LOG ASCII STANDARD -VERSION 2.0
 WRAP.                  NO:   ONE LINE PER DEPTH STEP
~WELL INFORMATION BLOCK
#MNEM.UNIT           DATA                    DESCRIPTION OF MNEMONIC
#---------    -------------------            -------------------------------
# Generated from Intellog Unique Number	CN_91_93/WELL/2745
NULL.         -999.2500                      : Null_value
WELL.         11-10-093-18W4                 : Well_name    - WELL              
LOC .         00/11-10-093-18W4/0            : Location     - LOCATION          
UWI .         00/11-10-093-18W400            : Uwi          - UNIQUE WELL ID    
ENTR.         JOETTE                         : Entered      - ENTERED BY        
SRVC.         SCHLUMBERGER                   : Scn          - SERVICE COMPANY   
DATE.         03/23/92                       : Date         - LOG DATE          
STRT.M        110                            : top_depth    - START DEPTH       
STOP.M        250                            : bot_depth    - STOP DEPTH        
STEP.M        0.25                           : increment    - STEP LENGTH       
~CURVE INFORMATION BLOCK
#MNEM UNIT       ERCB CURVE CODE    CURVE DESCRIPTION
#-----------   ------------------   ----------------------------------
DEPT.M        00 001 00 00         : DEPTH        - DEPTH                       
CALI.MM       00 280 01 00         : CAL          - CALIPER                     
GR  .API      00 310 00 00         : GR           - GAMMA RAY                   
NPHI.V/V      00 330 00 00         : PHIN         - NEUTRON POROSITY (SANDSTONE)
DPHI.V/V      00 890 00 00         : PHID         - DENSITY POROSITY (SANDSTONE)
ILD .OHMM     00 120 00 00         : RESD         - DEEP RESISTIVITY (DIL)      
~PARAMETER INFORMATION       
#MNEM.UNIT           DATA             DESCRIPTION OF MNEMONIC
#---------         -----------     ------------------------------
GL  .M        515.7                : gl           - GROUND LEVEL ELEVATION      
EREF.M        518.7                : kb           - ELEVATION OF DEPTH REFERENCE
DATM.M        518.7                : datum        - DATUM ELEVATION             
TDD .M        252.7                : tdd          - TOTAL DEPTH DRILLER         
RUN .         ONE                  : Run          - RUN NUMBER                  
ENG .         BILL                 : Engineer     - RECORDING ENGINEER          
WIT .         JIM                  : Witness      - WITNESSED BY                
MUD .         GEL                  : Mud_type     - MUD TYPE                    
MATR.         SANDSTONE            : Logunit      - NEUTRON MATRIX              
TMAX.C        24                   : BHT          - MAXIMUM RECORDED TEMPERATURE
BHTD.M        252.7                : BHTDEP       - MAXIMUM RECORDED TEMPERATURE
RMT .C        23                   : MDTP         - TEMPERATURE OF MUD          
MUDD.KG/M     1130                 : MWT          - MUD DENSITY                 
NEUT.         1                    : NEUTRON      - NEUTRON TYPE                
RESI.         0                    : RESIST       - RESISTIVITY TYPE            
RM  .OHMM     3.8                  : RM           - RESISTIVITY OF MUD          
RMC .OHMM     3.66                 : RMC          - RESISTIVITY OF MUD CAKE     
RMF .OHMM     3.66                 : RMF          - RESISTIVITY OF MUD FILTRATE 
SUFT.C        4                    : SUFT         - SURFACE TEMPERATURE         
~A  DEPTH      CAL       GR     PHIN     PHID     RESD
  110.000  175.643   56.003    0.594    0.198 1767.700
  110.250  185.624   79.567    0.577    0.207  865.730
  110.500  200.078   94.493    0.472    0.233    4.502
  110.750  207.080   98.699    0.432    0.246    2.648
  111.000  212.097   98.131    0.463    0.267    1.804
  111.250  215.135   96.674    0.485    0.276    7.894
  111.500  217.683   96.408    0.499    0.282    7.342
  111.750  219.212   98.830    0.470    0.282    6.704
  112.000  220.258  102.730    0.459    0.281    6.178
  112.250  221.311  103.655    0.478    0.277    5.291
  112.500  221.364  101.308    0.491    0.271    4.967
  112.750  220.914   98.660    0.455    0.266    4.792
  113.000  220.471   98.692    0.446    0.261    4.840
  113.250  220.537   99.021    0.446    0.261    5.819
  113.500  219.094   96.671    0.448    0.261    6.040
  113.750  216.672   91.635    0.460    0.258    6.387
  114.000  212.754   88.395    0.472    0.255    6.631
  114.250  208.327   92.597    0.458    0.270    6.575
  114.500  208.380   90.838    0.498    0.284    6.286
  114.750  202.973   87.006    0.504    0.288    5.688
  115.000  200.048   86.136    0.461    0.285    5.053
  115.250  207.566   84.083    0.459    0.288    4.966
  115.500  207.606   71.011    0.468    0.300    5.915
  115.750  204.191   55.850    0.476    0.321    7.175
  116.000  200.267   49.631    0.448    0.337    7.728
  116.250  195.859   54.428    0.405    0.350    9.997
  116.500  193.927   63.403    0.405    0.362   10.379
  116.750  194.483   71.174    0.406    0.363   10.875
  117.000  195.032   84.310    0.386    0.328   10.490
  117.250  195.072   93.575    0.406    0.293    9.668
  117.500  191.657   89.437    0.472    0.254    7.982
  117.750  187.733   75.173    0.491    0.193    7.289
  118.000  183.332   67.160    0.389    0.176    6.906
  118.250  182.875   77.330    0.387    0.267    7.104
  118.500  184.920   80.931    0.415    0.303    7.510
  118.750  185.966   78.874    0.445    0.312    8.088
  119.000  187.005   69.078    0.466    0.331    8.397
  119.250  187.561   70.301    0.449    0.325    8.178
  119.500  188.607   74.800    0.419    0.302    8.178
  119.750  190.156   65.600    0.431    0.284    7.896
  120.000  192.195   60.569    0.443    0.279    7.549
  120.250  194.227   59.409    0.432    0.295    7.764
  120.500  197.265   69.269    0.426    0.325    8.438
  120.750  203.267  102.665    0.402    0.299    8.922
  121.000  213.751  103.003    0.419    0.232    7.038
  121.250  218.768  103.924    0.436    0.164    5.757
  121.500  222.792  113.784    0.470    0.181    4.753
  121.750  226.823  118.879    0.482    0.209    4.380
  122.000  226.823  117.728    0.468    0.230    4.074
  122.250  229.933  117.454    0.474    0.238    3.790
  122.500  233.435  119.272    0.501    0.242    3.827
  122.750  237.459  117.517    0.518    0.242    3.973
  123.000  240.000  114.273    0.489    0.243    4.201
  123.250  241.549  114.007    0.460    0.238    4.322
  123.500  241.589  110.469    0.475    0.242    4.208
  123.750  241.649  108.420    0.501    0.247    4.060
  124.000  241.649  109.639    0.472    0.242    4.139
  124.250  241.761  111.756    0.466    0.247    4.219
  124.500  241.318  113.277    0.477    0.257    4.261
  124.750  241.318  111.522    0.492    0.259    4.225
  125.000  241.444  107.682    0.501    0.259    4.152
  125.250  240.988  102.953    0.501    0.258    4.080
  125.500  240.531  102.087    0.486    0.257    4.197
  125.750  239.095  104.799    0.470    0.258    4.317
  126.000  237.659  108.405    0.476    0.264    4.565
  126.250  235.230  108.139    0.484    0.264    4.654
  126.500  233.298  105.788    0.478    0.259    4.700
  126.750  230.869  104.927    0.478    0.240    4.661
  127.000  228.440   99.900    0.471    0.235    4.665
  127.250  225.019   96.949    0.482    0.236    4.711
  127.500  222.094   93.705    0.485    0.249    5.074
  127.750  218.672   90.759    0.471    0.255    6.212
  128.000  215.754   87.514    0.441    0.258    6.815
  128.250  213.318   84.568    0.425    0.261    7.406
  128.500  210.890   84.608    0.421    0.270    7.550
  128.750  207.481   84.636    0.423    0.280    7.419
  129.000  205.053   89.727    0.429    0.265    7.092
  129.250  203.113   96.315    0.438    0.249    6.536
  129.500  201.181   91.284    0.455    0.192    6.191
  129.750  199.745   77.314    0.486    0.129    6.253
  130.000  198.805   83.898    0.518    0.039    6.734
  130.250  201.843   97.335    0.250    0.117    6.439
  130.500  205.861  116.432    0.297    0.173    5.267
  130.750  211.381  122.424    0.484    0.213    4.388
  131.000  215.398  119.772    0.501    0.230    4.044
  131.250  218.436  111.469    0.518    0.242    3.626
  131.500  220.481  105.540    0.541    0.226    3.373
  131.750  222.513  101.998    0.496    0.218    3.195
  132.000  225.551  105.008    0.471    0.221    3.195
  132.250  227.590  107.422    0.521    0.247    3.058
  132.500  230.118  106.565    0.531    0.263    2.949
  132.750  233.659  103.317    0.512    0.273    2.898
  133.000  235.691  105.139    0.527    0.275    2.900
  133.250  237.233  102.789    0.548    0.276    2.876
  133.500  238.782  101.038    0.566    0.281    2.876
  133.750  239.828  101.363    0.531    0.289    2.881
  134.000  239.881  103.182    0.514    0.294    2.883
  134.250  239.431  105.898    0.529    0.293    2.912
  134.500  238.988  105.628    0.537    0.286    2.996
  134.750  237.558  105.958    0.519    0.264    2.996
  135.000  236.116  108.075    0.505    0.257    3.142
  135.250  235.189  100.065    0.502    0.255    3.990
  135.500  235.242   94.439    0.518    0.255    4.796
  135.750  232.820   85.834    0.475    0.256    6.495
  136.000  230.378   84.674    0.421    0.263    8.249
  136.250  225.977   82.323    0.388    0.278    9.214
  136.500  225.521   77.292    0.369    0.250   10.581
  136.750  225.580   75.533    0.376    0.191   11.087
  137.000  226.136   87.482    0.357    0.167   10.696
  137.250  226.136   91.981    0.381    0.241    9.768
  137.500  226.229   89.928    0.421    0.261    8.138
  137.750  226.779   86.390    0.433    0.251    7.639
  138.000  226.838   87.617    0.413    0.253    7.716
  138.250  226.898   91.521    0.375    0.268    7.793
  138.500  226.455   94.527    0.370    0.255    7.657
  138.750  225.509   98.732    0.409    0.230    7.254
  139.000  221.101  101.742    0.434    0.222    6.747
  139.250  217.170   99.090    0.450    0.241    6.449
  139.500  210.274   94.654    0.461    0.267    6.337
  139.750  204.867   83.667    0.459    0.283    6.763
  140.000  199.956   77.746    0.432    0.266   10.413
  140.250  195.045   74.800    0.422    0.269   11.214
  140.500  193.609   72.147    0.410    0.272   11.856
  140.750  192.187   69.499    0.399    0.279   12.310
  141.000  191.240   70.726    0.385    0.294   12.310
  141.250  190.294   71.651    0.374    0.262   12.444
  141.500  190.367   69.598    0.371    0.247   11.681
  141.750  190.407   69.630    0.390    0.272   11.167
  142.000  190.407   69.360    0.431    0.276   10.873
  142.250  191.056   69.400    0.423    0.258   10.980
  142.500  191.069   71.806    0.408    0.284   11.193
  142.750  191.619   70.651    0.409    0.303   10.802
  143.000  193.167   71.576    0.419    0.268    9.861
  143.250  194.696   84.117    0.314    0.177    6.655
  143.500  199.720   93.087    0.392    0.199    4.574
  143.750  205.736   98.778    0.416    0.212    4.373
  144.000  208.264   99.111    0.443    0.225    5.306
  144.250  210.813   97.352    0.459    0.228    5.714
  144.500  211.858   99.171    0.431    0.229    6.268
  144.750  210.919  104.270    0.431    0.223    6.447
  145.000  208.490  104.897    0.439    0.200    6.571
  145.250  206.551  104.040    0.436    0.196    6.459
  145.500  205.605  107.046    0.417    0.213    6.288
  145.750  206.161  108.277    0.411    0.221    6.237
  146.000  206.717  105.620    0.412    0.217    6.534
  146.250  207.266   97.611    0.432    0.201    6.782
