~VERSION INFORMATION
 VERS.                 2.0:   CWLS LOG ASCII STANDARD -VERSION 2.0
 WRAP.                  NO:   ONE LINE PER DEPTH STEP
~WELL INFORMATION BLOCK
#MNEM.UNIT           DATA                    DESCRIPTION OF MNEMONIC
#---------    -------------------            -------------------------------
# Generated from Intellog Unique Number	CW_82_90/WELL/1032
WELL.         13-33-083-23W4                 : Well_name    - WELL
LOC .         00/13-33-083-23W4/0            : Location     - LOCATION
UWI .         00/13-33-083-23W4/0            : Uwi          - UNIQUE WELL ID
ENTR.         JAYE                           : Entered      - ENTERED BY
SRVC.         SCHLUMBERGER                   : Scn          - SERVICE COMPANY
DATE.         21 FEB 86                      : Date         - LOG DATE
STRT.M        200                            : top_depth    - START DEPTH
STOP.M        425                            : bot_depth    - STOP DEPTH
STEP.M        0.25                           : increment    - STEP LENGTH
 NULL. -999.2500:NULL Value
~CURVE INFORMATION BLOCK
#MNEM UNIT       ERCB CURVE CODE    CURVE DESCRIPTION
#-----------   ------------------   ----------------------------------
DEPT.M        00 001 00 00         : DEPTH        - DEPTH
CALI.MM       00 280 01 00         : CAL          - CALIPER
GR  .API      00 310 00 00         : GR           - GAMMA RAY
NPHI.V/V      00 330 00 00         : PHIN         - NEUTRON POROSITY (SANDSTONE)
DPHI.V/V      00 890 00 00         : PHID         - DENSITY POROSITY (SANDSTONE)
ILD .OHMM     00 120 00 00         : RESD         - DEEP RESISTIVITY (DIL)
~PARAMETER INFORMATION
#MNEM.UNIT           DATA             DESCRIPTION OF MNEMONIC
#---------         -----------     ------------------------------
GL  .M        593.3                : gl           - GROUND LEVEL ELEVATION
EREF.M        596.9                : kb           - ELEVATION OF DEPTH REFERENCE
DATM.M        593.3                : datum        - DATUM ELEVATION
TDD .M        424                  : tdd          - TOTAL DEPTH DRILLER
RUN .         ONE                  : Run          - RUN NUMBER
ENG .         MURRAY               : Engineer     - RECORDING ENGINEER
WIT .         KOSS                 : Witness      - WITNESSED BY
BASE.         S.L.                 : Branch       - HOME BASE OF LOGGING UNIT
MUD .         GEL CHEM             : Mud_type     - MUD TYPE
MATR.         SANDSTONE            : Logunit      - NEUTRON MATRIX
TMAX.C        22                   : BHT          - MAXIMUM RECORDED TEMPERATURE
BHTD.M        424                  : BHTDEP       - MAXIMUM RECORDED TEMPERATURE
RMT .C        10                   : MDTP         - TEMPERATURE OF MUD
MUDD.KG/M     1120                 : MWT          - MUD DENSITY
NEUT.         1                    : NEUTRON      - NEUTRON TYPE
RESI.         0                    : RESIST       - RESISTIVITY TYPE
RM  .OHMM     4.3                  : RM           - RESISTIVITY OF MUD
RMC .OHMM     0                    : RMC          - RESISTIVITY OF MUD CAKE
RMF .OHMM     3.8                  : RMF          - RESISTIVITY OF MUD FILTRATE
SUFT.C        0                    : SUFT         - SURFACE TEMPERATURE
~A  DEPTH      CAL       GR     PHIN     PHID     RESD
# ...
  309.500  241.940   73.775    0.478    0.281   10.325
  309.750  240.848   72.065    0.454    0.261   12.125
  310.000  240.053   72.331    0.415    0.244   13.253
  310.250  238.652   73.028    0.422    0.205   14.111
  310.500  237.555   71.625    0.453    0.259   14.360
  310.750  237.380   69.540    0.455    0.281   14.422
  311.000  238.235   67.768    0.467    0.296   14.513
  311.250  239.702   66.052    0.478    0.276   14.548
  311.500  240.756   65.082    0.473    0.258   14.583
  311.750  242.021   65.721    0.476    0.277   14.565
  312.000  242.669   67.657    0.471    0.281   14.439
  312.250  242.290   69.593    0.455    0.285   14.203
  312.500  241.296   71.776    0.460    0.287   13.738
  312.750  241.326   73.712    0.460    0.283   13.336
  313.000  243.412   74.474    0.454    0.276   12.706
  313.250  246.519   75.853    0.452    0.255   11.857
  313.500  249.321   79.214    0.462    0.237   10.880
  313.750  250.584   80.224    0.472    0.241   10.307
  314.000  251.534   81.539    0.474    0.245   10.140
  314.250  251.774   81.621    0.480    0.249   10.184
  314.500  250.472   76.384    0.485    0.257   10.346
  314.750  248.557   74.980    0.476    0.253   10.568
  315.000  247.768   73.516    0.453    0.245   11.166
  315.250  247.900   71.985    0.447    0.247   12.069
  315.500  247.833   66.870    0.455    0.265   13.070
  315.750  247.558   63.301    0.456    0.270   13.630
  316.000  247.276   58.807    0.427    0.210   13.792
  316.250  246.593   56.783    0.347    0.185   12.921
  316.500  245.496   56.805    0.413    0.266   12.081
  316.750  244.708   63.811    0.411    0.286   11.424
  317.000  243.713   71.438    0.407    0.287   11.090
  317.250  243.131   75.233    0.467    0.272   10.727
  317.500  242.856   70.117    0.485    0.261   10.593
  317.750  242.578   69.765    0.472    0.253   10.481
  318.000  240.874   68.916    0.463    0.260   10.429
  318.250  240.183   69.306    0.427    0.295   10.393
  318.500  241.238   71.740    0.416    0.296   10.244
  318.750  242.602   72.438    0.439    0.286   10.096
  319.000  243.249   74.002    0.443    0.280    9.951
  319.250  242.255   74.826    0.425    0.296    9.771
  319.500  240.445   75.897    0.422    0.304    9.558
  319.750  238.732   78.081    0.433    0.304    9.438
  320.000  237.534   76.184    0.442    0.295    9.355
  320.250  237.254   75.831    0.441    0.289    9.344
  320.500  238.524   75.354    0.429    0.280    9.418
  320.750  239.471   71.725    0.433    0.281    9.877
  321.000  240.531   70.629    0.437    0.286   10.262
  321.250  241.896   69.103    0.444    0.285   10.483
  321.500  244.494   67.577    0.453    0.287   10.607
  321.750  246.162   68.274    0.462    0.293   10.574
  322.000  246.608   72.314    0.464    0.282   10.305
  322.250  245.922   76.973    0.468    0.255    9.781
  322.500  245.745   80.395    0.473    0.238    9.095
  322.750  246.905   82.330    0.465    0.230    8.898
  323.000  248.482   80.060    0.450    0.236    8.869
  323.250  249.639   78.039    0.452    0.258    8.856
  323.500  250.076   76.201    0.469    0.256    8.927
  323.750  247.859   76.158    0.458    0.247    9.312
  324.000  244.505   74.570    0.454    0.258    9.600
  324.250  240.947   70.876    0.449    0.268   10.050
  324.500  237.491   69.350    0.442    0.280   10.383
  324.750  235.467   70.419    0.443    0.298   10.487
  325.000  237.660   68.706    0.451    0.313   10.454
  325.250  240.458   73.799    0.461    0.311   10.130
  325.500  243.564   74.993    0.476    0.292    9.688
  325.750  245.645   75.878    0.485    0.268    9.423
  326.000  247.010   80.288    0.487    0.266    9.322
  326.250  247.350   82.782    0.480    0.268    9.327
  326.500  248.304   71.481    0.467    0.254    9.969
  326.750  251.207   66.552    0.394    0.229   11.464
  327.000  253.707   61.374    0.375    0.170   12.138
  327.250  254.756   60.714    0.289    0.119   12.079
  327.500  255.203   64.443    0.330    0.123   11.637
  327.750  255.335   68.238    0.396    0.159   10.537
  328.000  255.572   69.306    0.440    0.232    9.365
  328.250  255.809   77.119    0.467    0.236    8.576
  328.500  255.534   79.797    0.460    0.234    7.636
  328.750  254.126   74.188    0.452    0.231    7.290
  329.000  247.702   71.052    0.447    0.230    7.117
  329.250  249.783   68.601    0.465    0.233    6.922
  329.500  253.201   70.782    0.458    0.230    6.796
  329.750  252.306   75.934    0.451    0.229    6.662
  330.000  248.645   79.605    0.454    0.237    6.641
  330.250  245.402   80.611    0.467    0.233    6.694
  330.500  244.402   79.517    0.480    0.218    6.994
  330.750  244.851   78.793    0.458    0.216    7.447
  331.000  247.959   78.875    0.431    0.228    7.898
  331.250  251.372   79.202    0.427    0.233    8.362
  331.500  254.376   79.779    0.471    0.231    9.023
  331.750  256.047   80.663    0.491    0.235    9.426
  332.000  257.718   81.177    0.478    0.233    9.628
  332.250  256.623   81.261    0.466    0.227    9.562
  332.500  255.837   81.464    0.463    0.224    9.320
  332.750  258.126   81.978    0.476    0.223    9.219
  333.000  258.668   82.676    0.465    0.223    9.103
  333.250  257.879   85.664    0.468    0.233    9.160
  333.500  255.657   90.818    0.489    0.231    9.339
  333.750  252.814   91.764    0.482    0.227    9.612
  334.000  248.846   87.145    0.451    0.217   10.215
  334.250  245.289   80.052    0.421    0.211   10.794
  334.500  243.169   83.595    0.415    0.210   11.047
  334.750  244.739   84.170    0.421    0.210   10.949
  335.000  247.132   83.324    0.420    0.209   10.895
  335.250  248.291   85.940    0.408    0.207   11.149
  335.500  247.191   82.062    0.403    0.226   11.540
  335.750  245.686   77.751    0.407    0.232   12.287
  336.000  242.953   75.976    0.412    0.227   12.861
  336.250  241.037   76.553    0.419    0.235   13.238
  336.500  239.632   77.563    0.407    0.261   13.170
  336.750  238.333   79.621    0.400    0.261   12.571
  337.000  238.570   80.322    0.413    0.256   11.844
  337.250  239.007   76.072    0.434    0.262   12.351
  337.500  241.501   70.339    0.454    0.184   13.810
  337.750  244.913   58.913    0.388    0.123   17.749
  338.000  249.971   50.520    0.221    0.088   25.160
  338.250  251.541   50.106    0.182    0.050   33.641
  338.500  250.445   51.427    0.242    0.074   35.017
  338.750  248.937   52.123    0.303    0.109   31.294
  339.000  247.639   54.370    0.338    0.212   23.876
  339.250  246.952   65.771    0.406    0.253   17.675
  339.500  245.548   66.473    0.440    0.267   14.901
  339.750  242.708   67.974    0.424    0.269   13.750
  340.000  239.970   69.662    0.443    0.267   13.399
  340.250  236.110   69.557    0.457    0.253   14.403
  340.500  235.114   63.206    0.412    0.212   15.655
  340.750  238.635   60.072    0.325    0.163   17.939
  341.000  243.688   56.192    0.294    0.131   20.514
  341.250  255.511   52.686    0.259    0.104   24.826
  341.500  262.209   50.786    0.228    0.056   32.268
  341.750  266.854   49.692    0.194    0.059   45.914
  342.000  262.889   49.959    0.195    0.067   50.284
  342.250  257.586   52.391    0.208    0.060   49.563
  342.500  252.801   57.048    0.238    0.066   46.692
  342.750  249.754   62.390    0.240    0.073   42.118
  343.000  247.738   59.932    0.246    0.070   27.955
  343.250  246.640   61.064    0.276    0.108   18.519
  343.500  245.339   67.516    0.408    0.185   15.149
  343.750  243.935   69.888    0.414    0.239   13.848
  344.000  243.865   70.402    0.429    0.244   13.293
  344.250  245.027   72.088    0.437    0.242   13.251
  344.500  247.211   73.035    0.415    0.208   13.924
  344.750  249.292   68.539    0.381    0.151   15.745
  345.000  250.963   63.425    0.355    0.119   16.576
  345.250  250.690   64.558    0.373    0.135   16.585
  345.500  249.490   68.536    0.402    0.176   16.688
  345.750  247.367   70.474    0.391    0.200   17.111
