~VERSION INFORMATION
 VERS.                 2.0:   CWLS LOG ASCII STANDARD -VERSION 2.0
 WRAP.                  NO:   ONE LINE PER DEPTH STEP
~WELL INFORMATION BLOCK
#MNEM.UNIT           DATA                    DESCRIPTION OF MNEMONIC
#---------    -------------------            -------------------------------
# Generated from Intellog Unique Number	CS_67_68/WELL/2189
WELL.         10-02-067-04W4                 : Well_name    - WELL
LOC .         00/10-02-067-04W4/0            : Location     - LOCATION
UWI .         00/10-02-067-04W4/0            : Uwi          - UNIQUE WELL ID
ENTR.         SP                             : Entered      - ENTERED BY
SRVC.         SCHLUMBERGER                   : Scn          - SERVICE COMPANY
STRT.M        370                            : top_depth    - START DEPTH
STOP.M        590                            : bot_depth    - STOP DEPTH
STEP.M        0.25                           : increment    - STEP LENGTH
 NULL. -999.2500:NULL Value
~CURVE INFORMATION BLOCK
#MNEM UNIT       ERCB CURVE CODE    CURVE DESCRIPTION
#-----------   ------------------   ----------------------------------
DEPT.M        00 001 00 00         : DEPTH        - DEPTH
CALI.MM       00 280 01 00         : CAL          - CALIPER
ILD .OHMM     00 120 00 00         : RESD         - DEEP RESISTIVITY (DIL)
DPHI.V/V      00 890 00 00         : PHID         - DENSITY POROSITY (LIMESTONE)
NPHI.V/V      00 330 00 00         : PHIN         - NEUTRON POROSITY (LIMESTONE)
GR  .API      00 310 00 00         : GR           - GAMMA RAY
~PARAMETER INFORMATION
#MNEM.UNIT           DATA             DESCRIPTION OF MNEMONIC
#---------         -----------     ------------------------------
GL  .M        693.26               : gl           - GROUND LEVEL ELEVATION
EREF.M        697.11               : kb           - ELEVATION OF DEPTH REFERENCE
DATM.M        697.11               : datum        - DATUM ELEVATION
TDD .M        598                  : tdd          - TOTAL DEPTH DRILLER
RUN .         ONE                  : Run          - RUN NUMBER
ENG .         BILL                 : Engineer     - RECORDING ENGINEER
WIT .         JIM                  : Witness      - WITNESSED BY
MUD .         GEL                  : Mud_type     - MUD TYPE
MATR.         LIMESTONE            : Logunit      - NEUTRON MATRIX
TMAX.C        24.5                 : BHT          - MAXIMUM RECORDED TEMPERATURE
BHTD.M        598.6                : BHTDEP       - MAXIMUM RECORDED TEMPERATURE
MATR.         1                    : LOGUNIT      - NEUTRON MATRIX
RMT .C        25                   : MDTP         - TEMPERATURE OF MUD
NEUT.         1                    : NEUTRON      - NEUTRON TYPE
RESI.         0                    : RESIST       - RESISTIVITY TYPE
RMC .OHMM     0.25                 : RMC          - RESISTIVITY OF MUD CAKE
RMF .OHMM     0.25                 : RMF          - RESISTIVITY OF MUD FILTRATE
SUFT.C        15                   : SUFT         - SURFACE TEMPERATURE
~A  DEPTH      CAL     RESD     PHID     PHIN       GR
  370.000  195.855    3.018    0.254    0.509  119.350
  370.250  194.044    3.052    0.252    0.506  123.562
  370.500  191.631    3.035    0.248    0.487  123.379
  370.750  190.423    2.979    0.246    0.480  106.455
  371.000  195.035    2.929    0.254    0.493   95.794
  371.250  192.020    2.908    0.264    0.492   93.925
  371.500  183.685    2.881    0.250    0.482   97.836
  371.750  177.860    2.897    0.241    0.482   99.340
  372.000  174.644    2.991    0.239    0.498   94.640
  372.250  174.137    3.226    0.074    0.492   88.134
  372.500  173.631    3.618    0.187    0.415   83.675
  372.750  174.129    3.990    0.203    0.421   89.815
  373.000  176.734    4.303    0.218    0.417   96.978
  373.250  180.845    4.692    0.218    0.412  100.468
  373.500  184.754    5.214    0.219    0.425   97.455
  373.750  181.137    5.675    0.234    0.426   87.034
  374.000  176.818    6.005    0.215    0.331   80.589
  374.250  177.616    6.378    0.179    0.323   74.926
  374.500  176.608    6.488    0.164    0.333   69.925
  374.750  173.392    6.415    0.207    0.359   71.428
  375.000  170.778    6.308    0.226    0.376   75.821
  375.250  172.480    6.156    0.217    0.387   78.829
  375.500  173.781    6.076    0.213    0.388   74.551
  375.750  174.078    5.975    0.234    0.388   77.319
  376.000  172.668    5.908    0.234    0.392   80.989
  376.250  173.365    5.820    0.228    0.392   82.432
  376.500  175.469    5.755    0.230    0.397   82.490
  376.750  178.978    5.659    0.220    0.408   88.749
  377.000  182.888    5.564    0.211    0.418   93.083
  377.250  187.299    5.513    0.207    0.431   97.476
  377.500  190.907    5.492    0.212    0.446   96.028
  377.750  191.505    5.493    0.213    0.464   94.520
  378.000  189.293    5.524    0.203    0.403   94.879
  378.250  186.680    5.567    0.192    0.409   98.790
  378.500  184.668    5.683    0.184    0.432  102.702
  378.750  183.560    5.759    0.220    0.456  103.723
  379.000  182.853    5.836    0.246    0.479   99.625
  379.250  183.551    5.858    0.230    0.497   98.057
  379.500  185.955    5.903    0.217    0.464   97.573
  379.750  189.966    5.881    0.203    0.428   92.572
  380.000  194.377    5.882    0.204    0.437   89.439
  380.250  199.692    5.849    0.215    0.451   94.073
  380.500  203.802    5.795    0.216    0.459   97.382
  380.750  203.196    5.763    0.216    0.468   98.885
  381.000  201.686    5.635    0.217    0.444  100.929
  381.250  203.388    5.551    0.212    0.429  103.697
  381.500  206.093    5.530    0.202    0.431  101.044
  381.750  203.179    5.541    0.196    0.453  101.162
  382.000  199.661    5.552    0.212    0.468  101.160
  382.250  197.248    5.594    0.254    0.479  100.013
  382.500  194.535    5.637    0.278    0.478   98.806
  382.750  186.301    5.680    0.268    0.467  100.610
  383.000  181.178    5.702    0.246    0.456   99.644
  383.250  185.489    5.670    0.229    0.447   96.330
  383.500  187.592    5.503    0.219    0.436   93.617
  383.750  186.684    5.360    0.213    0.430   95.120
  384.000  183.469    5.143    0.207    0.435  101.740
  384.250  178.848    4.861    0.200    0.456  105.231
  384.500  174.528    4.889    0.279    0.478  107.818
  384.750  171.613    5.125    0.298    0.498  101.011
  385.000  170.204    5.392    0.315    0.521   85.773
  385.250  169.496    5.684    0.329    0.462   72.102
  385.500  168.790    5.837    0.323    0.437   72.701
  385.750  167.680    6.199    0.302    0.420   79.563
  386.000  167.476    7.167    0.289    0.428   84.438
  386.250  167.573    8.932    0.272    0.443   84.737
  386.500  168.170   10.133    0.275    0.453   74.678
  386.750  169.571   11.155    0.087    0.462   67.871
  387.000  170.169   12.302    0.065    0.353   63.653
  387.250  168.358   12.490    0.213    0.359   64.192
  387.500  166.949   11.939    0.251    0.391   69.549
  387.750  165.840   11.012    0.271    0.430   74.966
  388.000  165.535    9.968    0.289    0.448   76.950
  388.250  165.531    9.263    0.296    0.443   76.587
  388.500  165.727    8.576    0.297    0.431   75.320
  388.750  166.123    7.632    0.297    0.431   72.005
  389.000  166.421    6.856    0.292    0.440   80.372
  389.250  166.817    6.045    0.288    0.423   83.923
  389.500  167.215    5.660    0.282    0.438   88.256
  389.750  167.612    5.513    0.277    0.457   92.107
  390.000  168.010    5.503    0.269    0.477   91.141
  390.250  168.206    5.577    0.257    0.482   88.368
  390.500  168.301    5.640    0.243    0.465   87.523
  390.750  168.900    5.683    0.232    0.467   90.531
  391.000  170.501    5.738    0.256    0.491   93.961
  391.250  172.604    5.825    0.282    0.518   99.257
  391.500  172.298    5.815    0.304    0.504  103.109
  391.750  170.187    5.903    0.323    0.460   93.351
  392.000  168.978    6.200    0.336    0.436   83.172
  392.250  168.272    6.511    0.348    0.428   75.702
  392.500  168.167    7.034    0.334    0.450   72.448
  392.750  169.568    7.995    0.333    0.465   66.664
  393.000  171.268    9.578    0.344    0.441   58.051
  393.250  172.269   10.784    0.351    0.400   50.882
  393.500  172.867   11.607    0.353    0.380   51.361
  393.750  171.657   10.888    0.334    0.378   57.681
  394.000  169.948    8.704    0.323    0.398   65.206
  394.250  167.334    7.280    0.306    0.415   73.633
  394.500  165.423    6.528    0.295    0.426   78.629
  394.750  163.913    6.044    0.282    0.425   82.962
  395.000  165.213    6.241    0.260    0.428   88.319
  395.250  168.320    6.579    0.259    0.440   92.291
  395.500  169.721    7.269    0.285    0.448   91.806
  395.750  171.221    8.467    0.297    0.450   85.662
  396.000  171.418   10.011    0.308    0.453   77.530
  396.250  171.213   11.062    0.311    0.442   74.697
  396.500  171.209   11.816    0.315    0.433   73.972
  396.750  171.405   12.526    0.317    0.432   71.982
  397.000  171.903   13.405    0.316    0.446   69.330
  397.250  172.802   14.158    0.100    0.464   65.534
  397.500  173.600   14.001    0.062    0.481   62.038
  397.750  173.997   12.297    0.044    0.223   59.206
  398.000  172.688   11.151    0.036    0.238   55.530
  398.250  169.572    9.999    0.222    0.303   60.164
  398.500  166.959    9.136    0.283    0.374   72.566
  398.750  164.946    7.890    0.298    0.454   80.331
  399.000  164.040    7.008    0.294    0.464   81.413
  399.250  163.834    6.367    0.289    0.444   80.266
  399.500  163.730    5.973    0.283    0.432   84.599
  399.750  163.826    5.678    0.277    0.447   87.547
  400.000  163.620    5.678    0.267    0.485   86.702
  400.250  163.516    5.625    0.263    0.483   85.494
  400.500  163.211    5.679    0.258    0.465   85.672
  400.750  163.106    5.680    0.256    0.459   86.332
  401.000  162.801    5.616    0.273    0.466   87.173
  401.250  162.395    5.543    0.285    0.456   89.097
  401.500  162.391    5.544    0.277    0.443   92.647
  401.750  163.089    5.534    0.280    0.462   95.114
  402.000  167.300    5.534    0.316    0.497   95.051
  402.250  172.816    5.514    0.321    0.416   91.676
  402.500  170.302    5.504    0.314    0.402   93.360
  402.750  165.279    5.504    0.305    0.421   98.355
  403.000  164.171    5.546    0.296    0.445  101.424
  403.250  164.568    5.547    0.291    0.457  102.324
  403.500  165.066    5.610    0.289    0.470  102.562
  403.750  165.263    5.663    0.290    0.450  101.957
  404.000  164.856    5.707    0.297    0.437   98.764
  404.250  164.451    5.729    0.284    0.427   94.907
  404.500  161.737    5.729    0.279    0.428   93.519
  404.750  160.427    5.751    0.281    0.421   93.577
  405.000  161.628    5.784    0.292    0.413   94.538
  405.250  163.329    5.806    0.294    0.408   95.800
  405.500  164.329    5.840    0.295    0.413   96.701
  405.750  165.227    5.862    0.298    0.421   96.638
  406.000  165.725    5.896    0.299    0.429   96.816
  406.250  165.922    5.941    0.288    0.426   96.813
