~VERSION INFORMATION
 VERS.                 2.0:   CWLS LOG ASCII STANDARD -VERSION 2.0
 WRAP.                  NO:   ONE LINE PER DEPTH STEP
~WELL INFORMATION BLOCK
#MNEM.UNIT           DATA                    DESCRIPTION OF MNEMONIC
#---------    -------------------            -------------------------------
# Generated from Intellog Unique Number	CS_67_68/WELL/2195
WELL.         10-14-067-03W4                 : Well_name    - WELL
LOC .         00/10-14-067-03W4/0            : Location     - LOCATION
UWI .         00/10-14-067-03W4/0            : Uwi          - UNIQUE WELL ID
ENTR.         SP                             : Entered      - ENTERED BY
SRVC.         SCHLUMBERGER                   : Scn          - SERVICE COMPANY
STRT.M        380                            : top_depth    - START DEPTH
STOP.M        610                            : bot_depth    - STOP DEPTH
STEP.M        0.25                           : increment    - STEP LENGTH
 NULL. -999.2500:NULL Value
~CURVE INFORMATION BLOCK
#MNEM UNIT       ERCB CURVE CODE    CURVE DESCRIPTION
#-----------   ------------------   ----------------------------------
DEPT.M        00 001 00 00         : DEPTH        - DEPTH
ILD .OHMM     00 120 00 00         : RESD         - DEEP RESISTIVITY (DIL)
DPHI.V/V      00 890 00 00         : PHID         - DENSITY POROSITY (LIMESTONE)
NPHI.V/V      00 330 00 00         : PHIN         - NEUTRON POROSITY (LIMESTONE)
GR  .API      00 310 00 00         : GR           - GAMMA RAY
CALI.MM       00 280 01 00         : CAL          - CALIPER
~PARAMETER INFORMATION
#MNEM.UNIT           DATA             DESCRIPTION OF MNEMONIC
#---------         -----------     ------------------------------
GL  .M        697.3                : gl           - GROUND LEVEL ELEVATION
EREF.M        700.96               : kb           - ELEVATION OF DEPTH REFERENCE
DATM.M        700.96               : datum        - DATUM ELEVATION
TDD .M        618.5                : tdd          - TOTAL DEPTH DRILLER
RUN .         ONE                  : Run          - RUN NUMBER
ENG .         BILL                 : Engineer     - RECORDING ENGINEER
WIT .         JIM                  : Witness      - WITNESSED BY
MUD .         GEL                  : Mud_type     - MUD TYPE
MATR.         LIMESTONE            : Logunit      - NEUTRON MATRIX
TMAX.C        21                   : BHT          - MAXIMUM RECORDED TEMPERATURE
BHTD.M        619                  : BHTDEP       - MAXIMUM RECORDED TEMPERATURE
MATR.         1                    : LOGUNIT      - NEUTRON MATRIX
RMT .C        25                   : MDTP         - TEMPERATURE OF MUD
NEUT.         1                    : NEUTRON      - NEUTRON TYPE
RESI.         0                    : RESIST       - RESISTIVITY TYPE
RMC .OHMM     0.25                 : RMC          - RESISTIVITY OF MUD CAKE
RMF .OHMM     0.25                 : RMF          - RESISTIVITY OF MUD FILTRATE
SUFT.C        15                   : SUFT         - SURFACE TEMPERATURE
~A  DEPTH     RESD     PHID     PHIN       GR      CAL
# ...
  526.000   19.897    0.339    0.454   63.940  201.466
  526.250   19.672    0.337    0.441   63.945  201.882
  526.500   19.486    0.335    0.438   66.584  201.894
  526.750   19.266    0.337    0.442   69.712  202.006
  527.000   19.083    0.338    0.453   68.250  202.319
  527.250   18.974    0.332    0.474   66.173  202.533
  527.500   18.795    0.329    0.461   65.751  202.646
  527.750   17.794    0.343    0.453   67.043  202.757
  528.000   16.470    0.350    0.457   69.007  202.770
  528.250   15.860    0.353    0.463   71.156  202.880
  528.500   15.829    0.354    0.464   68.897  202.990
  528.750   16.159    0.356    0.456   66.882  202.899
  529.000   16.620    0.356    0.459   71.297  202.911
  529.250   16.936    0.357    0.459   69.159  202.818
  529.500   17.159    0.356    0.459   66.349  202.929
  529.750   17.126    0.353    0.463   68.866  203.041
  530.000   17.060    0.351    0.466   71.994  203.155
  530.250   16.614    0.352    0.469   68.632  203.162
  530.500   15.939    0.352    0.472   63.311  202.866
  530.750   15.175    0.345    0.484   61.052  202.776
  531.000   15.203    0.340    0.493   66.446  202.885
  531.250   15.786    0.334    0.492   71.962  202.895
  531.500   16.765    0.334    0.481   71.477  203.315
  531.750   17.639    0.333    0.474   69.218  203.425
  532.000   18.558    0.337    0.467   65.918  203.945
  532.250   19.636    0.348    0.460   60.536  204.159
  532.500   20.008    0.346    0.452   58.950  204.475
  532.750   18.765    0.344    0.445   63.058  204.587
  533.000   17.467    0.344    0.438   67.044  204.495
  533.250   16.693    0.345    0.433   68.582  204.606
  533.500   15.984    0.347    0.446   68.953  204.312
  533.750   15.247    0.349    0.464   68.592  204.320
  534.000   14.354    0.343    0.475   68.598  204.434
  534.250   13.589    0.338    0.457   70.441  204.341
  534.500   12.769    0.334    0.439   72.406  204.349
  534.750   12.135    0.330    0.470   72.903  204.360
  535.000   11.489    0.329    0.470   72.907  204.370
  535.250   10.534    0.332    0.458   73.403  204.481
  535.500    8.449    0.333    0.447   74.511  204.592
  535.750    6.356    0.329    0.441   74.149  204.399
  536.000    5.137    0.328    0.446   75.808  204.612
  536.250    3.990    0.331    0.463   80.897  204.826
  536.500    3.165    0.330    0.500   83.964  205.042
  536.750    2.616    0.329    0.528   86.296  205.255
  537.000    2.390    0.337    0.552   88.690  205.674
  537.250    2.327    0.334    0.536   90.348  205.886
  537.500    2.323    0.317    0.522   91.946  205.998
  537.750    2.327    0.307    0.530   92.197  206.008
  538.000    2.327    0.303    0.531   93.305  206.017
  538.250    2.393    0.308    0.520   92.576  205.518
  538.500    2.480    0.307    0.534   91.481  205.426
  538.750    2.649    0.301    0.565   91.486  205.537
  539.000    3.115    0.301    0.545   93.512  205.751
  539.250    3.782    0.308    0.529   93.151  206.271
  539.500    4.905    0.318    0.533   88.136  206.792
  539.750    8.234    0.321    0.528   79.693  207.617
  540.000   10.699    0.108    0.409   67.454  207.933
  540.250   11.888    0.065    0.327   61.092  207.229
  540.500   12.770    0.045    0.242   56.078  206.728
  540.750   11.731    0.083    0.211   58.471  206.637
  541.000   10.165    0.180    0.475   66.009  206.646
  541.250    9.569    0.293    0.497   74.830  206.758
  541.500    8.924    0.294    0.470   79.490  206.769
  541.750    8.610    0.284    0.437   78.209  206.676
  542.000    8.322    0.294    0.459   76.196  206.583
  542.250    8.059    0.306    0.475   76.079  206.797
  542.500    7.789    0.308    0.459   77.615  206.808
  542.750    7.658    0.296    0.460   77.070  206.918
  543.000    7.486    0.287    0.452   77.566  207.032
  543.250    7.388    0.293    0.448   77.265  207.347
  543.500    7.249    0.297    0.445   80.149  207.663
  543.750    7.167    0.298    0.444   83.155  208.082
  544.000    7.099    0.297    0.453   85.120  208.909
  544.250    6.979    0.297    0.468   86.718  209.835
  544.500    6.784    0.292    0.483   87.582  211.375
  544.750    6.545    0.283    0.484   87.342  212.406
  545.000    6.255    0.274    0.465   85.695  212.415
  545.250    6.035    0.270    0.454   85.210  211.099
  545.500    5.922    0.271    0.442   85.523  209.374
  545.750    6.011    0.271    0.465   85.406  209.077
  546.000    6.102    0.276    0.480   84.249  209.190
  546.250    6.206    0.288    0.471   81.561  209.199
  546.500    6.288    0.292    0.481   81.812  208.903
  546.750    6.347    0.280    0.494   82.430  207.689
  547.000    6.419    0.273    0.490   80.355  206.474
  547.250    6.467    0.279    0.494   79.198  205.463
  547.500    6.466    0.284    0.482   79.203  204.555
  547.750    6.478    0.262    0.452   80.189  203.853
  548.000    6.429    0.242    0.430   80.378  203.555
  548.250    6.273    0.235    0.427   80.383  203.259
  548.500    5.995    0.255    0.452   83.634  203.064
  548.750    5.740    0.273    0.441   89.701  202.872
  549.000    5.643    0.280    0.427   94.667  202.880
  549.250    5.643    0.265    0.436   94.183  203.093
  549.500    5.804    0.251    0.436   90.822  203.307
  549.750    6.049    0.243    0.413   88.807  203.524
  550.000    6.246    0.235    0.394   88.262  203.634
  550.250    6.388    0.231    0.387   88.207  203.846
  550.500    6.521    0.232    0.397   83.376  203.960
  550.750    6.632    0.216    0.419   77.320  203.764
  551.000    6.594    0.211    0.418   72.122  203.469
  551.250    6.422    0.248    0.424   67.046  203.378
  551.500    6.138    0.287    0.439   61.175  203.283
  551.750    5.877    0.326    0.444   65.222  203.297
  552.000    5.471    0.330    0.432   70.002  203.304
  552.250    5.111    0.312    0.420   75.029  203.212
  552.500    4.803    0.292    0.458   78.831  203.323
  552.750    4.547    0.292    0.480   81.592  203.538
  553.000    4.321    0.299    0.500   86.128  204.058
  553.250    4.478    0.302    0.517   95.318  204.376
  553.500    4.865    0.308    0.481   97.712  204.588
  553.750    5.406    0.315    0.426   92.820  204.802
  554.000    6.053    0.313    0.422   88.540  204.811
  554.250    6.368    0.313    0.410   86.158  205.025
  554.500    6.538    0.315    0.387   82.552  204.934
  554.750    6.587    0.322    0.393   78.763  204.841
  555.000    6.624    0.330    0.402   76.502  204.748
  555.250    6.686    0.335    0.373   73.569  204.352
  555.500    6.761    0.318    0.356   77.005  204.258
  555.750    6.812    0.310    0.382   79.887  204.472
  556.000    6.850    0.299    0.385   83.261  204.381
  556.250    6.837    0.291    0.378   86.451  204.390
  556.500    6.823    0.299    0.388   89.273  204.501
  556.750    6.759    0.304    0.401   91.054  204.716
  557.000    6.746    0.308    0.400   87.570  204.928
  557.250    6.758    0.281    0.388   83.963  204.939
  557.500    6.757    0.236    0.376   82.010  205.152
  557.750    6.795    0.207    0.390   81.711  205.266
  558.000    6.846    0.205    0.391   82.451  205.479
  558.250    6.871    0.208    0.383   82.396  205.695
  558.500    6.897    0.217    0.374   81.299  205.702
  558.750    6.896    0.219    0.358   79.469  206.122
  559.000    6.895    0.203    0.337   77.271  206.335
  559.250    6.895    0.191    0.328   78.807  206.855
  559.500    6.869    0.199    0.345   84.935  207.887
  559.750    6.816    0.201    0.369   89.594  208.711
  560.000    6.790    0.196    0.392   94.559  208.006
  560.250    6.739    0.191    0.425   99.708  207.199
  560.500    6.662    0.190    0.412  104.122  203.944
  560.750    6.662    0.194    0.411  106.271  202.832
  561.000    6.763    0.202    0.426  107.195  203.862
  561.250    6.891    0.203    0.396  100.099  205.098
  561.500    7.035    0.200    0.365   94.411  205.923
  561.750    7.222    0.199    0.371   89.948  205.933
  562.000    7.415    0.189    0.367   87.872  205.636
  562.250    7.612    0.182    0.343   86.898  204.013
