~VERSION INFORMATION
 VERS.                 2.0:   CWLS LOG ASCII STANDARD -VERSION 2.0
 WRAP.                  NO:   ONE LINE PER DEPTH STEP
~WELL INFORMATION BLOCK
#MNEM.UNIT           DATA                    DESCRIPTION OF MNEMONIC
#---------    -------------------            -------------------------------
# Generated from Intellog Unique Number	CC_80_83/WELL/2398
NULL.         -999.25                        : NULL_VALUE
WELL.         PEX HOUSE                      : Well_name    - WELL
LOC .         11-12-080-16W4                 : Location     - LOCATION          
UWI .         00/11-12-080-16W4/0            : Uwi          - UNIQUE WELL ID    
ENTR.         DW                             : Entered      - ENTERED BY        
SRVC.         SCHLUMBERGER                   : Scn          - SERVICE COMPANY   
DATE.         16 FEB 82                      : Date         - LOG DATE
STRT.M        150                            : top_depth    - START DEPTH       
STOP.M        389.996                        : bot_depth    - STOP DEPTH        
STEP.M        0.3                            : increment    - STEP LENGTH       
~CURVE INFORMATION BLOCK
#MNEM UNIT       ERCB CURVE CODE    CURVE DESCRIPTION
#-----------   ------------------   ----------------------------------
DEPT.M        00 001 00 00         : DEPTH        - DEPTH                       
ILD .OHMM     00 120 00 00         : RESD         - DEEP RESISTIVITY (DIL)      
GR  .API      00 310 00 00         : GR           - GAMMA RAY                   
NPHI.V/V      00 330 00 00         : PHIN         - NEUTRON POROSITY (LIMESTONE)
DPHI.V/V      00 890 00 00         : PHID         - DENSITY POROSITY (LIMESTONE)
~PARAMETER INFORMATION       
#MNEM.UNIT           DATA             DESCRIPTION OF MNEMONIC
#---------         -----------     ------------------------------
GL  .M        561.3                : gl           - GROUND LEVEL ELEVATION      
EREF.M        565                  : kb           - ELEVATION OF DEPTH REFERENCE
DATM.M        565                  : datum        - DATUM ELEVATION             
TDD .M        388                  : tdd          - TOTAL DEPTH DRILLER         
RUN .         ONE                  : Run          - RUN NUMBER                  
ENG .         BILL                 : Engineer     - RECORDING ENGINEER          
WIT .         JIM                  : Witness      - WITNESSED BY                
MUD .         GEL                  : Mud_type     - MUD TYPE                    
MATR.         LIMESTONE            : Logunit      - NEUTRON MATRIX              
TMAX.C        25.5                 : BHT          - MAXIMUM RECORDED TEMPERATURE
BHTD.M        388                  : BHTDEP       - MAXIMUM RECORDED TEMPERATURE
MATR.         1                    : LOGUNIT      - NEUTRON MATRIX              
RMT .C        25                   : MDTP         - TEMPERATURE OF MUD          
NEUT.         1                    : NEUTRON      - NEUTRON TYPE                
RESI.         0                    : RESIST       - RESISTIVITY TYPE            
RMC .OHMM     0.25                 : RMC          - RESISTIVITY OF MUD CAKE     
RMF .OHMM     0.25                 : RMF          - RESISTIVITY OF MUD FILTRATE 
SUFT.C        15                   : SUFT         - SURFACE TEMPERATURE         
~A  DEPTH     RESD       GR     PHIN     PHID
# ...
  306.599    7.968   67.764    0.473    0.329
  306.899    7.965   69.006    0.491    0.328
  307.199    7.963   69.001    0.493    0.292
  307.499    7.962   69.620    0.438    0.269
  307.799    7.960   71.483    0.452    0.303
  308.099    7.958   72.102    0.485    0.319
  308.399    7.806   70.232    0.485    0.323
  308.699    7.656   65.871    0.458    0.320
  308.999    7.655   63.378    0.437    0.265
  309.299    7.508   62.128    0.464    0.274
  309.599    7.365   63.371    0.468    0.304
  309.899    7.364   70.213    0.464    0.296
  310.199    7.361   70.831    0.448    0.288
  310.499    7.221   70.204    0.434    0.282
  310.799    7.219   69.580    0.478    0.281
  311.099    7.218   69.575    0.498    0.302
  311.399    7.080   69.572    0.457    0.313
  311.699    7.078   69.569    0.426    0.314
  311.999    7.077   68.320    0.454    0.310
  312.299    7.074   72.050    0.467    0.312
  312.599    7.209   73.913    0.460    0.323
  312.899    7.207   73.911    0.455    0.319
  313.199    7.343   74.529    0.453    0.301
  313.499    7.482   72.657    0.454    0.281
  313.799    7.480   70.165    0.468    0.266
  314.099    7.622   72.649    0.479    0.262
  314.399    7.477   73.269    0.444    0.271
  314.699    7.334   73.888    0.446    0.273
  314.999    7.059   76.996    0.462    0.267
  315.299    6.666   81.349    0.433    0.265
  315.599    6.175   80.101    0.412    0.257
  315.899    5.722   76.985    0.470    0.246
  316.199    5.202   76.358    0.461    0.230
  316.499    4.466   81.957    0.469    0.214
  316.799    3.908   99.380    0.501    0.214
  317.099    3.762  101.243    0.475    0.214
  317.399    3.833   95.016    0.461    0.200
  317.699    4.724   99.991    0.473    0.189
  317.999    6.402   99.987    0.459    0.178
  318.299    7.312   87.536    0.444    0.199
  318.599    7.888   78.819    0.433    0.219
  318.899    8.038   80.059    0.406    0.249
  319.199    8.190   87.524    0.428    0.247
  319.499    8.188   89.389    0.435    0.230
  319.798    8.032   79.426    0.433    0.214
  320.098    7.879   78.177    0.430    0.194
  320.398    7.876   80.041    0.436    0.198
  320.698    8.026   84.394    0.448    0.211
  320.998    8.177   88.747    0.461    0.210
  321.298    8.332   89.366    0.461    0.205
  321.598    8.490   86.251    0.430    0.208
  321.898    8.817   90.604    0.447    0.197
  322.198    8.983   86.865    0.433    0.189
  322.498    9.155   82.504    0.440    0.205
  322.798    9.328   84.367    0.445    0.182
  323.098    9.504   86.854    0.404    0.190
  323.398    9.503   84.361    0.420    0.204
  323.698    9.682   86.224    0.423    0.213
  323.998    9.680   89.333    0.407    0.211
  324.298    9.678   86.216    0.394    0.208
  324.598    9.493   88.079    0.400    0.198
  324.898    9.312   90.566    0.415    0.178
  325.198    8.793   94.297    0.409    0.173
  325.498    7.993   99.272    0.409    0.187
  325.798    7.267  101.134    0.427    0.192
  326.098    6.481  101.132    0.452    0.185
  326.398    5.892   98.638    0.433    0.173
  326.698    5.255   95.522    0.425    0.204
  326.998    4.599   93.651    0.420    0.209
  327.298    3.660   93.648    0.414    0.195
  327.598    2.912   89.910    0.415    0.194
  327.898    2.362   84.305    0.464    0.207
  328.198    2.147   79.944    0.546    0.290
  328.498    2.066   76.829    0.592    0.286
  328.798    2.229   74.957    0.612    0.269
  329.098    2.595   71.842    0.617    0.262
  329.398    3.653   68.104    0.609    0.210
  329.698    5.876   66.232    0.580    0.205
  329.998    7.380   66.229    0.410    0.226
  330.298    9.095   68.093    0.404    0.215
  330.598    9.445   68.711    0.431    0.238
  330.898    9.265   67.462    0.455    0.235
  331.198    8.584   68.703    0.411    0.163
  331.498    7.954   72.434    0.399    0.156
  331.798    6.210   78.033    0.421    0.210
  332.098    4.408   86.742    0.467    0.227
  332.398    4.085   90.472    0.483    0.223
  332.698    4.083   91.714    0.479    0.196
  332.998    4.161   88.599    0.455    0.194
  333.298    4.160   84.860    0.458    0.209
  333.598    4.080   83.612    0.460    0.218
  333.898    3.571   94.811    0.465    0.224
  334.198    3.372   96.675    0.487    0.225
  334.498    3.436   86.090    0.524    0.214
  334.798    3.637   85.464    0.499    0.158
  335.098    3.998   96.663    0.472    0.176
  335.398    4.152  102.883    0.471    0.210
  335.698    4.152  103.502    0.488    0.212
  335.998    4.072  102.877    0.492    0.210
  336.298    4.071  104.117    0.478    0.212
  336.598    4.148  105.358    0.468    0.196
  336.898    4.391  104.732    0.471    0.177
  337.198    5.209   90.414    0.477    0.170
  337.498    6.927   63.025    0.475    0.224
  337.798    9.940   54.307    0.379    0.248
  338.098   13.731   48.080    0.382    0.260
  338.398   24.288   39.984    0.409    0.280
  338.698   25.709   38.114    0.380    0.302
  338.998   23.370   41.844    0.380    0.292
  339.298   18.953   49.932    0.405    0.273
  339.598   15.667   56.775    0.404    0.258
  339.898   13.452   61.127    0.372    0.254
  340.198   12.464   67.348    0.372    0.248
  340.498   11.548   69.210    0.396    0.239
  340.798   11.545   68.585    0.403    0.230
  341.098   12.219   71.692    0.387    0.175
  341.398   12.451   72.312    0.338    0.165
  341.698   13.432   65.462    0.369    0.159
  341.998   15.052   58.612    0.332    0.126
  342.298   17.191   55.496    0.326    0.187
  342.598   19.264   50.513    0.384    0.238
  342.898   20.782   48.642    0.333    0.187
  343.198   21.174   64.821    0.297    0.175
  343.498   21.991   78.510    0.299    0.182
  343.798   26.090   89.710    0.340    0.270
  344.098   30.953   91.573    0.372    0.285
  344.397   36.031   80.366    0.388    0.271
  344.697   38.869   64.180    0.397    0.252
  344.997   37.409   62.309    0.378    0.244
  345.297   33.364   69.774    0.367    0.247
  345.597   29.760   85.952    0.357    0.227
  345.897   22.798   94.040    0.349    0.193
  346.197   17.464   99.637    0.352    0.175
  346.497   15.876   99.633    0.357    0.166
  346.797   14.991   99.629    0.350    0.165
  347.097   14.705   99.627    0.367    0.159
  347.397   15.272   95.888    0.368    0.152
  347.697   16.164   88.416    0.347    0.150
  347.997   18.461   64.761    0.385    0.157
  348.297   24.551   56.044    0.398    0.250
  348.597   33.913   56.040    0.393    0.262
  348.897   35.219   71.597    0.372    0.252
  349.197   31.412   88.397    0.358    0.214
  349.497   23.166   87.147    0.340    0.182
  349.797   20.273   87.145    0.336    0.167
  350.097   20.491   75.541    0.364    0.234
  350.397   21.273   76.176    0.362    0.231
  350.697   21.261   73.714    0.390    0.230
  350.997   20.850   73.109    0.385    0.230
  351.297   20.844   76.223    0.388    0.230
  351.597   20.057   78.712    0.395    0.226
  351.897   18.936   79.347    0.402    0.222
  352.197   17.877   80.602    0.389    0.221
  352.497   17.872   80.621    0.376    0.220
  352.797   17.524   79.393    0.386    0.214
  353.097   17.519   75.075    0.392    0.214
  353.397   17.509   75.086    0.384    0.219
  353.697   16.221   81.916    0.370    0.217
  353.997   16.213   86.263    0.368    0.207
  354.297   16.835   88.134    0.364    0.201
  354.597   21.952   81.338    0.369    0.202
  354.897   47.805   56.588    0.418    0.247
  355.197   48.700   55.362    0.436    0.302
  355.497   38.026   57.237    0.420    0.277
  355.797   26.495   60.968    0.394    0.250
  356.097   17.436   69.029    0.380    0.251
  356.397   14.141   83.905    0.365    0.194
  356.697   12.374   95.684    0.354    0.175
  356.997   11.036  106.845    0.346    0.169
  357.297   10.421  112.433    0.364    0.166
  357.597    9.839  109.353    0.376    0.167
  357.897   10.021   99.462    0.380    0.170
  358.197   10.606   96.998    0.390    0.175
  358.497   13.570   88.345    0.408    0.231
