~VERSION INFORMATION
 VERS.                 2.0:   CWLS LOG ASCII STANDARD -VERSION 2.0
 WRAP.                  NO:   ONE LINE PER DEPTH STEP
~WELL INFORMATION BLOCK
#MNEM.UNIT           DATA                    DESCRIPTION OF MNEMONIC
#---------    -------------------            -------------------------------
# Generated from Intellog Unique Number	CS_77_79/WELL/3302
WELL.         MEGA ENGINEERING LTD.          : Well_name    - WELL
LOC .         00/11-15-077-11W4/0            : Location     - LOCATION
UWI .         00/11-15-077-11W4/0            : Uwi          - UNIQUE WELL ID
ENTR.         JOETTE                         : Entered      - ENTERED BY
SRVC.         SCHLUMBERGER                   : Scn          - SERVICE COMPANY
DATE.         08-26-92                       : Date         - LOG DATE
STRT.M        275                            : top_depth    - START DEPTH
STOP.M        510                            : bot_depth    - STOP DEPTH
STEP.M        0.25                           : increment    - STEP LENGTH
 NULL. -999.2500:NULL Value
~CURVE INFORMATION BLOCK
#MNEM UNIT       ERCB CURVE CODE    CURVE DESCRIPTION
#-----------   ------------------   ----------------------------------
DEPT.M        00 001 00 00         : DEPTH        - DEPTH
GR  .API      00 310 00 00         : GR           - GAMMA RAY
NPHI.V/V      00 330 00 00         : PHIN         - NEUTRON POROSITY (SANDSTONE)
DPHI.V/V      00 890 00 00         : PHID         - DENSITY POROSITY (SANDSTONE)
ILD .OHMM     00 120 00 00         : RESD         - DEEP RESISTIVITY (DIL)
~PARAMETER INFORMATION
#MNEM.UNIT           DATA             DESCRIPTION OF MNEMONIC
#---------         -----------     ------------------------------
GL  .M        679.49               : gl           - GROUND LEVEL ELEVATION
EREF.M        688.29               : kb           - ELEVATION OF DEPTH REFERENCE
DATM.M        688.29               : datum        - DATUM ELEVATION
TDD .M        521.4                : tdd          - TOTAL DEPTH DRILLER
RUN .         ONE                  : Run          - RUN NUMBER
ENG .         BILL                 : Engineer     - RECORDING ENGINEER
WIT .         JIM                  : Witness      - WITNESSED BY
MUD .         GEL                  : Mud_type     - MUD TYPE
MATR.         SANDSTONE            : Logunit      - NEUTRON MATRIX
TMAX.C        27                   : BHT          - MAXIMUM RECORDED TEMPERATURE
BHTD.M        521.4                : BHTDEP       - MAXIMUM RECORDED TEMPERATURE
MATR.         1                    : LOGUNIT      - NEUTRON MATRIX
RMT .C        12                   : MDTP         - TEMPERATURE OF MUD
NEUT.         1                    : NEUTRON      - NEUTRON TYPE
RESI.         0                    : RESIST       - RESISTIVITY TYPE
RMC .OHMM     2.4                  : RMC          - RESISTIVITY OF MUD CAKE
RMF .OHMM     3.5                  : RMF          - RESISTIVITY OF MUD FILTRATE
SUFT.C        5                    : SUFT         - SURFACE TEMPERATURE
~A  DEPTH       GR     PHIN     PHID     RESD
# ...
  405.500   64.913    0.393    0.330    6.154
  405.750   62.000    0.404    0.335    6.269
  406.000   59.675    0.399    0.340    6.748
  406.250   65.580    0.394    0.346    7.001
  406.500   59.728    0.389    0.351    7.399
  406.750   60.936    0.386    0.351    7.536
  407.000   58.611    0.384    0.343    7.675
  407.250   59.807    0.384    0.334    7.963
  407.500   64.535    0.376    0.334    7.962
  407.750   64.562    0.376    0.340    7.815
  408.000   68.115    0.407    0.340    7.125
  408.250   65.202    0.402    0.335    6.617
  408.500   62.296    0.394    0.340    6.377
  408.750   68.193    0.402    0.339    6.259
  409.000   64.693    0.399    0.333    6.259
  409.250   58.253    0.403    0.353    6.493
  409.500   64.745    0.363    0.351    6.614
  409.750   60.069    0.356    0.338    7.252
  410.000   59.508    0.355    0.316    7.524
  410.250   66.000    0.346    0.305    7.806
  410.500   66.026    0.317    0.293    7.805
  410.750   58.999    0.385    0.340    7.521
  411.000   58.437    0.396    0.349    7.248
  411.250   63.754    0.411    0.350    7.115
  411.500   62.604    0.402    0.347    6.856
  411.750   62.630    0.391    0.344    6.730
  412.000   67.953    0.400    0.340    6.606
  412.250   67.980    0.419    0.340    6.605
  412.500   71.526    0.444    0.342    6.604
  412.750   73.316    0.432    0.344    6.603
  413.000   58.647    0.411    0.346    6.603
  413.250   60.437    0.400    0.352    6.602
  413.500   65.760    0.399    0.343    6.724
  413.750   62.840    0.394    0.345    6.848
  414.000   61.691    0.384    0.342    6.848
  414.250   69.359    0.375    0.339    6.847
  414.500   72.324    0.382    0.339    6.846
  414.750   65.884    0.377    0.332    6.845
  415.000   65.911    0.425    0.334    6.844
  415.250   69.464    0.416    0.338    6.718
  415.500   69.490    0.388    0.342    6.595
  415.750   67.759    0.384    0.333    6.473
  416.000   73.663    0.379    0.331    6.472
  416.250   70.163    0.394    0.335    6.472
  416.500   65.480    0.385    0.333    6.352
  416.750   67.864    0.372    0.330    6.352
  417.000   67.303    0.366    0.326    6.351
  417.250   61.445    0.365    0.326    6.469
  417.500   65.592    0.406    0.327    6.468
  417.750   70.327    0.400    0.328    6.467
  418.000   67.421    0.381    0.321    6.466
  418.250   66.846    0.369    0.311    6.586
  418.500   69.224    0.395    0.302    6.585
  418.750   76.303    0.422    0.286    6.584
  419.000   71.040    0.415    0.285    6.584
  419.250   64.600    0.397    0.300    6.583
  419.500   66.396    0.394    0.306    6.462
  419.750   67.592    0.408    0.306    6.461
  420.000   72.320    0.403    0.305    6.460
  420.250   73.522    0.382    0.307    6.459
  420.500   72.373    0.381    0.318    6.579
  420.750   70.048    0.411    0.327    7.082
  421.000   79.485    0.411    0.319    7.766
  421.250   77.154    0.377    0.287    8.516
  421.500   67.188    0.306    0.215    9.339
  421.750   56.634    0.271    0.112    9.338
  422.000   69.591    0.295    0.155    8.833
  422.250   72.563    0.394    0.229    8.053
  422.500   73.758    0.387    0.309    7.619
  422.750   82.013    0.384    0.302    7.075
  423.000   79.101    0.379    0.288    6.945
  423.250   69.135    0.417    0.269    6.817
  423.500   70.924    0.388    0.297    6.816
  423.750   75.065    0.385    0.319    6.816
  424.000   75.091    0.382    0.292    6.815
  424.250   72.179    0.386    0.287    6.941
  424.500   71.029    0.375    0.290    6.940
  424.750   74.582    0.379    0.298    6.939
  425.000   76.960    0.399    0.302    6.939
  425.250   72.284    0.401    0.292    6.811
  425.500   75.837    0.397    0.246    6.685
  425.750   82.329    0.401    0.239    6.562
  426.000   82.949    0.410    0.256    6.442
  426.250   85.921    0.405    0.263    6.323
  426.500   84.765    0.403    0.264    6.322
  426.750   82.433    0.402    0.254    6.321
  427.000   80.115    0.396    0.239    6.321
  427.250   88.958    0.402    0.235    6.438
  427.500   95.450    0.372    0.225    6.679
  427.750  100.766    0.364    0.226    6.678
  428.000  106.671    0.374    0.224    6.677
  428.250  100.826    0.372    0.215    6.677
  428.500  100.264    0.371    0.220    6.554
  428.750   89.116    0.369    0.224    6.200
  429.000   98.547    0.375    0.231    5.652
  429.250   95.046    0.400    0.241    5.153
  429.500   96.248    0.394    0.238    4.699
  429.750   90.984    0.384    0.224    4.364
  430.000   85.720    0.382    0.209    4.128
  430.250   89.273    0.419    0.193    3.763
  430.500   86.361    0.465    0.203    3.495
  430.750   82.860    0.479    0.292    3.128
  431.000   87.589    0.489    0.295    2.800
  431.250   88.203    0.496    0.290    2.415
  431.500   82.358    0.505    0.284    2.285
  431.750   88.255    0.499    0.274    2.122
  432.000   93.572    0.489    0.268    2.045
  432.250   90.665    0.485    0.275    2.044
  432.500   86.571    0.542    0.294    2.044
  432.750   80.719    0.541    0.300    2.082
  433.000   83.103    0.500    0.303    2.160
  433.250   85.474    0.497    0.275    2.283
  433.500   96.080    0.501    0.259    2.457
  433.750  102.572    0.476    0.243    2.550
  434.000  112.009    0.432    0.234    2.745
  434.250  104.976    0.403    0.218    2.848
  434.500  101.482    0.375    0.208    3.240
  434.750  100.914    0.399    0.199    3.969
  435.000   90.360    0.383    0.137    4.862
  435.250   89.210    0.354    0.132    5.956
  435.500   85.122    0.363    0.161    6.066
  435.750   85.148    0.382    0.185    5.955
  436.000   87.532    0.394    0.194    5.530
  436.250   94.018    0.395    0.202    5.232
  436.500  105.219    0.394    0.206    4.949
  436.750  119.352    0.385    0.214    4.769
  437.000  105.865    0.383    0.221    4.682
  437.250  108.243    0.419    0.222    4.595
  437.500  104.148    0.417    0.216    4.511
  437.750  104.181    0.409    0.211    4.428
  438.000  102.444    0.414    0.207    4.510
  438.250  103.639    0.439    0.210    4.679
  438.500  120.711    0.436    0.214    5.037
  438.750  114.859    0.426    0.215    5.226
  439.000  103.130    0.410    0.198    5.730
  439.250   96.103    0.378    0.150    6.284
  439.500   84.954    0.348    0.117    7.019
  439.750   72.637    0.337    0.067    7.986
  440.000   84.419    0.347    0.153    8.597
  440.250   89.742    0.357    0.198    8.919
  440.500   84.478    0.357    0.209    7.553
  440.750   90.970    0.400    0.219    6.637
  441.000  105.691    0.428    0.224    6.051
  441.250   95.137    0.397    0.211    5.619
  441.500   96.940    0.364    0.200    6.050
  441.750   95.778    0.340    0.191    6.883
  442.000   94.047    0.304    0.187    7.832
  442.250   87.013    0.288    0.144    9.246
  442.500   74.689    0.298    0.147   10.328
  442.750   69.426    0.311    0.281   11.751
  443.000   75.330    0.300    0.290   12.192
  443.250   67.715    0.279    0.290   12.648
  443.500   63.633    0.277    0.290   12.648
  443.750   66.592    0.282    0.289   12.414
  444.000   70.732    0.318    0.282   12.186
  444.250   84.284    0.331    0.251   12.184
  444.500   83.723    0.336    0.238   12.183
  444.750   80.222    0.338    0.214   13.114
  445.000   79.073    0.331    0.217   13.606
  445.250   80.281    0.324    0.249   14.380
  445.500   77.362    0.326    0.264   15.196
  445.750   66.808    0.326    0.255   15.478
  446.000   65.064    0.321    0.245   15.476
  446.250   82.143    0.321    0.257   15.475
  446.500   89.811    0.338    0.269   15.472
  446.750   96.302    0.357    0.277   16.052
  447.000  106.321    0.352    0.264   16.654
  447.250  109.874    0.356    0.287   17.601
  447.500   99.320    0.351    0.292   19.660
  447.750  108.751    0.343    0.257   20.777
  448.000   98.197    0.311    0.294   22.783
  448.250   70.597    0.214    0.339   24.984
  448.500   55.335    0.167    0.342   29.497
  448.750   60.076    0.164    0.337   35.473
