~VERSION INFORMATION
 VERS.                 2.0:   CWLS LOG ASCII STANDARD -VERSION 2.0
 WRAP.                  NO:   ONE LINE PER DEPTH STEP
~WELL INFORMATION BLOCK
#MNEM.UNIT           DATA                    DESCRIPTION OF MNEMONIC
#---------    -------------------            -------------------------------
# Generated from Intellog Unique Number	CS_77_79/WELL/1004
WELL.         MAYNARD ET AL THORNBURY        : Well_name    - WELL
LOC .         00/11-31-079-11W4/0            : Location     - LOCATION
UWI .         00/11-31-079-11W4/0            : Uwi          - UNIQUE WELL ID
ENTR.         JHS                            : Entered      - ENTERED BY
SRVC.         SCHLUMBERGER                   : Scn          - SERVICE COMPANY
STRT.M        225                            : top_depth    - START DEPTH
STOP.M        495                            : bot_depth    - STOP DEPTH
STEP.M        0.25                           : increment    - STEP LENGTH
 NULL. -999.2500:NULL Value
~CURVE INFORMATION BLOCK
#MNEM UNIT       ERCB CURVE CODE    CURVE DESCRIPTION
#-----------   ------------------   ----------------------------------
DEPT.M        00 001 00 00         : DEPTH        - DEPTH
DPHI.V/V      00 890 00 00         : PHID         - DENSITY POROSITY (LIMESTONE)
NPHI.V/V      00 330 00 00         : PHIN         - NEUTRON POROSITY (LIMESTONE)
GR  .API      00 310 00 00         : GR           - GAMMA RAY
ILD .OHMM     00 120 00 00         : RESD         - DEEP RESISTIVITY (DIL)
~PARAMETER INFORMATION
#MNEM.UNIT           DATA             DESCRIPTION OF MNEMONIC
#---------         -----------     ------------------------------
GL  .M        688.32               : gl           - GROUND LEVEL ELEVATION
EREF.M        691.52               : kb           - ELEVATION OF DEPTH REFERENCE
DATM.M        691.52               : datum        - DATUM ELEVATION
TDD .M        500                  : tdd          - TOTAL DEPTH DRILLER
RUN .         ONE                  : Run          - RUN NUMBER
ENG .         BILL                 : Engineer     - RECORDING ENGINEER
WIT .         JIM                  : Witness      - WITNESSED BY
MUD .         GEL                  : Mud_type     - MUD TYPE
MATR.         LIMESTONE            : Logunit      - NEUTRON MATRIX
TMAX.C        20                   : BHT          - MAXIMUM RECORDED TEMPERATURE
BHTD.M        500                  : BHTDEP       - MAXIMUM RECORDED TEMPERATURE
MATR.         1                    : LOGUNIT      - NEUTRON MATRIX
RMT .C        25                   : MDTP         - TEMPERATURE OF MUD
NEUT.         1                    : NEUTRON      - NEUTRON TYPE
RESI.         0                    : RESIST       - RESISTIVITY TYPE
RMC .OHMM     0.25                 : RMC          - RESISTIVITY OF MUD CAKE
RMF .OHMM     0.25                 : RMF          - RESISTIVITY OF MUD FILTRATE
SUFT.C        15                   : SUFT         - SURFACE TEMPERATURE
~A  DEPTH     PHID     PHIN       GR     RESD
  225.000    0.249    0.525  117.280    4.116
  225.250    0.251    0.533  115.468    4.035
  225.500    0.264    0.537  117.989    3.955
  225.750    0.276    0.538  122.344    3.875
  226.000    0.297    0.536  125.474    3.793
  226.250    0.298    0.526  126.756    3.713
  226.500    0.268    0.513  128.649    3.715
  226.750    0.247    0.497  130.546    3.799
  227.000    0.237    0.487  130.584    3.801
  227.250    0.244    0.486  129.399    3.967
  227.500    0.252    0.496  127.586    4.134
  227.750    0.269    0.500  123.930    4.300
  228.000    0.270    0.494  119.030    5.043
  228.250    0.259    0.451  104.873    5.950
  228.500    0.239    0.430   95.040    6.857
  228.750    0.206    0.410   84.591    8.175
  229.000    0.179    0.397   80.320   10.235
  229.250    0.170    0.390   77.887   11.306
  229.500    0.180    0.385   76.704   10.897
  229.750    0.197    0.389   79.208    9.582
  230.000    0.189    0.404   84.197    7.937
  230.250    0.198    0.434   89.171    5.964
  230.500    0.206    0.463   95.391    5.389
  230.750    0.225    0.467   99.765    4.980
  231.000    0.211    0.475  101.651    4.817
  231.250    0.197    0.475  101.695    4.819
  231.500    0.204    0.477  102.970    4.821
  231.750    0.212    0.484  104.869    4.905
  232.000    0.217    0.487  104.288    4.824
  232.250    0.223    0.484  103.095    4.661
  232.500    0.222    0.484  103.766    4.498
  232.750    0.231    0.484  105.653    4.335
  233.000    0.230    0.476  109.411    4.255
  233.250    0.236    0.476  111.308    4.175
  233.500    0.231    0.479  113.209    4.176
  233.750    0.221    0.477  113.228    4.095
  234.000    0.210    0.471  115.136    4.098
  234.250    0.199    0.466  117.027    4.099
  234.500    0.202    0.464  117.683    4.101
  234.750    0.225    0.455  117.117    4.103
  235.000    0.236    0.447  115.301    4.022
  235.250    0.232    0.455  109.786    4.024
  235.500    0.233    0.466  105.511    3.944
  235.750    0.227    0.472  104.321    3.946
  236.000    0.229    0.490  106.840    3.947
  236.250    0.224    0.504  107.489    4.031
  236.500    0.228    0.491  108.152    4.033
  236.750    0.236    0.471  109.431    4.035
  237.000    0.246    0.461  108.870    4.119
  237.250    0.261    0.470  108.293    4.120
  237.500    0.258    0.477  110.178    4.123
  237.750    0.251    0.464  113.302    4.125
  238.000    0.239    0.465  113.353    4.208
  238.250    0.242    0.471  111.536    4.210
  238.500    0.242    0.481  111.588    4.212
  238.750    0.243    0.510  109.155    4.131
  239.000    0.237    0.521  106.743    4.051
  239.250    0.225    0.521  109.242    3.971
  239.500    0.225    0.518  117.937    3.889
  239.750    0.228    0.513  122.302    3.809
  240.000    0.237    0.508  124.816    3.729
  240.250    0.245    0.505  124.855    3.648
  240.500    0.256    0.496  121.198    3.568
  240.750    0.261    0.496  117.535    3.487
  241.000    0.253    0.499  115.718    3.489
  241.250    0.236    0.498  115.151    3.491
  241.500    0.233    0.493  113.958    3.410
  241.750    0.229    0.492  115.234    3.412
  242.000    0.234    0.500  117.132    3.331
  242.250    0.244    0.519  117.791    3.251
  242.500    0.246    0.529  120.303    3.171
  242.750    0.245    0.538  119.115    3.172
  243.000    0.243    0.542  115.450    3.256
  243.250    0.257    0.545  112.411    3.340
  243.500    0.263    0.536  111.834    3.342
  243.750    0.261    0.521  114.963    3.344
  244.000    0.253    0.513  116.242    3.346
  244.250    0.246    0.500  113.201    3.347
  244.500    0.240    0.491  108.926    3.349
  244.750    0.238    0.485  107.109    3.351
  245.000    0.234    0.480  104.683    3.435
  245.250    0.228    0.499  105.347    3.519
  245.500    0.228    0.515  108.472    3.603
  245.750    0.219    0.532  112.839    3.605
  246.000    0.234    0.548  115.346    3.689
  246.250    0.238    0.548  116.621    3.691
  246.500    0.231    0.531  117.903    3.692
  246.750    0.229    0.510  113.623    3.694
  247.000    0.241    0.495  111.820    3.614
  247.250    0.252    0.484  110.628    3.534
  247.500    0.247    0.485  106.976    3.535
  247.750    0.235    0.496  105.162    3.455
  248.000    0.219    0.506  105.198    3.374
  248.250    0.220    0.508  107.713    3.376
  248.500    0.230    0.507  111.459    3.378
  248.750    0.242    0.507  115.206    3.379
  249.000    0.270    0.504  111.541    3.381
  249.250    0.260    0.506  105.415    3.384
  249.500    0.253    0.515  104.850    3.384
  249.750    0.244    0.527  106.116    3.387
  250.000    0.230    0.536  108.634    3.388
  250.250    0.235    0.536  111.756    3.390
  250.500    0.233    0.534  116.748    3.310
  250.750    0.224    0.532  118.632    3.229
  251.000    0.229    0.529  113.123    3.148
  251.250    0.238    0.541  108.857    3.068
  251.500    0.248    0.562  107.653    2.987
  251.750    0.258    0.573  108.936    2.743
  252.000    0.268    0.578  110.830    2.662
  252.250    0.274    0.572  109.635    2.664
  252.500    0.276    0.558  105.372    2.583
  252.750    0.270    0.546  103.560    2.585
  253.000    0.264    0.536  105.449    2.587
  253.250    0.273    0.537  105.490    2.671
  253.500    0.280    0.538  106.770    2.673
  253.750    0.283    0.531  109.897    2.674
  254.000    0.287    0.537  108.706    2.676
  254.250    0.273    0.539  109.365    2.678
  254.500    0.272    0.539  111.872    2.680
  254.750    0.259    0.544  110.687    2.763
  255.000    0.252    0.534  107.029    2.848
  255.250    0.247    0.528  103.983    3.179
  255.500    0.238    0.531  102.185    3.180
  255.750    0.239    0.537  103.451    3.265
  256.000    0.243    0.537  107.814    3.184
  256.250    0.247    0.535  112.177    3.103
  256.500    0.248    0.530  110.368    3.023
  256.750    0.240    0.519  104.874    3.354
  257.000    0.225    0.509  103.063    3.603
  257.250    0.229    0.502  102.472    3.852
  257.500    0.237    0.501  104.984    4.018
  257.750    0.241    0.511  104.422    4.020
  258.000    0.243    0.512  103.228    3.939
  258.250    0.236    0.518  102.658    3.776
  258.500    0.236    0.514  105.170    3.614
  258.750    0.242    0.515  107.053    3.450
  259.000    0.230    0.523  108.947    3.370
  259.250    0.216    0.515  110.860    3.290
  259.500    0.206    0.503  109.050    3.374
  259.750    0.196    0.498  106.005    3.458
  260.000    0.206    0.488  103.566    3.707
  260.250    0.209    0.484  104.240    3.955
  260.500    0.213    0.489  104.267    4.039
  260.750    0.223    0.489  104.328    3.959
  261.000    0.219    0.499  106.833    3.878
  261.250    0.230    0.502  108.102    3.715
  261.500    0.231    0.493  106.911    3.553
  261.750    0.214    0.484  105.733    3.472
  262.000    0.212    0.477  105.778    3.392
  262.250    0.209    0.478  106.432    3.476
  262.500    0.211    0.491  107.082    3.559
  262.750    0.237    0.500  108.993    3.644
  263.000    0.231    0.503  108.422    3.727
  263.250    0.228    0.498  107.217    3.894
  263.500    0.240    0.490  101.086    4.061
  263.750    0.235    0.452   99.900    4.392
  264.000    0.239    0.426   95.615    4.640
  264.250    0.236    0.392   82.702    4.971
  264.500    0.214    0.374   75.334    5.385
  264.750    0.152    0.370   72.908    5.716
  265.000    0.140    0.386   77.887    5.964
  265.250    0.153    0.417   86.582    6.213
  265.500    0.203    0.433   92.172    6.544
  265.750    0.238    0.439   95.315    6.628
  266.000    0.231    0.422   95.341    6.794
  266.250    0.228    0.397   91.073    7.125
  266.500    0.240    0.366   83.708    7.703
  266.750    0.264    0.323   76.954    8.775
  267.000    0.296    0.274   67.744   17.226
  267.250    0.342    0.232   59.764   23.868
  267.500    0.399    0.212   53.012   31.332
  267.750    0.400    0.201   45.666   43.722
  268.000    0.374    0.198   45.697   62.664
  268.250    0.354    0.211   53.156   71.767
