~VERSION INFORMATION
 VERS.                 2.0:   CWLS LOG ASCII STANDARD -VERSION 2.0
 WRAP.                  NO:   ONE LINE PER DEPTH STEP
~WELL INFORMATION BLOCK
#MNEM.UNIT           DATA                    DESCRIPTION OF MNEMONIC
#---------    -------------------            -------------------------------
# Generated from Intellog Unique Number	CN_91_93/WELL/1076
WELL.         PETRO CANADA                   : Well_name    - WELL
LOC .         00/10-01-091-18W4/0            : Location     - LOCATION
UWI .         00/10-01-091-18W400            : Uwi          - UNIQUE WELL ID
ENTR.         JOETTE                         : Entered      - ENTERED BY
SRVC.         SCHLUMBERGER                   : Scn          - SERVICE COMPANY
DATE.         02/04/92                       : Date         - LOG DATE
STRT.F        196.85                         : top_depth    - START DEPTH
STOP.F        780.84                         : bot_depth    - STOP DEPTH
STEP.F        0.821                          : increment    - STEP LENGTH
 NULL. -999.2500:NULL Value
~CURVE INFORMATION BLOCK
#MNEM UNIT       ERCB CURVE CODE    CURVE DESCRIPTION
#-----------   ------------------   ----------------------------------
DEPT.F        00 001 00 00         : DEPTH        - DEPTH
ILD .OHMM     00 120 00 00         : RESD         - DEEP RESISTIVITY (DIL)
DPHI.V/V      00 890 00 00         : PHID         - DENSITY POROSITY (SANDSTONE)
NPHI.V/V      00 330 00 00         : PHIN         - NEUTRON POROSITY (SANDSTONE)
CALI.IN       00 280 01 00         : CAL          - CALIPER
GR  .API      00 310 00 00         : GR           - GAMMA RAY
~PARAMETER INFORMATION
#MNEM.UNIT           DATA             DESCRIPTION OF MNEMONIC
#---------         -----------     ------------------------------
GL  .F        1663.06              : gl           - GROUND LEVEL ELEVATION
EREF.F        1673.88              : kb           - ELEVATION OF DEPTH REFERENCE
DATM.F        1673.88              : datum        - DATUM ELEVATION
TDD .F        807.087              : tdd          - TOTAL DEPTH DRILLER
RUN .         ONE                  : Run          - RUN NUMBER
ENG .         BILL                 : Engineer     - RECORDING ENGINEER
WIT .         JIM                  : Witness      - WITNESSED BY
MUD .         GEL                  : Mud_type     - MUD TYPE
MATR.         SANDSTONE            : Logunit      - NEUTRON MATRIX
TMAX.F        77                   : BHT          - MAXIMUM RECORDED TEMPERATURE
BHTD.F        807.087              : BHTDEP       - MAXIMUM RECORDED TEMPERATURE
RMT .F        53.6                 : MDTP         - TEMPERATURE OF MUD
MUDD.LB/G     9.58333              : MWT          - MUD DENSITY
NEUT.         1                    : NEUTRON      - NEUTRON TYPE
RESI.         0                    : RESIST       - RESISTIVITY TYPE
RM  .OHMM     2.6                  : RM           - RESISTIVITY OF MUD
RMC .OHMM     2.6                  : RMC          - RESISTIVITY OF MUD CAKE
RMF .OHMM     2.6                  : RMF          - RESISTIVITY OF MUD FILTRATE
SUFT.F        39.2                 : SUFT         - SURFACE TEMPERATURE
~A  DEPTH     RESD     PHID     PHIN      CAL       GR
# ...
  556.102   47.597    0.247    0.399    6.738   89.546
  556.923   38.807    0.232    0.415    6.776   91.613
  557.743   35.977    0.198    0.426    6.794   94.866
  558.563   31.396    0.182    0.422    6.832   93.364
  559.383   33.092    0.150    0.392    6.831   88.297
  560.203   37.614    0.173    0.394    6.753   84.714
  561.024   36.764    0.222    0.430    6.693   86.186
  561.844   36.205    0.221    0.449    6.692   97.175
  562.664   43.388    0.177    0.383    6.769   97.458
  563.484   43.051    0.176    0.397    6.787   89.116
  564.304   41.760    0.215    0.418    6.767   90.586
  565.125   41.117    0.227    0.425    6.668   99.196
  565.945   40.499    0.208    0.428    6.609  102.157
  566.765   37.826    0.172    0.419    6.471  101.845
  567.585   37.252    0.149    0.387    6.451   93.797
  568.406   37.252    0.161    0.401    6.469   94.672
  569.226   37.230    0.186    0.420    6.605   96.446
  570.046   37.506    0.214    0.435    6.819  102.675
  570.866   37.498    0.217    0.438    6.857   99.093
  571.686   36.925    0.205    0.429    6.797   98.781
  572.507   36.632    0.211    0.422    6.757   96.982
  573.327   36.082    0.203    0.450    6.737   94.883
  574.147   36.082    0.130    0.406    6.736   93.679
  574.967   34.723    0.137    0.383    6.774   89.201
  575.787   34.719    0.186    0.412    6.792   94.244
  576.608   34.974    0.216    0.432    6.830   99.284
  577.428   35.499    0.222    0.433    6.888  101.648
  578.248   35.490    0.198    0.429    6.965  101.635
  579.068   34.167    0.159    0.416    6.984   98.347
  579.888   32.892    0.168    0.404    6.904   95.063
  580.709   33.132    0.204    0.407    6.826  101.888
  581.529   33.125    0.221    0.395    6.942  103.656
  582.349   33.116    0.218    0.400    6.999  104.831
  583.169   32.859    0.212    0.417    7.018  107.197
  583.990   34.117    0.210    0.416    6.958  105.398
  584.810   38.489    0.218    0.406    6.918  101.218
  585.630   39.961    0.209    0.412    6.917  103.285
  586.450   40.255    0.208    0.414    6.916  106.540
  587.270   39.940    0.199    0.406    6.915  108.011
  588.091   39.630    0.154    0.408    6.914  106.810
  588.911   42.408    0.124    0.365    6.874  100.847
  589.731   44.700    0.096    0.321    6.834   96.669
  590.551   41.438    0.180    0.316    6.794  101.412
  591.371   37.553    0.207    0.361    6.793  110.915
  592.192   35.612    0.219    0.426    6.831  115.656
  593.012   34.023    0.209    0.407    6.733  118.913
  593.832   33.507    0.195    0.422    6.615  119.791
  594.652   32.501    0.186    0.422    6.633  117.395
  595.472   30.131    0.208    0.417    6.652  115.895
  596.293   28.145    0.224    0.447    6.534  115.285
  597.113   26.289    0.228    0.472    6.416  116.457
  597.933   24.554    0.235    0.477    6.376  116.148
  598.753   26.878    0.206    0.485    6.394  112.267
  599.573   28.979    0.158    0.445    6.452  107.197
  600.394   29.413    0.083    0.379    6.548   96.771
  601.214   27.062    0.177    0.388    6.645  101.812
  602.034   25.857    0.219    0.422    6.742  112.502
  602.854   25.656    0.229    0.445    6.838  114.273
  603.675   25.457    0.227    0.456    6.915  108.906
  604.495   25.644    0.200    0.444    6.973  104.430
  605.315   27.649    0.109    0.405    6.952  102.034
  606.135   28.706    0.166    0.391    6.873  105.588
  606.955   26.411    0.205    0.415    6.755  108.250
  607.776   25.619    0.215    0.423    6.618  102.884
  608.596   27.622    0.226    0.384    6.539   82.941
  609.416   45.458    0.258    0.263    6.479   66.272
  610.236   62.411    0.359    0.170    6.400   39.489
  611.056   82.509    0.367    0.051    6.360   20.142
  611.877  105.039    0.366    0.053    6.398   18.045
  612.697  123.994    0.366    0.052    6.436   18.328
  613.517  136.748    0.372    0.051    6.435   20.096
  614.337  146.326    0.377    0.050    6.415   19.784
  615.157  145.194    0.382    0.046    6.413   17.689
  615.978  144.068    0.386    0.050    6.432   18.564
  616.798  135.593    0.392    0.058    6.431   18.564
  617.618  129.556    0.398    0.070    6.430   20.013
  618.438  125.659    0.395    0.080    6.429   20.600
  619.259  125.633    0.394    0.082    6.428   20.586
  620.079  119.139    0.438    0.088    6.427   22.357
  620.899  103.190    0.445    0.080    6.426   23.532
  621.719   91.424    0.429    0.098    6.406   24.112
  622.539   67.570    0.405    0.160    6.405   24.097
  623.360   51.473    0.390    0.252    6.404   23.488
  624.180   40.413    0.356    0.319    6.403   23.176
  625.000   35.536    0.332    0.375    6.402   24.648
  625.820   33.698    0.341    0.387    6.401   26.118
  626.640   33.698    0.387    0.389    6.420   26.104
  627.461   32.926    0.379    0.387    6.418   24.898
  628.281   31.460    0.362    0.389    6.418   26.669
  629.101   31.453    0.356    0.395    6.416   28.141
  629.921   31.923    0.360    0.387    6.435   28.718
  630.741   31.910    0.361    0.374    6.473   28.707
  631.562   32.150    0.357    0.372    6.511   27.500
  632.382   32.386    0.350    0.360    6.510   26.593
  633.202   32.377    0.349    0.350    6.470   26.579
  634.022   32.615    0.347    0.366    6.371   27.752
  634.843   33.860    0.342    0.376    6.332   28.930
  635.663   35.962    0.339    0.396    6.311   30.103
  636.483   37.906    0.337    0.409    6.310   30.983
  637.303   40.562    0.334    0.388    6.309   31.858
  638.123   44.064    0.331    0.375    6.328   32.438
  638.944   49.712    0.329    0.366    6.346   33.015
  639.764   56.509    0.328    0.372    6.345   33.002
  640.584   62.323    0.327    0.355    6.364   32.392
  641.404   67.196    0.327    0.348    6.363   30.000
  642.224   72.999    0.327    0.345    6.362   26.712
  643.045   80.510    0.325    0.330    6.361   26.103
  643.865   92.906    0.321    0.349    6.360   28.469
  644.685  100.927    0.322    0.359    6.359   29.345
  645.505  103.218    0.324    0.358    6.377   29.925
  646.325  102.414    0.318    0.349    6.396   30.204
  647.146  100.093    0.318    0.341    6.396   30.788
  647.966   99.319    0.324    0.359    6.413   31.663
  648.786  101.567    0.327    0.367    6.432   32.243
  649.606  103.873    0.330    0.375    6.451   32.524
  650.427  100.000    0.335    0.375    6.450   32.513
  651.247   93.407    0.337    0.371    6.429   32.496
  652.067   85.941    0.333    0.373    6.409   33.376
  652.887   81.496    0.328    0.376    6.388   35.443
  653.707   76.695    0.326    0.382    6.368   39.889
  654.528   74.962    0.323    0.390    6.367   43.144
  655.348   75.512    0.316    0.376    6.366   45.806
  656.168   82.655    0.313    0.401    6.384   48.765
  656.988   89.117    0.316    0.412    6.384   54.996
  657.808   90.452    0.325    0.388    6.402   53.492
  658.629   87.077    0.325    0.381    6.440   47.530
  659.449   82.571    0.316    0.369    6.439   45.435
  660.269   80.704    0.304    0.388    6.458   44.230
  661.089   81.299    0.307    0.403    6.437   44.511
  661.909   80.057    0.313    0.412    6.416   45.984
  662.730   76.496    0.302    0.419    6.357   48.053
  663.550   73.088    0.302    0.420    6.336   51.904
  664.370   65.738    0.308    0.414    6.335   56.051
  665.190   61.869    0.311    0.403    6.335   55.442
  666.010   57.792    0.311    0.410    6.334   55.129
  666.831   63.258    0.316    0.428    6.352   56.005
  667.651   68.721    0.320    0.455    6.390   56.884
  668.471   66.159    0.327    0.427    6.428   57.165
  669.291   58.171    0.322    0.403    6.466   55.067
  670.112   54.747    0.313    0.407    6.504   61.599
  670.932   55.151    0.289    0.420    6.542   63.368
  671.752   55.556    0.263    0.409    6.580   61.867
  672.572   47.756    0.225    0.306    6.638   56.497
  673.392   40.436    0.155    0.304    6.695   59.755
  674.213   29.661    0.187    0.355    6.753   73.421
  675.033   24.926    0.235    0.402    6.732   87.682
