~VERSION INFORMATION
 VERS.                 2.0:   CWLS LOG ASCII STANDARD -VERSION 2.0
 WRAP.                  NO:   ONE LINE PER DEPTH STEP
~WELL INFORMATION BLOCK
#MNEM.UNIT           DATA                    DESCRIPTION OF MNEMONIC
#---------    -------------------            -------------------------------
# Generated from Intellog Unique Number	CW_82_90/WELL/3445
WELL.         DOME MINK                      : Well_name    - WELL
LOC .         00/10-35-088-22W4/0            : Location     - LOCATION
UWI .         00/10-35-088-22W4/0            : Uwi          - UNIQUE WELL ID
ENTR.         MAX                            : Entered      - ENTERED BY
SRVC.         WESTERN ATLAS                  : Scn          - SERVICE COMPANY
STRT.M        50                             : top_depth    - START DEPTH
STOP.M        252                            : bot_depth    - STOP DEPTH
STEP.M        0.25                           : increment    - STEP LENGTH
 NULL. -999.2500:NULL Value
~CURVE INFORMATION BLOCK
#MNEM UNIT       ERCB CURVE CODE    CURVE DESCRIPTION
#-----------   ------------------   ----------------------------------
DEPT.M        00 001 00 00         : DEPTH        - DEPTH
ILD .OHMM     00 120 00 00         : RESD         - DEEP RESISTIVITY (DIL)
NPHI.V/V      00 330 00 00         : PHIN         - NEUTRON POROSITY (SANDSTONE)
DPHI.V/V      00 890 00 00         : PHID         - DENSITY POROSITY (SANDSTONE)
CALI.MM       00 280 01 00         : CAL          - CALIPER
GR  .API      00 310 00 00         : GR           - GAMMA RAY
~PARAMETER INFORMATION
#MNEM.UNIT           DATA             DESCRIPTION OF MNEMONIC
#---------         -----------     ------------------------------
GL  .M        516.7                : gl           - GROUND LEVEL ELEVATION
EREF.M        520                  : kb           - ELEVATION OF DEPTH REFERENCE
DATM.M        516.7                : datum        - DATUM ELEVATION
TDD .M        252                  : tdd          - TOTAL DEPTH DRILLER
RUN .         ONE                  : Run          - RUN NUMBER
ENG .         BILL                 : Engineer     - RECORDING ENGINEER
WIT .         JIM                  : Witness      - WITNESSED BY
MUD .         GEL                  : Mud_type     - MUD TYPE
MATR.         SANDSTONE            : Logunit      - NEUTRON MATRIX
TMAX.C        20                   : BHT          - MAXIMUM RECORDED TEMPERATURE
BHTD.M        252                  : BHTDEP       - MAXIMUM RECORDED TEMPERATURE
MATR.         1                    : LOGUNIT      - NEUTRON MATRIX
RMT .C        18                   : MDTP         - TEMPERATURE OF MUD
NEUT.         1                    : NEUTRON      - NEUTRON TYPE
RESI.         0                    : RESIST       - RESISTIVITY TYPE
RMC .OHMM     5.4                  : RMC          - RESISTIVITY OF MUD CAKE
RMF .OHMM     4.5                  : RMF          - RESISTIVITY OF MUD FILTRATE
SUFT.C        -15                  : SUFT         - SURFACE TEMPERATURE
~A  DEPTH     RESD     PHIN     PHID      CAL       GR
# ...
  159.500    9.079    0.346    0.229  232.485   77.859
  159.750   10.053    0.349    0.248  232.458   75.754
  160.000   10.928    0.383    0.282  232.427   72.749
  160.250   11.989    0.383    0.290  232.406   71.240
  160.500   13.527    0.377    0.288  232.379   71.226
  160.750   14.567    0.382    0.288  232.348   73.300
  161.000   13.510    0.396    0.298  232.321   75.969
  161.250   11.849    0.411    0.305  232.294   78.938
  161.500    9.918    0.411    0.304  232.267   82.507
  161.750    8.617    0.394    0.312  232.236   84.581
  162.000    7.993    0.375    0.321  232.212   83.669
  162.250    7.413    0.398    0.326  232.185   78.572
  162.500    7.204    0.406    0.323  232.154   77.067
  162.750    7.133    0.400    0.318  232.130   77.644
  163.000    6.997    0.395    0.313  232.099   78.826
  163.250    6.863    0.392    0.311  231.568   81.194
  163.500    6.306    0.395    0.312  231.053   83.270
  163.750    5.904    0.395    0.314  231.022   85.943
  164.000    5.792    0.408    0.319  231.493   86.823
  164.250    5.953    0.417    0.310  231.465   82.922
  164.500    6.410    0.407    0.277  231.441   76.038
  164.750    7.300    0.389    0.238  232.410   65.869
  165.000    9.212    0.341    0.158  232.873   60.179
  165.250   13.124    0.255    0.152  233.347   58.666
  165.500   17.192    0.261    0.167  233.817   57.156
  165.750   23.595    0.294    0.193  234.277   58.635
  166.000   28.153    0.320    0.219  234.257   61.008
  166.250   28.664    0.322    0.253  233.732   64.276
  166.500   27.600    0.319    0.258  232.212   69.933
  166.750   24.662    0.323    0.250  229.696   73.798
  167.000   21.427    0.355    0.268  229.171   71.690
  167.250   18.273    0.383    0.286  231.629   73.168
  167.500   10.933    0.403    0.320  233.098   76.735
  167.750    5.633    0.411    0.337  232.573   82.392
  168.000    4.256    0.423    0.337  232.045   84.466
  168.250    3.275    0.433    0.331  232.021   82.658
  168.500    3.038    0.427    0.323  231.990   82.041
  168.750    3.093    0.419    0.312  231.966   82.028
  169.000    3.269    0.411    0.294  231.935   83.204
  169.250    3.937    0.401    0.286  231.908   83.785
  169.500    4.123    0.384    0.280  231.884   83.767
  169.750    4.609    0.377    0.274  232.355   83.755
  170.000    5.347    0.397    0.274  232.324   84.035
  170.250    6.204    0.403    0.278  232.798   84.317
  170.500    6.806    0.389    0.277  233.261   84.599
  170.750    7.399    0.372    0.274  233.732   83.685
  171.000    8.269    0.343    0.277  233.711   80.981
  171.250    8.988    0.343    0.279  234.178   77.682
  171.500    9.769    0.385    0.278  234.148   75.275
  171.750   10.327    0.397    0.281  234.124   76.754
  172.000   10.914    0.367    0.285  234.587   79.126
  172.250   11.217    0.353    0.283  234.560   80.901
  172.500   11.528    0.369    0.280  234.539   79.390
  172.750   11.739    0.384    0.270  235.010   76.388
  173.000   12.064    0.395    0.269  234.983   71.593
  173.250   12.169    0.397    0.289  234.955   72.473
  173.500   12.277    0.401    0.288  234.928   76.637
  173.750   11.709    0.403    0.279  234.894   75.723
  174.000   10.759    0.398    0.264  234.369   71.227
  174.250   10.074    0.392    0.275  234.342   73.005
  174.500    8.672    0.387    0.313  233.319   76.572
  174.750    7.464    0.388    0.314  232.794   77.152
  175.000    6.670    0.405    0.316  229.329   77.751
  175.250    6.006    0.428    0.307  229.333   80.415
  175.500    5.090    0.463    0.306  228.844   84.555
  175.750    4.774    0.471    0.307  227.861   86.628
  176.000    4.911    0.446    0.313  226.880   83.673
  176.250    6.022    0.414    0.325  226.391   75.989
  176.500    6.857    0.410    0.323  226.889   68.305
  176.750    7.596    0.399    0.300  227.385   65.942
  177.000    9.059    0.392    0.284  227.388   64.171
  177.250   10.412    0.409    0.269  226.899   62.991
  177.500    9.949    0.423    0.277  227.889   64.176
  177.750    7.686    0.429    0.290  227.892   65.656
  178.000    7.078    0.399    0.311  227.896   68.910
  178.250    7.017    0.363    0.303  227.407   74.529
  178.500    7.220    0.378    0.291  226.425   75.418
  178.750    6.899    0.396    0.285  226.922   70.986
  179.000    6.294    0.416    0.300  227.911   70.989
  179.250    5.689    0.434    0.324  229.393   73.651
  179.500    5.239    0.428    0.339  229.397   76.019
  179.750    4.915    0.413    0.336  229.401   77.204
  180.000    4.652    0.413    0.331  229.405   78.093
  180.250    4.570    0.424    0.323  228.916   79.278
  180.500    4.616    0.443    0.316  227.934   80.463
  180.750    4.576    0.423    0.309  227.446   81.056
  181.000    4.454    0.428    0.305  227.449   83.128
  181.250    4.667    0.468    0.300  227.454   83.426
  181.500    5.315    0.452    0.294  226.965   82.246
  181.750    6.109    0.432    0.284  226.475   77.518
  182.000    6.893    0.418    0.274  225.986   75.746
  182.250    7.849    0.416    0.279  225.990   76.340
  182.500    9.536    0.403    0.280  227.472   78.707
  182.750   10.661    0.398    0.265  228.461   81.370
  183.000   11.810    0.393    0.251  228.958   83.738
  183.250   13.203    0.385    0.218  228.963   83.149
  183.500   15.315    0.359    0.185  228.966   77.534
  183.750   20.218    0.327    0.166  228.477   70.441
  184.000   31.521    0.292    0.170  227.988   58.618
  184.250   32.428    0.270    0.190  227.992   55.368
  184.500   25.054    0.283    0.204  227.502   56.257
  184.750   19.179    0.324    0.224  227.014   61.285
  185.000   14.682    0.360    0.287  228.003   68.383
  185.250   11.878    0.382    0.282  228.500   79.324
  185.500   10.065    0.376    0.278  227.519   79.030
  185.750    8.608    0.369    0.279  227.030   77.850
  186.000    8.001    0.365    0.285  226.540   76.374
  186.250    8.080    0.371    0.297  225.558   72.533
  186.500    8.161    0.386    0.307  225.563   70.171
  186.750    8.874    0.399    0.300  226.551   69.286
  187.000   11.083    0.383    0.287  226.555   67.810
  187.250   13.219    0.346    0.238  226.559   61.900
  187.500   15.764    0.304    0.185  227.549   55.694
  187.750   19.329    0.294    0.263  227.552   51.261
  188.000   24.369    0.308    0.296  226.571   54.220
  188.250   24.163    0.335    0.298  225.589   59.839
  188.500   24.174    0.357    0.300  225.594   67.824
  188.750   24.870    0.362    0.315  225.105   60.731
  189.000   25.827    0.355    0.300  223.630   55.707
  189.250   26.321    0.343    0.283  223.634   52.458
  189.500   26.833    0.329    0.258  223.637   51.573
  189.750   27.099    0.309    0.229  223.641   50.393
  190.000   27.622    0.305    0.284  223.645   50.987
  190.250   27.895    0.352    0.316  224.142   52.171
  190.500   28.435    0.366    0.289  224.145   53.947
  190.750   28.982    0.349    0.262  225.134   53.654
  191.000   29.820    0.324    0.237  225.138   53.361
  191.250   30.677    0.326    0.290  224.649   55.728
  191.500   30.982    0.347    0.319  224.653   57.504
  191.750   30.152    0.348    0.333  225.642   56.915
  192.000   27.257    0.344    0.303  226.139   55.735
  192.250   26.529    0.332    0.285  226.143   55.737
  192.500   27.041    0.318    0.262  226.640   56.331
  192.750   28.340    0.296    0.196  227.136   56.924
  193.000   27.585    0.300    0.166  228.126   56.335
  193.250   24.934    0.327    0.219  228.129   58.407
  193.500   19.263    0.352    0.225  227.640   64.026
  193.750   15.160    0.371    0.229  227.151   73.784
  194.000   14.487    0.368    0.227  225.677   80.291
  194.250   12.975    0.383    0.231  225.189   82.658
  194.500   11.838    0.404    0.264  224.699   81.773
  194.750   11.738    0.401    0.282  225.196   82.958
  195.000   11.964    0.377    0.279  225.692   87.395
  195.250   12.194    0.359    0.265  226.682   88.580
  195.500   12.545    0.347    0.261  227.178   86.513
  195.750   12.669    0.350    0.267  227.182   84.741
