~VERSION INFORMATION
 VERS.                 2.0:   CWLS LOG ASCII STANDARD -VERSION 2.0
 WRAP.                  NO:   ONE LINE PER DEPTH STEP
~WELL INFORMATION BLOCK
#MNEM.UNIT           DATA                    DESCRIPTION OF MNEMONIC
#---------    -------------------            -------------------------------
# Generated from Intellog Unique Number	CS_71_72/WELL/922
WELL.         SULPETRO BRENDA IPIATIK        : Well_name    - WELL
LOC .         00/14-01-072-10W4/0            : Location     - LOCATION
UWI .         00/14-01-072-10W4/0            : Uwi          - UNIQUE WELL ID
ENTR.         SP                             : Entered      - ENTERED BY
SRVC.         SCHLUMBERGER                   : Scn          - SERVICE COMPANY
STRT.M        310.25                         : top_depth    - START DEPTH
STOP.M        510                            : bot_depth    - STOP DEPTH
STEP.M        0.25                           : increment    - STEP LENGTH
 NULL. -999.2500:NULL Value
~CURVE INFORMATION BLOCK
#MNEM UNIT       ERCB CURVE CODE    CURVE DESCRIPTION
#-----------   ------------------   ----------------------------------
DEPT.M        00 001 00 00         : DEPTH        - DEPTH
ILD .OHMM     00 120 00 00         : RESD         - DEEP RESISTIVITY (DIL)
DPHI.V/V      00 890 00 00         : PHID         - DENSITY POROSITY (LIMESTONE)
NPHI.V/V      00 330 00 00         : PHIN         - NEUTRON POROSITY (LIMESTONE)
GR  .API      00 310 00 00         : GR           - GAMMA RAY
~PARAMETER INFORMATION
#MNEM.UNIT           DATA             DESCRIPTION OF MNEMONIC
#---------         -----------     ------------------------------
GL  .M        664.9                : gl           - GROUND LEVEL ELEVATION
EREF.M        667.5                : kb           - ELEVATION OF DEPTH REFERENCE
DATM.M        664.9                : datum        - DATUM ELEVATION
TDD .M        521                  : tdd          - TOTAL DEPTH DRILLER
RUN .         ONE                  : Run          - RUN NUMBER
ENG .         BILL                 : Engineer     - RECORDING ENGINEER
WIT .         JIM                  : Witness      - WITNESSED BY
MUD .         GEL                  : Mud_type     - MUD TYPE
MATR.         LIMESTONE            : Logunit      - NEUTRON MATRIX
TMAX.C        25                   : BHT          - MAXIMUM RECORDED TEMPERATURE
BHTD.M        521                  : BHTDEP       - MAXIMUM RECORDED TEMPERATURE
MATR.         1                    : LOGUNIT      - NEUTRON MATRIX
RMT .C        25                   : MDTP         - TEMPERATURE OF MUD
NEUT.         1                    : NEUTRON      - NEUTRON TYPE
RESI.         0                    : RESIST       - RESISTIVITY TYPE
RMC .OHMM     0.25                 : RMC          - RESISTIVITY OF MUD CAKE
RMF .OHMM     0.25                 : RMF          - RESISTIVITY OF MUD FILTRATE
SUFT.C        15                   : SUFT         - SURFACE TEMPERATURE
~A  DEPTH     RESD     PHID     PHIN       GR
# ...
  440.750    6.322    0.223    0.413   86.295
  441.000    6.443    0.227    0.401   89.348
  441.250    6.570    0.233    0.401   88.145
  441.500    6.573    0.232    0.389   89.372
  441.750    6.578    0.221    0.381   93.032
  442.000    6.706    0.223    0.362   92.439
  442.250    6.709    0.228    0.358   91.839
  442.500    6.840    0.229    0.375   96.106
  442.750    6.845    0.224    0.390   97.939
  443.000    6.848    0.218    0.401  100.380
  443.250    6.854    0.215    0.379  102.214
  443.500    6.731    0.215    0.396  104.051
  443.750    6.491    0.212    0.424   97.993
  444.000    6.257    0.203    0.432   94.966
  444.250    5.707    0.193    0.396   97.407
  444.500    5.301    0.185    0.368  100.459
  444.750    4.745    0.181    0.354  100.474
  445.000    4.093    0.192    0.358  100.483
  445.250    3.664    0.207    0.384  101.103
  445.500    3.341    0.218    0.437   99.294
  445.750    2.991    0.220    0.444  102.347
  446.000    2.830    0.225    0.463  105.398
  446.250    2.729    0.216    0.464  109.661
  446.500    2.888    0.200    0.466  115.138
  446.750    3.171    0.188    0.458  120.006
  447.000    3.546    0.216    0.424  104.230
  447.250    3.967    0.233    0.407   91.490
  447.500    4.197    0.231    0.394   98.793
  447.750    4.524    0.220    0.376  101.234
  448.000    4.698    0.219    0.388   98.818
  448.250    4.878    0.226    0.397   93.367
  448.500    5.163    0.220    0.383   90.346
  448.750    5.361    0.214    0.378   89.747
  449.000    5.464    0.210    0.372   87.333
  449.250    5.781    0.195    0.388   86.128
  449.500    6.117    0.183    0.412   91.608
  449.750    6.352    0.178    0.433   97.087
  450.000    6.720    0.175    0.444  100.742
  450.250    7.659    0.173    0.421   98.327
  450.500    7.952    0.138    0.301   88.620
  450.750    9.062    0.057    0.253   72.236
  451.000   10.137    0.012    0.194   64.964
  451.250   10.723    0.046    0.284   74.691
  451.500    9.424    0.105    0.371   84.423
  451.750    8.435    0.154    0.383   88.078
  452.000    7.551    0.166    0.371   93.560
  452.250    7.147    0.168    0.358   97.821
  452.500    6.890    0.174    0.358   99.655
  452.750    6.644    0.175    0.378   94.810
  453.000    6.526    0.183    0.394   99.680
  453.250    6.530    0.190    0.383  106.377
  453.500    6.535    0.194    0.388  110.638
  453.750    6.538    0.194    0.369  112.473
  454.000    6.546    0.200    0.359  106.417
  454.250    6.549    0.201    0.355  106.427
  454.500    6.552    0.198    0.375  108.870
  454.750    6.555    0.201    0.407  104.638
  455.000    6.561    0.198    0.417  102.217
  455.250    6.564    0.192    0.417   99.797
  455.500    6.567    0.181    0.418   95.560
  455.750    6.572    0.178    0.425   94.358
  456.000    6.578    0.186    0.400   93.156
  456.250    6.581    0.190    0.381   96.204
  456.500    6.586    0.190    0.364  102.900
  456.750    6.468    0.188    0.354  107.161
  457.000    6.472    0.190    0.351  105.355
  457.250    6.477    0.188    0.336  103.544
  457.500    6.482    0.179    0.332  105.382
  457.750    6.484    0.175    0.346  110.250
  458.000    6.489    0.171    0.372  115.728
  458.250    6.257    0.171    0.410  104.206
  458.500    5.923    0.164    0.411   98.751
  458.750    5.709    0.142    0.386   93.297
  459.000    5.304    0.149    0.369   89.060
  459.250    4.836    0.182    0.354   93.934
  459.500    4.172    0.185    0.361   87.874
  459.750    3.598    0.211    0.414   83.632
  460.000    3.221    0.230    0.459   92.146
  460.250    2.937    0.231    0.458   97.017
  460.500    2.581    0.226    0.421   97.638
  460.750    2.443    0.216    0.408   95.222
  461.000    2.355    0.212    0.401  104.954
  461.250    2.539    0.212    0.400  106.188
  461.500    2.840    0.225    0.395  104.985
  461.750    3.004    0.216    0.440  104.383
  462.000    3.488    0.199    0.417   95.291
  462.250    3.829    0.178    0.394   88.014
  462.500    4.127    0.160    0.381   81.953
  462.750    4.286    0.161    0.368   85.616
  463.000    4.289    0.167    0.372   88.055
  463.250    4.214    0.183    0.388   90.494
  463.500    4.296    0.206    0.396   94.155
  463.750    4.298    0.215    0.388   95.379
  464.000    4.380    0.202    0.358   96.604
  464.250    4.466    0.200    0.344   92.977
  464.500    4.639    0.208    0.355   90.558
  464.750    4.816    0.208    0.378   86.321
  465.000    5.097    0.191    0.380   81.475
  465.250    5.392    0.173    0.447   77.234
  465.500    5.598    0.190    0.485   77.858
  465.750    5.924    0.140    0.423   79.688
  466.000    6.151    0.084    0.251   73.025
  466.250    6.389    0.074    0.248   70.605
  466.500    6.392    0.153    0.336   74.266
  466.750    5.940    0.222    0.372   76.098
  467.000    5.833    0.228    0.402   79.148
  467.250    5.523    0.236    0.393   82.200
  467.500    5.324    0.245    0.386   85.252
  467.750    5.228    0.230    0.382   85.867
  468.000    4.769    0.221    0.370   86.488
  468.250    4.512    0.209    0.348   90.751
  468.500    4.192    0.192    0.368   96.229
  468.750    3.895    0.181    0.426  101.708
  469.000    3.755    0.177    0.442  104.757
  469.250    3.554    0.175    0.416  107.805
  469.500    3.490    0.176    0.405  110.248
  469.750    3.429    0.177    0.399  112.694
  470.000    3.431    0.186    0.385  113.917
  470.250    3.499    0.196    0.369  115.144
  470.500    3.501    0.192    0.365  112.123
  470.750    3.568    0.180    0.363  110.921
  471.000    3.637    0.181    0.365  107.895
  471.250    3.778    0.171    0.377  102.442
  471.500    3.923    0.150    0.348   93.957
  471.750    3.998    0.152    0.334   90.323
  472.000    4.076    0.177    0.327   97.624
  472.250    4.003    0.188    0.354  106.746
  472.500    3.720    0.183    0.365  106.156
  472.750    3.456    0.189    0.349  104.342
  473.000    3.332    0.187    0.348  106.787
  473.250    3.213    0.182    0.395  110.441
  473.500    3.214    0.171    0.434  113.490
  473.750    3.339    0.162    0.445  113.505
  474.000    3.532    0.156    0.448  107.454
  474.250    3.600    0.166    0.440  105.037
  474.500    3.953    0.170    0.429  103.828
  474.750    4.423    0.159    0.417   97.767
  475.000    4.766    0.151    0.372   89.883
  475.250    5.136    0.167    0.330   78.965
  475.500    5.746    0.200    0.315   72.904
  475.750    6.428    0.213    0.312   69.274
  476.000    7.191    0.215    0.318   65.043
  476.250    7.466    0.206    0.329   63.836
  476.500    8.200    0.193    0.343   62.024
  476.750    8.514    0.174    0.351   60.216
  477.000    9.008    0.124    0.344   66.303
  477.250    9.531    0.027    0.267   71.173
  477.500    9.715   -0.008    0.241   73.008
  477.750    9.196    0.084    0.302   76.669
  478.000    8.866    0.163    0.336   78.500
  478.250    8.389    0.214    0.353   74.266
  478.500    7.652    0.241    0.364   70.629
  478.750    6.851    0.267    0.369   64.570
  479.000    6.483    0.269    0.361   62.153
  479.250    6.023    0.257    0.352   71.275
  479.500    5.914    0.248    0.364   80.398
  479.750    6.032    0.241    0.392   84.054
  480.000    6.148    0.242    0.406   73.744
  480.250    6.151    0.253    0.364   64.042
  480.500    6.154    0.258    0.335   59.194
  480.750    5.718    0.263    0.324   65.279
  481.000    5.313    0.259    0.327   63.470
  481.250    5.217    0.258    0.337   68.343
  481.500    5.031    0.236    0.349   81.108
  481.750    5.035    0.226    0.342   84.157
  482.000    5.039    0.216    0.326   82.348
  482.250    5.137    0.208    0.304   86.619
  482.500    5.140    0.200    0.296   88.450
  482.750    5.240    0.197    0.311   92.112
  483.000    5.341    0.198    0.319   93.943
  483.250    5.443    0.199    0.344   95.167
  483.500    5.548    0.202    0.330   94.575
  483.750    5.872    0.204    0.316   92.763
  484.000    6.098    0.194    0.338   90.348
