~VERSION INFORMATION
 VERS.                 2.0:   CWLS LOG ASCII STANDARD -VERSION 2.0
 WRAP.                  NO:   ONE LINE PER DEPTH STEP
~WELL INFORMATION BLOCK
#MNEM.UNIT           DATA                    DESCRIPTION OF MNEMONIC
#---------    -------------------            -------------------------------
# Generated from Intellog Unique Number	CW_79_81/WELL/222
WELL.         MEGA ET AL MISTAHAE 10-06      : Well_name    - WELL
LOC .         00/10-06-080-01W5/0            : Location     - LOCATION
UWI .         00/10-06-080-01W5/0            : Uwi          - UNIQUE WELL ID
ENTR.         JJ                             : Entered      - ENTERED BY
SRVC.         COMPUTALOG                     : Scn          - SERVICE COMPANY
DATE.         3 MAR 89                       : Date         - LOG DATE
STRT.M        285                            : top_depth    - START DEPTH
STOP.M        535                            : bot_depth    - STOP DEPTH
STEP.M        0.25                           : increment    - STEP LENGTH
 NULL. -999.2500:NULL Value
~CURVE INFORMATION BLOCK
#MNEM UNIT       ERCB CURVE CODE    CURVE DESCRIPTION
#-----------   ------------------   ----------------------------------
DEPT.M        00 001 00 00         : DEPTH        - DEPTH
DPHI.V/V      00 890 00 00         : PHID         - DENSITY POROSITY (SANDSTONE)
NPHI.V/V      00 330 00 00         : PHIN         - NEUTRON POROSITY (SANDSTONE)
GR  .API      00 310 00 00         : GR           - GAMMA RAY
CALI.MM       00 280 01 00         : CAL          - CALIPER
ILD .OHMM     00 120 00 00         : RESD         - DEEP RESISTIVITY (DIL)
~PARAMETER INFORMATION
#MNEM.UNIT           DATA             DESCRIPTION OF MNEMONIC
#---------         -----------     ------------------------------
GL  .M        605                  : gl           - GROUND LEVEL ELEVATION
EREF.M        608.64               : kb           - ELEVATION OF DEPTH REFERENCE
DATM.M        608.64               : datum        - DATUM ELEVATION
TDD .M        555                  : tdd          - TOTAL DEPTH DRILLER
RUN .         ONE                  : Run          - RUN NUMBER
ENG .         GAIR                 : Engineer     - RECORDING ENGINEER
WIT .         STRONG               : Witness      - WITNESSED BY
BASE.         RED DEER             : Branch       - HOME BASE OF LOGGING UNIT
MUD .         GEL CHEM             : Mud_type     - MUD TYPE
MATR.         SANDSTONE            : Logunit      - NEUTRON MATRIX
TMAX.C        37                   : BHT          - MAXIMUM RECORDED TEMPERATURE
BHTD.M        554.9                : BHTDEP       - MAXIMUM RECORDED TEMPERATURE
RMT .C        19                   : MDTP         - TEMPERATURE OF MUD
MUDD.KG/M     1140                 : MWT          - MUD DENSITY
NEUT.         1                    : NEUTRON      - NEUTRON TYPE
RESI.         0                    : RESIST       - RESISTIVITY TYPE
RM  .OHMM     4.1                  : RM           - RESISTIVITY OF MUD
RMC .OHMM     2.8                  : RMC          - RESISTIVITY OF MUD CAKE
RMF .OHMM     4.3                  : RMF          - RESISTIVITY OF MUD FILTRATE
SUFT.C        5                    : SUFT         - SURFACE TEMPERATURE
~A  DEPTH     PHID     PHIN       GR      CAL     RESD
# ...
  358.000    0.224    0.433   85.664  162.837    8.136
  358.250    0.218    0.441   88.698  164.772    7.827
  358.500    0.209    0.455   93.288  166.396    7.417
  358.750    0.214    0.462   95.513  166.981    7.025
  359.000    0.222    0.458   96.363  166.008    6.760
  359.250    0.230    0.453   92.599  164.618    6.822
  359.500    0.234    0.446   90.521  163.865    7.325
  359.750    0.238    0.444   89.999  161.435    7.715
  360.000    0.246    0.435   87.981  158.282    8.330
  360.250    0.261    0.427   84.345  155.644    9.130
  360.500    0.276    0.416   76.839  154.145    9.637
  360.750    0.283    0.411   69.772  154.111   10.228
  361.000    0.287    0.411   64.142  153.661   11.104
  361.250    0.288    0.415   60.629  153.724   12.230
  361.500    0.291    0.412   63.281  154.629   13.528
  361.750    0.290    0.407   63.007  155.629   14.577
  362.000    0.282    0.401   62.553  156.531   15.191
  362.250    0.271    0.401   61.474  157.835   15.385
  362.500    0.268    0.415   60.700  158.113   14.913
  362.750    0.267    0.410   60.803  157.863   14.419
  363.000    0.281    0.402   58.663  157.420   13.764
  363.250    0.295    0.398   57.330  155.077   13.090
  363.500    0.308    0.407   58.868  154.327   12.295
  363.750    0.313    0.415   63.644  154.390   11.868
  364.000    0.316    0.410   65.805  155.288   11.624
  364.250    0.318    0.407   63.664  156.393   11.431
  364.500    0.318    0.415   62.330  156.874   11.328
  364.750    0.318    0.416   62.744  157.657   11.271
  365.000    0.318    0.411   64.156  158.153   11.316
  365.250    0.319    0.405   64.944  158.536   11.395
  365.500    0.325    0.398   63.114  158.536   11.274
  365.750    0.338    0.401   62.221  158.650   11.146
  366.000    0.351    0.406   62.444  158.941   10.801
  366.250    0.351    0.417   64.604  159.842   10.235
  366.500    0.258    0.422   71.255  162.922    9.539
  366.750    0.228    0.410   78.523  166.107    9.193
  367.000    0.144    0.383   77.006  165.739    9.072
  367.250    0.115    0.337   70.253  164.577    8.953
  367.500    0.150    0.343   77.522  163.498    8.439
  367.750    0.179    0.345   83.236  163.549    8.008
  368.000    0.159    0.331   83.150  163.422    7.243
  368.250    0.184    0.356   84.186  164.118    6.601
  368.500    0.246    0.382   85.975  165.218    5.937
  368.750    0.270    0.410   87.574  166.536    5.272
  369.000    0.253    0.448   88.858  166.389    4.865
  369.250    0.244    0.451   89.959  163.954    4.459
  369.500    0.236    0.455   90.184  163.722    4.239
  369.750    0.228    0.478   87.605  164.406    4.264
  370.000    0.243    0.476   86.087  164.790    4.841
  370.250    0.257    0.464   86.752  163.087    5.464
  370.500    0.253    0.452   86.544  159.828    6.284
  370.750    0.255    0.446   84.149  157.509    7.419
  371.000    0.258    0.442   84.439  158.509    8.360
  371.250    0.248    0.427   85.668  160.761    8.988
  371.500    0.209    0.394   85.458  162.595    8.942
  371.750    0.203    0.393   85.184  162.553    8.520
  372.000    0.231    0.415   86.847  162.831    8.026
  372.250    0.230    0.443   87.758  164.665    7.523
  372.500    0.219    0.429   88.109  165.351    7.289
  372.750    0.230    0.426   88.524  164.169    7.182
  373.000    0.241    0.441   89.437  162.888    7.220
  373.250    0.233    0.457   89.789  163.578    7.275
  373.500    0.224    0.457   89.578  165.613    7.358
  373.750    0.209    0.448   84.008  167.450    7.289
  374.000    0.208    0.436   84.296  168.137    7.080
  374.250    0.208    0.420   90.447  167.587    6.999
  374.500    0.202    0.412   96.972  166.923    6.961
  374.750    0.202    0.429   92.399  166.058    7.030
  375.000    0.205    0.442   89.007  166.432    7.028
  375.250    0.204    0.452   90.540  167.957    6.965
  375.500    0.207    0.449   91.768  168.435    6.979
  375.750    0.210    0.444   92.744  167.882    7.057
  376.000    0.213    0.437   93.096  166.598    7.424
  376.250    0.218    0.429   93.011  165.932    7.776
  376.500    0.219    0.416   92.489  166.001    8.132
  376.750    0.216    0.413   92.218  166.486    8.240
  377.000    0.208    0.427   92.256  166.550    8.092
  377.250    0.205    0.428   92.859  166.614    7.927
  377.500    0.206    0.419   94.456  166.686    7.796
  377.750    0.209    0.427   95.930  166.961    7.711
  378.000    0.206    0.441   97.404  166.811    7.610
  378.250    0.201    0.448   97.820  167.091    7.626
  378.500    0.192    0.444   97.611  168.511    7.740
  378.750    0.182    0.449   93.969  164.213    8.083
  379.000    0.196    0.470   90.769  156.592    8.643
  379.250    0.207    0.480   88.193  154.684    9.433
  379.500    0.213    0.455   82.621  153.499   10.316
  379.750    0.228    0.432   72.311  152.944   11.605
  380.000    0.252    0.413   63.375  152.595   12.572
  380.250    0.269    0.393   61.858  152.561   13.653
  380.500    0.271    0.390   67.881  152.105   14.410
  380.750    0.280    0.404   72.536  152.996   14.870
  381.000    0.285    0.414   77.122  154.735   14.175
  381.250    0.261    0.400   77.289  157.086   11.966
  381.500    0.224    0.389   77.394  162.541   10.720
  381.750    0.206    0.394   79.739  164.697    9.533
  382.000    0.210    0.410   83.271  165.078    8.432
  382.250    0.223    0.428   88.359  165.351    7.728
  382.500    0.222    0.438   94.198  165.314    7.363
  382.750    0.212    0.440   91.806  164.963    7.390
  383.000    0.201    0.433   94.090  164.824    7.818
  383.250    0.194    0.434   97.557  165.408    8.485
  383.500    0.222    0.435   94.726  157.060    9.141
  383.750    0.237    0.436   90.594  158.689   10.092
  384.000    0.240    0.432   82.841  162.488   10.671
  384.250    0.251    0.423   77.393  163.600   11.182
  384.500    0.259    0.413   73.946  163.666   11.353
  384.750    0.246    0.408   76.355  163.523   10.897
  385.000    0.232    0.413   82.129  164.006    9.949
  385.250    0.216    0.418   85.593  164.175    9.338
  385.500    0.211    0.407   86.758  164.453    8.672
  385.750    0.206    0.402   88.789  164.101    8.370
  386.000    0.202    0.399   90.828  164.063    8.184
  386.250    0.199    0.394   92.741  164.337    8.082
  386.500    0.203    0.384   85.300  164.608    8.035
  386.750    0.206    0.396   85.898  164.683    8.052
  387.000    0.206    0.419   90.363  164.540    8.053
  387.250    0.205    0.434   93.830  164.294    8.085
  387.500    0.204    0.420   95.307  164.567    8.130
  387.750    0.204    0.422   94.974  164.213    8.301
  388.000    0.204    0.426   93.330  163.871    8.551
  388.250    0.208    0.419   90.317  163.412    8.829
  388.500    0.219    0.408   84.931  163.067    8.845
  388.750    0.226    0.399   84.910  163.138    8.572
  389.000    0.217    0.405   90.436  164.133    8.322
  389.250    0.209    0.418   94.653  165.342    7.989
  389.500    0.206    0.430   93.945  165.203    7.597
  389.750    0.203    0.432   92.489  164.650    7.251
  390.000    0.198    0.429   93.462  164.088    7.319
  390.250    0.191    0.431   93.816  164.052    8.515
  390.500    0.185    0.438   91.424  163.812    9.812
  390.750    0.184    0.430   83.048  160.961   10.853
  391.000    0.199    0.419   72.487  155.424   11.367
  391.250    0.232    0.423   67.044  151.851   11.934
  391.500    0.266    0.419   62.531  154.102   12.455
  391.750    0.297    0.408   62.883  157.392   12.882
  392.000    0.283    0.400   69.596  156.835   13.372
  392.250    0.264    0.406   77.552  155.965   14.117
  392.500    0.244    0.409   76.656  155.824   15.073
  392.750    0.267    0.400   72.706  156.201   15.732
  393.000    0.283    0.398   68.505  157.199   16.146
  393.250    0.285    0.414   65.616  158.514   16.451
  393.500    0.283    0.427   67.840  158.898   16.118
  393.750    0.276    0.435   75.297  159.682   15.278
  394.000    0.268    0.435   79.453  159.549   14.579
  394.250    0.262    0.418   81.302  158.467   13.511
