~VERSION INFORMATION
 VERS.                 2.0:   CWLS LOG ASCII STANDARD -VERSION 2.0
 WRAP.                  NO:   ONE LINE PER DEPTH STEP
~WELL INFORMATION BLOCK
#MNEM.UNIT           DATA                    DESCRIPTION OF MNEMONIC
#---------    -------------------            -------------------------------
# Generated from Intellog Unique Number	CW_73_75/WELL/1046
WELL.         AMOCO 57 MARTEN HILLS 11-32    : Well_name    - WELL
LOC .         00/11-32-075-25W4/0            : Location     - LOCATION
UWI .         00/11-32-075-25W4/0            : Uwi          - UNIQUE WELL ID
ENTR.         JAYE                           : Entered      - ENTERED BY
SRVC.         SCHLUMBERGER                   : Scn          - SERVICE COMPANY
STRT.M        463.296                        : top_depth    - START DEPTH
STOP.M        649.296                        : bot_depth    - STOP DEPTH
STEP.M        0.25                           : increment    - STEP LENGTH
 NULL. -999.2500:NULL Value
~CURVE INFORMATION BLOCK
#MNEM UNIT       ERCB CURVE CODE    CURVE DESCRIPTION
#-----------   ------------------   ----------------------------------
DEPT.M        00 001 00 00         : DEPTH        - DEPTH
ILD .OHMM     00 120 00 00         : RESD         - DEEP RESISTIVITY (DIL)
NPHI.V/V      00 330 00 00         : PHIN         - NEUTRON POROSITY (SANDSTONE)
DPHI.V/V      00 890 00 00         : PHID         - DENSITY POROSITY (SANDSTONE)
GR  .API      00 310 00 00         : GR           - GAMMA RAY
CALI.MM       00 280 01 00         : CAL          - CALIPER
~PARAMETER INFORMATION
#MNEM.UNIT           DATA             DESCRIPTION OF MNEMONIC
#---------         -----------     ------------------------------
GL  .M        752.246              : gl           - GROUND LEVEL ELEVATION
EREF.M        756.209              : kb           - ELEVATION OF DEPTH REFERENCE
DATM.M        752.246              : datum        - DATUM ELEVATION
TDD .M        649.529              : tdd          - TOTAL DEPTH DRILLER
RUN .         ONE                  : Run          - RUN NUMBER
MATR.         SANDSTONE            : Logunit      - NEUTRON MATRIX
TMAX.C        31.1111              : BHT          - MAXIMUM RECORDED TEMPERATURE
BHTD.M        649.224              : BHTDEP       - MAXIMUM RECORDED TEMPERATURE
RMT .C        25                   : MDTP         - TEMPERATURE OF MUD
MUDD.KG/M     0                    : MWT          - MUD DENSITY
NEUT.         1                    : NEUTRON      - NEUTRON TYPE
RESI.         0                    : RESIST       - RESISTIVITY TYPE
RM  .OHMM     5.57                 : RM           - RESISTIVITY OF MUD
RMC .OHMM     0                    : RMC          - RESISTIVITY OF MUD CAKE
RMF .OHMM     0                    : RMF          - RESISTIVITY OF MUD FILTRATE
SUFT.C        -17.7778             : SUFT         - SURFACE TEMPERATURE
~A  DEPTH     RESD     PHIN     PHID       GR      CAL
# ...
  499.796   10.260    0.495    0.311   65.811  221.432
  500.046    8.700    0.510    0.338   68.207  230.333
  500.296    7.655    0.502    0.352   69.567  237.996
  500.546    6.847    0.496    0.329   71.293  243.906
  500.796    6.047    0.511    0.295   71.315  236.935
  501.046    5.379    0.501    0.304   70.968  234.079
  501.296    4.520    0.504    0.321   71.170  234.633
  501.546    3.840    0.537    0.342   73.080  239.203
  501.796    3.378    0.525    0.382   75.412  246.247
  502.046    3.016    0.520    0.392   79.816  253.496
  502.296    2.733    0.547    0.390   84.524  239.513
  502.546    2.696    0.562    0.377   81.257  229.240
  502.796    2.872    0.550    0.357   77.137  223.601
  503.046    3.174    0.529    0.317   71.619  222.504
  503.296    3.647    0.537    0.338   69.995  232.849
  503.546    4.023    0.551    0.359   70.689  236.389
  503.796    4.071    0.560    0.375   71.132  236.315
  504.046    3.744    0.553    0.381   70.665  236.045
  504.296    3.186    0.585    0.395   71.659  236.283
  504.546    2.697    0.592    0.419   73.689  239.100
  504.796    2.655    0.574    0.396   74.257  241.195
  505.046    3.147    0.550    0.339   66.668  240.927
  505.296    3.676    0.527    0.314   57.556  240.544
  505.546    5.114    0.505    0.318   53.562  243.155
  505.796    8.108    0.461    0.327   55.041  244.841
  506.046   10.268    0.424    0.285   55.976  231.989
  506.296    9.887    0.390    0.195   56.117  220.895
  506.546    8.493    0.456    0.179   56.078  220.517
  506.796    7.336    0.486    0.288   57.009  223.232
  507.046    6.526    0.481    0.334   57.639  224.090
  507.296    6.124    0.482    0.343   57.477  224.019
  507.546    6.220    0.481    0.336   56.280  222.925
  507.796    6.699    0.479    0.319   56.118  221.617
  508.046    7.754    0.466    0.297   56.261  221.132
  508.296    9.328    0.440    0.271   55.794  222.403
  508.546   10.483    0.419    0.245   56.118  223.160
  508.796   10.685    0.418    0.216   57.478  222.681
  509.046    9.230    0.458    0.187   59.933  221.374
  509.296    7.899    0.503    0.196   63.241  219.968
  509.546    6.989    0.528    0.230   63.934  218.771
  509.796    6.754    0.537    0.302   62.188  218.076
  510.046    6.859    0.504    0.330   61.235  216.880
  510.296    7.202    0.496    0.340   60.706  214.745
  510.546    7.477    0.491    0.341   60.605  211.172
  510.796    7.693    0.484    0.341   61.053  211.622
  511.046    7.726    0.478    0.336   61.865  215.777
  511.296    7.591    0.481    0.333   62.614  219.833
  511.546    7.376    0.490    0.334   60.931  222.755
  511.796    7.142    0.515    0.326   58.819  222.065
  512.046    7.082    0.528    0.324   57.076  220.351
  512.296    7.126    0.521    0.326   56.426  219.152
  512.546    7.054    0.509    0.322   56.630  218.567
  512.796    6.854    0.491    0.325   57.746  219.218
  513.046    6.564    0.483    0.333   60.812  220.176
  513.296    6.354    0.491    0.330   64.604  221.864
  513.546    5.996    0.501    0.334   68.520  223.341
  513.796    5.805    0.497    0.320   69.640  225.435
  514.046    5.640    0.499    0.306   69.841  227.944
  514.296    5.563    0.503    0.297   69.070  228.390
  514.546    5.681    0.491    0.293   68.115  226.985
  514.796    5.834    0.489    0.297   67.589  225.680
  515.046    5.957    0.498    0.300   67.730  224.578
  515.296    6.028    0.502    0.295   68.237  223.585
  515.546    6.133    0.497    0.299   68.930  223.412
  515.796    6.116    0.495    0.300   69.679  223.037
  516.046    6.020    0.506    0.298   70.124  223.381
  516.296    5.903    0.524    0.300   70.756  223.314
  516.546    5.664    0.511    0.286   72.177  223.139
  516.796    5.483    0.500    0.270   74.021  222.661
  517.046    5.299    0.494    0.260   77.452  222.277
  517.296    5.112    0.492    0.264   81.734  222.008
  517.546    4.931    0.485    0.254   83.580  221.730
  517.796    4.774    0.468    0.240   83.053  225.789
  518.046    4.699    0.479    0.230   80.456  231.178
  518.296    4.790    0.506    0.229   77.736  238.328
  518.546    4.992    0.502    0.240   76.238  238.359
  518.796    5.173    0.494    0.261   74.552  230.769
  519.046    5.254    0.470    0.289   68.789  223.072
  519.296    5.191    0.451    0.309   63.086  218.980
  519.546    5.090    0.463    0.326   60.488  216.850
  519.796    4.965    0.478    0.332   59.108  213.586
  520.046    4.807    0.485    0.336   55.721  211.046
  520.296    4.714    0.516    0.338   52.575  210.873
  520.546    4.632    0.509    0.339   51.745  211.628
  520.796    4.568    0.503    0.340   52.371  213.520
  521.046    4.504    0.505    0.339   53.063  216.134
  521.296    4.417    0.512    0.338   51.743  219.366
  521.546    4.356    0.509    0.337   48.233  221.046
  521.796    4.336    0.505    0.341   46.550  222.008
  522.046    4.316    0.507    0.349   47.607  222.766
  522.296    4.342    0.510    0.355   50.487  221.669
  522.546    4.346    0.506    0.359   53.735  219.746
  522.796    4.365    0.506    0.359   57.529  218.854
  523.046    4.409    0.510    0.349   62.479  218.783
  523.296    4.544    0.513    0.341   67.492  219.224
  523.546    4.797    0.547    0.332   72.504  221.120
  523.796    5.054    0.539    0.321   75.629  224.556
  524.046    5.277    0.511    0.304   75.162  227.580
  524.296    5.369    0.492    0.295   72.749  228.234
  524.546    5.413    0.492    0.298   68.994  228.266
  524.796    5.388    0.498    0.301   67.675  228.098
  525.046    5.343    0.494    0.290   72.933  228.441
  525.296    5.347    0.491    0.275   71.126  229.196
  525.546    5.390    0.484    0.258   69.014  229.127
  525.796    5.454    0.490    0.261   66.848  226.588
  526.046    5.580    0.502    0.284   65.709  224.660
  526.296    5.773    0.513    0.300   65.303  222.015
  526.546    6.016    0.493    0.301   65.387  219.778
  526.796    6.432    0.475    0.294   65.588  217.650
  527.046    6.929    0.465    0.284   65.427  215.518
  527.296    7.315    0.457    0.272   64.900  211.223
  527.546    7.637    0.451    0.269   62.848  209.815
  527.796    8.106    0.440    0.274   59.399  211.810
  528.046    8.894    0.423    0.270   57.228  218.236
  528.296   10.051    0.423    0.267   56.151  223.629
  528.546   10.846    0.438    0.267   55.322  225.621
  528.796   10.696    0.450    0.257   55.157  220.711
  529.046    9.727    0.457    0.260   55.179  218.889
  529.296    7.878    0.462    0.264   55.747  218.411
  529.546    6.706    0.468    0.275   56.135  218.858
  529.796    6.155    0.475    0.274   56.517  219.837
  530.046    6.014    0.476    0.284   56.781  219.851
  530.296    5.963    0.471    0.274   58.020  220.925
  530.546    5.859    0.467    0.266   60.048  221.364
  530.796    5.736    0.466    0.259   64.636  222.018
  531.046    5.553    0.469    0.252   69.162  222.260
  531.296    5.347    0.474    0.245   71.800  223.225
  531.546    5.244    0.474    0.240   73.037  223.357
  531.796    5.238    0.480    0.234   74.763  222.670
  532.046    5.252    0.484    0.225   76.366  223.942
  532.296    5.305    0.489    0.217   78.029  234.905
  532.546    5.387    0.480    0.214   80.790  235.148
  532.796    5.552    0.477    0.205   83.487  227.035
  533.046    5.755    0.477    0.190   85.579  222.329
  533.296    5.975    0.475    0.205   84.807  229.065
  533.546    6.147    0.473    0.213   81.662  236.729
  533.796    6.289    0.470    0.207   78.152  238.518
  534.046    6.328    0.467    0.210   75.983  236.488
  534.296    6.357    0.465    0.223   75.940  234.769
  534.546    6.362    0.475    0.235   76.512  232.845
  534.796    6.343    0.495    0.231   77.016  228.550
  535.046    6.371    0.502    0.214   77.403  224.668
  535.296    6.318    0.487    0.197   76.387  222.021
  535.546    6.219    0.480    0.192   81.765  220.097
  535.796    5.846    0.484    0.186   90.126  221.370
  536.046    5.436    0.486    0.191   93.799  232.023
