~VERSION INFORMATION
 VERS.                 2.0:   CWLS LOG ASCII STANDARD -VERSION 2.0
 WRAP.                  NO:   ONE LINE PER DEPTH STEP
~WELL INFORMATION BLOCK
#MNEM.UNIT           DATA                    DESCRIPTION OF MNEMONIC
#---------    -------------------            -------------------------------
# Generated from Intellog Unique Number	CW_76_78/WELL/3587
WELL.         SASKATCHEWAN OIL & GAS CORP.   : Well_name    - WELL
LOC .         00/11-06-076-19W4/0            : Location     - LOCATION
UWI .         00/11-06-076-19W4/0            : Uwi          - UNIQUE WELL ID
ENTR.         JO                             : Entered      - ENTERED BY
SRVC.         SCHLUMBERGER                   : Scn          - SERVICE COMPANY
DATE.         05/25/92                       : Date         - LOG DATE
STRT.M        215                            : top_depth    - START DEPTH
STOP.M        460                            : bot_depth    - STOP DEPTH
STEP.M        0.25                           : increment    - STEP LENGTH
 NULL. -999.2500:NULL Value
~CURVE INFORMATION BLOCK
#MNEM UNIT       ERCB CURVE CODE    CURVE DESCRIPTION
#-----------   ------------------   ----------------------------------
DEPT.M        00 001 00 00         : DEPTH        - DEPTH
NPHI.V/V      00 330 00 00         : PHIN         - NEUTRON POROSITY (SANDSTONE)
GR  .API      00 310 00 00         : GR           - GAMMA RAY
DPHI.V/V      00 890 00 00         : PHID         - DENSITY POROSITY (SANDSTONE)
ILD .OHMM     00 120 00 00         : RESD         - DEEP RESISTIVITY (DIL)
~PARAMETER INFORMATION
#MNEM.UNIT           DATA             DESCRIPTION OF MNEMONIC
#---------         -----------     ------------------------------
GL  .M        590.9                : gl           - GROUND LEVEL ELEVATION
EREF.M        594.7                : kb           - ELEVATION OF DEPTH REFERENCE
DATM.M        594.7                : datum        - DATUM ELEVATION
TDD .M        465                  : tdd          - TOTAL DEPTH DRILLER
RUN .         ONE                  : Run          - RUN NUMBER
ENG .         BILL                 : Engineer     - RECORDING ENGINEER
WIT .         JIM                  : Witness      - WITNESSED BY
MUD .         GEL                  : Mud_type     - MUD TYPE
MATR.         SANDSTONE            : Logunit      - NEUTRON MATRIX
TMAX.C        35                   : BHT          - MAXIMUM RECORDED TEMPERATURE
BHTD.M        465                  : BHTDEP       - MAXIMUM RECORDED TEMPERATURE
MATR.         1                    : LOGUNIT      - NEUTRON MATRIX
RMT .C        12                   : MDTP         - TEMPERATURE OF MUD
NEUT.         1                    : NEUTRON      - NEUTRON TYPE
RESI.         0                    : RESIST       - RESISTIVITY TYPE
RMC .OHMM     2.24                 : RMC          - RESISTIVITY OF MUD CAKE
RMF .OHMM     2.38                 : RMF          - RESISTIVITY OF MUD FILTRATE
SUFT.C        5                    : SUFT         - SURFACE TEMPERATURE
~A  DEPTH     PHIN       GR     PHID     RESD
# ...
  258.500    0.501   99.769    0.233    3.764
  258.750    0.482  100.349    0.227    3.979
  259.000    0.476   98.000    0.228    4.129
  259.250    0.508   96.234    0.234    4.207
  259.500    0.519   99.744    0.240    4.207
  259.750    0.490  101.499    0.244    4.130
  260.000    0.484  105.009    0.250    3.981
  260.250    0.515  102.657    0.256    3.766
  260.500    0.531  100.894    0.261    3.630
  260.750    0.536   99.717    0.255    3.563
  261.000    0.502   97.952    0.245    3.630
  261.250    0.480  100.876    0.233    3.631
  261.500    0.467  104.387    0.228    3.699
  261.750    0.455  106.141    0.227    3.768
  262.000    0.449  100.273    0.229    3.910
  262.250    0.491   98.507    0.234    4.058
  262.500    0.501  100.847    0.237    4.058
  262.750    0.473   99.083    0.213    3.911
  263.000    0.478  102.008    0.208    3.769
  263.250    0.487  102.586    0.215    3.566
  263.500    0.473  102.580    0.232    3.633
  263.750    0.473   97.885    0.254    3.985
  264.000    0.459   73.259    0.328    4.621
  264.250    0.380   65.633    0.380    6.689
  264.500    0.355   62.695    0.267    7.337
  264.750    0.391   71.483    0.162    8.199
  265.000    0.406   78.510    0.225    8.829
  265.250    0.415   79.676    0.275    9.162
  265.500    0.407   77.910    0.272    9.163
  265.750    0.398   76.735    0.285    9.164
  266.000    0.403   71.453    0.298    9.164
  266.250    0.412   71.447    0.312    9.165
  266.500    0.407   75.543    0.316    9.166
  266.750    0.401   77.880    0.309    9.167
  267.000    0.400   79.049    0.301    8.999
  267.250    0.406   80.216    0.296    8.358
  267.500    0.415   80.796    0.296    7.763
  267.750    0.423   82.549    0.295    7.345
  268.000    0.426   86.057    0.290    7.483
  268.250    0.409   86.640    0.283    7.623
  268.500    0.401   86.634    0.278    7.623
  268.750    0.401   84.283    0.276    7.347
  269.000    0.408   88.379    0.282    6.337
  269.250    0.439   93.062    0.297    5.172
  269.500    0.461   90.126    0.338    5.172
  269.750    0.460   84.258    0.304    5.467
  270.000    0.435   86.010    0.300    5.674
  270.250    0.453   93.039    0.385    5.674
  270.500    0.483   98.894    0.446    5.368
  270.750    0.456  104.164    0.423    4.895
  271.000    0.448  108.846    0.395    4.895
  271.250    0.452  105.323    0.384    4.987
  271.500    0.450  102.388    0.337    5.272
  271.750    0.436   91.830    0.325    5.677
  272.000    0.412   83.032    0.305    6.227
  272.250    0.405   81.266    0.303    6.831
  272.500    0.417   86.537    0.307    7.089
  272.750    0.511   90.048    0.456    6.707
  273.000    0.497   83.594    0.419    6.584
  273.250    0.464   75.381    0.387    7.635
  273.500    0.410   68.927    0.303    8.375
  273.750    0.389   61.887    0.278    9.533
  274.000    0.376   52.501    0.260    9.893
  274.250    0.375   54.840    0.226   10.458
  274.500    0.387   69.487    0.182   10.459
  274.750    0.382   74.172    0.219   10.268
  275.000    0.379   78.267    0.264    9.362
  275.250    0.393   75.918    0.284    8.857
  275.500    0.381   71.807    0.238    7.928
  275.750    0.365   73.560    0.230    7.501
  276.000    0.378   78.243    0.229    6.967
  276.250    0.420   84.101    0.283    6.714
  276.500    0.442   91.715    0.357    6.471
  276.750    0.442   89.951    0.412    6.353
  277.000    0.440   83.497    0.424    6.472
  277.250    0.452   82.318    0.411    6.716
  277.500    0.464   87.002    0.417    7.100
  277.750    0.442   91.099    0.441    7.368
  278.000    0.401   91.092    0.333    7.368
  278.250    0.389   88.742    0.293    6.596
  278.500    0.390   91.667    0.272    8.704
  278.750    0.407   96.349    0.271    7.508
  279.000    0.409   95.172    0.310    7.791
  279.250    0.376   93.994    0.315    7.937
  279.500    0.354   95.745    0.287    8.086
  279.750    0.384   99.256    0.266    8.391
  280.000    0.392  101.595    0.258    8.548
  280.250    0.399  101.004    0.247    8.709
  280.500    0.405   95.137    0.253    8.709
  280.750    0.399   75.199    0.304    8.394
  281.000    0.398   66.400    0.329    7.513
  281.250    0.399   55.843    0.334    6.978
  281.500    0.404   55.251    0.321    6.725
  281.750    0.397   55.243    0.318    6.851
  282.000    0.379   55.237    0.324    6.979
  282.250    0.357   55.233    0.327    7.516
  282.500    0.360   55.813    0.325    8.094
  282.750    0.370   55.806    0.319    8.399
  283.000    0.382   54.041    0.313    9.044
  283.250    0.380   55.209    0.306    9.386
  283.500    0.365   59.892    0.298    9.387
  283.750    0.348   69.850    0.297    8.881
  284.000    0.348   67.499    0.299    8.402
  284.250    0.397   66.909    0.300    8.250
  284.500    0.408   68.658    0.292    8.250
  284.750    0.393   69.828    0.282    8.561
  285.000    0.382   73.339    0.279    8.722
  285.250    0.379   78.022    0.276    8.885
  285.500    0.365   82.704    0.271    9.052
  285.750    0.359   86.217    0.267    9.221
  286.000    0.379   92.071    0.263    9.053
  286.250    0.390   91.477    0.283    8.725
  286.500    0.367   88.540    0.300    7.666
  286.750    0.365   85.019    0.298    6.492
  287.000    0.371   94.978    0.287    5.704
  287.250    0.445  107.282    0.281    4.655
  287.500    0.482  113.136    0.282    3.869
  287.750    0.502  112.544    0.270    3.400
  288.000    0.523  111.366    0.237    3.277
  288.250    0.520  113.117    0.247    3.217
  288.500    0.520  113.700    0.223    3.338
  288.750    0.529  113.106    0.231    3.401
  289.000    0.531  114.274    0.253    3.401
  289.250    0.542  122.475    0.257    3.278
  289.500    0.519  129.502    0.252    3.278
  289.750    0.484  131.256    0.285    3.731
  290.000    0.463  114.837    0.272    4.327
  290.250    0.416  110.141    0.255    5.017
  290.500    0.416  109.549    0.262    5.710
  290.750    0.432  110.715    0.279    6.500
  291.000    0.440  109.537    0.305    6.871
  291.250    0.449  107.186    0.321    6.746
  291.500    0.456  106.594    0.333    6.382
  291.750    0.422  108.347    0.352    6.266
  292.000    0.415  106.582    0.311    6.383
  292.250    0.402   97.782    0.284    7.133
  292.500    0.404   87.225    0.280    7.970
  292.750    0.434   83.114    0.280   11.118
  293.000    0.444   81.937    0.287   11.753
  293.250    0.449   76.069    0.304   12.656
  293.500    0.439   70.786    0.315   13.630
  293.750    0.451   67.849    0.304   13.884
  294.000    0.450   65.500    0.292   13.886
  294.250    0.436   65.494    0.293   13.632
  294.500    0.430   71.936    0.304   12.429
  294.750    0.427   77.204    0.307   10.332
  295.000    0.421   75.440    0.309    8.277
  295.250    0.406   78.952    0.308    7.273
  295.500    0.416   84.808    0.295    7.009
  295.750    0.447   95.353    0.281    7.274
  296.000    0.427   96.520    0.271    7.548
  296.250    0.429   87.135    0.313    7.833
  296.500    0.437   85.957    0.313    7.980
  296.750    0.444  105.881    0.302    7.835
  297.000    0.427  116.426    0.288    7.692
  297.250    0.412  128.730    0.257    7.413
  297.500    0.409  126.965    0.250    7.145
  297.750    0.437  116.994    0.256    7.014
  298.000    0.445   98.229    0.284    7.553
  298.250    0.447   85.326    0.307   10.154
  298.500    0.436   79.459    0.317   10.934
  298.750    0.427   69.488    0.331   12.218
  299.000    0.411   62.446    0.333   15.829
  299.250    0.399   63.028    0.327   16.427
  299.500    0.406   63.608    0.320   17.364
  299.750    0.417   63.602    0.320   17.048
  300.000    0.436   67.113    0.313   12.451
  300.250    0.432   75.314    0.289   11.780
  300.500    0.417   75.893    0.284   12.225
  300.750    0.423   75.301    0.295   10.942
  301.000    0.405   78.227    0.296    9.794
  301.250    0.382   86.428    0.252    8.448
  301.500    0.396   92.283    0.246    6.894
  301.750    0.406   92.862    0.253    5.522
