~VERSION INFORMATION
 VERS.                 2.0:   CWLS LOG ASCII STANDARD -VERSION 2.0
 WRAP.                  NO:   ONE LINE PER DEPTH STEP
~WELL INFORMATION BLOCK
#MNEM.UNIT           DATA                    DESCRIPTION OF MNEMONIC
#---------    -------------------            -------------------------------
# Generated from Intellog Unique Number	CW_79_81/WELL/2483
WELL.         TEXEX WABASCA                  : Well_name    - WELL
LOC .         00/11-10-081-25W4/0            : Location     - LOCATION
UWI .         00/11-10-081-25W4/0            : Uwi          - UNIQUE WELL ID
ENTR.         MAX                            : Entered      - ENTERED BY
SRVC.         WESTERN ATLAS                  : Scn          - SERVICE COMPANY
STRT.M        213.36                         : top_depth    - START DEPTH
STOP.M        469.11                         : bot_depth    - STOP DEPTH
STEP.M        0.25                           : increment    - STEP LENGTH
 NULL. -999.2500:NULL Value
~CURVE INFORMATION BLOCK
#MNEM UNIT       ERCB CURVE CODE    CURVE DESCRIPTION
#-----------   ------------------   ----------------------------------
DEPT.M        00 001 00 00         : DEPTH        - DEPTH
ILD .OHMM     00 120 00 00         : RESD         - DEEP RESISTIVITY (DIL)
NPHI.V/V      00 330 00 00         : PHIN         - NEUTRON POROSITY (SANDSTONE)
DPHI.V/V      00 890 00 00         : PHID         - DENSITY POROSITY (SANDSTONE)
GR  .API      00 310 00 00         : GR           - GAMMA RAY
CALI.MM       00 280 01 00         : CAL          - CALIPER
~PARAMETER INFORMATION
#MNEM.UNIT           DATA             DESCRIPTION OF MNEMONIC
#---------         -----------     ------------------------------
GL  .M        595.884              : gl           - GROUND LEVEL ELEVATION
EREF.M        599.542              : kb           - ELEVATION OF DEPTH REFERENCE
DATM.M        595.884              : datum        - DATUM ELEVATION
TDD .M        466.039              : tdd          - TOTAL DEPTH DRILLER
RUN .         ONE                  : Run          - RUN NUMBER
ENG .         BILL                 : Engineer     - RECORDING ENGINEER
WIT .         JIM                  : Witness      - WITNESSED BY
MUD .         GEL                  : Mud_type     - MUD TYPE
MATR.         SANDSTONE            : Logunit      - NEUTRON MATRIX
TMAX.C        27.2222              : BHT          - MAXIMUM RECORDED TEMPERATURE
BHTD.M        466.039              : BHTDEP       - MAXIMUM RECORDED TEMPERATURE
MATR.         1                    : LOGUNIT      - NEUTRON MATRIX
RMT .C        12.2222              : MDTP         - TEMPERATURE OF MUD
NEUT.         1                    : NEUTRON      - NEUTRON TYPE
RESI.         0                    : RESIST       - RESISTIVITY TYPE
RMC .OHMM     10                   : RMC          - RESISTIVITY OF MUD CAKE
RMF .OHMM     10                   : RMF          - RESISTIVITY OF MUD FILTRATE
SUFT.C        -20.5556             : SUFT         - SURFACE TEMPERATURE
~A  DEPTH     RESD     PHIN     PHID       GR      CAL
  213.360    3.956    0.422    0.238   68.640  225.774
  213.610    3.838    0.423    0.237   68.871  226.576
  213.860    3.855    0.423    0.238   67.139  226.718
  214.110    3.964    0.421    0.241   65.356  226.693
  214.360    4.201    0.418    0.243   64.457  226.567
  214.610    4.731    0.411    0.242   64.633  226.052
  214.860    4.985    0.402    0.239   65.599  225.613
  215.110    4.947    0.398    0.234   63.465  224.790
  215.360    4.620    0.397    0.233   62.037  223.967
  215.610    4.269    0.396    0.235   61.433  223.544
  215.860    3.980    0.391    0.238   61.181  223.819
  216.110    3.713    0.383    0.243   60.516  225.067
  216.360    3.630    0.375    0.247   61.975  225.456
  216.610    3.733    0.368    0.247   66.438  226.232
  216.860    3.881    0.361    0.248   67.542  226.702
  217.110    3.994    0.355    0.248   68.824  226.477
  217.360    4.050    0.348    0.249   73.287  225.657
  217.610    4.125    0.339    0.247   81.684  224.827
  217.860    4.217    0.328    0.243   73.076  224.803
  218.110    4.495    0.323    0.243   68.348  228.367
  218.360    4.792    0.316    0.244   69.275  228.938
  218.610    5.283    0.309    0.246   68.435  228.515
  218.860    6.240    0.300    0.250   64.650  227.994
  219.110    8.633    0.290    0.263   62.883  226.911
  219.360   10.522    0.288    0.281   62.375  225.640
  219.610   15.095    0.294    0.291   62.127  216.437
  219.860   21.246    0.288    0.291   57.282  210.228
  220.110   25.586    0.276    0.277   49.019  204.815
  220.360   24.084    0.265    0.255   38.222  200.200
  220.610   18.732    0.271    0.246   24.935  198.825
  220.860   15.585    0.280    0.253   22.219  200.046
  221.110   12.205    0.285    0.254   22.676  198.823
  221.360    9.244    0.295    0.248   23.839  189.518
  221.610    8.030    0.307    0.226   24.884  188.494
  221.860    8.085    0.321    0.198   25.692  196.752
  222.110    9.370    0.335    0.215   27.395  199.829
  222.360   10.654    0.336    0.291   30.080  199.390
  222.610   10.727    0.332    0.311   34.543  200.163
  222.860   10.684    0.332    0.321   36.355  200.038
  223.110   10.371    0.332    0.327   34.573  199.413
  223.360    9.803    0.329    0.331   30.551  198.887
  223.610    9.124    0.325    0.334   27.942  199.264
  223.860    7.969    0.324    0.324   27.337  198.232
  224.110    7.165    0.325    0.320   29.285  198.205
  224.360    6.720    0.320    0.315   31.608  197.884
  224.610    6.389    0.317    0.310   33.715  198.258
  224.860    6.118    0.319    0.306   35.822  199.229
  225.110    5.849    0.328    0.302   39.288  199.267
  225.360    5.802    0.331    0.293   39.025  197.576
  225.610    5.926    0.328    0.284   37.125  195.954
  225.860    6.280    0.325    0.283   36.463  196.127
  226.110    6.513    0.324    0.287   37.982  197.500
  226.360    6.545    0.324    0.294   40.737  198.875
  226.610    6.837    0.319    0.302   41.797  198.444
  226.860    7.715    0.309    0.311   41.291  198.410
  227.110    8.758    0.299    0.309   39.864  197.594
  227.360    9.160    0.292    0.294   39.141  197.369
  227.610    9.123    0.303    0.269   35.120  197.344
  227.860    8.892    0.330    0.228   29.331  196.922
  228.110    8.442    0.359    0.178   29.871  195.129
  228.360    7.834    0.358    0.286   35.014  194.271
  228.610    7.176    0.358    0.282   38.298  197.040
  228.860    6.725    0.358    0.278   39.991  198.012
  229.110    6.442    0.360    0.274   41.036  198.784
  229.360    6.291    0.364    0.270   41.846  200.354
  229.610    6.176    0.369    0.265   42.545  203.868
  229.860    5.859    0.375    0.258   43.757  207.583
  230.110    5.527    0.382    0.282   45.629  217.135
  230.360    5.419    0.385    0.394   47.145  234.171
  230.610    5.474    0.382    0.447   47.602  228.757
  230.860    5.652    0.373    0.401   45.996  210.775
  231.110    5.926    0.366    0.362   41.077  237.216
  231.360    6.058    0.362    0.538   41.309  273.768
  231.610    6.321    0.360    0.487   46.715  256.987
  231.860    6.561    0.363    0.397   47.877  227.930
  232.110    6.727    0.373    0.317   46.448  207.748
  232.360    6.773    0.390    0.271   43.488  202.434
  232.610    6.601    0.412    0.263   39.659  205.466
  232.860    6.263    0.423    0.310   40.627  218.742
  233.110    5.653    0.424    0.432   43.202  241.466
  233.360    5.252    0.421    0.540   44.720  259.399
  233.610    4.939    0.418    0.560   46.121  243.807
  233.860    4.723    0.418    0.492   47.461  210.357
  234.110    4.714    0.423    0.399   47.520  220.271
  234.360    4.856    0.433    0.355   45.540  226.067
  234.610    4.960    0.448    0.301   44.820  250.787
  234.860    4.957    0.454    0.381   44.272  275.803
  235.110    4.848    0.456    0.468   44.256  301.519
  235.360    4.631    0.458    0.510   45.009  306.284
  235.610    4.237    0.465    0.510   46.836  248.385
  235.860    3.903    0.467    0.431   47.802  258.338
  236.110    3.497    0.465    0.397   48.969  247.538
  236.360    3.244    0.459    0.412   50.308  240.329
  236.610    3.073    0.453    0.424   51.707  237.310
  236.860    2.964    0.449    0.408   53.108  237.583
  237.110    2.912    0.450    0.371   54.995  239.999
  237.360    2.867    0.452    0.369   57.435  246.205
  237.610    2.866    0.457    0.326   59.070  231.814
  237.860    2.865    0.462    0.301   58.584  225.202
  238.110    2.884    0.465    0.289   56.683  223.780
  238.360    2.955    0.462    0.289   54.959  224.056
  238.610    3.176    0.447    0.321   55.981  221.464
  238.860    3.423    0.436    0.380   56.456  220.604
  239.110    3.674    0.424    0.401   55.028  219.783
  239.360    4.027    0.415    0.404   52.716  216.866
  239.610    4.467    0.409    0.334   50.109  211.851
  239.860    4.945    0.413    0.237   47.855  207.035
  240.110    5.345    0.442    0.289   46.707  210.000
  240.360    5.303    0.472    0.448   46.938  224.940
  240.610    4.857    0.482    0.477   48.102  252.450
  240.860    4.502    0.493    0.489   49.971  260.209
  241.110    3.996    0.501    0.464   51.722  252.803
  241.360    3.296    0.505    0.410   53.180  238.012
  241.610    2.472    0.498    0.357   55.206  227.054
  241.860    2.211    0.492    0.343   57.158  228.277
  242.110    2.055    0.486    0.330   58.320  231.844
  242.360    2.019    0.480    0.322   58.246  235.410
  242.610    2.047    0.475    0.319   57.524  233.191
  242.860    2.106    0.473    0.322   56.449  228.276
  243.110    2.160    0.474    0.333   55.261  232.550
  243.360    2.127    0.475    0.340   56.474  232.108
  243.610    2.096    0.476    0.347   55.517  230.090
  243.860    2.110    0.477    0.327   54.381  230.764
  244.110    2.125    0.478    0.292   54.013  229.540
  244.360    2.135    0.478    0.255   54.648  228.616
  244.610    2.184    0.478    0.242   55.711  238.298
  244.860    2.199    0.478    0.300   55.205  244.920
  245.110    2.198    0.478    0.314   54.717  239.308
  245.360    2.197    0.478    0.324   56.528  235.793
  245.610    2.220    0.482    0.320   58.045  235.969
  245.860    2.267    0.488    0.317   57.914  239.835
  246.110    2.323    0.490    0.367   55.715  244.876
  246.360    2.357    0.487    0.403   54.227  240.277
  246.610    2.373    0.486    0.393   55.861  228.675
  246.860    2.389    0.484    0.362   55.727  224.857
  247.110    2.397    0.482    0.327   55.006  224.633
  247.360    2.395    0.478    0.310   54.403  225.109
  247.610    2.408    0.474    0.341   54.641  225.346
  247.860    2.481    0.470    0.351   57.081  228.640
  248.110    2.588    0.466    0.335   60.364  231.812
  248.360    2.630    0.461    0.316   59.584  226.598
  248.610    2.619    0.455    0.302   57.685  222.181
  248.860    2.581    0.447    0.299   56.256  221.457
  249.110    2.527    0.437    0.307   55.824  221.030
  249.360    2.452    0.428    0.312   57.281  221.007
  249.610    2.451    0.420    0.308   57.974  218.585
