~VERSION INFORMATION
 VERS.                 2.0:   CWLS LOG ASCII STANDARD -VERSION 2.0
 WRAP.                  NO:   ONE LINE PER DEPTH STEP
~WELL INFORMATION BLOCK
#MNEM.UNIT           DATA                    DESCRIPTION OF MNEMONIC
#---------    -------------------            -------------------------------
# Generated from Intellog Unique Number	CW_70_72/WELL/1070
NULL.         -999.25                        : NULL_VALUE
WELL.         CNW PETER 15-13                : Well_name    - WELL              
LOC .         15-13-072-01W5                 : Location     - LOCATION          
UWI .         00/15-13-072-01W5/0            : Uwi          - UNIQUE WELL ID    
ENTR.         JAYE                           : Entered      - ENTERED BY        
SRVC.         COMPUTALOG                     : Scn          - SERVICE COMPANY   
DATE.         5 DEC 88                       : Date         - LOG DATE          
STRT.M        415                            : top_depth    - START DEPTH       
STOP.M        650                            : bot_depth    - STOP DEPTH        
STEP.M        0.25                           : increment    - STEP LENGTH       
~CURVE INFORMATION BLOCK
#MNEM UNIT       ERCB CURVE CODE    CURVE DESCRIPTION
#-----------   ------------------   ----------------------------------
DEPT.M        00 001 00 00         : DEPTH        - DEPTH                       
DPHI.V/V      00 890 00 00         : PHID         - DENSITY POROSITY (SANDSTONE)
NPHI.V/V      00 330 00 00         : PHIN         - NEUTRON POROSITY (SANDSTONE)
GR  .API      00 310 00 00         : GR           - GAMMA RAY                   
CALI.MM       00 280 01 00         : CAL          - CALIPER                     
ILD .OHMM     00 120 00 00         : RESD         - DEEP RESISTIVITY (DIL)      
~PARAMETER INFORMATION       
#MNEM.UNIT           DATA             DESCRIPTION OF MNEMONIC
#---------         -----------     ------------------------------
GL  .M        631.9                : gl           - GROUND LEVEL ELEVATION      
EREF.M        636.2                : kb           - ELEVATION OF DEPTH REFERENCE
DATM.M        631.9                : datum        - DATUM ELEVATION             
TDD .M        667                  : tdd          - TOTAL DEPTH DRILLER         
RUN .         ONE                  : Run          - RUN NUMBER                  
ENG .         HOMER                : Engineer     - RECORDING ENGINEER          
WIT .         TOPIC                : Witness      - WITNESSED BY                
BASE.         EDM                  : Branch       - HOME BASE OF LOGGING UNIT   
MUD .         GEL CHEM             : Mud_type     - MUD TYPE                    
MATR.         SANDSTONE            : Logunit      - NEUTRON MATRIX              
TMAX.C        30                   : BHT          - MAXIMUM RECORDED TEMPERATURE
BHTD.M        667                  : BHTDEP       - MAXIMUM RECORDED TEMPERATURE
RMT .C        17                   : MDTP         - TEMPERATURE OF MUD          
MUDD.KG/M     1180                 : MWT          - MUD DENSITY                 
NEUT.         1                    : NEUTRON      - NEUTRON TYPE                
RESI.         0                    : RESIST       - RESISTIVITY TYPE            
RM  .OHMM     4                    : RM           - RESISTIVITY OF MUD          
RMC .OHMM     3.3                  : RMC          - RESISTIVITY OF MUD CAKE     
RMF .OHMM     4.3                  : RMF          - RESISTIVITY OF MUD FILTRATE 
SUFT.C        0                    : SUFT         - SURFACE TEMPERATURE         
~A  DEPTH     PHID     PHIN       GR      CAL     RESD
# ...
  488.000    0.282    0.398   58.384  193.273    3.191
  488.250    0.284    0.392   58.633  193.077    3.234
  488.500    0.284    0.392   56.375  193.185    3.284
  488.750    0.283    0.406   54.668  193.598    3.347
  489.000    0.280    0.421   55.344  194.012    3.398
  489.250    0.275    0.409   57.182  194.426    3.451
  489.500    0.267    0.400   59.508  194.637    3.478
  489.750    0.262    0.391   61.285  195.053    3.492
  490.000    0.265    0.382   59.028  195.568    3.599
  490.250    0.268    0.392   54.875  196.186    3.800
  490.500    0.258    0.401   56.101  197.109    4.297
  490.750    0.241    0.353   60.079  198.134    4.895
  491.000    0.199    0.282   64.545  199.567    5.670
  491.250    0.083    0.224   61.859  200.695    6.569
  491.500    0.050    0.211   55.568  201.414    7.986
  491.750    0.037    0.206   50.132  200.810    9.285
  492.000    0.054    0.238   50.136  199.594   10.174
  492.250    0.099    0.291   53.318  198.175    8.612
  492.500    0.126    0.325   55.583  197.060    6.680
  492.750    0.201    0.356   56.199  195.642    5.182
  493.000    0.273    0.394   56.998  195.139    3.998
  493.250    0.301    0.425   58.957  194.635    3.334
  493.500    0.292    0.444   59.206  194.846    3.000
  493.750    0.284    0.446   54.626  195.465    2.865
  494.000    0.290    0.438   56.586  196.082    2.809
  494.250    0.298    0.429   59.646  196.394    2.820
  494.500    0.305    0.432   62.095  196.707    2.832
  494.750    0.304    0.436   59.593  197.120    2.823
  495.000    0.300    0.433   58.741  197.637    2.834
  495.250    0.293    0.428   59.662  198.051    2.825
  495.500    0.286    0.421   61.255  198.568    2.837
  495.750    0.288    0.413   63.643  198.879    2.869
  496.000    0.292    0.408   64.870  199.192    2.908
  496.250    0.297    0.418   64.690  198.994    2.947
  496.500    0.298    0.432   65.672  198.492    3.004
  496.750    0.296    0.432   66.715  198.499    3.084
  497.000    0.292    0.428   67.575  198.302    3.202
  497.250    0.286    0.425   68.435  198.105    3.387
  497.500    0.279    0.426   69.295  197.908    3.725
  497.750    0.283    0.409   69.849  197.914    4.181
  498.000    0.294    0.385   69.853  197.920    4.598
  498.250    0.275    0.355   66.678  197.825    5.132
  498.500    0.226    0.308   62.465  197.628    5.718
  498.750    0.138    0.284   61.307  197.330    6.394
  499.000    0.145    0.276   64.979  197.235    6.775
  499.250    0.191    0.332   68.650  197.139    6.200
  499.500    0.229    0.361   71.710  196.841    5.706
  499.750    0.236    0.382   66.763  196.746    5.280
  500.000    0.234    0.398   63.161  196.753    5.024
  500.250    0.242    0.411   64.938  196.657    4.825
  500.500    0.249    0.415   65.309  196.663    4.782
  500.750    0.260    0.415   63.051  196.568    4.846
  501.000    0.263    0.410   59.388  196.677    4.821
  501.250    0.262    0.403   57.863  196.887    4.708
  501.500    0.274    0.407   59.457  196.996    4.564
  501.750    0.278    0.418   62.394  196.900    4.383
  502.000    0.278    0.438   65.638  196.907    4.186
  502.250    0.277    0.448   68.148  196.914    4.080
  502.500    0.273    0.437   70.109  196.921    4.089
  502.750    0.267    0.430   73.108  197.334    4.245
  503.000    0.273    0.427   66.938  197.850    4.416
  503.250    0.279    0.417   60.951  198.571    4.476
  503.500    0.282    0.404   62.484  198.985    4.420
  503.750    0.283    0.412   65.667  199.501    4.284
  504.000    0.282    0.412   65.915  199.201    4.061
  504.250    0.280    0.402   65.185  198.292    3.850
  504.500    0.279    0.395   68.062  197.076    3.690
  504.750    0.283    0.407   70.939  196.471    3.604
  505.000    0.290    0.426   65.136  195.970    3.632
  505.250    0.295    0.438   62.267  195.160    3.702
  505.500    0.298    0.443   62.638  194.556    3.780
  505.750    0.300    0.440   63.925  194.460    3.910
  506.000    0.297    0.429   64.480  194.977    3.992
  506.250    0.284    0.424   62.039  194.576    4.046
  506.500    0.281    0.437   60.392  193.769    3.988
  506.750    0.279    0.436   64.553  193.571    3.829
  507.000    0.273    0.429   69.080  194.393    3.657
  507.250    0.278    0.420   73.057  194.603    3.646
  507.500    0.285    0.422   66.949  194.813    3.674
  507.750    0.289    0.423   61.574  195.125    3.786
  508.000    0.288    0.422   59.561  196.763    3.924
  508.250    0.284    0.418   61.704  198.195    4.089
  508.500    0.277    0.426   64.825  199.016    4.341
  508.750    0.267    0.427   66.663  199.328    4.617
  509.000    0.251    0.403   63.550  199.846    4.947
  509.250    0.230    0.360   57.014  200.768    5.391
  509.500    0.210    0.337   52.250  201.489    5.939
  509.750    0.197    0.322   52.009  201.087    6.508
  510.000    0.193    0.308   54.947  199.668    7.197
  510.250    0.186    0.325   57.029  198.148    7.527
  510.500    0.215    0.348   59.173  197.339    6.527
  510.750    0.239    0.367   57.649  196.836    5.973
  511.000    0.258    0.370   56.186  197.047    5.641
  511.250    0.271    0.377   55.823  196.747    5.388
  511.500    0.275    0.383   55.950  196.142    5.117
  511.750    0.274    0.387   56.076  195.946    4.923
  512.000    0.273    0.390   56.202  195.749    4.826
  512.250    0.273    0.398   56.451  195.755    4.748
  512.500    0.275    0.410   56.883  195.763    4.671
  512.750    0.278    0.408   57.803  196.074    4.638
  513.000    0.282    0.399   58.358  196.285    4.614
  513.250    0.288    0.401   58.361  196.495    4.616
  513.500    0.288    0.410   58.121  196.298    4.609
  513.750    0.283    0.416   57.269  196.916    4.611
  514.000    0.281    0.416   55.378  197.941    4.596
  514.250    0.283    0.413   53.732  198.560    4.530
  514.500    0.279    0.405   55.508  198.667    4.399
  514.750    0.273    0.394   57.774  198.674    4.186
  515.000    0.273    0.410   58.634  198.681    4.020
  515.250    0.275    0.416   59.310  198.688    3.918
  515.500    0.261    0.422   61.209  198.287    3.777
  515.750    0.246    0.433   63.231  197.683    3.675
  516.000    0.227    0.440   65.007  196.569    3.608
  516.250    0.217    0.427   68.312  195.150    3.524
  516.500    0.244    0.429   71.800  193.934    3.441
  516.750    0.267    0.437   74.127  192.617    3.386
  517.000    0.277    0.440   73.580  191.604    3.356
  517.250    0.278    0.443   71.506  191.202    3.338
  517.500    0.285    0.433   67.782  190.903    3.377
  517.750    0.294    0.427   66.808  190.503    3.423
  518.000    0.290    0.425   73.780  190.509    3.573
  518.250    0.281    0.415   80.263  191.128    3.836
  518.500    0.291    0.400   77.761  191.643    4.111
  518.750    0.304    0.398   72.631  192.771    4.299
  519.000    0.302    0.414   67.867  193.796    4.301
  519.250    0.288    0.419   65.670  194.109    4.224
  519.500    0.280    0.413   66.591  194.217    4.179
  519.750    0.274    0.416   69.285  193.919    4.157
  520.000    0.264    0.424   71.612  194.232    4.213
  520.250    0.258    0.413   72.655  194.441    4.342
  520.500    0.268    0.405   71.803  194.549    4.516
  520.750    0.284    0.416   69.668  194.557    4.750
  521.000    0.281    0.423   68.388  194.258    4.833
  521.250    0.277    0.409   67.597  194.162    4.693
  521.500    0.280    0.419   66.195  193.863    4.457
  521.750    0.287    0.426   63.449  194.073    4.132
  522.000    0.295    0.419   60.213  194.182    4.035
  522.250    0.301    0.401   57.283  194.188    4.044
  522.500    0.295    0.387   59.854  194.502    4.130
  522.750    0.296    0.390   62.365  194.203    4.177
  523.000    0.288    0.395   60.535  194.210    4.241
  523.250    0.253    0.410   62.067  193.912    4.371
  523.500    0.210    0.380   66.533  193.918    4.606
  523.750    0.180    0.362   67.209  193.925    4.845
  524.000    0.155    0.366   65.624  193.727    5.030
  524.250    0.182    0.378   66.729  193.733    4.986
