~VERSION INFORMATION
 VERS.                 2.0:   CWLS LOG ASCII STANDARD -VERSION 2.0
 WRAP.                  NO:   ONE LINE PER DEPTH STEP
~WELL INFORMATION BLOCK
#MNEM.UNIT           DATA                    DESCRIPTION OF MNEMONIC
#---------    -------------------            -------------------------------
# Generated from Intellog Unique Number	CN_91_93/WELL/2795
WELL.         PARAMOUNT RESOURCES LTD.       : Well_name    - WELL
LOC .         00/15-35-093-21W4/0            : Location     - LOCATION
UWI .         00/15-35-093-21W4/0            : Uwi          - UNIQUE WELL ID
ENTR.         JOETTE                         : Entered      - ENTERED BY
SRVC.         COMPUTALOG                     : Scn          - SERVICE COMPANY
DATE.         03/24/92                       : Date         - LOG DATE
STRT.M        190                            : top_depth    - START DEPTH
STOP.M        358                            : bot_depth    - STOP DEPTH
STEP.M        0.25                           : increment    - STEP LENGTH
 NULL. -999.2500:NULL Value
~CURVE INFORMATION BLOCK
#MNEM UNIT       ERCB CURVE CODE    CURVE DESCRIPTION
#-----------   ------------------   ----------------------------------
DEPT.M        00 001 00 00         : DEPTH        - DEPTH
CALI.MM       00 280 01 00         : CAL          - CALIPER
GR  .API      00 310 00 00         : GR           - GAMMA RAY
NPHI.V/V      00 330 00 00         : PHIN         - NEUTRON POROSITY (SANDSTONE)
DPHI.V/V      00 890 00 00         : PHID         - DENSITY POROSITY (SANDSTONE)
ILD .OHMM     00 120 00 00         : RESD         - DEEP RESISTIVITY (DIL)
~PARAMETER INFORMATION
#MNEM.UNIT           DATA             DESCRIPTION OF MNEMONIC
#---------         -----------     ------------------------------
GL  .M        665.6                : gl           - GROUND LEVEL ELEVATION
EREF.M        669                  : kb           - ELEVATION OF DEPTH REFERENCE
DATM.M        669                  : datum        - DATUM ELEVATION
TDD .M        356.5                : tdd          - TOTAL DEPTH DRILLER
RUN .         ONE                  : Run          - RUN NUMBER
ENG .         BILL                 : Engineer     - RECORDING ENGINEER
WIT .         JIM                  : Witness      - WITNESSED BY
MUD .         GEL                  : Mud_type     - MUD TYPE
MATR.         SANDSTONE            : Logunit      - NEUTRON MATRIX
TMAX.C        27                   : BHT          - MAXIMUM RECORDED TEMPERATURE
BHTD.M        356.5                : BHTDEP       - MAXIMUM RECORDED TEMPERATURE
RMT .C        13                   : MDTP         - TEMPERATURE OF MUD
MUDD.KG/M     1100                 : MWT          - MUD DENSITY
NEUT.         1                    : NEUTRON      - NEUTRON TYPE
RESI.         0                    : RESIST       - RESISTIVITY TYPE
RM  .OHMM     1.5                  : RM           - RESISTIVITY OF MUD
RMC .OHMM     1.5                  : RMC          - RESISTIVITY OF MUD CAKE
RMF .OHMM     1.5                  : RMF          - RESISTIVITY OF MUD FILTRATE
SUFT.C        4                    : SUFT         - SURFACE TEMPERATURE
~A  DEPTH      CAL       GR     PHIN     PHID     RESD
  190.000  160.892  125.948    0.422    0.225    4.615
  190.250  166.277  127.914    0.424    0.233    4.718
  190.500  171.662  128.615    0.430    0.234    4.819
  190.750  176.021  129.316    0.435    0.231    4.926
  191.000  178.273  129.402    0.435    0.229    4.845
  191.250  177.305  129.471    0.430    0.228    4.854
  191.500  175.312  129.540    0.426    0.233    4.590
  191.750  172.236  130.241    0.418    0.251    4.422
  192.000  169.189  130.310    0.417    0.257    4.349
  192.250  165.116  131.661    0.433    0.247    4.359
  192.500  163.094  134.892    0.451    0.240    4.453
  192.750  163.209  136.840    0.459    0.238    4.644
  193.000  164.378  134.380    0.466    0.235    4.940
  193.250  167.683  131.919    0.484    0.230    5.146
  193.500  172.071  128.211    0.466    0.225    5.371
  193.750  173.211  127.630    0.444    0.221    5.383
  194.000  173.298  129.596    0.441    0.223    5.393
  194.250  174.524  134.741    0.434    0.232    5.201
  194.500  174.638  137.972    0.426    0.239    5.007
  194.750  174.725  137.409    0.459    0.244    4.381
  195.000  172.703  134.298    0.478    0.244    4.386
  195.250  168.602  127.411    0.466    0.239    4.945
  195.500  164.529   89.503    0.440    0.237    6.147
  195.750  167.806   44.638    0.394    0.270    8.270
  196.000  168.975   36.486    0.361    0.291   10.082
  196.250  160.658   28.351    0.327    0.293   12.053
  196.500  156.499   27.787    0.316    0.298   15.299
  196.750  156.643   32.266    0.312    0.304   16.902
  197.000  161.031   42.470    0.317    0.288   19.064
  197.250  162.142   44.453    0.331    0.283   19.098
  197.500  162.257   43.257    0.353    0.300   18.408
  197.750  161.346   40.147    0.391    0.314   16.741
  198.000  160.379   37.704    0.417    0.340   15.814
  198.250  158.443   42.814    0.409    0.330   14.381
  198.500  158.500   49.839    0.389    0.293   14.700
  198.750  160.723   54.352    0.378    0.256   14.726
  199.000  162.946   49.977    0.362    0.282   12.383
  199.250  163.089   46.269    0.370    0.294   11.037
  199.500  164.258   57.088    0.381    0.284   10.025
  199.750  166.481   67.275    0.392    0.276    8.935
  200.000  164.459   78.112    0.389    0.269    8.121
  200.250  159.333   81.343    0.385    0.266    7.234
  200.500  157.368   82.694    0.385    0.267    6.455
  200.750  157.454   85.924    0.398    0.272    6.218
  201.000  158.594   84.079    0.420    0.274    6.229
  201.250  161.900   80.371    0.409    0.269    6.244
  201.500  164.122   80.422    0.394    0.279    6.508
  201.750  164.237   79.859    0.412    0.299    7.199
  202.000  164.438   73.604    0.426    0.317    8.124
  202.250  164.495   64.170    0.433    0.326    8.300
  202.500  166.689   64.888    0.432    0.316    8.479
  202.750  168.941   75.075    0.414    0.292    8.177
  203.000  170.081   83.365    0.405    0.285    7.877
  203.250  170.224   82.186    0.403    0.277    7.301
  203.500  168.203   79.093    0.400    0.268    6.643
  203.750  165.184   77.248    0.391    0.265    6.526
  204.000  164.216   75.454    0.382    0.265    6.294
  204.250  164.360   75.489    0.384    0.264    6.305
  204.500  165.500   75.557    0.401    0.251    6.441
  204.750  168.805   76.908    0.412    0.240    6.588
  205.000  168.920   80.771    0.405    0.211    6.599
  205.250  164.848   85.284    0.395    0.188    6.494
  205.500  162.797   85.353    0.395    0.206    6.256
  205.750  161.858   86.054    0.405    0.200    6.146
  206.000  165.135   89.268    0.417    0.186    5.815
  206.250  163.142   95.695    0.418    0.187    5.709
  206.500  169.666   93.234    0.415    0.213    5.619
  206.750  167.673   90.757    0.436    0.237    5.628
  207.000  167.730   95.269    0.438    0.238    5.642
  207.250  166.820  100.380    0.429    0.252    5.655
  207.500  167.989  104.876    0.417    0.256    5.665
  207.750  170.240  101.167    0.423    0.250    5.678
  208.000  170.298   98.057    0.426    0.250    5.808
  208.250  168.333   94.981    0.420    0.241    5.818
  208.500  168.477   93.768    0.412    0.224    5.954
  208.750  168.534   91.957    0.409    0.217    5.961
  209.000  167.595   92.026    0.417    0.226    5.978
  209.250  164.548   92.710    0.424    0.221    6.111
  209.500  165.745   96.590    0.420    0.218    6.125
  209.750  169.051   99.172    0.415    0.219    6.024
  210.000  170.219   97.976    0.414    0.223    6.035
  210.250  170.305   93.635    0.414    0.233    6.053
  210.500  169.338   89.892    0.420    0.249    6.187
  210.750  166.319   88.697    0.430    0.260    6.580
  211.000  164.326   90.047    0.442    0.256    6.851
  211.250  166.549   90.099    0.438    0.248    7.431
  211.500  168.800   90.185    0.429    0.251    7.904
  211.750  168.915   88.989    0.420    0.253    8.229
  212.000  166.922   84.614    0.410    0.256    8.411
  212.250  165.983   84.068    0.406    0.254    8.268
  212.500  167.123   87.282    0.412    0.263    8.456
  212.750  168.320   87.983    0.408    0.292   10.513
  213.000  168.435   69.080    0.396    0.328   12.816
  213.250  168.550   57.117    0.383    0.326   16.258
  213.500  168.665   45.803    0.363    0.333   19.082
  213.750  168.779   43.974    0.355    0.321   19.890
  214.000  159.380   39.617    0.362    0.297   20.308
  214.250  160.577   42.847    0.365    0.301   21.168
  214.500  167.016   50.505    0.362    0.311   21.637
  214.750  169.238   50.574    0.353    0.318   22.117
  215.000  166.163   40.524    0.347    0.320   22.169
  215.250  167.360   40.593    0.345    0.323   22.221
  215.500  168.529   40.662    0.349    0.330   22.274
  215.750  163.345   40.731    0.350    0.339   22.781
  216.000  158.219   40.167    0.346    0.344   23.286
  216.250  161.467   37.707    0.346    0.335   23.341
  216.500  163.718   34.614    0.354    0.331   24.344
  216.750  165.941   32.153    0.358    0.332   24.416
  217.000  167.081   30.974    0.356    0.329   24.445
  217.250  166.199   32.941    0.352    0.319   24.041
  217.500  161.015   37.436    0.344    0.311   22.283
  217.750  161.102   41.914    0.336    0.314   19.860
  218.000  166.515   47.077    0.339    0.324   17.690
  218.250  166.630   43.334    0.346    0.335   15.757
  218.500  156.176   60.477    0.359    0.315   13.772
  218.750  161.618   74.476    0.372    0.297   13.274
  219.000  164.866   84.680    0.377    0.296   13.845
  219.250  168.172   81.570    0.373    0.303   14.143
  219.500  167.232   74.050    0.368    0.317   14.465
  219.750  164.185   63.368    0.367    0.314   14.210
  220.000  165.354   58.993    0.370    0.309   13.967
  220.250  166.523   62.242    0.377    0.310   12.695
  220.500  167.692   64.874    0.384    0.319   11.538
  220.750  166.724   63.012    0.389    0.315   10.084
  221.000  166.838   61.183    0.382    0.284    8.993
  221.250  169.061   89.727    0.386    0.294    8.495
  221.500  171.313   91.078    0.395    0.305    7.725
  221.750  172.453   87.335    0.410    0.315    7.442
  222.000  172.596   88.668    0.423    0.327    7.038
  222.250  172.711   91.899    0.418    0.319    7.059
  222.500  171.801   91.968    0.420    0.310    7.071
  222.750  167.699   88.875    0.425    0.316    7.371
  223.000  163.570   76.929    0.434    0.328    7.530
  223.250  162.659   72.588    0.429    0.330    7.858
  223.500  165.936   73.922    0.411    0.323    7.872
  223.750  170.267   74.623    0.391    0.319    7.742
  224.000  170.381   71.513    0.388    0.325    7.309
  224.250  167.363   69.684    0.399    0.326    6.024
  224.500  166.395   79.239    0.403    0.310    5.062
  224.750  166.510   91.973    0.407    0.277    4.425
  225.000  167.707  105.954    0.419    0.258    4.019
  225.250  168.847  114.911    0.474    0.248    3.799
  225.500  172.153  114.980    0.468    0.240    3.808
  225.750  172.239  112.519    0.471    0.231    3.894
  226.000  171.328  110.691    0.474    0.222    4.062
  226.250  170.332  112.042    0.466    0.222    4.234
