~VERSION INFORMATION
 VERS.                 2.0:   CWLS LOG ASCII STANDARD -VERSION 2.0
 WRAP.                  NO:   ONE LINE PER DEPTH STEP
~WELL INFORMATION BLOCK
#MNEM.UNIT           DATA                    DESCRIPTION OF MNEMONIC
#---------    -------------------            -------------------------------
# Generated from Intellog Unique Number	CW_82_90/WELL/3438
WELL.         TEXEX WOODEN                   : Well_name    - WELL
LOC .         00/10-13-089-24W4/0            : Location     - LOCATION
UWI .         00/10-13-089-24W4/0            : Uwi          - UNIQUE WELL ID
ENTR.         MAX                            : Entered      - ENTERED BY
SRVC.         SCHLUMBERGER                   : Scn          - SERVICE COMPANY
STRT.M        121.92                         : top_depth    - START DEPTH
STOP.M        270.67                         : bot_depth    - STOP DEPTH
STEP.M        0.25                           : increment    - STEP LENGTH
 NULL. -999.2500:NULL Value
~CURVE INFORMATION BLOCK
#MNEM UNIT       ERCB CURVE CODE    CURVE DESCRIPTION
#-----------   ------------------   ----------------------------------
DEPT.M        00 001 00 00         : DEPTH        - DEPTH
ILD .OHMM     00 120 00 00         : RESD         - DEEP RESISTIVITY (DIL)
NPHI.V/V      00 330 00 00         : PHIN         - NEUTRON POROSITY (SANDSTONE)
DPHI.V/V      00 890 00 00         : PHID         - DENSITY POROSITY (SANDSTONE)
CALI.MM       00 280 01 00         : CAL          - CALIPER
GR  .API      00 310 00 00         : GR           - GAMMA RAY
~PARAMETER INFORMATION
#MNEM.UNIT           DATA             DESCRIPTION OF MNEMONIC
#---------         -----------     ------------------------------
GL  .M        508.65               : gl           - GROUND LEVEL ELEVATION
EREF.M        512.003              : kb           - ELEVATION OF DEPTH REFERENCE
DATM.M        508.65               : datum        - DATUM ELEVATION
TDD .M        263.347              : tdd          - TOTAL DEPTH DRILLER
RUN .         ONE                  : Run          - RUN NUMBER
ENG .         BILL                 : Engineer     - RECORDING ENGINEER
WIT .         JIM                  : Witness      - WITNESSED BY
MUD .         GEL                  : Mud_type     - MUD TYPE
MATR.         SANDSTONE            : Logunit      - NEUTRON MATRIX
TMAX.C        15.5556              : BHT          - MAXIMUM RECORDED TEMPERATURE
BHTD.M        263.347              : BHTDEP       - MAXIMUM RECORDED TEMPERATURE
MATR.         1                    : LOGUNIT      - NEUTRON MATRIX
RMT .C        15.5556              : MDTP         - TEMPERATURE OF MUD
NEUT.         1                    : NEUTRON      - NEUTRON TYPE
RESI.         0                    : RESIST       - RESISTIVITY TYPE
RMC .OHMM     5.35                 : RMC          - RESISTIVITY OF MUD CAKE
RMF .OHMM     5.35                 : RMF          - RESISTIVITY OF MUD FILTRATE
SUFT.C        -12.2222             : SUFT         - SURFACE TEMPERATURE
~A  DEPTH     RESD     PHIN     PHID      CAL       GR
# ...
  231.420    8.332    0.446    0.133  235.080   90.058
  231.670    9.039    0.400    0.108  234.064   85.285
  231.920   10.353    0.364    0.072  226.992   77.829
  232.170   16.735    0.226    0.001  219.918   72.460
  232.420   25.851    0.201    0.001  222.940   73.052
  232.670   32.420    0.223    0.001  225.963   75.433
  232.920   18.147    0.262    0.018  227.472   75.728
  233.170   13.092    0.331    0.057  225.951   74.830
  233.420   11.529    0.384    0.109  225.944   74.827
  233.670   10.917    0.420    0.164  225.938   75.717
  233.920   10.527    0.430    0.187  225.428   75.714
  234.170   11.628    0.429    0.180  225.422   74.220
  234.420   13.936    0.415    0.142  225.920   71.235
  234.670   16.552    0.391    0.099  226.420   67.655
  234.920   19.482    0.367    0.063  226.918   63.477
  235.170   23.776    0.327    0.000  226.407   62.282
  235.420   28.496    0.278    0.001  225.896   61.086
  235.670   29.811    0.303    0.000  225.889   60.784
  235.920   28.228    0.284    0.035  224.369   62.569
  236.170   22.096    0.335    0.105  223.858   65.844
  236.420   17.612    0.419    0.150  225.870   70.610
  236.670   17.137    0.404    0.126  225.359   74.183
  236.920   21.105    0.382    0.093  224.849   72.391
  237.170   28.200    0.361    0.072  224.843   64.339
  237.420   26.946    0.338    0.002  223.828   66.422
  237.670   23.517    0.312    0.002  225.336   70.294
  237.920   19.972    0.330    0.001  225.330   73.867
  238.170   15.633    0.344    0.053  226.838   78.335
  238.420   14.670    0.394    0.088  227.841   83.697
  238.670   13.155    0.431    0.113  228.845   86.077
  238.920   11.905    0.423    0.097  229.342   86.670
  239.170   11.170    0.389    0.076  229.337   85.474
  239.420   11.270    0.381    0.062  229.331   83.980
  239.670   12.337    0.390    0.086  229.829   83.977
  239.920   12.560    0.429    0.123  230.328   83.973
  240.170   12.332    0.436    0.113  230.322   86.056
  240.420   11.999    0.422    0.088  229.306   81.283
  240.670   11.675    0.397    0.050  228.290   76.212
  240.920   11.779    0.382    0.083  225.256   73.824
  241.170   11.777    0.410    0.068  223.736   69.647
  241.420   11.669    0.399    0.039  224.234   69.643
  241.670   11.561    0.397    0.042  225.238   68.746
  241.920   11.770    0.407    0.021  225.231   67.847
  242.170   11.768    0.416    0.011  224.716   68.738
  242.420   11.244    0.397    0.016  223.201   70.821
  242.670   10.744    0.376    0.042  223.699   73.500
  242.920   10.359    0.402    0.105  226.721   79.756
  243.170   10.263    0.431    0.141  228.228   85.416
  243.420    9.987    0.446    0.111  227.718   86.903
  243.670    9.805    0.442    0.098  225.693   88.091
  243.920    9.983    0.413    0.059  222.154   88.982
  244.170   10.444    0.435    0.089  221.643   88.680
  244.420   10.537    0.456    0.116  223.656   88.975
  244.670   10.631    0.464    0.119  225.669   91.355
  244.920   10.922    0.463    0.118  225.158   92.246
  245.170   11.018    0.448    0.105  224.142   92.541
  245.420   11.017    0.434    0.079  223.127   91.345
  245.670   11.318    0.426    0.038  222.616   91.043
  245.920   11.316    0.452    0.030  222.610   90.742
  246.170   11.417    0.459    0.077  222.603   92.526
  246.420   11.519    0.443    0.086  224.111   94.609
  246.670   11.517    0.430    0.103  224.106   96.692
  246.920   11.514    0.447    0.097  223.594   98.776
  247.170   11.829    0.448    0.089  222.074  109.503
  247.420   11.827    0.427    0.110  222.068  110.989
  247.670   12.151    0.416    0.096  224.081  107.409
  247.920   12.712    0.418    0.078  224.580  105.020
  248.170   13.915    0.440    0.076  224.573  110.085
  248.420   15.795    0.439    0.101  224.568  117.235
  248.670   17.448    0.378    0.101  224.561  117.529
  248.920   21.102    0.343    0.074  225.060  111.564
  249.170   19.445    0.335    0.019  224.548  102.916
  249.420   17.918    0.397    0.013  224.542  103.211
  249.670   16.662    0.441    0.074  225.546  110.361
  249.920   14.023    0.417    0.095  225.540  111.550
  250.170   13.158    0.396    0.060  225.532  107.671
  250.420   12.347    0.437    0.094  225.528  110.946
  250.670   11.073    0.427    0.098  226.531  113.327
  250.920   10.019    0.403    0.038  226.525  112.429
  251.170    9.488    0.415   -0.002  226.518  108.253
  251.420    9.231    0.435    0.075  226.512  104.672
  251.670    9.146    0.433    0.108  226.506  101.687
  251.920    9.145    0.429    0.116  226.500  101.087
  252.170    9.226    0.415    0.099  226.999  101.680
  252.420    9.393    0.407    0.077  227.497  103.763
  252.670    9.563    0.431    0.090  227.491  107.635
  252.920    9.736    0.438    0.122  227.990  111.506
  253.170    9.912    0.422    0.137  228.993  112.397
  253.420   10.277    0.422    0.125  228.987  108.816
  253.670   10.947    0.426    0.100  228.981  109.111
  253.920   11.453    0.420    0.076  229.480  110.299
  254.170   12.311    0.402    0.056  229.978  106.421
  254.420   13.115    0.374    0.001  229.972  101.350
  254.670   13.353    0.286    0.001  228.957   97.471
  254.920   13.110    0.305    0.007  225.923   94.189
  255.170   12.302    0.328    0.074  224.906   97.166
  255.420   11.032    0.350    0.121  229.947  108.787
  255.670   10.258    0.376    0.140  232.970  110.870
  255.920    9.714    0.401    0.127  235.992  105.203
  256.170    9.281    0.387    0.105  237.501   89.103
  256.420    9.196    0.404    0.085  232.952   61.676
  256.670    9.111    0.451    0.060  229.916   41.402
  256.920    8.946    0.466    0.073  229.911   34.543
  257.170    8.470    0.476    0.095  229.904   53.617
  257.420    8.393    0.476    0.114  233.432   63.748
  257.670    8.240    0.464    0.148  232.416   77.456
  257.920    8.239    0.459    0.132  231.906   78.347
  258.170    8.619    0.454    0.118  233.414   76.554
  258.420    9.099    0.454    0.096  233.912   75.359
  258.670    9.605    0.426    0.080  232.897   75.355
  258.920    9.869    0.391    0.037  231.881   75.947
  259.170    9.778    0.341    0.144  231.370   76.838
  259.420    9.428    0.340    0.215  231.364   79.815
  259.670    8.927    0.386    0.251  231.358   82.196
  259.920    8.530    0.420    0.244  230.847   84.875
  260.170    8.299    0.431    0.245  230.336   86.958
  260.420    8.223    0.420    0.250  229.825   88.147
  260.670    8.372    0.409    0.236  229.314   89.038
  260.920    8.601    0.398    0.228  229.307   86.947
  261.170    8.757    0.395    0.225  229.805   85.156
  261.420    8.996    0.399    0.212  230.305   81.873
  261.670    9.671    0.392    0.197  230.804   80.676
  261.920   10.209    0.380    0.181  231.303   80.673
  262.170   10.207    0.366    0.169  231.297   81.564
  262.420   10.022    0.377    0.214  231.290   84.541
  262.670    9.751    0.391    0.227  231.788   86.326
  262.920   10.202    0.400    0.229  231.782   88.707
  263.170   12.564    0.409    0.223  232.280   91.982
  263.420   19.944    0.412    0.236  232.779   93.767
  263.670   24.339    0.438    0.240  234.287   95.850
  263.920   21.630    0.451    0.246  234.787   97.635
  264.170   16.035    0.440    0.233  235.285  101.208
  264.420   11.780    0.414    0.173  237.298  116.407
  264.670   11.778    0.387    0.202  240.321  123.259
  264.920   12.322    0.367    0.237  243.848  130.112
  265.170   13.488    0.350    0.137  243.336  136.367
  265.420   14.899    0.375    0.164  245.855  131.595
  265.670   16.608    0.399    0.214  246.352  117.581
  265.920   15.304    0.406    0.137  249.880  102.375
  266.170   13.976    0.273    0.052  252.397  109.525
  266.420   15.299    0.297    0.012  239.267  115.782
  266.670   16.899    0.311    0.153  242.290  119.951
  266.920   16.147    0.333    0.222  247.332  123.226
  267.170   17.046    0.357    0.183  251.363  123.819
  267.420   16.890    0.357    0.147  247.823  124.709
  267.670   16.433    0.331    0.109  248.827  126.197
