~VERSION INFORMATION
 VERS.                 2.0:   CWLS LOG ASCII STANDARD -VERSION 2.0
 WRAP.                  NO:   ONE LINE PER DEPTH STEP
~WELL INFORMATION BLOCK
#MNEM.UNIT           DATA                    DESCRIPTION OF MNEMONIC
#---------    -------------------            -------------------------------
# Generated from Intellog Unique Number	CS_71_72/WELL/880
WELL.         AMOCO AEC IPIATIK              : Well_name    - WELL
LOC .         00/10-34-072-06W4/0            : Location     - LOCATION
UWI .         00/10-34-072-06W4/0            : Uwi          - UNIQUE WELL ID
ENTR.         SP                             : Entered      - ENTERED BY
SRVC.         SCHLUMBERGER                   : Scn          - SERVICE COMPANY
STRT.M        325                            : top_depth    - START DEPTH
STOP.M        575                            : bot_depth    - STOP DEPTH
STEP.M        0.25                           : increment    - STEP LENGTH
 NULL. -999.2500:NULL Value
~CURVE INFORMATION BLOCK
#MNEM UNIT       ERCB CURVE CODE    CURVE DESCRIPTION
#-----------   ------------------   ----------------------------------
DEPT.M        00 001 00 00         : DEPTH        - DEPTH
ILD .OHMM     00 120 00 00         : RESD         - DEEP RESISTIVITY (DIL)
DPHI.V/V      00 890 00 00         : PHID         - DENSITY POROSITY (LIMESTONE)
NPHI.V/V      00 330 00 00         : PHIN         - NEUTRON POROSITY (LIMESTONE)
GR  .API      00 310 00 00         : GR           - GAMMA RAY
~PARAMETER INFORMATION
#MNEM.UNIT           DATA             DESCRIPTION OF MNEMONIC
#---------         -----------     ------------------------------
GL  .M        709.8                : gl           - GROUND LEVEL ELEVATION
EREF.M        714                  : kb           - ELEVATION OF DEPTH REFERENCE
DATM.M        709.8                : datum        - DATUM ELEVATION
TDD .M        588.2                : tdd          - TOTAL DEPTH DRILLER
RUN .         ONE                  : Run          - RUN NUMBER
ENG .         BILL                 : Engineer     - RECORDING ENGINEER
WIT .         JIM                  : Witness      - WITNESSED BY
MUD .         GEL                  : Mud_type     - MUD TYPE
MATR.         LIMESTONE            : Logunit      - NEUTRON MATRIX
TMAX.C        11                   : BHT          - MAXIMUM RECORDED TEMPERATURE
BHTD.M        588.2                : BHTDEP       - MAXIMUM RECORDED TEMPERATURE
MATR.         1                    : LOGUNIT      - NEUTRON MATRIX
RMT .C        25                   : MDTP         - TEMPERATURE OF MUD
NEUT.         1                    : NEUTRON      - NEUTRON TYPE
RESI.         0                    : RESIST       - RESISTIVITY TYPE
RMC .OHMM     0.25                 : RMC          - RESISTIVITY OF MUD CAKE
RMF .OHMM     0.25                 : RMF          - RESISTIVITY OF MUD FILTRATE
SUFT.C        15                   : SUFT         - SURFACE TEMPERATURE
~A  DEPTH     RESD     PHID     PHIN       GR
# ...
  368.500    7.135    0.327    0.445   40.086
  368.750    7.135    0.333    0.433   40.092
  369.000    7.135    0.333    0.426   38.268
  369.250    7.003    0.327    0.421   37.054
  369.500    7.003    0.330    0.426   37.060
  369.750    6.874    0.322    0.443   35.238
  370.000    6.874    0.317    0.448   34.025
  370.250    6.874    0.319    0.444   34.639
  370.500    6.875    0.320    0.436   38.305
  370.750    6.875    0.304    0.433   41.359
  371.000    6.875    0.292    0.429   41.977
  371.250    6.748    0.309    0.427   41.371
  371.500    6.748    0.320    0.423   43.206
  371.750    6.748    0.325    0.425   46.871
  372.000    6.749    0.314    0.431   49.926
  372.250    6.749    0.306    0.433   48.104
  372.500    6.749    0.295    0.438   49.329
  372.750    6.876    0.303    0.448   51.775
  373.000    6.876    0.300    0.454   53.000
  373.250    6.877    0.294    0.462   52.395
  373.500    6.877    0.287    0.460   50.574
  373.750    7.007    0.283    0.454   50.579
  374.000    6.877    0.293    0.445   52.414
  374.250    6.877    0.307    0.440   53.029
  374.500    6.750    0.289    0.435   49.986
  374.750    6.751    0.290    0.452   45.119
  375.000    6.751    0.309    0.457   43.296
  375.250    6.878    0.321    0.459   42.692
  375.500    6.878    0.321    0.463   41.479
  375.750    6.751    0.332    0.452   40.874
  376.000    6.626    0.349    0.439   40.877
  376.250    6.266    0.362    0.432   41.493
  376.500    6.150    0.338    0.454   39.670
  376.750    6.036    0.313    0.468   37.239
  377.000    6.150    0.351    0.469   36.633
  377.250    6.266    0.358    0.456   38.471
  377.500    6.385    0.347    0.441   39.085
  377.750    6.267    0.333    0.429   42.140
  378.000    6.151    0.324    0.419   45.806
  378.250    5.926    0.318    0.417   48.248
  378.500    5.709    0.302    0.419   48.255
  378.750    5.709    0.288    0.434   43.993
  379.000    5.926    0.292    0.439   41.560
  379.250    6.152    0.314    0.442   44.615
  379.500    6.268    0.314    0.453   47.061
  379.750    6.268    0.307    0.460   47.677
  380.000    6.038    0.306    0.462   47.072
  380.250    5.710    0.313    0.450   45.861
  380.500    5.299    0.308    0.436   46.476
  380.750    5.010    0.303    0.428   46.480
  381.000    5.011    0.308    0.422   44.659
  381.250    5.011    0.298    0.425   43.447
  381.500    5.011    0.309    0.420   43.450
  381.750    5.011    0.324    0.419   45.895
  382.000    5.011    0.320    0.435   47.732
  382.250    4.919    0.309    0.442   48.956
  382.500    4.828    0.317    0.452   52.011
  382.750    4.828    0.308    0.446   55.678
  383.000    4.828    0.307    0.451   59.341
  383.250    4.828    0.323    0.445   63.615
  383.500    4.919    0.303    0.440   67.889
  383.750    4.919    0.307    0.434   70.945
  384.000    5.107    0.301    0.450   67.904
  384.250    5.203    0.291    0.467   66.688
  384.500    5.401    0.292    0.473   65.474
  384.750    5.607    0.286    0.471   66.091
  385.000    5.713    0.278    0.450   66.096
  385.250    5.820    0.287    0.431   67.323
  385.500    5.713    0.304    0.426   71.599
  385.750    5.713    0.296    0.428   73.432
  386.000    5.608    0.291    0.428   75.877
  386.250    5.504    0.287    0.426   75.277
  386.500    5.402    0.293    0.426   74.672
  386.750    5.402    0.306    0.429   74.676
  387.000    5.403    0.308    0.442   75.294
  387.250    5.403    0.308    0.442   75.299
  387.500    5.303    0.299    0.441   78.353
  387.750    5.205    0.297    0.438   83.237
  388.000    4.831    0.298    0.438   89.341
  388.250    4.654    0.271    0.440   93.005
  388.500    4.239    0.259    0.452   95.451
  388.750    4.161    0.269    0.463   90.580
  389.000    4.084    0.281    0.476   86.316
  389.250    4.161    0.301    0.462   76.567
  389.500    4.654    0.313    0.453   68.645
  389.750    4.923    0.326    0.461   63.164
  390.000    5.206    0.327    0.460   60.732
  390.250    5.404    0.318    0.453   58.909
  390.500    5.610    0.314    0.452   56.477
  390.750    5.934    0.311    0.437   55.872
  391.000    6.159    0.311    0.420   55.270
  391.250    6.394    0.305    0.405   54.664
  391.500    7.020    0.294    0.380   53.451
  391.750    8.000    0.027    0.275   48.579
  392.000    9.464    0.006    0.158   45.534
  392.250   10.989   -0.005    0.159   40.663
  392.500   13.749   -0.008    0.161   37.010
  392.750   17.856   -0.001    0.154   38.847
  393.000   22.340    0.044    0.152   44.952
  393.250   25.460    0.076    0.164   49.835
  393.500   22.763    0.122    0.213   53.498
  393.750   17.528    0.181    0.271   60.215
  394.000   13.247    0.238    0.360   62.659
  394.250   10.991    0.302    0.404   63.885
  394.500    8.002    0.320    0.426   63.889
  394.750    6.640    0.325    0.425   62.675
  395.000    6.048    0.331    0.448   63.294
  395.250    5.719    0.332    0.456   63.299
  395.500    5.613    0.332    0.459   63.303
  395.750    5.510    0.314    0.459   63.310
  396.000    5.408    0.306    0.470   62.706
  396.250    5.210    0.300    0.467   62.713
  396.500    5.114    0.320    0.457   62.109
  396.750    5.114    0.339    0.451   62.115
  397.000    5.114    0.346    0.450   61.511
  397.250    5.019    0.353    0.450   62.128
  397.500    5.019    0.339    0.456   62.133
  397.750    4.927    0.338    0.457   62.138
  398.000    4.836    0.326    0.446   61.536
  398.250    4.836    0.326    0.437   60.933
  398.500    4.747    0.333    0.439   59.718
  398.750    4.659    0.335    0.449   58.504
  399.000    4.659    0.329    0.457   61.562
  399.250    4.659    0.326    0.467   61.565
  399.500    4.573    0.339    0.465   60.963
  399.750    4.573    0.341    0.457   59.750
  400.000    4.489    0.340    0.455   59.146
  400.250    4.489    0.338    0.457   60.370
  400.500    4.489    0.330    0.474   61.596
  400.750    4.406    0.326    0.483   61.602
  401.000    4.325    0.319    0.473   59.779
  401.250    4.245    0.327    0.466   59.174
  401.500    4.245    0.333    0.457   59.182
  401.750    4.166    0.340    0.449   59.799
  402.000    4.090    0.341    0.457   60.413
  402.250    4.090    0.332    0.462   61.640
  402.500    4.014    0.328    0.452   61.644
  402.750    4.014    0.325    0.463   61.045
  403.000    4.014    0.332    0.466   61.049
  403.250    3.940    0.347    0.455   59.833
  403.500    3.940    0.352    0.451   58.621
  403.750    3.940    0.339    0.452   59.849
  404.000    3.940    0.333    0.456   61.686
  404.250    3.941    0.328    0.464   62.910
  404.500    3.941    0.324    0.468   64.132
  404.750    3.941    0.333    0.461   64.138
  405.000    3.941    0.346    0.451   61.708
  405.250    3.941    0.356    0.438   60.492
  405.500    3.941    0.351    0.447   58.060
  405.750    3.941    0.339    0.457   57.455
  406.000    4.016    0.333    0.470   57.463
  406.250    3.941    0.329    0.486   57.467
  406.500    3.942    0.336    0.473   57.474
  406.750    3.869    0.336    0.463   58.089
  407.000    3.869    0.335    0.462   58.706
  407.250    3.797    0.333    0.473   59.322
  407.500    3.797    0.329    0.455   59.937
  407.750    3.727    0.335    0.441   62.385
  408.000    3.727    0.342    0.434   62.998
  408.250    3.659    0.342    0.462   63.615
  408.500    3.659    0.354    0.485   63.619
  408.750    3.591    0.357    0.487   60.578
  409.000    3.591    0.364    0.480   55.707
  409.250    3.591    0.368    0.468   53.881
  409.500    3.659    0.353    0.461   55.109
  409.750    3.659    0.359    0.462   57.555
  410.000    3.659    0.353    0.470   58.168
  410.250    3.659    0.345    0.474   58.786
  410.500    3.659    0.346    0.475   58.183
  410.750    3.729    0.360    0.468   56.968
  411.000    3.729    0.367    0.462   56.363
  411.250    3.729    0.362    0.458   56.981
  411.500    3.660    0.352    0.453   57.594
  411.750    3.526    0.343    0.457   60.652
