~VERSION INFORMATION
 VERS.                 2.0:   CWLS LOG ASCII STANDARD -VERSION 2.0
 WRAP.                  NO:   ONE LINE PER DEPTH STEP
~WELL INFORMATION BLOCK
#MNEM.UNIT           DATA                    DESCRIPTION OF MNEMONIC
#---------    -------------------            -------------------------------
# Generated from Intellog Unique Number	CW_82_90/WELL/3082
WELL.         NORTHSTAR ET AL WOODEN         : Well_name    - WELL
LOC .         00/14-20-087-21W4/0            : Location     - LOCATION
UWI .         00/14-20-087-21W4/0            : Uwi          - UNIQUE WELL ID
ENTR.         MAX                            : Entered      - ENTERED BY
SRVC.         WESTERN ATLAS                  : Scn          - SERVICE COMPANY
STRT.M        210                            : top_depth    - START DEPTH
STOP.M        310                            : bot_depth    - STOP DEPTH
STEP.M        0.25                           : increment    - STEP LENGTH
 NULL. -999.2500:NULL Value
~CURVE INFORMATION BLOCK
#MNEM UNIT       ERCB CURVE CODE    CURVE DESCRIPTION
#-----------   ------------------   ----------------------------------
DEPT.M        00 001 00 00         : DEPTH        - DEPTH
ILD .OHMM     00 120 00 00         : RESD         - DEEP RESISTIVITY (DIL)
NPHI.V/V      00 330 00 00         : PHIN         - NEUTRON POROSITY (SANDSTONE)
DPHI.V/V      00 890 00 00         : PHID         - DENSITY POROSITY (SANDSTONE)
CALI.MM       00 280 01 00         : CAL          - CALIPER
GR  .API      00 310 00 00         : GR           - GAMMA RAY
~PARAMETER INFORMATION
#MNEM.UNIT           DATA             DESCRIPTION OF MNEMONIC
#---------         -----------     ------------------------------
GL  .M        546.6                : gl           - GROUND LEVEL ELEVATION
EREF.M        550.55               : kb           - ELEVATION OF DEPTH REFERENCE
DATM.M        546.6                : datum        - DATUM ELEVATION
TDD .M        311                  : tdd          - TOTAL DEPTH DRILLER
RUN .         ONE                  : Run          - RUN NUMBER
ENG .         BILL                 : Engineer     - RECORDING ENGINEER
WIT .         JIM                  : Witness      - WITNESSED BY
MUD .         GEL                  : Mud_type     - MUD TYPE
MATR.         SANDSTONE            : Logunit      - NEUTRON MATRIX
TMAX.C        24                   : BHT          - MAXIMUM RECORDED TEMPERATURE
BHTD.M        311                  : BHTDEP       - MAXIMUM RECORDED TEMPERATURE
MATR.         1                    : LOGUNIT      - NEUTRON MATRIX
RMT .C        17                   : MDTP         - TEMPERATURE OF MUD
NEUT.         1                    : NEUTRON      - NEUTRON TYPE
RESI.         0                    : RESIST       - RESISTIVITY TYPE
RMC .OHMM     3.1                  : RMC          - RESISTIVITY OF MUD CAKE
RMF .OHMM     2.9                  : RMF          - RESISTIVITY OF MUD FILTRATE
SUFT.C        -15                  : SUFT         - SURFACE TEMPERATURE
~A  DEPTH     RESD     PHIN     PHID      CAL       GR
# ...
  246.500   10.161    0.405    0.248  166.197  101.809
  246.750   10.258    0.405    0.243  166.205  102.108
  247.000   10.449    0.415    0.239  166.214  101.821
  247.250   11.038    0.415    0.221  165.734   98.311
  247.500   12.093    0.395    0.222  165.744   93.923
  247.750   13.249    0.383    0.236  165.753   90.706
  248.000   14.917    0.377    0.247  165.274   89.832
  248.250   16.794    0.366    0.191  165.282   83.688
  248.500   19.255    0.349    0.101  164.804   76.371
  248.750   22.687    0.332    0.105  164.324   71.690
  249.000   27.471    0.336    0.193  163.844   72.867
  249.250   31.785    0.322    0.186  163.365   70.529
  249.500   32.972    0.306    0.132  162.884   66.726
  249.750   30.114    0.289    0.082  162.893   62.924
  250.000   26.044    0.269    0.060  162.902   62.051
  250.250   25.583    0.277    0.131  162.912   65.278
  250.500   27.272    0.312    0.228  163.408   74.948
  250.750   29.609    0.370    0.240  164.392   78.467
  251.000   27.540    0.312    0.171  165.865   69.394
  251.250   24.698    0.279    0.069  166.852   67.349
  251.500   20.041    0.293    0.211  166.860   76.140
  251.750   18.472    0.343    0.256  166.868   85.518
  252.000   17.026    0.368    0.248  166.389   89.039
  252.250   16.273    0.371    0.136  166.885   86.114
  252.500   15.841    0.354    0.106  167.383   78.504
  252.750   15.559    0.352    0.207  167.881   79.095
  253.000   15.564    0.391    0.225  167.889   83.494
  253.250   15.999    0.387    0.182  167.898   87.600
  253.500   16.598    0.371    0.168  167.905   88.777
  253.750   17.376    0.371    0.198  167.914   87.317
  254.000   19.741    0.351    0.128  168.413   80.293
  254.250   20.293    0.323    0.109  168.421   75.906
  254.500   19.933    0.323    0.144  168.431   79.132
  254.750   18.540    0.359    0.168  168.438   86.460
  255.000   17.088    0.382    0.178  167.960   91.444
  255.250   15.750    0.391    0.183  167.970   91.742
  255.500   15.330    0.389    0.200  167.976   89.990
  255.750   14.922    0.389    0.223  167.985   91.752
  256.000   14.792    0.385    0.210  167.506   91.172
  256.250   14.662    0.374    0.133  167.513   89.127
  256.500   14.535    0.379    0.176  167.524   93.818
  256.750   14.538    0.389    0.217  167.531   96.459
  257.000   14.675    0.385    0.198  167.054   89.436
  257.250   15.224    0.378    0.152  167.061   86.511
  257.500   15.651    0.376    0.157  167.069   81.539
  257.750   15.798    0.372    0.207  166.591   86.230
  258.000   15.659    0.388    0.201  166.598   91.214
  258.250   15.664    0.389    0.186  166.610   89.754
  258.500   15.248    0.389    0.175  167.105   88.588
  258.750   14.976    0.389    0.178  167.112   87.715
  259.000   14.447    0.377    0.198  167.122   87.428
  259.250   14.583    0.389    0.209  167.130   90.947
  259.500   14.721    0.398    0.188  167.139   90.953
  259.750   14.591    0.400    0.189  167.148   88.029
  260.000   14.596    0.385    0.178  167.158   90.378
  260.250   14.601    0.385    0.185  167.164   92.726
  260.500   15.425    0.392    0.219  167.174   95.074
  260.750   15.857    0.377    0.186  167.671   88.928
  261.000   15.861    0.350    0.150  167.680   64.331
  261.250   15.580    0.320    0.008  167.689   60.236
  261.500   15.587    0.319    0.052  168.185   66.393
  261.750   15.448    0.329    0.145  168.194   72.255
  262.000   14.632    0.358    0.210  168.692   87.197
  262.250   13.859    0.403    0.185  169.189   98.040
  262.500   13.490    0.399    0.124  169.197   96.581
  262.750   13.373    0.373    0.113  169.693   92.485
  263.000   13.376    0.371    0.181  169.214   87.219
  263.250   14.003    0.386    0.208  169.223   84.880
  263.500   15.202    0.369    0.173  169.231   81.078
  263.750   17.430    0.354    0.127  169.240   75.811
  264.000   17.435    0.352    0.101  169.250   58.829
  264.250   16.069    0.337    0.061  169.259   64.399
  264.500   14.677    0.327    0.060  169.266   76.705
  264.750   13.901    0.345    0.187  169.764   96.334
  265.000   13.048    0.379    0.209  169.283   99.562
  265.250   12.472    0.381    0.210  168.317  100.738
  265.500   12.139    0.376    0.203  167.836  101.329
  265.750   12.143    0.376    0.203  167.845   99.576
  266.000   12.370    0.374    0.194  167.855   97.239
  266.250   12.601    0.382    0.199  167.374   99.587
  266.500   12.953    0.387    0.182  167.385  106.036
  266.750   13.316    0.371    0.141  167.393   99.890
  267.000   13.688    0.360    0.145  167.890   93.160
  267.250   14.072    0.359    0.204  167.897   91.994
  267.500   14.333    0.367    0.218  167.419   93.169
  267.750   14.870    0.367    0.218  167.917   95.518
  268.000   15.285    0.360    0.214  167.923   94.353
  268.250   16.148    0.356    0.207  167.933   95.528
  268.500   17.372    0.356    0.201  167.941   95.534
  268.750   19.032    0.347    0.147  167.952   89.974
  269.000   19.038    0.332    0.098  167.959   80.314
  269.250   17.547    0.307    0.105  167.967   82.956
  269.500   15.175    0.321    0.146  168.465   90.868
  269.750   13.365    0.347    0.176  168.961   96.439
  270.000   12.891    0.379    0.204  168.970   97.030
  270.250   13.494    0.383    0.205  169.466   95.571
  270.500   14.257    0.367    0.208  169.475   98.505
  270.750   14.522    0.359    0.211  169.485  101.438
  271.000   14.793    0.356    0.214  169.493  103.787
  271.250   15.207    0.354    0.212  169.990  100.863
  271.500   15.351    0.353    0.154  170.486   92.374
  271.750   14.807    0.344    0.085  170.983   89.744
  272.000   12.922    0.358    0.160  171.969   94.728
  272.250   10.582    0.397    0.219  172.956  105.570
  272.500    9.069    0.414    0.221  172.962  110.847
  272.750    8.208    0.416    0.204  172.971  111.732
  273.000    7.917    0.419    0.196  172.979  112.030
  273.250    7.919    0.419    0.208  172.499  112.620
  273.500    8.598    0.425    0.216  172.510  112.333
  273.750    9.505    0.426    0.219  171.541  106.187
  274.000   10.998    0.377    0.207  170.086   98.284
  274.250   13.684    0.359    0.176  167.654   83.060
  274.500   16.271    0.339    0.127  166.685   75.743
  274.750   17.666    0.326    0.087  165.720   78.970
  275.000   17.995    0.332    0.142  165.728   90.691
  275.250   18.837    0.351    0.216  165.737   91.868
  275.500   19.016    0.357    0.221  165.745   88.359
  275.750   18.509    0.341    0.165  166.242   79.577
  276.000   16.601    0.334    0.096  166.251   78.996
  276.250   14.754    0.320    0.133  166.260   92.768
  276.500   13.723    0.348    0.174  166.269  103.316
  276.750   13.726    0.378    0.175  166.276  101.271
  277.000   13.731    0.383    0.151  166.286   96.591
  277.250   14.374    0.369    0.124  166.295   91.324
  277.500   14.510    0.365    0.116  166.793   93.672
  277.750   13.743    0.373    0.152  166.799   96.899
  278.000   12.667    0.387    0.182  166.809  100.713
  278.250   11.258    0.393    0.192  166.330  103.353
  278.500    9.914    0.402    0.189  165.850  101.602
  278.750    9.306    0.410    0.192  165.371  100.143
  279.000    8.976    0.412    0.194  166.845   99.268
  279.250    8.817    0.410    0.177  167.341   98.102
  279.500    9.064    0.401    0.139  167.348   95.179
  279.750    9.489    0.392    0.114  167.358   89.912
  280.000    9.578    0.391    0.098  166.879   89.038
  280.250    9.495    0.373    0.126  166.888  100.173
  280.500    9.411    0.392    0.182  167.384  109.551
  280.750    9.161    0.395    0.182  167.880  111.900
  281.000    9.081    0.392    0.187  167.890  114.541
  281.250    9.083    0.393    0.192  167.898  116.302
  281.500    9.508    0.376    0.179  166.931  115.136
  281.750   10.323    0.354    0.150  166.451  105.769
  282.000   11.413    0.355    0.060  166.459  101.675
  282.250   13.204    0.335    0.089  166.469  104.901
  282.500   14.732    0.320    0.147  166.477  100.513
  282.750   15.144    0.338    0.103  166.486   91.439
