~VERSION INFORMATION
 VERS.                 2.0:   CWLS LOG ASCII STANDARD -VERSION 2.0
 WRAP.                  NO:   ONE LINE PER DEPTH STEP
~WELL INFORMATION BLOCK
#MNEM.UNIT           DATA                    DESCRIPTION OF MNEMONIC
#---------    -------------------            -------------------------------
# Generated from Intellog Unique Number	CW_79_81/WELL/927
WELL.         14-14-079-22W4                 : Well_name    - WELL
LOC .         00/14-14-079-22W4/0            : Location     - LOCATION
UWI .         00/14-14-079-22W4/0            : Uwi          - UNIQUE WELL ID
ENTR.         MAX                            : Entered      - ENTERED BY
SRVC.         SCHLUMBERGER                   : Scn          - SERVICE COMPANY
STRT.M        220                            : top_depth    - START DEPTH
STOP.M        432                            : bot_depth    - STOP DEPTH
STEP.M        0.25                           : increment    - STEP LENGTH
 NULL. -999.2500:NULL Value
~CURVE INFORMATION BLOCK
#MNEM UNIT       ERCB CURVE CODE    CURVE DESCRIPTION
#-----------   ------------------   ----------------------------------
DEPT.M        00 001 00 00         : DEPTH        - DEPTH
ILD .OHMM     00 120 00 00         : RESD         - DEEP RESISTIVITY (DIL)
NPHI.V/V      00 330 00 00         : PHIN         - NEUTRON POROSITY (SANDSTONE)
DPHI.V/V      00 890 00 00         : PHID         - DENSITY POROSITY (SANDSTONE)
CALI.MM       00 280 01 00         : CAL          - CALIPER
GR  .API      00 310 00 00         : GR           - GAMMA RAY
~PARAMETER INFORMATION
#MNEM.UNIT           DATA             DESCRIPTION OF MNEMONIC
#---------         -----------     ------------------------------
GL  .M        570.7                : gl           - GROUND LEVEL ELEVATION
EREF.M        574.1                : kb           - ELEVATION OF DEPTH REFERENCE
DATM.M        570.7                : datum        - DATUM ELEVATION
TDD .M        441                  : tdd          - TOTAL DEPTH DRILLER
RUN .         ONE                  : Run          - RUN NUMBER
ENG .         BILL                 : Engineer     - RECORDING ENGINEER
WIT .         JIM                  : Witness      - WITNESSED BY
MUD .         GEL                  : Mud_type     - MUD TYPE
MATR.         SANDSTONE            : Logunit      - NEUTRON MATRIX
TMAX.C        32                   : BHT          - MAXIMUM RECORDED TEMPERATURE
BHTD.M        441                  : BHTDEP       - MAXIMUM RECORDED TEMPERATURE
RMT .C        17                   : MDTP         - TEMPERATURE OF MUD
MUDD.KG/M     1140                 : MWT          - MUD DENSITY
NEUT.         1                    : NEUTRON      - NEUTRON TYPE
RESI.         0                    : RESIST       - RESISTIVITY TYPE
RM  .OHMM     8.8                  : RM           - RESISTIVITY OF MUD
RMC .OHMM     0                    : RMC          - RESISTIVITY OF MUD CAKE
RMF .OHMM     10.7                 : RMF          - RESISTIVITY OF MUD FILTRATE
SUFT.C        -5                   : SUFT         - SURFACE TEMPERATURE
~A  DEPTH     RESD     PHIN     PHID      CAL       GR
# ...
  256.500   65.073    0.481    0.351  232.064   64.239
  256.750   68.698    0.485    0.353  232.065   64.239
  257.000   73.864    0.482    0.351  232.066   63.646
  257.250   75.869    0.479    0.344  232.067   64.240
  257.500   74.448    0.482    0.340  232.068   64.241
  257.750   72.383    0.483    0.342  232.069   64.242
  258.000   72.383    0.480    0.338  231.575   63.351
  258.250   70.332    0.484    0.329  230.586   62.758
  258.500   65.337    0.482    0.336  231.082   63.056
  258.750   60.687    0.476    0.339  231.578   61.868
  259.000   55.351    0.466    0.336  226.135   59.493
  259.250   45.240    0.467    0.334  223.661   58.900
  259.500   41.645    0.470    0.331  224.652   59.197
  259.750   37.295    0.466    0.332  226.138   60.980
  260.000   33.091    0.460    0.336  228.119   61.574
  260.250   31.023    0.456    0.343  227.625   61.872
  260.500   27.778    0.458    0.347  226.141   62.169
  260.750   26.525    0.463    0.345  226.142   57.418
  261.000   25.324    0.468    0.341  226.638   51.776
  261.250   24.172    0.464    0.335  226.144   49.401
  261.500   23.719    0.450    0.319  225.650   50.293
  261.750   23.704    0.441    0.311  226.146   50.293
  262.000   24.350    0.360    0.250  226.642   49.403
  262.250   25.475    0.186    0.060  228.128   46.137
  262.500   28.410    0.108    0.001  230.604   42.276
  262.750   35.356    0.122    0.005  233.575   40.495
  263.000   47.339    0.140    0.015  233.575   39.902
  263.250   51.361    0.187    0.030  233.082   40.496
  263.500   47.276    0.258    0.074  232.588   42.873
  263.750   39.717    0.341    0.153  232.589   45.249
  264.000   30.727    0.387    0.282  231.600   47.923
  264.250   22.712    0.436    0.305  228.136   49.705
  264.500   19.972    0.485    0.323  228.137   50.300
  264.750   19.416    0.485    0.340  229.128   49.410
  265.000   20.125    0.454    0.346  229.624   48.222
  265.250   20.864    0.451    0.341  229.625   48.223
  265.500   22.227    0.454    0.343  228.636   49.114
  265.750   23.042    0.472    0.346  228.142   50.303
  266.000   23.239    0.479    0.341  228.142   51.195
  266.250   23.221    0.478    0.340  228.145   51.789
  266.500   22.999    0.473    0.334  228.145   51.790
  266.750   22.567    0.473    0.330  228.642   51.790
  267.000   22.552    0.474    0.332  228.642   51.494
  267.250   22.330    0.475    0.340  229.138   51.495
  267.500   22.330    0.473    0.335  228.645   51.495
  267.750   22.095    0.476    0.331  227.656   51.793
  268.000   21.886    0.477    0.334  227.162   52.387
  268.250   21.874    0.476    0.336  227.162   52.685
  268.500   22.059    0.484    0.335  226.669   52.092
  268.750   22.045    0.481    0.327  226.175   51.498
  269.000   22.230    0.471    0.322  226.176   51.202
  269.250   22.420    0.461    0.314  226.672   51.203
  269.500   22.613    0.461    0.321  227.168   51.203
  269.750   22.805    0.461    0.322  228.159   51.204
  270.000   22.793    0.458    0.316  227.665   51.205
  270.250   21.171    0.454    0.311  226.676   51.205
  270.500   17.303    0.447    0.312  226.677   51.503
  270.750   14.014    0.450    0.318  227.173   52.691
  271.000   13.018    0.471    0.312  228.164   53.583
  271.250   10.071    0.488    0.303  228.165   55.365
  271.500    7.582    0.495    0.308  227.671   57.148
  271.750    6.728    0.504    0.317  227.177   58.930
  272.000    6.482    0.505    0.318  227.178   59.228
  272.250    6.718    0.498    0.307  227.178   59.228
  272.500    7.224    0.484    0.308  227.180   58.338
  272.750    8.205    0.481    0.306  226.686   56.854
  273.000    8.823    0.484    0.304  226.687   53.291
  273.250    9.062    0.478    0.313  227.183   51.510
  273.500    8.973    0.467    0.322  227.184   52.104
  273.750    8.805    0.473    0.319  227.185   52.402
  274.000    8.483    0.467    0.296  227.681   52.105
  274.250    8.173    0.463    0.302  228.177   50.918
  274.500    8.020    0.463    0.296  228.673   51.809
  274.750    7.728    0.455    0.298  229.664   55.077
  275.000    7.245    0.469    0.304  230.655   56.859
  275.250    6.917    0.470    0.309  232.141   58.642
  275.500    6.787    0.476    0.313  232.637   59.831
  275.750    6.420    0.495    0.312  233.133   61.019
  276.000    5.855    0.500    0.299  233.134   61.910
  276.250    5.390    0.523    0.299  233.135   62.802
  276.500    4.827    0.550    0.299  233.136   63.397
  276.750    4.525    0.554    0.296  233.137   63.992
  277.000    4.320    0.549    0.297  232.643   63.992
  277.250    4.162    0.527    0.289  231.654   63.399
  277.500    4.122    0.503    0.287  229.675   62.211
  277.750    4.234    0.497    0.296  226.212   57.163
  278.000    5.220    0.510    0.301  224.728   49.739
  278.250    7.251    0.513    0.320  225.719   44.691
  278.500   10.933    0.463    0.333  225.719   41.722
  278.750   12.999    0.444    0.328  225.721   40.535
  279.000   17.564    0.439    0.327  227.702   40.238
  279.250   21.657    0.437    0.322  227.703   40.833
  279.500   22.867    0.432    0.314  228.199   42.021
  279.750   23.062    0.429    0.308  229.190   42.319
  280.000   22.419    0.437    0.300  229.191   42.319
  280.250   21.803    0.455    0.306  230.182   42.914
  280.500   20.623    0.476    0.321  230.183   44.103
  280.750   20.623    0.486    0.338  228.699   44.994
  281.000   20.413    0.489    0.347  226.720   45.886
  281.250   19.666    0.485    0.351  225.731   46.777
  281.500   19.833    0.478    0.357  224.742   49.451
  281.750   19.820    0.474    0.360  223.753   47.373
  282.000   19.808    0.477    0.358  223.259   46.779
  282.250   19.794    0.478    0.352  223.260   48.859
  282.500   19.966    0.475    0.345  223.756   48.859
  282.750   20.505    0.474    0.341  225.737   46.187
  283.000   21.257    0.477    0.339  229.203   44.703
  283.250   21.637    0.481    0.337  227.224   42.922
  283.500   22.019    0.494    0.336  222.275   42.922
  283.750   22.004    0.485    0.334  218.317   42.923
  284.000   22.004    0.486    0.339  219.803   42.626
  284.250   21.980    0.488    0.337  221.784   41.439
  284.500   22.371    0.473    0.330  222.280   40.252
  284.750   22.977    0.468    0.324  223.766   39.361
  285.000   23.175    0.459    0.319  226.736   39.065
  285.250   23.160    0.463    0.316  226.242   39.066
  285.500   23.142    0.472    0.312  223.273   39.066
  285.750   23.130    0.478    0.307  223.275   39.958
  286.000   23.327    0.487    0.302  226.245   41.146
  286.250   23.527    0.487    0.307  228.721   42.335
  286.500   23.501    0.477    0.323  226.247   43.821
  286.750   23.282    0.448    0.340  229.713   44.712
  287.000   23.282    0.447    0.346  231.694   45.901
  287.250   23.243    0.442    0.327  230.210   47.980
  287.500   23.023    0.439    0.318  225.757   51.248
  287.750   23.010    0.430    0.301  224.768   50.654
  288.000   22.997    0.433    0.288  224.274   50.655
  288.250   22.983    0.446    0.289  223.780   51.546
  288.500   23.178    0.451    0.296  224.276   54.220
  288.750   23.161    0.453    0.302  224.277   53.626
  289.000   23.149    0.453    0.302  225.763   52.142
  289.250   23.346    0.450    0.297  226.754   55.113
  289.500   24.870    0.430    0.274  226.260   53.628
  289.750   29.301    0.369    0.247  226.756   48.283
  290.000   35.482    0.163    0.199  229.232   43.829
  290.250   44.562    0.152    0.057  230.223   40.563
  290.500   59.670    0.166    0.071  229.729   37.594
  290.750   74.260    0.182    0.084  229.235   36.406
  291.000   74.213    0.205    0.099  229.236   35.516
  291.250   67.683    0.228    0.110  229.237   35.220
  291.500   61.170    0.253    0.130  228.743   34.626
  291.750   49.996    0.278    0.143  226.764   34.330
  292.000   41.614    0.297    0.165  227.260   33.737
  292.250   35.600    0.304    0.176  229.241   32.549
  292.500   33.066    0.308    0.203  232.212   30.768
  292.750   30.441    0.334    0.286  228.748   34.035
