~VERSION INFORMATION
 VERS.                 2.0:   CWLS LOG ASCII STANDARD -VERSION 2.0
 WRAP.                  NO:   ONE LINE PER DEPTH STEP
~WELL INFORMATION BLOCK
#MNEM.UNIT           DATA                    DESCRIPTION OF MNEMONIC
#---------    -------------------            -------------------------------
# Generated from Intellog Unique Number	CS_77_79/WELL/956
WELL.         CWWE SOUTH CHRISTINA           : Well_name    - WELL
LOC .         00/10-16-079-09W4/0            : Location     - LOCATION
UWI .         00/10-16-079-09W4/0            : Uwi          - UNIQUE WELL ID
ENTR.         JHS                            : Entered      - ENTERED BY
SRVC.         SCHLUMBERGER                   : Scn          - SERVICE COMPANY
STRT.M        243.84                         : top_depth    - START DEPTH
STOP.M        475.34                         : bot_depth    - STOP DEPTH
STEP.M        0.25                           : increment    - STEP LENGTH
 NULL. -999.2500:NULL Value
~CURVE INFORMATION BLOCK
#MNEM UNIT       ERCB CURVE CODE    CURVE DESCRIPTION
#-----------   ------------------   ----------------------------------
DEPT.M        00 001 00 00         : DEPTH        - DEPTH
RHOB.KG/M3    00 350 00 00         : DENS         - BULK DENSITY
GR  .API      00 310 00 00         : GR           - GAMMA RAY
DPHI.V/V      00 890 00 00         : PHID         - DENSITY POROSITY (SANDSTONE)
NPHI.V/V      00 330 00 00         : PHIN         - NEUTRON POROSITY (SANDSTONE)
ILD .OHMM     00 120 00 00         : RESD         - DEEP RESISTIVITY (DIL)
~PARAMETER INFORMATION
#MNEM.UNIT           DATA             DESCRIPTION OF MNEMONIC
#---------         -----------     ------------------------------
GL  .M        677.601              : gl           - GROUND LEVEL ELEVATION
EREF.M        680.253              : kb           - ELEVATION OF DEPTH REFERENCE
DATM.M        680.253              : datum        - DATUM ELEVATION
TDD .M        478.536              : tdd          - TOTAL DEPTH DRILLER
RUN .         ONE                  : Run          - RUN NUMBER
ENG .         BILL                 : Engineer     - RECORDING ENGINEER
WIT .         JIM                  : Witness      - WITNESSED BY
MUD .         GEL                  : Mud_type     - MUD TYPE
MATR.         SANDSTONE            : Logunit      - NEUTRON MATRIX
TMAX.C        27.2222              : BHT          - MAXIMUM RECORDED TEMPERATURE
BHTD.M        478.536              : BHTDEP       - MAXIMUM RECORDED TEMPERATURE
MATR.         1                    : LOGUNIT      - NEUTRON MATRIX
RMT .C        25                   : MDTP         - TEMPERATURE OF MUD
NEUT.         1                    : NEUTRON      - NEUTRON TYPE
RESI.         0                    : RESIST       - RESISTIVITY TYPE
RMC .OHMM     0.25                 : RMC          - RESISTIVITY OF MUD CAKE
RMF .OHMM     0.25                 : RMF          - RESISTIVITY OF MUD FILTRATE
SUFT.C        15                   : SUFT         - SURFACE TEMPERATURE
~A  DEPTH     DENS       GR     PHID     PHIN     RESD
# ...
  426.340 2230.290   77.445    0.254    0.395   15.861
  426.590 2235.660   79.783    0.251    0.401   15.745
  426.840 2216.340   81.988    0.263    0.399   15.823
  427.090 2236.800   73.060    0.250    0.406   16.181
  427.340 2225.480   66.801    0.257    0.406   15.818
  427.590 2205.850   66.304    0.269    0.385   15.364
  427.840 2215.790   64.543    0.263    0.378   14.508
  428.090 2207.160   60.943    0.268    0.386   13.897
  428.340 2190.710   60.226    0.278    0.386   13.891
  428.590 2194.110   62.383    0.276    0.395   13.880
  428.840 2212.790   65.526    0.265    0.413   13.874
  429.090 2204.810   64.029    0.270    0.424   13.868
  429.340 2159.160   58.615    0.297    0.417   13.859
  429.590 2167.240   57.257    0.293    0.411   14.001
  429.840 2198.810   58.132    0.273    0.412   15.016
  430.090 2198.800   61.574    0.273    0.428   16.427
  430.340 2175.630   62.208    0.287    0.417   17.500
  430.590 2192.590   64.263    0.277    0.375   17.875
  430.840 2210.090   71.641    0.267    0.396   16.625
  431.090 2235.360   72.757    0.251    0.419   15.232
  431.340 2242.100   68.573    0.247    0.435   13.319
  431.590 2248.670   53.566    0.243    0.443   11.799
  431.840 2108.300   43.412    0.328    0.426   10.280
  432.090 2132.140   52.954    0.314    0.421    9.863
  432.340 2127.400   64.797    0.317    0.419    9.701
  432.590 2119.440   70.055    0.322    0.413   10.078
  432.840 2136.380   65.598    0.311    0.434   10.501
  433.090 2131.120   54.252    0.314    0.431   11.319
  433.340 2131.890   49.559    0.314    0.430   12.584
  433.590 2154.750   47.027    0.300    0.431   14.317
  433.840 2119.240   49.287    0.322    0.441   17.270
  434.090 2108.960   54.622    0.328    0.457   21.490
  434.340 2095.810   53.688    0.336    0.466   26.049
  434.590 2102.810   54.642    0.332    0.467   30.648
  434.840 2143.400   56.558    0.307    0.464   33.599
  435.090 2170.420   61.186    0.291    0.460   34.486
  435.340 2200.540   63.955    0.272    0.463   33.146
  435.590 2157.510   61.219    0.298    0.479   31.886
  435.840 2184.360   61.312    0.282    0.460   30.896
  436.090 2176.900   64.674    0.287    0.452   28.198
  436.340 2168.080   68.310    0.292    0.453   23.105
  436.590 2140.600   72.841    0.309    0.465   16.156
  436.840 2163.820   77.628    0.295    0.471   11.922
  437.090 2174.840   81.918    0.288    0.463    9.273
  437.340 2170.840   80.986    0.290    0.441    8.102
  437.590 2177.500   76.799    0.286    0.436    7.531
  437.840 2200.740   78.200    0.272    0.436    7.300
  438.090 2223.540   80.951    0.258    0.442    7.370
  438.340 2195.870   86.026    0.275    0.450    7.418
  438.590 2157.010   92.020    0.299    0.450    7.418
  438.840 2199.760   98.588    0.273    0.456    7.422
  439.090 2218.030  100.419    0.262    0.474    7.438
  439.340 2222.540  105.060    0.259    0.463    7.685
  439.590 2239.010  114.688    0.249    0.473    7.836
  439.840 2272.960  120.450    0.229    0.470    7.813
  440.090 2312.700  123.668    0.204    0.455    7.416
  440.340 2301.730  124.692    0.211    0.440    7.397
  440.590 2276.200  126.292    0.227    0.440    7.388
  440.840 2307.730  127.891    0.207    0.453    7.599
  441.090 2326.700  123.900    0.196    0.432    8.027
  441.340 2354.210  111.597    0.179    0.414    8.501
  441.590 2326.000   94.506    0.196    0.411    9.573
  441.840 2256.250   85.130    0.239    0.414   10.778
  442.090 2249.700   77.285    0.243    0.400   12.414
  442.340 2263.210   71.555    0.234    0.382   13.635
  442.590 2262.220   66.706    0.235    0.388   16.078
  442.840 2224.140   62.793    0.258    0.406   18.124
  443.090 2162.400   58.734    0.296    0.420   24.223
  443.340 2135.330   57.373    0.312    0.425   28.774
  443.590 2136.680   60.332    0.311    0.419   32.797
  443.840 2158.290   65.640    0.298    0.409   33.902
  444.090 2183.180   76.761    0.283    0.412   30.062
  444.340 2225.600   84.606    0.257    0.430   24.729
  444.590 2240.940   82.325    0.248    0.460   22.221
  444.840 2203.290   76.690    0.271    0.460   20.692
  445.090 2208.670   74.325    0.267    0.426   18.894
  445.340 2231.600   80.806    0.254    0.417   17.670
  445.590 2239.100   85.329    0.249    0.421   17.196
  445.840 2240.410   86.832    0.248    0.430   15.704
  446.090 2252.760   89.213    0.241    0.424   13.618
  446.340 2243.030   88.361    0.247    0.401   12.743
  446.590 2245.550   86.027    0.245    0.407   12.760
  446.840 2295.900   83.187    0.215    0.418   13.163
  447.090 2300.140   80.357    0.212    0.421   13.663
  447.340 2293.350   78.771    0.216    0.414   14.791
  447.590 2303.320   81.301    0.210    0.412   15.478
  447.840 2294.610   83.880    0.215    0.417   15.346
  448.090 2260.050   86.289    0.236    0.415   15.231
  448.340 2285.960   85.169    0.221    0.412   15.197
  448.590 2263.360   83.561    0.234    0.417   15.626
  448.840 2251.260   82.658    0.242    0.416   16.088
  449.090 2252.220   83.688    0.241    0.403   15.649
  449.340 2281.100   85.244    0.224    0.389   14.740
  449.590 2265.790   92.348    0.233    0.379   13.318
  449.840 2294.330  102.284    0.216    0.382   11.638
  450.090 2377.100  110.196    0.165    0.405   10.536
  450.340 2366.150  114.946    0.172    0.432    9.420
  450.590 2407.260  114.795    0.147    0.428    8.856
  450.840 2406.670  112.396    0.147    0.423    8.581
  451.090 2381.370  107.832    0.163    0.427    8.700
  451.340 2324.960  103.737    0.197    0.436    9.226
  451.590 2328.140  102.798    0.195    0.437    9.565
  451.840 2331.740   95.165    0.193    0.424    9.869
  452.090 2300.420   92.737    0.212    0.414    9.872
  452.340 2318.520   96.545    0.201    0.420   10.084
  452.590 2351.260   99.739    0.181    0.441   10.378
  452.840 2327.150   93.222    0.196    0.446   10.624
  453.090 2322.310   93.436    0.199    0.453   10.635
  453.340 2302.700   90.417    0.210    0.432   10.258
  453.590 2331.290   95.718    0.193    0.406   10.135
  453.840 2366.110  107.450    0.172    0.401    9.718
  454.090 2381.330  112.277    0.163    0.417    9.232
  454.340 2400.410  114.146    0.151    0.434    8.744
  454.590 2376.730  117.198    0.166    0.435    8.484
  454.840 2385.010  116.114    0.161    0.434    8.422
  455.090 2361.790  109.377    0.175    0.448    8.348
  455.340 2388.140  110.049    0.159    0.441    8.508
  455.590 2401.540  110.856    0.151    0.446    8.317
  455.840 2391.280  112.671    0.157    0.448    8.163
  456.090 2375.240  115.038    0.167    0.457    8.023
  456.340 2346.220  116.620    0.184    0.460    7.847
  456.590 2382.790  115.092    0.162    0.458    7.869
  456.840 2396.530  113.457    0.154    0.457    7.799
  457.090 2354.960  112.614    0.179    0.454    7.906
  457.340 2371.170  111.444    0.169    0.443    8.274
  457.590 2361.800  101.570    0.175    0.422    8.704
  457.840 2353.520   96.483    0.180    0.433    8.955
  458.090 2366.500  102.659    0.172    0.435    9.087
  458.340 2349.330  105.283    0.182    0.424    9.027
  458.590 2365.830  110.482    0.172    0.434    8.742
  458.840 2385.620  116.334    0.160    0.446    8.746
  459.090 2380.410  115.567    0.163    0.453    8.739
  459.340 2391.790  110.277    0.156    0.440    8.735
  459.590 2368.860  107.498    0.170    0.434    8.842
  459.840 2382.390  107.762    0.162    0.432    8.919
  460.090 2365.610  106.175    0.172    0.420    9.205
  460.340 2389.500  105.871    0.158    0.416    9.419
  460.590 2425.190  110.183    0.136    0.430    9.201
  460.840 2440.710  114.743    0.127    0.440    9.069
  461.090 2387.890  117.819    0.159    0.443    8.784
  461.340 2357.210  118.569    0.177    0.407    8.498
  461.590 2328.590  117.615    0.195    0.399    7.970
  461.840 2247.270  116.129    0.244    0.418    7.271
  462.090 2191.730  111.383    0.278    0.423    6.707
  462.340 2193.400  103.235    0.277    0.419    6.310
  462.590 2221.350   85.406    0.260    0.431    5.963
