~VERSION INFORMATION
 VERS.                 2.0:   CWLS LOG ASCII STANDARD -VERSION 2.0
 WRAP.                  NO:   ONE LINE PER DEPTH STEP
~WELL INFORMATION BLOCK
#MNEM.UNIT           DATA                    DESCRIPTION OF MNEMONIC
#---------    -------------------            -------------------------------
# Generated from Intellog Unique Number	CW_79_81/WELL/2466
WELL.         10-15-080-23W4                 : Well_name    - WELL
LOC .         00/10-15-080-23W4/0            : Location     - LOCATION
UWI .         00/10-15-080-23W4/0            : Uwi          - UNIQUE WELL ID
ENTR.         MAX                            : Entered      - ENTERED BY
SRVC.         SCHLUMBERGER                   : Scn          - SERVICE COMPANY
STRT.M        220                            : top_depth    - START DEPTH
STOP.M        464.75                         : bot_depth    - STOP DEPTH
STEP.M        0.25                           : increment    - STEP LENGTH
 NULL. -999.2500:NULL Value
~CURVE INFORMATION BLOCK
#MNEM UNIT       ERCB CURVE CODE    CURVE DESCRIPTION
#-----------   ------------------   ----------------------------------
DEPT.M        00 001 00 00         : DEPTH        - DEPTH
ILD .OHMM     00 120 00 00         : RESD         - DEEP RESISTIVITY (DIL)
NPHI.V/V      00 330 00 00         : PHIN         - NEUTRON POROSITY (SANDSTONE)
DPHI.V/V      00 890 00 00         : PHID         - DENSITY POROSITY (SANDSTONE)
GR  .API      00 310 00 00         : GR           - GAMMA RAY
CALI.MM       00 280 01 00         : CAL          - CALIPER
~PARAMETER INFORMATION
#MNEM.UNIT           DATA             DESCRIPTION OF MNEMONIC
#---------         -----------     ------------------------------
GL  .M        586.4                : gl           - GROUND LEVEL ELEVATION
EREF.M        590                  : kb           - ELEVATION OF DEPTH REFERENCE
DATM.M        586.4                : datum        - DATUM ELEVATION
TDD .M        469                  : tdd          - TOTAL DEPTH DRILLER
RUN .         ONE                  : Run          - RUN NUMBER
ENG .         BILL                 : Engineer     - RECORDING ENGINEER
WIT .         JIM                  : Witness      - WITNESSED BY
MUD .         GEL                  : Mud_type     - MUD TYPE
MATR.         SANDSTONE            : Logunit      - NEUTRON MATRIX
TMAX.C        23                   : BHT          - MAXIMUM RECORDED TEMPERATURE
BHTD.M        469                  : BHTDEP       - MAXIMUM RECORDED TEMPERATURE
MATR.         1                    : LOGUNIT      - NEUTRON MATRIX
RMT .C        17                   : MDTP         - TEMPERATURE OF MUD
NEUT.         1                    : NEUTRON      - NEUTRON TYPE
RESI.         0                    : RESIST       - RESISTIVITY TYPE
RMC .OHMM     6.73                 : RMC          - RESISTIVITY OF MUD CAKE
RMF .OHMM     6.46                 : RMF          - RESISTIVITY OF MUD FILTRATE
SUFT.C        -25                  : SUFT         - SURFACE TEMPERATURE
~A  DEPTH     RESD     PHIN     PHID       GR      CAL
# ...
  329.500    8.037    0.414    0.257   59.979  225.467
  329.750    8.590    0.413    0.246   60.465  225.876
  330.000    8.987    0.423    0.233   62.033  225.683
  330.250    9.161    0.432    0.221   63.001  225.490
  330.500    9.166    0.432    0.216   63.246  225.699
  330.750    9.145    0.421    0.218   64.414  226.678
  331.000    9.008    0.409    0.211   65.422  227.523
  331.250    8.816    0.396    0.206   64.464  227.129
  331.500    8.821    0.392    0.203   64.229  227.037
  331.750    8.956    0.395    0.201   64.956  227.046
  332.000    9.161    0.400    0.199   66.464  227.055
  332.250    9.373    0.399    0.201   68.153  226.981
  332.500    9.380    0.412    0.207   68.158  226.572
  332.750    9.246    0.422    0.211   71.290  226.179
  333.000    9.013    0.438    0.215   73.881  225.787
  333.250    8.688    0.456    0.220   75.209  225.594
  333.500    8.348    0.471    0.226   75.635  225.902
  333.750    8.111    0.479    0.226   76.602  227.198
  334.000    8.115    0.470    0.230   76.608  227.625
  334.250    8.424    0.462    0.237   73.968  220.417
  334.500    8.602    0.460    0.249   73.311  215.013
  334.750    8.671    0.457    0.255   73.556  212.216
  335.000    8.627    0.453    0.252   73.862  211.623
  335.250    8.444    0.454    0.243   73.377  211.633
  335.500    8.448    0.449    0.225   72.129  211.640
  335.750    8.453    0.446    0.218   70.690  212.451
  336.000    8.505    0.441    0.214   73.221  214.163
  336.250    8.572    0.435    0.217   75.631  215.975
  336.500    8.607    0.430    0.228   75.817  217.086
  336.750    8.536    0.431    0.241   73.558  216.694
  337.000    8.476    0.444    0.229   73.061  216.703
  337.250    8.417    0.435    0.227   74.750  219.117
  337.500    8.406    0.449    0.235   75.176  220.027
  337.750    8.349    0.466    0.241   74.820  220.236
  338.000    8.230    0.473    0.241   74.464  220.145
  338.250    8.114    0.464    0.250   74.891  219.753
  338.500    8.119    0.459    0.260   73.394  219.762
  338.750    8.243    0.454    0.260   71.715  219.370
  339.000    8.463    0.446    0.261   69.675  219.278
  339.250    8.659    0.439    0.264   68.597  219.286
  339.500    8.760    0.437    0.266   69.384  219.495
  339.750    8.738    0.448    0.262   72.818  220.558
  340.000    8.610    0.460    0.256   74.326  221.819
  340.250    8.487    0.455    0.246   75.293  223.030
  340.500    8.273    0.468    0.242   76.441  224.240
  340.750    8.036    0.476    0.237   77.288  225.250
  341.000    7.836    0.473    0.228   77.593  225.959
  341.250    7.750    0.467    0.224   76.757  226.204
  341.500    7.874    0.472    0.240   73.755  225.377
  341.750    8.234    0.458    0.256   68.229  222.580
  342.000    8.565    0.446    0.269   63.242  219.781
  342.250    8.860    0.436    0.280   59.038  216.783
  342.500    9.163    0.435    0.285   56.217  213.785
  342.750    9.689    0.453    0.286   55.592  211.222
  343.000   10.234    0.456    0.302   54.846  210.395
  343.250   10.623    0.453    0.304   53.407  209.603
  343.500   10.848    0.467    0.302   52.690  209.410
  343.750   10.691    0.470    0.297   53.898  209.618
  344.000   10.293    0.457    0.292   56.608  209.927
  344.250   10.089    0.445    0.289   59.079  210.020
  344.500   10.172    0.446    0.288   60.589  210.446
  344.750   10.405    0.445    0.283   61.556  212.059
  345.000   10.527    0.448    0.279   62.342  213.371
  345.250   10.611    0.456    0.275   60.903  214.381
  345.500   10.675    0.465    0.275   57.601  215.190
  345.750   10.615    0.461    0.283   55.353  216.252
  346.000   10.299    0.446    0.280   56.110  217.514
  346.250    9.929    0.416    0.258   58.760  218.323
  346.500    9.736    0.403    0.246   61.230  219.433
  346.750    9.670    0.417    0.237   64.843  220.043
  347.000    9.728    0.442    0.232   68.637  219.651
  347.250   10.115    0.438    0.222   68.863  217.807
  347.500   11.023    0.456    0.183   66.362  216.562
  347.750   15.563    0.427    0.155   57.709  217.774
  348.000   21.108    0.351    0.077   51.580  219.285
  348.250   26.375    0.276    0.030   48.098  221.097
  348.500   29.802    0.229    0.036   46.719  222.910
  348.750   31.219    0.223    0.067   46.696  223.871
  349.000   30.291    0.236    0.106   48.957  222.628
  349.250   24.138    0.275    0.195   51.125  219.829
  349.500   17.776    0.346    0.251   54.016  217.031
  349.750   14.583    0.408    0.282   56.546  214.634
  350.000   13.158    0.444    0.294   58.240  212.043
  350.250   11.765    0.456    0.284   59.233  207.679
  350.500   10.349    0.449    0.274   59.252  207.734
  350.750   10.055    0.447    0.261   57.839  208.170
  351.000    9.551    0.447    0.259   58.046  210.116
  351.250    8.695    0.449    0.266   58.911  211.961
  351.500    7.822    0.451    0.275   59.957  213.004
  351.750    7.451    0.451    0.275   61.196  213.626
  352.000    7.815    0.446    0.284   61.218  214.512
  352.250    8.668    0.442    0.279   62.447  214.552
  352.500    9.317    0.446    0.271   64.395  213.990
  352.750    9.649    0.455    0.262   65.262  212.830
  353.000    9.677    0.459    0.254   64.868  211.672
  353.250    9.380    0.447    0.250   64.863  211.976
  353.500    8.633    0.442    0.256   65.892  213.275
  353.750    8.326    0.443    0.250   66.878  214.517
  354.000    8.031    0.452    0.238   67.143  215.759
  354.250    7.776    0.456    0.226   66.326  216.605
  354.500    7.572    0.450    0.221   65.511  216.553
  354.750    7.392    0.447    0.229   67.427  215.006
  355.000    7.289    0.489    0.234   68.456  215.043
  355.250    7.241    0.480    0.240   69.202  216.690
  355.500    7.235    0.463    0.244   69.588  217.740
  355.750    7.324    0.458    0.246   69.493  218.588
  356.000    7.497    0.466    0.249   69.338  219.531
  356.250    7.687    0.473    0.253   70.544  221.112
  356.500    7.757    0.453    0.250   72.824  222.828
  356.750    7.707    0.443    0.241   74.052  224.075
  357.000    7.574    0.437    0.234   72.757  225.619
  357.250    7.388    0.445    0.236   70.499  227.061
  357.500    7.193    0.463    0.246   68.721  228.305
  357.750    7.043    0.478    0.255   69.652  229.233
  358.000    7.051    0.481    0.250   74.185  227.614
  358.250    7.270    0.468    0.249   72.769  225.245
  358.500    7.826    0.455    0.248   68.826  222.879
  358.750    8.653    0.439    0.254   64.885  220.120
  359.000    9.673    0.427    0.266   62.569  217.562
  359.250   10.983    0.439    0.276   62.801  216.552
  359.500   12.265    0.429    0.276   63.828  215.350
  359.750   13.405    0.426    0.277   64.098  215.394
  360.000   14.895    0.429    0.279   62.378  215.732
  360.250   16.381    0.409    0.276   58.312  215.975
  360.500   17.353    0.375    0.262   52.507  215.921
  360.750   16.837    0.379    0.240   47.678  214.985
  361.000   14.587    0.430    0.245   53.464  212.109
  361.250   13.349    0.459    0.262   58.299  209.348
  361.500   12.865    0.448    0.260   67.644  208.086
  361.750   12.784    0.431    0.254   70.917  207.727
  362.000   13.076    0.411    0.241   65.594  207.871
  362.250   14.253    0.370    0.200   57.360  208.321
  362.500   15.668    0.409    0.200   58.139  208.367
  362.750   15.689    0.438    0.238   59.851  208.010
  363.000   14.839    0.456    0.267   60.834  209.454
  363.250   13.086    0.461    0.279   63.021  211.101
  363.500   11.505    0.453    0.274   66.474  212.250
  363.750   11.182    0.425    0.250   68.240  213.935
  364.000   11.197    0.406    0.225   62.509  218.156
  364.250   11.545    0.432    0.238   62.050  217.795
  364.500   11.514    0.422    0.252   63.037  215.938
  364.750   11.185    0.412    0.257   65.710  214.579
  365.000   10.712    0.418    0.251   68.744  215.222
  365.250   10.264    0.441    0.247   68.805  219.052
  365.500   10.275    0.433    0.246   66.573  219.924
  365.750   10.361    0.427    0.243   67.323  219.969
