~VERSION INFORMATION
 VERS.                 2.0:   CWLS LOG ASCII STANDARD -VERSION 2.0
 WRAP.                  NO:   ONE LINE PER DEPTH STEP
~WELL INFORMATION BLOCK
#MNEM.UNIT           DATA                    DESCRIPTION OF MNEMONIC
#---------    -------------------            -------------------------------
# Generated from Intellog Unique Number	CW_76_78/WELL/877
WELL.         10-16-076-25W4                 : Well_name    - WELL
LOC .         00/10-16-076-25W4/0            : Location     - LOCATION
UWI .         00/10-16-076-25W4/0            : Uwi          - UNIQUE WELL ID
ENTR.         JAYE                           : Entered      - ENTERED BY
SRVC.         SCHLUMBERGER                   : Scn          - SERVICE COMPANY
DATE.         8 FEB 75                       : Date         - LOG DATE
STRT.M        472.44                         : top_depth    - START DEPTH
STOP.M        679.69                         : bot_depth    - STOP DEPTH
STEP.M        0.25                           : increment    - STEP LENGTH
 NULL. -999.2500:NULL Value
~CURVE INFORMATION BLOCK
#MNEM UNIT       ERCB CURVE CODE    CURVE DESCRIPTION
#-----------   ------------------   ----------------------------------
DEPT.M        00 001 00 00         : DEPTH        - DEPTH
ILD .OHMM     00 120 00 00         : RESD         - DEEP RESISTIVITY (DIL)
NPHI.V/V      00 330 00 00         : PHIN         - NEUTRON POROSITY (SANDSTONE)
DPHI.V/V      00 890 00 00         : PHID         - DENSITY POROSITY (SANDSTONE)
GR  .API      00 310 00 00         : GR           - GAMMA RAY
CALI.MM       00 280 01 00         : CAL          - CALIPER
~PARAMETER INFORMATION
#MNEM.UNIT           DATA             DESCRIPTION OF MNEMONIC
#---------         -----------     ------------------------------
GL  .M        763.829              : gl           - GROUND LEVEL ELEVATION
EREF.M        768.096              : kb           - ELEVATION OF DEPTH REFERENCE
DATM.M        763.829              : datum        - DATUM ELEVATION
TDD .M        673.608              : tdd          - TOTAL DEPTH DRILLER
RUN .         ONE                  : Run          - RUN NUMBER
ENG .         EARLEY               : Engineer     - RECORDING ENGINEER
WIT .         BRONK/AYERS          : Witness      - WITNESSED BY
BASE.         EDM                  : Branch       - HOME BASE OF LOGGING UNIT
MUD .         GEL CHEM             : Mud_type     - MUD TYPE
MATR.         SANDSTONE            : Logunit      - NEUTRON MATRIX
TMAX.C        35                   : BHT          - MAXIMUM RECORDED TEMPERATURE
BHTD.M        666.902              : BHTDEP       - MAXIMUM RECORDED TEMPERATURE
RMT .C        3.33333              : MDTP         - TEMPERATURE OF MUD
MUDD.KG/M     1080                 : MWT          - MUD DENSITY
NEUT.         1                    : NEUTRON      - NEUTRON TYPE
RESI.         0                    : RESIST       - RESISTIVITY TYPE
RM  .OHMM     2.32                 : RM           - RESISTIVITY OF MUD
RMC .OHMM     2.65                 : RMC          - RESISTIVITY OF MUD CAKE
RMF .OHMM     3.87                 : RMF          - RESISTIVITY OF MUD FILTRATE
SUFT.C        -17.7778             : SUFT         - SURFACE TEMPERATURE
~A  DEPTH     RESD     PHIN     PHID       GR      CAL
# ...
  581.940    7.055    1.111    0.142   97.275  234.433
  582.190    6.936    1.099    0.144   94.809  235.145
  582.440    6.983    1.101    0.177   93.606  235.786
  582.690    7.108    1.120    0.154   93.365  236.316
  582.940    7.263    1.109    0.161   96.223  237.045
  583.190    7.462    1.087    0.186  100.042  237.704
  583.440    7.723    1.079    0.182   97.884  238.017
  583.690    7.963    1.077    0.178   94.798  238.319
  583.940    7.901    1.083    0.155   90.995  238.249
  584.190    7.639    1.086    0.156   85.918  238.156
  584.440    7.360    1.084    0.132   89.561  237.972
  584.690    7.025    1.082    0.161   97.141  238.806
  584.940    6.743    1.097    0.169  102.354  242.505
  585.190    6.764    1.121    0.177  106.184  241.499
  585.440    7.384    1.118    0.214  109.031  235.784
  585.690    8.440    1.091    0.244  101.534  230.778
  585.940    9.700    1.084    0.215   89.256  229.871
  586.190   11.211    1.059    0.131   77.225  231.841
  586.440   14.362    0.962    0.078   67.242  234.097
  586.690   17.932    0.942    0.063   66.833  236.573
  586.940   17.434    0.946    0.056   70.419  237.308
  587.190   15.180    0.971    0.074   74.058  235.904
  587.440   12.552    1.037    0.104   77.879  234.901
  587.690   10.889    1.075    0.197   80.608  233.871
  587.940    9.728    1.084    0.177   80.133  232.253
  588.190    9.885    1.036    0.141   77.058  230.945
  588.440   10.459    1.006    0.112   74.526  230.235
  588.690   11.148    0.996    0.085   74.293  231.599
  588.940   11.265    1.004    0.080   75.394  232.217
  589.190   10.713    1.044    0.109   77.836  232.454
  589.440   10.096    1.068    0.165   79.832  232.457
  589.690    9.636    1.094    0.192   82.757  232.689
  589.940    9.318    1.100    0.213   84.582  233.234
  590.190    9.555    1.062    0.180   81.736  233.322
  590.440   11.104    1.017    0.127   78.114  233.445
  590.690   12.670    1.015    0.146   75.465  232.661
  590.940   15.164    1.014    0.149   78.079  231.848
  591.190   15.809    1.001    0.115   83.895  231.553
  591.440   13.243    1.116    0.146   89.902  231.187
  591.690   11.073    1.155    0.218   91.670  231.191
  591.940    9.749    1.155    0.249   92.521  230.682
  592.190    8.348    1.132    0.239   93.323  229.784
  592.440    7.458    1.107    0.213   92.903  228.874
  592.690    7.265    1.085    0.192   85.351  227.669
  592.940    7.743    1.047    0.171   78.517  226.964
  593.190    8.438    1.021    0.145   82.039  226.768
  593.440   10.267    1.029    0.177   86.527  226.693
  593.690   12.984    1.019    0.180   85.086  226.801
  593.940   15.396    0.979    0.158   78.981  226.708
  594.190   16.112    0.961    0.096   75.361  227.264
  594.440   15.380    0.983    0.053   75.490  227.595
  594.690   14.151    1.006    0.048   78.772  227.801
  594.940   12.457    1.063    0.063   84.652  228.237
  595.190   11.129    1.093    0.080   89.083  228.021
  595.440   10.089    1.090    0.106   85.400  228.150
  595.690    9.595    1.027    0.122   82.748  228.466
  595.940    9.537    1.025    0.095   83.965  228.908
  596.190    9.673    1.084    0.067   89.360  229.234
  596.440    9.848    1.104    0.171   93.733  229.366
  596.690    9.915    1.050    0.168   87.935  229.457
  596.940    9.728    1.017    0.122   87.823  229.472
  597.190    9.493    1.043    0.074   91.948  229.700
  597.440    9.195    1.074    0.070   96.433  230.046
  597.690    8.990    1.070    0.148  100.682  230.257
  597.940    8.870    1.056    0.182   97.487  230.474
  598.190    8.768    1.066    0.170   93.798  230.586
  598.440    8.763    1.089    0.147   96.959  231.031
  598.690    8.872    1.100    0.123   93.947  231.245
  598.940    9.014    1.069    0.106   93.349  231.690
  599.190    9.043    1.071    0.094   96.690  231.898
  599.440    9.054    1.091    0.146   99.115  232.337
  599.690    9.099    1.094    0.161  100.098  232.546
  599.940    9.043    1.092    0.118  100.714  232.546
  600.190    9.039    1.092    0.099  101.447  231.982
  600.440    8.984    1.070    0.125  102.672  231.879
  600.690    8.914    1.076    0.116  104.611  231.988
  600.940    8.810    1.092    0.102  105.417  232.205
  601.190    8.693    1.071    0.158  104.392  232.644
  601.440    8.561    1.078    0.110  100.105  232.899
  601.690    8.432    1.096    0.162  100.662  232.996
  601.940    8.288    1.112    0.175  101.695  233.117
  602.190    8.268    1.117    0.154   99.352  233.234
  602.440    8.280    1.077    0.173   93.966  233.076
  602.690    8.274    1.100    0.168   93.859  232.966
  602.940    8.224    1.124    0.140  101.432  232.670
  603.190    8.220    1.096    0.174  104.532  232.580
  603.440    8.261    1.088    0.178  103.274  232.405
  603.690    8.409    1.091    0.153  100.978  232.385
  603.940    8.784    1.088    0.139   98.820  232.417
  604.190    9.141    1.071    0.133   97.971  232.459
  604.440    9.255    1.051    0.118   98.587  232.564
  604.690    9.249    1.056    0.097  103.625  232.567
  604.940    9.244    1.066    0.168  106.597  232.609
  605.190    9.087    1.074    0.162  103.338  232.709
  605.440    8.933    1.071    0.141   99.714  232.917
  605.690    8.945    1.056    0.119   96.341  233.570
  605.940    9.534    1.044    0.112   93.323  234.296
  606.190   10.582    1.027    0.081   91.094  235.028
  606.440   11.033    0.991    0.071   94.427  236.383
  606.690   10.986    1.039    0.053  100.977  238.125
  606.940    9.851    1.067    0.105  108.069  241.040
  607.190    8.980    1.087    0.136  112.801  242.564
  607.440    8.263    1.099    0.145  115.537  244.648
  607.690    7.800    1.098    0.131  115.907  245.881
  607.940    7.310    1.096    0.118  111.438  247.347
  608.190    7.003    1.104    0.169  110.423  247.763
  608.440    7.288    1.101    0.190  108.672  244.904
  608.690    7.840    1.080    0.162  104.748  237.033
  608.940    8.880    1.058    0.145  100.702  233.460
  609.190   10.113    1.059    0.124   94.665  231.219
  609.440   10.999    1.019    0.099   89.344  230.321
  609.690   11.321    0.970    0.052   92.923  230.468
  609.940   11.504    1.052    0.116  100.320  231.062
  610.190   11.710    1.081    0.152  108.259  232.134
  610.440   11.791    1.112    0.175  106.089  232.746
  610.690   11.762    1.128    0.186  100.899  233.094
  610.940   11.648    1.075    0.171   96.543  233.390
  611.190   11.577    1.049    0.154   90.076  233.835
  611.440   11.699    1.078    0.101   90.521  234.038
  611.690   12.175    1.069    0.096   93.789  234.064
  611.940   13.146    1.010    0.116   97.009  235.004
  612.190   13.042    0.988    0.089   92.056  237.088
  612.440   12.704    1.026    0.043   89.525  238.847
  612.690   12.373    1.050    0.113   91.109  240.079
  612.940   12.276    1.068    0.143   94.993  241.233
  613.190   12.451    1.035    0.120   98.026  241.254
  613.440   12.887    1.018    0.121   94.164  240.947
  613.690   13.143    1.015    0.101   89.939  240.479
  613.940   12.848    1.046    0.080   91.337  240.266
  614.190   12.355    1.047    0.093   95.886  240.079
  614.440   11.771    1.048    0.087   97.776  239.903
  614.690   11.052    1.063    0.070   95.846  239.819
  614.940   10.356    1.079    0.101   95.501  239.729
  615.190    9.977    1.095    0.098   97.379  239.419
  615.440    9.611    1.103    0.094  100.720  239.135
  615.690    9.362    1.092    0.097  104.545  238.527
  615.940    9.152    1.093    0.118  107.400  237.936
  616.190    9.014    1.087    0.140  103.413  237.676
  616.440    8.828    1.067    0.120  104.575  237.176
  616.690    8.742    1.069    0.090  107.859  237.080
  616.940    8.689    1.089    0.127  109.919  237.282
  617.190    8.701    1.091    0.149  110.175  237.423
  617.440    8.923    1.102    0.112  108.061  237.227
  617.690    9.777    1.093    0.105  102.326  236.915
  617.940   10.870    1.106    0.076   99.368  236.025
  618.190   11.418    1.080    0.143   92.537  235.414
