~VERSION INFORMATION
 VERS.                 2.0:   CWLS LOG ASCII STANDARD -VERSION 2.0
 WRAP.                  NO:   ONE LINE PER DEPTH STEP
~WELL INFORMATION BLOCK
#MNEM.UNIT           DATA                    DESCRIPTION OF MNEMONIC
#---------    -------------------            -------------------------------
# Generated from Intellog Unique Number	CS_67_68/WELL/2212
WELL.         GEOG et al HYLO                : Well_name    - WELL
LOC .         00/12-08-067-14W4/0            : Location     - LOCATION
UWI .         00/12-08-067-14W4/0            : Uwi          - UNIQUE WELL ID
ENTR.         SP                             : Entered      - ENTERED BY
SRVC.         SCHLUMBERGER                   : Scn          - SERVICE COMPANY
STRT.M        300                            : top_depth    - START DEPTH
STOP.M        485                            : bot_depth    - STOP DEPTH
STEP.M        0.25                           : increment    - STEP LENGTH
 NULL. -999.2500:NULL Value
~CURVE INFORMATION BLOCK
#MNEM UNIT       ERCB CURVE CODE    CURVE DESCRIPTION
#-----------   ------------------   ----------------------------------
DEPT.M        00 001 00 00         : DEPTH        - DEPTH
ILD .OHMM     00 120 00 00         : RESD         - DEEP RESISTIVITY (DIL)
DPHI.V/V      00 890 00 00         : PHID         - DENSITY POROSITY (LIMESTONE)
NPHI.V/V      00 330 00 00         : PHIN         - NEUTRON POROSITY (LIMESTONE)
GR  .API      00 310 00 00         : GR           - GAMMA RAY
CALI.MM       00 280 01 00         : CAL          - CALIPER
~PARAMETER INFORMATION
#MNEM.UNIT           DATA             DESCRIPTION OF MNEMONIC
#---------         -----------     ------------------------------
GL  .M        565.5                : gl           - GROUND LEVEL ELEVATION
EREF.M        568.7                : kb           - ELEVATION OF DEPTH REFERENCE
DATM.M        568.7                : datum        - DATUM ELEVATION
TDD .M        494.5                : tdd          - TOTAL DEPTH DRILLER
RUN .         ONE                  : Run          - RUN NUMBER
ENG .         BILL                 : Engineer     - RECORDING ENGINEER
WIT .         JIM                  : Witness      - WITNESSED BY
MUD .         GEL                  : Mud_type     - MUD TYPE
MATR.         LIMESTONE            : Logunit      - NEUTRON MATRIX
TMAX.C        24                   : BHT          - MAXIMUM RECORDED TEMPERATURE
BHTD.M        493.2                : BHTDEP       - MAXIMUM RECORDED TEMPERATURE
MATR.         1                    : LOGUNIT      - NEUTRON MATRIX
RMT .C        25                   : MDTP         - TEMPERATURE OF MUD
NEUT.         1                    : NEUTRON      - NEUTRON TYPE
RESI.         0                    : RESIST       - RESISTIVITY TYPE
RMC .OHMM     0.25                 : RMC          - RESISTIVITY OF MUD CAKE
RMF .OHMM     0.25                 : RMF          - RESISTIVITY OF MUD FILTRATE
SUFT.C        15                   : SUFT         - SURFACE TEMPERATURE
~A  DEPTH     RESD     PHID     PHIN       GR      CAL
# ...
  446.000    5.021    0.211    0.413   89.468  163.261
  446.250    4.623    0.213    0.414   92.746  163.533
  446.500    4.421    0.201    0.406   93.888  164.011
  446.750    4.497    0.178    0.398   89.104  164.596
  447.000    4.654    0.145    0.384   85.482  165.580
  447.250    4.771    0.114    0.368   82.901  165.754
  447.500    4.854    0.166    0.365   82.822  165.619
  447.750    4.702    0.203    0.375   86.283  165.894
  448.000    4.085    0.225    0.381   87.792  167.698
  448.250    3.298    0.228    0.390   83.741  171.230
  448.500    2.588    0.232    0.430   83.601  175.979
  448.750    2.141    0.247    0.487   85.291  177.785
  449.000    1.975    0.257    0.498   86.128  176.731
  449.250    1.946    0.246    0.487   84.340  174.665
  449.500    1.936    0.238    0.481   84.563  173.010
  449.750    1.955    0.225    0.481   86.806  171.442
  450.000    2.015    0.216    0.492   89.534  170.706
  450.250    2.066    0.219    0.496   91.410  170.474
  450.500    2.130    0.234    0.486   92.858  170.646
  450.750    2.167    0.236    0.467   93.939  171.320
  451.000    2.209    0.227    0.461   95.078  171.701
  451.250    2.239    0.224    0.479   95.428  171.867
  451.500    2.273    0.222    0.494   93.761  171.742
  451.750    2.344    0.226    0.490   89.589  170.687
  452.000    2.434    0.227    0.476   91.463  169.744
  452.250    2.552    0.222    0.456   93.582  168.392
  452.500    2.641    0.225    0.440   95.089  166.829
  452.750    2.728    0.223    0.435   94.644  165.990
  453.000    2.791    0.226    0.446   89.191  165.552
  453.250    2.808    0.235    0.441   89.782  165.622
  453.500    2.787    0.228    0.454   90.619  165.483
  453.750    2.967    0.113    0.434   87.120  165.559
  454.000    3.255    0.070    0.408   82.030  165.733
  454.250    3.523    0.038    0.381   78.043  165.693
  454.500    3.822    0.118    0.352   74.788  165.872
  454.750    3.962    0.149    0.407   81.854  166.548
  455.000    3.986    0.156    0.412   88.125  167.134
  455.250    3.847    0.160    0.402   94.153  167.712
  455.500    3.517    0.167    0.392   99.082  167.172
  455.750    3.426    0.170    0.405  102.483  165.311
  456.000    3.184    0.174    0.430  106.860  164.261
  456.250    2.977    0.176    0.447  108.187  163.824
  456.500    2.917    0.183    0.456  106.274  163.793
  456.750    2.896    0.186    0.440  107.533  163.457
  457.000    2.875    0.182    0.426  108.374  163.322
  457.250    2.854    0.182    0.414  108.234  163.395
  457.500    2.839    0.182    0.422  106.199  163.771
  457.750    2.851    0.182    0.430  104.961  164.656
  458.000    2.868    0.182    0.436  104.084  166.559
  458.250    2.929    0.179    0.449  102.418  166.934
  458.500    3.008    0.166    0.444   98.552  166.393
  458.750    3.107    0.139    0.430   97.251  164.835
  459.000    3.209    0.118    0.435  103.034  163.479
  459.250    3.302    0.189    0.437  107.841  162.636
  459.500    3.417    0.197    0.408  108.311  162.402
  459.750    3.516    0.187    0.390  102.245  161.862
  460.000    3.563    0.177    0.380   98.989  161.523
  460.250    3.551    0.171    0.386  100.616  161.187
  460.500    3.428    0.177    0.437  102.310  161.055
  460.750    3.247    0.183    0.456  103.391  161.025
  461.000    2.962    0.189    0.469  104.226  160.894
  461.250    2.758    0.188    0.468  104.817  160.962
  461.500    2.657    0.186    0.467  105.353  161.036
  461.750    2.623    0.188    0.467  103.075  161.308
  462.000    2.619    0.185    0.468  103.787  160.871
  462.250    2.645    0.179    0.478  108.105  160.737
  462.500    2.676    0.172    0.489  109.307  160.504
  462.750    2.682    0.167    0.484  111.123  160.676
  463.000    2.693    0.176    0.476  115.315  160.537
  463.250    2.704    0.185    0.472  115.177  160.717
  463.500    2.746    0.197    0.469  111.189  160.890
  463.750    2.820    0.205    0.495  112.819  160.755
  464.000    2.902    0.204    0.500  109.747  160.622
  464.250    3.037    0.195    0.366   90.735  160.898
  464.500    3.178    0.188    0.346   87.724  160.764
  464.750    3.640    0.184    0.376   88.070  160.930
  465.000    3.889    0.183    0.390   91.960  160.904
  465.250    4.194    0.179    0.349   94.997  160.871
  465.500    4.601    0.173    0.324   88.258  160.839
  465.750    5.085    0.166    0.312   79.386  160.807
  466.000    5.780    0.159    0.295   65.931  160.779
  466.250    7.019    0.115    0.233   56.568  160.543
  466.500    8.490    0.066    0.212   49.403  160.309
  466.750    9.835    0.027    0.195   47.675  160.280
  467.000   10.667    0.015    0.250   52.115  160.247
  467.250   11.164    0.069    0.270   58.141  160.214
  467.500   11.063    0.136    0.283   62.763  160.289
  467.750   10.111    0.163    0.295   65.922  160.257
  468.000    9.018    0.179    0.302   69.141  160.431
  468.250    7.804    0.175    0.304   72.784  160.604
  468.500    7.200    0.183    0.303   73.622  161.488
  468.750    6.693    0.182    0.307   73.726  163.698
  469.000    6.199    0.163    0.310   74.804  164.275
  469.250    6.050    0.152    0.313   75.277  163.126
  469.500    5.906    0.162    0.316   74.647  160.346
  469.750    5.712    0.216    0.311   73.957  158.789
  470.000    5.492    0.241    0.306   73.814  159.267
  470.250    5.371    0.232    0.303   73.493  160.046
  470.500    5.333    0.224    0.311   73.107  160.321
  470.750    5.284    0.218    0.321   75.774  160.498
  471.000    5.256    0.211    0.327   78.750  160.364
  471.250    5.239    0.211    0.331   80.929  160.432
  471.500    5.290    0.221    0.336   80.850  160.607
  471.750    5.263    0.226    0.344   77.412  160.983
  472.000    5.205    0.227    0.336   78.309  161.361
  472.250    5.090    0.227    0.329   77.068  161.432
  472.500    4.997    0.228    0.350   75.279  160.891
  472.750    4.961    0.235    0.363   76.542  160.655
  473.000    4.944    0.228    0.350   79.392  160.524
  473.250    4.908    0.212    0.326   79.437  160.186
  473.500    4.882    0.184    0.306   76.915  160.155
  473.750    4.875    0.156    0.294   80.683  160.017
  474.000    4.886    0.139    0.292   88.357  159.582
  474.250    4.906    0.163    0.314   92.798  159.145
  474.500    4.926    0.173    0.331   88.198  158.710
  474.750    4.974    0.144    0.326   87.753  158.777
  475.000    5.051    0.093    0.316   92.132  159.665
  475.250    5.120    0.120    0.323   96.878  160.550
  475.500    5.170    0.141    0.328   95.759  161.637
  475.750    5.221    0.149    0.330   92.931  162.317
  476.000    5.261    0.140    0.348   99.874  163.002
  476.250    5.303    0.135    0.362  107.858  163.581
  476.500    5.335    0.139    0.357  100.937  163.854
  476.750    5.367    0.179    0.343   89.987  164.129
  477.000    5.429    0.205    0.335   78.548  164.098
  477.250    5.555    0.222    0.349   73.216  164.067
  477.500    5.568    0.209    0.341   74.541  164.342
  477.750    5.559    0.199    0.328   79.713  164.513
  478.000    5.498    0.187    0.320   86.654  164.686
  478.250    5.479    0.176    0.313   92.073  164.962
  478.500    5.564    0.188    0.311   98.468  164.928
  478.750    5.715    0.174    0.314  104.067  164.696
  479.000    5.869    0.157    0.331  106.859  164.051
  479.250    5.904    0.141    0.370  108.062  163.615
  479.500    5.884    0.125    0.391  100.714  162.568
  479.750    5.647    0.084    0.405   95.810  161.618
  480.000    5.046    0.045    0.422   97.989  161.280
  480.250    4.551    0.000    0.438  105.299  161.249
  480.500    4.579    0.158    0.425  107.114  161.832
  480.750    4.711    0.183    0.391   92.129  163.022
  481.000    4.875    0.195    0.318   87.898  164.111
  481.250    5.054    0.184    0.294   95.270  164.793
  481.500    5.300    0.172    0.328  104.716  164.658
  481.750    5.422    0.162    0.340  109.708  164.725
  482.000    5.455    0.166    0.327  106.758  165.814
  482.250    5.456    0.167    0.323  110.097  166.094
