~VERSION INFORMATION
 VERS.                 2.0:   CWLS LOG ASCII STANDARD -VERSION 2.0
 WRAP.                  NO:   ONE LINE PER DEPTH STEP
~WELL INFORMATION BLOCK
#MNEM.UNIT           DATA                    DESCRIPTION OF MNEMONIC
#---------    -------------------            -------------------------------
# Generated from Intellog Unique Number	CW_73_75/WELL/994
LOC .         00/10-27-075-01W5/0            : Location     - LOCATION
UWI .         00/10-27-075-01W5/0            : Uwi          - UNIQUE WELL ID
ENTR.         JAYE                           : Entered      - ENTERED BY
SRVC.         SCHLUMBERGER                   : Scn          - SERVICE COMPANY
DATE.         5 JAN 76                       : Date         - LOG DATE
STRT.M        548.64                         : top_depth    - START DEPTH
STOP.M        749.89                         : bot_depth    - STOP DEPTH
STEP.M        0.25                           : increment    - STEP LENGTH
 NULL. -999.2500:NULL Value
~CURVE INFORMATION BLOCK
#MNEM UNIT       ERCB CURVE CODE    CURVE DESCRIPTION
#-----------   ------------------   ----------------------------------
DEPT.M        00 001 00 00         : DEPTH        - DEPTH
ILD .OHMM     00 120 00 00         : RESD         - DEEP RESISTIVITY (DIL)
NPHI.V/V      00 330 00 00         : PHIN         - NEUTRON POROSITY (SANDSTONE)
DPHI.V/V      00 890 00 00         : PHID         - DENSITY POROSITY (SANDSTONE)
GR  .API      00 310 00 00         : GR           - GAMMA RAY
CALI.MM       00 280 01 00         : CAL          - CALIPER
~PARAMETER INFORMATION
#MNEM.UNIT           DATA             DESCRIPTION OF MNEMONIC
#---------         -----------     ------------------------------
GL  .M        826.465              : gl           - GROUND LEVEL ELEVATION
EREF.M        830.58               : kb           - ELEVATION OF DEPTH REFERENCE
DATM.M        826.465              : datum        - DATUM ELEVATION
TDD .M        0                    : tdd          - TOTAL DEPTH DRILLER
RUN .         ONE                  : Run          - RUN NUMBER
MATR.         SANDSTONE            : Logunit      - NEUTRON MATRIX
TMAX.C        -17.7778             : BHT          - MAXIMUM RECORDED TEMPERATURE
BHTD.M        0                    : BHTDEP       - MAXIMUM RECORDED TEMPERATURE
RMT .C        -17.7778             : MDTP         - TEMPERATURE OF MUD
MUDD.KG/M     0                    : MWT          - MUD DENSITY
NEUT.         1                    : NEUTRON      - NEUTRON TYPE
RESI.         0                    : RESIST       - RESISTIVITY TYPE
RM  .OHMM     0                    : RM           - RESISTIVITY OF MUD
RMC .OHMM     0                    : RMC          - RESISTIVITY OF MUD CAKE
RMF .OHMM     0                    : RMF          - RESISTIVITY OF MUD FILTRATE
SUFT.C        -17.7778             : SUFT         - SURFACE TEMPERATURE
~A  DEPTH     RESD     PHIN     PHID       GR      CAL
# ...
  731.140   36.001    0.114    0.319   31.497  222.674
  731.390   44.762    0.128    0.346   24.349  222.318
  731.640   44.007    0.150    0.346   23.771  222.466
  731.890   33.714    0.172    0.333   23.799  222.719
  732.140   28.002    0.193    0.310   24.801  222.463
  732.390   25.770    0.229    0.291   25.437  222.203
  732.640   25.203    0.274    0.278   25.471  221.531
  732.890   25.140    0.335    0.265   25.440  220.959
  733.140   24.494    0.357    0.252   25.828  220.712
  733.390   22.836    0.369    0.249   26.651  220.646
  733.640   21.366    0.374    0.271   27.227  220.799
  733.890   20.367    0.370    0.261   27.928  220.851
  734.140   19.839    0.368    0.256   28.804  220.689
  734.390   19.256    0.383    0.265   30.538  220.739
  734.640   18.585    0.383    0.270   31.905  220.591
  734.890   17.845    0.370    0.274   32.848  220.429
  735.140   17.416    0.370    0.287   33.670  220.166
  735.390   16.936    0.388    0.295   35.155  215.066
  735.640   16.199    0.395    0.284   37.314  218.416
  735.890   15.297    0.380    0.256   40.690  222.683
  736.140   14.472    0.352    0.254   41.511  221.292
  736.390   13.667    0.345    0.255   44.215  219.695
  736.640   12.904    0.353    0.249   45.218  219.947
  736.890   12.139    0.361    0.245   40.380  220.518
  737.140   11.111    0.364    0.246   36.759  221.077
  737.390   10.340    0.367    0.259   35.938  221.746
  737.640    9.640    0.377    0.250   34.568  222.413
  737.890    8.953    0.375    0.236   34.598  223.181
  738.140    8.255    0.367    0.244   35.420  223.334
  738.390    8.192    0.374    0.252   36.118  222.358
  738.640    8.542    0.344    0.250   36.811  221.999
  738.890    9.257    0.307    0.222   37.088  222.250
  739.140    9.845    0.269    0.184   36.079  222.811
  739.390   10.649    0.244    0.156   35.865  224.512
  739.640   10.822    0.216    0.129   37.416  226.205
  739.890   10.351    0.236    0.038   42.618  228.007
  740.140    9.439    0.265    0.081   48.060  225.687
  740.390    7.768    0.329    0.150   52.955  222.753
  740.640    6.866    0.321    0.162   56.512  221.768
  740.890    6.298    0.310    0.162   60.924  221.309
  741.140    6.101    0.305    0.143   64.421  220.639
  741.390    6.110    0.332    0.127   67.796  220.382
  741.640    6.266    0.351    0.123   71.660  220.319
  741.890    6.463    0.359    0.140   73.631  220.468
  742.140    6.578    0.341    0.134   76.037  221.860
  742.390    6.721    0.339    0.129   78.438  223.967
  742.640    6.868    0.356    0.132   81.750  228.653
  742.890    7.005    0.355    0.134   79.893  235.089
  743.140    7.131    0.342    0.122   74.388  241.527
  743.390    7.274    0.333    0.127   73.990  233.642
  743.640    7.324    0.324    0.143   77.308  228.953
  743.890    7.321    0.328    0.158   79.833  229.107
  744.140    7.015    0.356    0.150   81.927  233.893
  744.390    6.292    0.378    0.194   83.963  234.153
  744.640    5.112    0.413    0.230   82.894  240.172
  744.890    4.093    0.477    0.152   79.216  228.477
  745.140    3.532    0.399    0.192   79.247  240.891
  745.390    3.392    0.378    0.229   79.701  278.538
  745.640    3.629    0.358    0.154   79.910  267.051
  745.890    3.896    0.384    0.189   78.418  232.287
  746.140    4.198    0.390    0.227   71.939  246.239
  746.390    4.474    0.373    0.230   71.115  230.009
  746.640    4.875    0.373    0.249   74.187  226.455
  746.890    5.129    0.394    0.259   75.373  248.242
  747.140    5.251    0.397    0.227   76.738  237.474
  747.390    5.287    0.391    0.180   78.659  229.280
  747.640    5.266    0.380    0.175   79.533  222.944
  747.890    5.263    0.375    0.179   77.374  222.073
  748.140    5.166    0.375    0.149   75.151  224.280
  748.390    5.107    0.382    0.226   74.269  229.992
  748.640    5.039    0.397    0.204   74.175  230.665
  748.890    4.991    0.403    0.219   73.839  227.723
  749.140    4.962    0.400    0.271   76.790  264.962
  749.390    4.924    0.364    0.235   79.373  235.241
  749.640    4.887    0.359    0.235   77.333  224.883
  749.890    4.884    0.378    0.254   75.476  247.286
