~VERSION INFORMATION
 VERS.                 2.0:   CWLS LOG ASCII STANDARD -VERSION 2.0
 WRAP.                  NO:   ONE LINE PER DEPTH STEP
~WELL INFORMATION BLOCK
#MNEM.UNIT           DATA                    DESCRIPTION OF MNEMONIC
#---------    -------------------            -------------------------------
# Generated from Intellog Unique Number	CX_WELLS/WELL/3420
WELL.         ATCOR ET AL GREGOIRE LAKE      : Well_name    - WELL
LOC .         00/14-24-085-06W4/0            : Location     - LOCATION
UWI .         00/14-24-085-06W400            : Uwi          - UNIQUE WELL ID
ENTR.         T                              : Entered      - ENTERED BY
SRVC.         SCHLUMBERGER                   : Scn          - SERVICE COMPANY
STRT.M        120                            : top_depth    - START DEPTH
STOP.M        255                            : bot_depth    - STOP DEPTH
STEP.M        0.25                           : increment    - STEP LENGTH
 NULL. -999.2500:NULL Value
~CURVE INFORMATION BLOCK
#MNEM UNIT       ERCB CURVE CODE    CURVE DESCRIPTION
#-----------   ------------------   ----------------------------------
DEPT.M        00 001 00 00         : DEPTH        - DEPTH
GR  .API      00 310 00 00         : GR           - GAMMA RAY
NPHI.V/V      00 330 00 00         : PHIN         - NEUTRON POROSITY (SANDSTONE)
DPHI.V/V      00 890 00 00         : PHID         - DENSITY POROSITY (SANDSTONE)
ILD .OHMM     00 120 00 00         : RESD         - DEEP RESISTIVITY (OTHER)
~PARAMETER INFORMATION
#MNEM.UNIT           DATA             DESCRIPTION OF MNEMONIC
#---------         -----------     ------------------------------
GL  .M        452.6                : gl           - GROUND LEVEL ELEVATION
EREF.M        456                  : kb           - ELEVATION OF DEPTH REFERENCE
DATM.M        456                  : datum        - DATUM ELEVATION
TDD .M        471                  : tdd          - TOTAL DEPTH DRILLER
RUN .         ONE                  : Run          - RUN NUMBER
ENG .         BILL                 : Engineer     - RECORDING ENGINEER
WIT .         JIM                  : Witness      - WITNESSED BY
MUD .         GEL                  : Mud_type     - MUD TYPE
MATR.         SANDSTONE            : Logunit      - NEUTRON MATRIX
TMAX.C        26                   : BHT          - MAXIMUM RECORDED TEMPERATURE
BHTD.M        471                  : BHTDEP       - MAXIMUM RECORDED TEMPERATURE
MATR.         1                    : LOGUNIT      - NEUTRON MATRIX
RMT .C        15.6                 : MDTP         - TEMPERATURE OF MUD
NEUT.         1                    : NEUTRON      - NEUTRON TYPE
RESI.         1.5                  : RESIST       - RESISTIVITY TYPE
RMC .OHMM     2                    : RMC          - RESISTIVITY OF MUD CAKE
RMF .OHMM     1.1                  : RMF          - RESISTIVITY OF MUD FILTRATE
SUFT.C        4                    : SUFT         - SURFACE TEMPERATURE
~A  DEPTH       GR     PHIN     PHID     RESD
# ...
  163.500   89.344    0.505    0.316    2.987
  163.750   86.888    0.518    0.292    2.876
  164.000   88.703    0.524    0.286    2.822
  164.250   91.124    0.497    0.275    2.718
  164.500   89.888    0.486    0.265    2.718
  164.750   88.653    0.469    0.260    2.877
  165.000   88.023    0.471    0.260    2.932
  165.250   88.012    0.475    0.261    3.105
  165.500   88.606    0.479    0.253    3.164
  165.750   89.811    0.489    0.234    3.287
  166.000   89.796    0.487    0.211    3.414
  166.250   87.950    0.449    0.225    3.480
  166.500   84.266    0.418    0.258    3.615
  166.750   81.811    0.400    0.300    3.900
  167.000   79.351    0.387    0.309    4.051
  167.250   78.123    0.371    0.309    4.371
  167.500   75.057    0.360    0.306    4.627
  167.750   73.822    0.342    0.301    5.088
  168.000   76.845    0.342    0.293    5.594
  168.250   78.058    0.359    0.286    6.151
  168.500   81.699    0.393    0.286    6.637
  168.750   84.738    0.382    0.301    6.513
  169.000   87.162    0.391    0.314    6.391
  169.250   82.266    0.398    0.334    6.638
  169.500   74.320    0.373    0.363    7.028
  169.750   61.489    0.345    0.389    7.300
  170.000   54.152    0.334    0.415    8.181
  170.250   48.036    0.334    0.434    9.343
  170.500   43.140    0.337    0.445   11.083
  170.750   36.410    0.321    0.437   13.399
  171.000   33.950    0.286    0.428   16.510
  171.250   35.769    0.254    0.418   18.856
  171.500   52.836    0.242    0.374   19.961
  171.750   69.903    0.259    0.334   21.950
  172.000   77.818    0.292    0.297   20.736
  172.250   81.460    0.318    0.255   15.901
  172.500   83.274    0.366    0.252   12.427
  172.750   82.039    0.358    0.243    9.529
  173.000   80.189    0.343    0.248    7.170
  173.250   78.957    0.329    0.261    6.774
  173.500   77.718    0.329    0.252    6.522
  173.750   77.703    0.336    0.238    6.400
  174.000   79.517    0.344    0.231    6.162
  174.250   81.946    0.354    0.237    6.162
  174.500   85.587    0.363    0.244    6.047
  174.750   86.792    0.357    0.249    6.048
  175.000   84.942    0.341    0.257    6.164
  175.250   81.873    0.324    0.271    6.403
  175.500   80.031    0.318    0.291    6.778
  175.750   78.791    0.306    0.303    7.176
  176.000   78.174    0.292    0.310    7.454
  176.250   78.154    0.286    0.308    8.042
  176.500   76.312    0.286    0.303    8.353
  176.750   76.297    0.286    0.295    8.843
  177.000   84.209    0.291    0.284    8.844
  177.250   89.680    0.303    0.260    8.355
  177.500   91.499    0.318    0.257    7.745
  177.750   91.480    0.325    0.254    7.318
  178.000   91.460    0.317    0.247    7.046
  178.250   90.839    0.316    0.241    6.784
  178.500   89.603    0.331    0.247    6.170
  178.750   88.978    0.338    0.264    5.612
  179.000   85.298    0.348    0.286    4.915
  179.250   82.846    0.357    0.300    4.643
  179.500   77.340    0.347    0.285    4.304
  179.750   66.953    0.339    0.271    3.990
  180.000   68.154    0.334    0.260    3.561
  180.250   71.181    0.332    0.270    3.429
  180.500   71.783    0.337    0.280    3.301
  180.750   73.598    0.337    0.283    3.239
  181.000   70.532    0.337    0.271    3.240
  181.250   70.517    0.338    0.241    3.240
  181.500   74.772    0.344    0.246    3.302
  181.750   77.197    0.348    0.259    3.366
  182.000   69.250    0.352    0.276    3.366
  182.250   58.249    0.342    0.288    3.180
  182.500   52.743    0.336    0.297    3.062
  182.750   44.797    0.337    0.302    2.893
  183.000   49.662    0.334    0.294    2.785
  183.250   58.188    0.333    0.281    2.682
  183.500   63.053    0.337    0.264    2.682
  183.750   63.030    0.336    0.270    2.632
  184.000   54.477    0.332    0.283    2.582
  184.250   47.751    0.331    0.295    2.487
  184.500   41.635    0.335    0.312    2.349
  184.750   36.124    0.330    0.323    2.305
  185.000   35.499    0.327    0.317    2.350
  185.250   36.700    0.327    0.315    2.441
  185.500   39.739    0.326    0.310    2.535
  185.750   44.600    0.323    0.306    2.584
  186.000   48.249    0.322    0.288    2.584
  186.250   51.890    0.320    0.268    2.536
  186.500   54.315    0.316    0.264    2.488
  186.750   50.639    0.315    0.274    2.442
  187.000   42.083    0.323    0.299    2.442
  187.250   34.746    0.321    0.319    2.396
  187.500   31.676    0.316    0.321    2.351
  187.750   32.271    0.312    0.322    2.264
  188.000   32.255    0.322    0.325    2.099
  188.250   32.244    0.341    0.326    1.983
  188.500   31.005    0.358    0.326    1.909
  188.750   30.985    0.352    0.325    1.909
  189.000   30.970    0.342    0.322    1.909
  189.250   30.954    0.332    0.317    1.946
  189.500   32.163    0.326    0.312    2.021
  189.750   39.468    0.338    0.307    2.022
  190.000   45.554    0.353    0.320    2.022
  190.250   43.090    0.362    0.336    1.984
  190.500   40.638    0.351    0.337    1.910
  190.750   36.352    0.342    0.328    1.805
  191.000   32.673    0.337    0.319    1.771
  191.250   35.101    0.330    0.307    1.771
  191.500   36.912    0.331    0.307    1.805
  191.750   35.677    0.333    0.316    1.805
  192.000   35.051    0.335    0.328    1.840
  192.250   34.426    0.335    0.330    1.840
  192.500   35.017    0.337    0.316    1.840
  192.750   35.611    0.340    0.314    1.772
  193.000   37.422    0.337    0.317    1.706
  193.250   38.024    0.337    0.325    1.643
  193.500   38.009    0.336    0.340    1.612
  193.750   36.163    0.331    0.342    1.582
  194.000   33.094    0.326    0.337    1.552
  194.250   33.684    0.326    0.329    1.552
  194.500   34.885    0.325    0.327    1.523
  194.750   35.488    0.324    0.326    1.495
  195.000   39.129    0.331    0.332    1.386
  195.250   43.384    0.331    0.346    1.360
  195.500   43.983    0.329    0.364    1.386
  195.750   41.527    0.331    0.355    1.439
  196.000   40.287    0.342    0.338    1.467
  196.250   42.102    0.366    0.338    1.524
  196.500   40.256    0.384    0.337    1.524
  196.750   43.288    0.376    0.329    1.553
  197.000   45.712    0.363    0.319    1.583
  197.250   48.141    0.362    0.317    1.645
  197.500   45.071    0.363    0.320    1.676
  197.750   40.175    0.359    0.314    1.741
  198.000   38.936    0.351    0.295    1.951
  198.250   47.465    0.337    0.284    2.105
  198.500   64.532    0.341    0.276    2.066
  198.750   71.838    0.345    0.278    2.027
  199.000   77.309    0.351    0.284    1.989
  199.250   78.514    0.355    0.288    1.952
  199.500   76.668    0.362    0.295    1.952
  199.750   74.216    0.366    0.306    1.880
  200.000   58.335    0.366    0.318    1.810
  200.250   48.558    0.363    0.326    1.710
  200.500   44.882    0.351    0.314    1.585
  200.750   49.748    0.339    0.299    1.615
  201.000   56.443    0.331    0.288    1.710
  201.250   64.969    0.329    0.276    1.880
  201.500   72.274    0.332    0.262    1.991
  201.750   75.919    0.337    0.258    1.991
  202.000   74.066    0.334    0.262    1.881
  202.250   62.463    0.334    0.283    1.811
  202.500   47.798    0.339    0.316    1.679
  202.750   44.739    0.348    0.344    1.527
  203.000   35.569    0.347    0.346    1.415
  203.250   30.673    0.341    0.341    1.312
  203.500   35.534    0.331    0.332    1.240
  203.750   36.739    0.330    0.323    1.171
  204.000   37.944    0.332    0.319    1.194
  204.250   39.762    0.336    0.316    1.264
  204.500   45.234    0.340    0.315    1.313
  204.750   49.489    0.341    0.315    1.390
  205.000   52.524    0.337    0.316    1.443
  205.250   50.674    0.332    0.319    1.471
  205.500   49.443    0.325    0.315    1.528
  205.750   46.983    0.320    0.311    1.618
  206.000   45.744    0.316    0.304    1.713
  206.250   45.736    0.329    0.297    1.779
  206.500   47.543    0.347    0.292    1.779
  206.750   48.752    0.362    0.287    1.779
