~VERSION INFORMATION
 VERS.                 2.0:   CWLS LOG ASCII STANDARD -VERSION 2.0
 WRAP.                  NO:   ONE LINE PER DEPTH STEP
~WELL INFORMATION BLOCK
#MNEM.UNIT           DATA                    DESCRIPTION OF MNEMONIC
#---------    -------------------            -------------------------------
# Generated from Intellog Unique Number	CW_79_81/WELL/2470
NULL.         -999.25                        : NULL_VALUE
WELL.         CHEVRON FINA MUSKWA            : Well_name    - WELL              
LOC .         10-18-081-04W5                 : Location     - LOCATION          
UWI .         00/10-18-081-04W5/0            : Uwi          - UNIQUE WELL ID    
ENTR.         MAX                            : Entered      - ENTERED BY        
SRVC.         SCHLUMBERGER                   : Scn          - SERVICE COMPANY   
DATE.         06 MAR 74                      : Date         - LOG DATE
STRT.M        298.704                        : top_depth    - START DEPTH       
STOP.M        542.204                        : bot_depth    - STOP DEPTH        
STEP.M        0.25                           : increment    - STEP LENGTH       
~CURVE INFORMATION BLOCK
#MNEM UNIT       ERCB CURVE CODE    CURVE DESCRIPTION
#-----------   ------------------   ----------------------------------
DEPT.M        00 001 00 00         : DEPTH        - DEPTH                       
ILD .OHMM     00 120 00 00         : RESD         - DEEP RESISTIVITY (DIL)      
NPHI.V/V      00 330 00 00         : PHIN         - NEUTRON POROSITY (SANDSTONE)
DPHI.V/V      00 890 00 00         : PHID         - DENSITY POROSITY (SANDSTONE)
GR  .API      00 310 00 00         : GR           - GAMMA RAY                   
CALI.MM       00 280 01 00         : CAL          - CALIPER                     
~PARAMETER INFORMATION       
#MNEM.UNIT           DATA             DESCRIPTION OF MNEMONIC
#---------         -----------     ------------------------------
GL  .M        596.189              : gl           - GROUND LEVEL ELEVATION      
EREF.M        599.999              : kb           - ELEVATION OF DEPTH REFERENCE
DATM.M        596.189              : datum        - DATUM ELEVATION             
TDD .M        541.934              : tdd          - TOTAL DEPTH DRILLER         
RUN .         ONE                  : Run          - RUN NUMBER                  
ENG .         BILL                 : Engineer     - RECORDING ENGINEER          
WIT .         JIM                  : Witness      - WITNESSED BY                
MUD .         GEL                  : Mud_type     - MUD TYPE                    
MATR.         SANDSTONE            : Logunit      - NEUTRON MATRIX              
TMAX.C        28.3333              : BHT          - MAXIMUM RECORDED TEMPERATURE
BHTD.M        541.934              : BHTDEP       - MAXIMUM RECORDED TEMPERATURE
MATR.         1                    : LOGUNIT      - NEUTRON MATRIX              
RMT .C        20.5556              : MDTP         - TEMPERATURE OF MUD          
NEUT.         1                    : NEUTRON      - NEUTRON TYPE                
RESI.         0                    : RESIST       - RESISTIVITY TYPE            
RMC .OHMM     7.58                 : RMC          - RESISTIVITY OF MUD CAKE     
RMF .OHMM     8.19                 : RMF          - RESISTIVITY OF MUD FILTRATE 
SUFT.C        -15                  : SUFT         - SURFACE TEMPERATURE         
~A  DEPTH     RESD     PHIN     PHID       GR      CAL
# ...
  371.704    5.422    0.431    0.216   87.063  200.910
  371.954    5.422    0.440    0.213   86.497  202.104
  372.204    5.421    0.436    0.213   86.009  202.107
  372.454    5.381    0.439    0.217   85.541  202.109
  372.704    5.342    0.450    0.212   86.305  202.110
  372.954    5.323    0.452    0.208   87.362  202.311
  373.204    5.322    0.445    0.207   88.067  202.413
  373.454    5.313    0.447    0.204   87.384  201.620
  373.704    5.273    0.454    0.206   83.963  201.622
  373.954    5.197    0.458    0.219   78.802  200.432
  374.204    5.094    0.455    0.236   74.344  198.944
  374.454    4.966    0.446    0.252   70.238  197.952
  374.704    4.843    0.434    0.265   66.836  197.557
  374.954    4.787    0.430    0.275   65.439  197.079
  375.204    4.859    0.435    0.274   66.663  196.667
  375.454    5.072    0.434    0.275   67.368  196.669
  375.704    5.322    0.435    0.273   68.777  196.671
  375.954    5.538    0.440    0.272   71.242  196.474
  376.204    5.709    0.447    0.269   74.353  195.880
  376.454    5.927    0.444    0.252   77.034  194.690
  376.704    5.971    0.443    0.236   77.524  194.692
  376.954    5.885    0.439    0.241   73.770  195.092
  377.204    5.675    0.434    0.240   71.073  194.597
  377.454    5.414    0.428    0.245   68.962  193.804
  377.704    5.168    0.423    0.257   67.086  193.309
  377.954    4.940    0.425    0.270   65.307  193.957
  378.204    4.723    0.434    0.273   65.797  195.201
  378.454    4.722    0.428    0.278   65.798  192.819
  378.704    4.671    0.423    0.279   66.504  191.927
  378.954    4.637    0.423    0.279   67.326  192.524
  379.204    4.636    0.428    0.280   68.031  193.917
  379.454    4.643    0.433    0.280   68.834  194.549
  379.704    4.677    0.438    0.276   69.324  193.724
  379.954    4.710    0.446    0.275   70.264  192.931
  380.204    4.693    0.456    0.279   71.908  191.840
  380.454    4.625    0.460    0.284   73.669  190.252
  380.704    4.575    0.456    0.287   75.079  189.261
  380.954    4.768    0.443    0.275   75.051  191.912
  381.204    5.301    0.433    0.265   71.385  195.226
  381.454    6.020    0.405    0.251   67.866  198.407
  381.704    7.052    0.375    0.215   66.283  200.097
  381.954    8.642    0.347    0.153   65.932  201.490
  382.204   10.678    0.325    0.086   66.813  202.386
  382.454   11.135    0.311    0.068   70.120  201.196
  382.704    9.676    0.304    0.088   72.566  201.198
  382.954    7.991    0.297    0.073   82.424  201.200
  383.204    6.808    0.345    0.116   89.464  201.202
  383.454    5.945    0.397    0.176   91.812  201.602
  383.704    5.379    0.427    0.219   89.995  202.200
  383.954    5.145    0.431    0.210   86.457  202.202
  384.204    5.106    0.435    0.193   84.013  202.204
  384.454    5.142    0.448    0.205   80.494  200.616
  384.704    5.206    0.453    0.213   77.327  199.029
  384.954    5.281    0.450    0.231   75.216  198.038
  385.204    5.385    0.441    0.254   74.279  197.741
  385.454    5.616    0.429    0.260   74.046  197.661
  385.704    5.787    0.428    0.251   74.047  197.249
  385.954    5.744    0.458    0.255   75.691  196.853
  386.204    5.518    0.460    0.252   78.038  196.756
  386.454    5.129    0.447    0.256   81.560  196.758
  386.704    4.736    0.431    0.268   86.195  196.859
  386.954    4.516    0.426    0.263   92.044  197.507
  387.204    4.415    0.430    0.250   95.468  198.751
  387.454    4.446    0.428    0.226   95.235  199.548
  387.704    4.647    0.428    0.217   93.769  199.749
  387.954    4.820    0.431    0.218   91.189  199.751
  388.204    4.872    0.436    0.223   88.902  199.653
  388.454    4.871    0.440    0.229   90.145  199.176
  388.704    4.870    0.443    0.214   92.835  198.764
  388.954    4.870    0.448    0.211   91.898  198.766
  389.204    4.869    0.448    0.208   92.016  198.469
  389.454    4.886    0.446    0.197   92.135  198.273
  389.704    4.912    0.443    0.183   91.960  198.275
  389.954    4.911    0.446    0.180   92.206  198.111
  390.204    4.911    0.443    0.190   93.429  197.286
  390.454    4.946    0.432    0.197   93.196  196.095
  390.704    4.981    0.426    0.194   93.138  195.799
  390.954    5.016    0.422    0.187   93.843  195.801
  391.204    5.070    0.420    0.181   94.959  195.803
  391.454    5.218    0.429    0.181   95.049  195.971
  391.704    5.417    0.449    0.188   94.316  196.801
  391.954    5.614    0.446    0.190   92.441  196.803
  392.204    5.973    0.441    0.188   90.388  197.401
  392.454    6.527    0.441    0.194   87.573  197.602
  392.704    7.192    0.446    0.208   84.641  197.206
  392.954    7.465    0.441    0.222   83.615  196.894
  393.204    6.778    0.428    0.227   84.350  197.310
  393.454    6.166    0.419    0.223   85.759  200.093
  393.704    5.899    0.409    0.214   85.584  201.387
  393.954    5.773    0.400    0.207   83.942  201.786
  394.204    5.771    0.394    0.204   80.952  201.689
  394.454    6.114    0.395    0.201   76.338  201.045
  394.704    6.593    0.416    0.206   74.383  199.806
  394.954    7.180    0.409    0.223   74.150  199.410
  395.204    7.581    0.414    0.227   72.508  199.611
  395.454    7.693    0.420    0.230   69.928  199.812
  395.704    7.455    0.420    0.240   67.406  199.814
  395.954    6.774    0.418    0.260   66.811  199.733
  396.204    6.242    0.423    0.251   68.524  199.322
  396.454    5.890    0.429    0.239   70.871  199.323
  396.704    5.589    0.427    0.240   72.163  199.325
  396.954    5.374    0.422    0.238   74.863  199.327
  397.204    5.240    0.421    0.225   79.440  199.329
  397.454    5.164    0.427    0.197   84.370  199.414
  397.704    5.164    0.430    0.170   84.371  199.830
  397.954    5.126    0.420    0.158   83.669  199.832
  398.204    5.116    0.417    0.161   86.310  200.430
  398.454    5.116    0.422    0.168   89.831  201.425
  398.704    5.115    0.429    0.173   92.648  202.421
  398.954    5.107    0.423    0.172   94.791  202.738
  399.204    5.068    0.417    0.185   98.459  202.326
  399.454    5.067    0.404    0.188   97.757  201.931
  399.704    5.067    0.393    0.188   96.525  201.834
  399.954    5.066    0.390    0.187   95.353  202.034
  400.204    5.066    0.396    0.187   94.533  202.334
  400.454    5.065    0.414    0.187   93.918  202.088
  400.704    5.064    0.421    0.186   93.186  200.848
  400.954    5.064    0.427    0.179   92.014  202.042
  401.204    5.063    0.429    0.179   91.194  203.534
  401.454    5.081    0.425    0.180   90.608  204.728
  401.704    5.117    0.417    0.179   90.316  205.426
  401.954    5.161    0.408    0.181   91.041  205.826
  402.204    5.199    0.404    0.182   93.486  205.827
  402.454    5.273    0.413    0.187   95.600  205.035
  402.704    5.349    0.421    0.187   95.953  203.646
  402.954    5.445    0.425    0.188   94.664  202.257
  403.204    5.573    0.424    0.192   92.377  201.265
  403.454    5.778    0.421    0.195   89.631  200.705
  403.704    5.999    0.426    0.196   86.454  199.879
  403.954    6.306    0.422    0.196   82.231  199.881
  404.204    6.770    0.418    0.214   79.592  199.883
  404.454    7.425    0.425    0.237   79.123  199.686
  404.704    8.209    0.437    0.250   79.535  199.390
  404.954    8.799    0.432    0.240   77.659  199.392
  405.204    8.668    0.423    0.231   77.660  199.394
  405.454    8.542    0.418    0.234   78.600  199.396
  405.704    8.649    0.417    0.231   78.836  199.100
  405.954    8.961    0.423    0.225   78.485  198.904
  406.204    9.441    0.430    0.222   77.665  198.905
  406.454   10.120    0.424    0.230   75.564  198.908
  406.704   10.748    0.417    0.229   70.921  198.910
  406.954   11.622    0.414    0.226   69.045  198.912
  407.204   12.378    0.417    0.229   68.225  198.914
  407.454   12.791    0.420    0.230   69.047  198.916
  407.704   12.718    0.416    0.231   71.043  198.917
  407.954   11.975    0.405    0.248   72.638  198.920
