~VERSION INFORMATION
 VERS.                 2.0:   CWLS LOG ASCII STANDARD -VERSION 2.0
 WRAP.                  NO:   ONE LINE PER DEPTH STEP
~WELL INFORMATION BLOCK
#MNEM.UNIT           DATA                    DESCRIPTION OF MNEMONIC
#---------    -------------------            -------------------------------
# Generated from Intellog Unique Number	CW_76_78/WELL/2806
WELL.         10-20-076-24W4                 : Well_name    - WELL
LOC .         00/10-20-076-24W4/0            : Location     - LOCATION
UWI .         00/10-20-076-24W4/0            : Uwi          - UNIQUE WELL ID
ENTR.         JJ                             : Entered      - ENTERED BY
SRVC.         WESTERN ATLAS                  : Scn          - SERVICE COMPANY
DATE.         1 MAR 67                       : Date         - LOG DATE
STRT.M        746.76                         : top_depth    - START DEPTH
STOP.M        899.26                         : bot_depth    - STOP DEPTH
STEP.M        0.25                           : increment    - STEP LENGTH
 NULL. -999.2500:NULL Value
~CURVE INFORMATION BLOCK
#MNEM UNIT       ERCB CURVE CODE    CURVE DESCRIPTION
#-----------   ------------------   ----------------------------------
DEPT.M        00 001 00 00         : DEPTH        - DEPTH
DELT.US/F     00 520 00 00         : DELT         - SONIC TRAVEL TIME
GR  .API      00 310 00 00         : GR           - GAMMA RAY
CALI.MM       00 280 01 00         : CAL          - CALIPER
ILD .OHMM     00 120 00 00         : RESD         - DEEP RESISTIVITY (DIL)
~PARAMETER INFORMATION
#MNEM.UNIT           DATA             DESCRIPTION OF MNEMONIC
#---------         -----------     ------------------------------
GL  .M        938.479              : gl           - GROUND LEVEL ELEVATION
EREF.M        942.137              : kb           - ELEVATION OF DEPTH REFERENCE
DATM.M        942.137              : datum        - DATUM ELEVATION
TDD .M        905.256              : tdd          - TOTAL DEPTH DRILLER
RUN .         ONE                  : Run          - RUN NUMBER
ENG .         LUNN                 : Engineer     - RECORDING ENGINEER
WIT .         TERRILL              : Witness      - WITNESSED BY
MUD .         GEL                  : Mud_type     - MUD TYPE
MATR.         SANDSTONE            : Logunit      - NEUTRON MATRIX
TMAX.C        36.1111              : BHT          - MAXIMUM RECORDED TEMPERATURE
BHTD.M        904.037              : BHTDEP       - MAXIMUM RECORDED TEMPERATURE
RMT .C        21.1111              : MDTP         - TEMPERATURE OF MUD
MUDD.KG/M     1080                 : MWT          - MUD DENSITY
NEUT.         1                    : NEUTRON      - NEUTRON TYPE
RESI.         0                    : RESIST       - RESISTIVITY TYPE
RM  .OHMM     4.5                  : RM           - RESISTIVITY OF MUD
RMC .OHMM     3.31                 : RMC          - RESISTIVITY OF MUD CAKE
RMF .OHMM     4.84                 : RMF          - RESISTIVITY OF MUD FILTRATE
SUFT.C        5                    : SUFT         - SURFACE TEMPERATURE
~A  DEPTH     DELT       GR      CAL     RESD
# ...
  790.260  358.790  108.759  223.383    6.262
  790.510  359.305  107.280  223.736    6.309
  790.760  360.960  104.455  222.192    6.313
  791.010  361.606   99.934  218.850    6.361
  791.260  359.033  101.498  216.146    6.428
  791.510  358.540  103.461  215.869    6.679
  791.760  353.748  112.251  221.388    6.869
  792.010  356.140  111.721  220.587    6.915
  792.260  356.590  110.991  219.040    6.860
  792.510  352.201  112.106  218.546    6.906
  792.760  352.579  110.726  221.328    6.891
  793.010  345.706  110.945  220.098    6.877
  793.260  349.981  105.826  218.656    7.088
  793.510  344.648   98.016  220.913    7.195
  793.760  343.686  100.277  219.260    7.222
  794.010  345.746  108.870  218.243    7.105
  794.260  355.528  112.577  223.557    6.907
  794.510  365.915  115.387  231.191    6.525
  794.760  371.669  118.894  239.460    6.102
  795.010  377.958  120.657  240.657    5.659
  795.260  369.809  118.282  243.016    5.338
  795.510  359.039  115.957  240.100    5.161
  795.760  364.053  112.935  240.772    5.188
  796.010  360.595  111.005  239.542    5.296
  796.260  349.162  105.739  228.393    5.852
  796.510  324.622   99.873  223.047    6.756
  796.760  292.562   96.600  225.935    8.334
  797.010  281.457   95.072  223.861    9.768
  797.260  298.627   95.788  226.005   10.346
  797.510  324.126   99.294  233.647    8.964
  797.760  354.059  101.257  234.522    7.848
  798.010  355.109  103.368  231.394    6.976
  798.260  349.241  105.730  235.759    6.879
  798.510  338.810  105.797  225.348    8.130
  798.760  327.635  101.675  215.683   10.137
  799.010  333.591   97.803  211.494   11.877
  799.260  337.262   98.619  209.742   12.843
  799.510  345.096   98.237  211.786   12.645
  799.760  339.902   88.284  214.562   11.915
  800.010  325.302   80.223  218.078   11.228
  800.260  270.137   71.715  224.659   11.132
  800.510  231.963   70.937  225.331   11.913
  800.760  213.940   75.143  225.049   13.184
  801.010  228.625   80.894  228.994   14.783
  801.260  246.936   86.046  231.991   16.421
  801.510  250.608   92.047  229.598   16.284
  801.760  263.146   95.553  222.984   13.046
  802.010  281.726  103.099  222.493   11.194
  802.260  297.956  109.948  228.015    9.485
  802.510  317.007  115.300  230.902    8.205
  802.760  334.381  118.758  230.939    7.395
  803.010  337.512  115.336  232.036    6.727
  803.260  341.990  108.873  233.863    6.468
  803.510  345.796  105.301  232.844    6.433
  803.760  338.519  102.874  233.730    6.787
  804.010  338.159  108.127  224.900    7.058
  804.260  340.286  110.338  220.820    7.206
  804.510  339.591  113.148  223.600    7.253
  804.760  346.013  113.665  229.447    7.096
  805.010  351.092  114.280  232.120    6.877
  805.260  355.570  116.242  234.798    6.659
  805.510  359.312  117.655  237.575    6.134
  805.760  363.050  120.217  237.823    5.793
  806.010  354.966  110.361  232.376    5.717
  806.260  344.867  101.703  228.927    5.968
  806.510  342.492  103.616  226.222    6.341
  806.760  339.110  111.362  226.891    6.715
  807.010  340.024  117.062  219.645    7.047
  807.260  344.973  118.376  220.431    7.360
  807.510  346.698  112.111  225.739    7.202
  807.760  344.123  109.737  226.198    6.881
  808.010  345.172  106.015  222.649    6.766
  808.260  339.305  104.486  221.098    6.791
  808.510  335.925  103.757  219.663    6.961
  808.760  334.220  103.874  219.063    7.253
  809.010  335.138  108.827  219.841    7.545
  809.260  337.735  111.936  221.257    7.692
  809.510  343.153  109.860  222.656    7.800
  809.760  348.431  110.026  224.491    7.847
  810.010  350.626  109.445  226.429    7.628
  810.260  351.476  108.418  224.563    7.329
  810.510  350.981  107.286  219.428    7.131
  810.760  349.145  103.116  216.087    6.994
  811.010  344.688  106.325  216.659    6.897
  811.260  338.086  106.144  216.908    6.842
  811.510  330.271  101.972  217.046    6.868
  811.760  331.859  101.991  217.079    7.037
  812.010  327.602  101.459  216.589    7.269
  812.260  331.946  102.822  213.990    7.539
  812.510  340.721  100.895  205.794    7.607
  812.760  340.093  105.151  206.359    7.572
  813.010  342.890  109.109  216.424    7.578
  813.260  346.494  112.565  219.522    7.604
  813.510  348.285  107.697  224.623    7.570
  813.760  350.008  111.055  226.038    7.514
  814.010  350.786  104.740  224.593    7.459
  814.260  349.557  107.102  219.563    7.465
  814.510  344.764  108.066  216.542    7.532
  814.760  348.903  111.773  218.056    7.538
  815.010  351.033  113.040  227.276    7.523
  815.260  350.607  108.268  220.556    7.489
  815.510  344.469  100.956  226.294    7.433
  815.760  338.871  108.604  222.216    7.358
  816.010  332.264  113.608  218.243    7.221
  816.260  326.938  113.275  215.331    7.105
  816.510  327.853  106.810  213.037    7.028
  816.760  328.971   97.506  210.017    7.136
  817.010  323.039   91.340  206.041    7.366
  817.260  308.437   85.976  207.560    8.066
  817.510  296.395   81.504  217.302    9.644
  817.760  261.713   77.584  226.310   11.079
  818.010  250.407   76.701  229.833   12.778
  818.260  257.972   76.719  229.131   15.417
  818.510  256.403   77.634  228.430   18.362
  818.760  244.158   76.058  222.448   20.226
  819.010  247.761   75.027  217.102   21.313
  819.260  268.624   83.521  216.832   18.972
  819.510  291.170   92.163  218.028   16.039
  819.760  314.050   96.919  218.796   13.616
  820.010  326.517  101.074  216.300   11.193
  820.260  334.353  105.031  213.809    8.811
  820.510  338.160  105.498  220.388    7.062
  820.760  337.261  107.111  224.224    6.946
  821.010  334.886  105.282  228.379    7.074
  821.260  331.436  105.149  230.945    7.753
  821.510  325.170  109.356  232.994    8.127
  821.760  334.684  109.622  233.451    8.134
  822.010  341.041  105.750  235.383    7.914
  822.260  346.123  117.435  242.913    7.431
  822.510  340.860  113.913  237.674    7.192
  822.760  316.725  105.803  229.690    7.381
  823.010  294.670   96.896  220.336    8.040
  823.260  277.385   90.332  212.566    9.863
  823.510  260.435   86.762  214.501   12.175
  823.760  245.165   90.617  220.558   15.650
  824.010  239.162   83.903  223.756   22.534
  824.260  234.305   79.832  227.065   25.295
  824.510  221.587   80.649  230.797   27.343
  824.760  230.899   86.200  230.095   29.634
  825.010  244.576  100.177  231.081   26.599
  825.260  264.166  108.023  234.180   22.870
  825.510  285.302  111.631  233.588   18.998
  825.760  303.342  108.407  232.141   15.004
  826.010  307.886  100.597  231.233   12.418
  826.260  310.551  105.151  231.796   11.220
  826.510  313.348  116.139  235.315   10.633
  826.760  318.426  118.649  231.974   10.150
  827.010  326.468  120.909  233.490    9.564
  827.260  333.226  122.224  231.630    8.774
  827.510  329.040  117.405  226.607    8.168
  827.760  318.873  111.090  223.153    8.296
  828.010  312.068  105.575  223.400    8.425
  828.260  321.244  102.750  231.356    8.860
  828.510  327.060  107.952  226.221    9.538
  828.760  328.919  115.449  221.191    9.768
  829.010  332.591  111.629  219.645    9.265
  829.260  332.701  106.459  221.160    9.128
  829.510  322.403  105.382  223.626    9.419
  829.760  300.754   99.268  225.349    9.977
  830.010  297.435   94.397  228.978   10.595
  830.260  295.198   94.513  230.805   11.377
  830.510  305.185   99.169  226.836   12.137
  830.760  316.042  106.116  219.273   11.959
  831.010  326.765  106.036  220.788   10.741
  831.260  335.809  107.448  227.473    9.991
  831.510  329.941  102.978  232.890    9.141
  831.760  320.783   98.956  231.982    8.026
  832.010  315.588  103.162  233.073    7.623
  832.260  317.376  105.374  234.586    7.525
  832.510  328.771  108.084  234.200    7.491
  832.760  336.203  111.641  232.445    7.661
  833.010  327.046  109.665  231.219    7.809
  833.260  327.694  104.597  231.887    7.998
  833.510  320.283  101.772  233.613    8.208
