~VERSION INFORMATION
 VERS.                 2.0:   CWLS LOG ASCII STANDARD -VERSION 2.0
 WRAP.                  NO:   ONE LINE PER DEPTH STEP
~WELL INFORMATION BLOCK
#MNEM.UNIT           DATA                    DESCRIPTION OF MNEMONIC
#---------    -------------------            -------------------------------
# Generated from Intellog Unique Number	CS_73_76/WELL/2194
WELL.         DOME PETROLEUM LIMITED         : Well_name    - WELL
LOC .         00/11-02-074-06W4/0            : Location     - LOCATION
UWI .         00/11-02-074-06W4/0            : Uwi          - UNIQUE WELL ID
ENTR.         SP                             : Entered      - ENTERED BY
SRVC.         SCHLUMBERGER                   : Scn          - SERVICE COMPANY
STRT.M        255                            : top_depth    - START DEPTH
STOP.M        475                            : bot_depth    - STOP DEPTH
STEP.M        0.25                           : increment    - STEP LENGTH
 NULL. -999.2500:NULL Value
~CURVE INFORMATION BLOCK
#MNEM UNIT       ERCB CURVE CODE    CURVE DESCRIPTION
#-----------   ------------------   ----------------------------------
DEPT.M        00 001 00 00         : DEPTH        - DEPTH
ILD .OHMM     00 120 00 00         : RESD         - DEEP RESISTIVITY (DIL)
DPHI.V/V      00 890 00 00         : PHID         - DENSITY POROSITY (LIMESTONE)
NPHI.V/V      00 330 00 00         : PHIN         - NEUTRON POROSITY (LIMESTONE)
GR  .API      00 310 00 00         : GR           - GAMMA RAY
~PARAMETER INFORMATION
#MNEM.UNIT           DATA             DESCRIPTION OF MNEMONIC
#---------         -----------     ------------------------------
GL  .M        646.01               : gl           - GROUND LEVEL ELEVATION
EREF.M        649.91               : kb           - ELEVATION OF DEPTH REFERENCE
DATM.M        646.01               : datum        - DATUM ELEVATION
TDD .M        484                  : tdd          - TOTAL DEPTH DRILLER
RUN .         ONE                  : Run          - RUN NUMBER
ENG .         BILL                 : Engineer     - RECORDING ENGINEER
WIT .         JIM                  : Witness      - WITNESSED BY
MUD .         GEL                  : Mud_type     - MUD TYPE
MATR.         LIMESTONE            : Logunit      - NEUTRON MATRIX
TMAX.C        21                   : BHT          - MAXIMUM RECORDED TEMPERATURE
BHTD.M        484                  : BHTDEP       - MAXIMUM RECORDED TEMPERATURE
MATR.         1                    : LOGUNIT      - NEUTRON MATRIX
RMT .C        25                   : MDTP         - TEMPERATURE OF MUD
NEUT.         1                    : NEUTRON      - NEUTRON TYPE
RESI.         0                    : RESIST       - RESISTIVITY TYPE
RMC .OHMM     0.25                 : RMC          - RESISTIVITY OF MUD CAKE
RMF .OHMM     0.25                 : RMF          - RESISTIVITY OF MUD FILTRATE
SUFT.C        15                   : SUFT         - SURFACE TEMPERATURE
~A  DEPTH     RESD     PHID     PHIN       GR
# ...
  298.500    6.192    0.263    0.451  109.094
  298.750    6.197    0.272    0.440  106.649
  299.000    6.199    0.269    0.429  101.756
  299.250    6.323    0.253    0.412  103.597
  299.500    6.325    0.237    0.403  105.439
  299.750    6.450    0.229    0.401  105.442
  300.000    6.454    0.238    0.408  104.221
  300.250    6.582    0.234    0.431  102.388
  300.500    6.585    0.221    0.449   99.944
  300.750    6.466    0.207    0.464   99.336
  301.000    6.351    0.210    0.470  100.564
  301.250    6.008    0.221    0.471   99.957
  301.500    5.899    0.234    0.470   97.511
  301.750    5.686    0.239    0.465   93.230
  302.000    5.481    0.249    0.460   90.785
  302.250    5.483    0.255    0.452   91.402
  302.500    5.385    0.230    0.454   93.855
  302.750    5.490    0.212    0.476   98.144
  303.000    5.495    0.230    0.492   95.701
  303.250    5.497    0.241    0.497   92.644
  303.500    5.399    0.268    0.482   90.198
  303.750    5.303    0.268    0.450   86.529
  304.000    5.208    0.272    0.433   83.472
  304.250    5.210    0.279    0.419   81.640
  304.500    5.214    0.272    0.420   81.644
  304.750    5.218    0.256    0.436   84.097
  305.000    5.125    0.257    0.433   81.039
  305.250    5.127    0.261    0.423   85.943
  305.500    5.035    0.256    0.427   90.844
  305.750    4.945    0.249    0.434   94.521
  306.000    4.767    0.244    0.447   90.853
  306.250    4.770    0.252    0.454   89.634
  306.500    4.684    0.238    0.458   89.024
  306.750    4.599    0.240    0.469   88.416
  307.000    4.516    0.246    0.439   85.971
  307.250    4.354    0.246    0.417   82.301
  307.500    4.195    0.261    0.402   76.183
  307.750    3.895    0.273    0.393   73.126
  308.000    3.753    0.279    0.399   76.803
  308.250    3.618    0.291    0.409   78.032
  308.500    3.553    0.294    0.417   76.199
  308.750    3.489    0.301    0.423   74.980
  309.000    3.491    0.301    0.431   73.147
  309.250    3.494    0.290    0.428   71.315
  309.500    3.562    0.300    0.421   73.155
  309.750    3.701    0.300    0.417   75.609
  310.000    3.846    0.292    0.410   77.449
  310.250    3.995    0.275    0.400   82.352
  310.500    4.073    0.269    0.393   83.579
  310.750    4.232    0.259    0.404   86.645
  311.000    4.315    0.251    0.412   88.486
  311.250    3.932    0.252    0.422   81.756
  311.500    3.515    0.263    0.405   76.250
  311.750    3.387    0.276    0.395   71.969
  312.000    3.086    0.304    0.405   67.688
  312.250    2.708    0.329    0.421   64.018
  312.500    2.514    0.322    0.429   62.186
  312.750    2.422    0.302    0.436   60.966
  313.000    2.379    0.306    0.431   60.968
  313.250    2.294    0.296    0.423   60.973
  313.500    2.295    0.310    0.429   62.202
  313.750    2.296    0.325    0.442   64.043
  314.000    2.255    0.317    0.447   64.048
  314.250    2.256    0.326    0.458   64.050
  314.500    2.217    0.319    0.466   62.830
  314.750    2.177    0.319    0.457   64.059
  315.000    2.178    0.310    0.442   62.226
  315.250    2.138    0.323    0.429   59.169
  315.500    2.101    0.332    0.423   59.173
  315.750    2.063    0.323    0.429   60.403
  316.000    2.026    0.315    0.430   61.019
  316.250    2.027    0.316    0.440   59.187
  316.500    1.990    0.314    0.458   60.415
  316.750    1.954    0.325    0.463   62.255
  317.000    1.920    0.332    0.461   64.096
  317.250    1.921    0.331    0.459   64.100
  317.500    1.887    0.333    0.456   63.493
  317.750    1.853    0.326    0.450   64.721
  318.000    1.819    0.329    0.465   65.950
  318.250    1.787    0.321    0.479   65.342
  318.500    1.755    0.325    0.470   64.733
  318.750    1.756    0.336    0.456   63.513
  319.000    1.724    0.338    0.449   62.906
  319.250    1.694    0.342    0.436   64.134
  319.500    1.663    0.326    0.436   64.750
  319.750    1.633    0.327    0.438   65.368
  320.000    1.635    0.330    0.440   64.760
  320.250    1.605    0.335    0.455   64.150
  320.500    1.606    0.344    0.449   62.318
  320.750    1.577    0.345    0.440   63.546
  321.000    1.578    0.336    0.437   64.162
  321.250    1.550    0.338    0.442   61.718
  321.500    1.523    0.333    0.436   60.497
  321.750    1.524    0.338    0.428   59.890
  322.000    1.496    0.344    0.426   59.893
  322.250    1.469    0.338    0.424   59.898
  322.500    1.470    0.325    0.421   59.290
  322.750    1.444    0.323    0.422   59.907
  323.000    1.444    0.337    0.433   61.748
  323.250    1.445    0.332    0.419   63.590
  323.500    1.446    0.322    0.419   64.817
  323.750    1.448    0.320    0.428   65.434
  324.000    1.448    0.322    0.439   64.825
  324.250    1.423    0.326    0.430   62.993
  324.500    1.423    0.324    0.427   62.384
  324.750    1.398    0.334    0.437   63.002
  325.000    1.373    0.329    0.443   66.067
  325.250    1.348    0.321    0.450   67.907
  325.500    1.324    0.320    0.448   67.299
  325.750    1.324    0.324    0.432   64.242
  326.000    1.277    0.332    0.420   61.797
  326.250    1.277    0.340    0.416   59.352
  326.500    1.254    0.343    0.420   60.581
  326.750    1.233    0.344    0.444   63.646
  327.000    1.233    0.351    0.475   63.039
  327.250    1.234    0.332    0.488   61.818
  327.500    1.234    0.329    0.464   62.436
  327.750    1.259    0.315    0.448   63.051
  328.000    1.260    0.328    0.454   64.893
  328.250    1.284    0.333    0.464   66.120
  328.500    1.285    0.346    0.467   64.287
  328.750    1.286    0.351    0.461   61.843
  329.000    1.287    0.339    0.451   60.622
  329.250    1.288    0.327    0.445   58.791
  329.500    1.288    0.322    0.439   58.183
  329.750    1.290    0.313    0.437   58.798
  330.000    1.291    0.320    0.444   61.865
  330.250    1.291    0.331    0.435   62.481
  330.500    1.268    0.344    0.427   61.872
  330.750    1.269    0.339    0.432   59.427
  331.000    1.270    0.333    0.436   60.044
  331.250    1.270    0.338    0.441   61.272
  331.500    1.248    0.328    0.449   63.113
  331.750    1.248    0.322    0.443   64.343
  332.000    1.249    0.328    0.450   65.571
  332.250    1.250    0.333    0.456   63.126
  332.500    1.251    0.324    0.461   60.069
  332.750    1.228    0.340    0.447   56.400
  333.000    1.207    0.339    0.434   53.954
  333.250    1.207    0.342    0.433   57.021
  333.500    1.208    0.334    0.447   59.473
  333.750    1.209    0.320    0.463   62.539
  334.000    1.209    0.319    0.472   65.604
  334.250    1.211    0.325    0.466   68.057
  334.500    1.234    0.331    0.461   67.449
  334.750    1.235    0.329    0.466   65.618
  335.000    1.236    0.347    0.450   63.172
  335.250    1.237    0.343    0.442   60.726
  335.500    1.238    0.332    0.437   60.731
  335.750    1.262    0.315    0.430   61.348
  336.000    1.286    0.325    0.423   60.740
  336.250    1.337    0.320    0.420   59.519
  336.500    1.363    0.327    0.439   57.687
  336.750    1.416    0.331    0.431   57.078
  337.000    1.499    0.321    0.445   60.757
  337.250    1.558    0.315    0.462   66.272
  337.500    1.558    0.297    0.480   68.723
  337.750    1.589    0.278    0.497   73.626
  338.000    1.560    0.283    0.524   76.079
  338.250    1.532    0.304    0.514   68.736
  338.500    1.396    0.315    0.482   59.557
  338.750    1.321    0.322    0.441   60.174
  339.000    1.273    0.328    0.432   60.789
  339.250    1.250    0.327    0.443   58.957
  339.500    1.204    0.336    0.451   60.185
  339.750    1.205    0.338    0.452   61.415
  340.000    1.207    0.328    0.442   60.808
  340.250    1.207    0.321    0.430   60.811
  340.500    1.231    0.326    0.431   64.489
  340.750    1.255    0.325    0.436   66.328
  341.000    1.329    0.316    0.441   64.497
  341.250    1.355    0.312    0.444   66.950
  341.500    1.407    0.317    0.444   71.241
  341.750    1.435    0.294    0.441   73.693
