~VERSION INFORMATION
 VERS.                 2.0:   CWLS LOG ASCII STANDARD -VERSION 2.0
 WRAP.                  NO:   ONE LINE PER DEPTH STEP
~WELL INFORMATION BLOCK
#MNEM.UNIT           DATA                    DESCRIPTION OF MNEMONIC
#---------    -------------------            -------------------------------
# Generated from Intellog Unique Number	CW_70_72/WELL/1045
NULL.         -999.25                        : NULL_VALUE
WELL.         SUNDANCE MCMORGAN SMITH 10-31  : Well_name    - WELL              
LOC .         10-31-072-24W4                 : Location     - LOCATION          
UWI .         00/10-31-072-24W4/0            : Uwi          - UNIQUE WELL ID    
ENTR.         JAYE                           : Entered      - ENTERED BY        
SRVC.         SCHLUMBERGER                   : Scn          - SERVICE COMPANY   
DATE.         20 JAN 74                      : Date         - LOG DATE          
STRT.M        399.288                        : top_depth    - START DEPTH       
STOP.M        655.288                        : bot_depth    - STOP DEPTH        
STEP.M        0.25                           : increment    - STEP LENGTH       
~CURVE INFORMATION BLOCK
#MNEM UNIT       ERCB CURVE CODE    CURVE DESCRIPTION
#-----------   ------------------   ----------------------------------
DEPT.M        00 001 00 00         : DEPTH        - DEPTH                       
CALI.MM       00 280 01 00         : CAL          - CALIPER                     
GR  .API      00 310 00 00         : GR           - GAMMA RAY                   
DPHI.V/V      00 890 00 00         : PHID         - DENSITY POROSITY (SANDSTONE)
NPHI.V/V      00 330 00 00         : PHIN         - NEUTRON POROSITY (SANDSTONE)
ILD .OHMM     00 120 00 00         : RESD         - DEEP RESISTIVITY (DIL)      
~PARAMETER INFORMATION       
#MNEM.UNIT           DATA             DESCRIPTION OF MNEMONIC
#---------         -----------     ------------------------------
GL  .M        648.767              : gl           - GROUND LEVEL ELEVATION      
EREF.M        651.815              : kb           - ELEVATION OF DEPTH REFERENCE
DATM.M        648.767              : datum        - DATUM ELEVATION             
TDD .M        664.464              : tdd          - TOTAL DEPTH DRILLER         
RUN .         ONE                  : Run          - RUN NUMBER                  
ENG .         WOON                 : Engineer     - RECORDING ENGINEER          
WIT .         TIEFENBACH           : Witness      - WITNESSED BY                
BASE.         EDM                  : Branch       - HOME BASE OF LOGGING UNIT   
MUD .         GEL CHEM             : Mud_type     - MUD TYPE                    
MATR.         SANDSTONE            : Logunit      - NEUTRON MATRIX              
TMAX.C        30                   : BHT          - MAXIMUM RECORDED TEMPERATURE
BHTD.M        663.55               : BHTDEP       - MAXIMUM RECORDED TEMPERATURE
RMT .C        15.5556              : MDTP         - TEMPERATURE OF MUD          
MUDD.KG/M     1080                 : MWT          - MUD DENSITY                 
NEUT.         1                    : NEUTRON      - NEUTRON TYPE                
RESI.         0                    : RESIST       - RESISTIVITY TYPE            
RM  .OHMM     5.63                 : RM           - RESISTIVITY OF MUD          
RMC .OHMM     0                    : RMC          - RESISTIVITY OF MUD CAKE     
RMF .OHMM     6.8                  : RMF          - RESISTIVITY OF MUD FILTRATE 
SUFT.C        -17.7778             : SUFT         - SURFACE TEMPERATURE         
~A  DEPTH      CAL       GR     PHID     PHIN     RESD
# ...
  581.788  169.204  101.773    0.124    0.371    4.683
  582.038  170.603  100.835    0.102    0.367    4.318
  582.288  171.888   97.160    0.110    0.397    4.323
  582.538  172.056  100.171    0.104    0.415    4.556
  582.788  172.213  101.847    0.095    0.417    4.836
  583.038  171.753  101.335    0.073    0.422    5.464
  583.288  170.581   99.729    0.101    0.429    5.918
  583.538  169.400   93.988    0.140    0.437    6.191
  583.788  169.048   90.311    0.123    0.439    6.280
  584.038  168.585   90.649    0.140    0.415    6.239
  584.288  168.340   92.811    0.125    0.380    6.157
  584.538  168.498   91.505    0.132    0.357    6.052
  584.788  168.041   88.560    0.123    0.360    5.674
  585.038  166.246   84.886    0.204    0.377    5.222
  585.288  162.803   81.150    0.233    0.382    4.806
  585.538  160.180   77.294    0.255    0.378    4.431
  585.788  160.545   71.491    0.263    0.362    3.932
  586.038  163.281   63.381    0.257    0.363    3.593
  586.288  164.472   55.694    0.267    0.367    3.288
  586.538  161.340   47.884    0.292    0.372    3.015
  586.788  159.127   42.810    0.278    0.378    2.831
  587.038  157.853   39.378    0.281    0.380    2.674
  587.288  156.464   36.736    0.281    0.378    2.571
  587.538  156.105   35.550    0.277    0.382    2.523
  587.788  155.850   35.344    0.266    0.385    2.489
  588.038  155.812   35.498    0.249    0.385    2.465
  588.288  156.177   36.444    0.254    0.375    2.441
  588.538  156.540   36.845    0.260    0.378    2.435
  588.788  156.601   36.515    0.267    0.385    2.447
  589.038  156.971   36.850    0.268    0.390    2.459
  589.288  157.739   37.795    0.258    0.392    2.480
  589.538  158.523   38.986    0.245    0.383    2.492
  589.788  159.202   40.660    0.242    0.374    2.486
  590.038  159.361   42.095    0.258    0.365    2.470
  590.288  159.522   42.128    0.260    0.358    2.447
  590.538  159.575   40.457    0.251    0.364    2.441
  590.788  159.845   38.063    0.231    0.361    2.439
  591.038  160.101   37.610    0.236    0.354    2.446
  591.288  160.361   39.525    0.252    0.346    2.472
  591.538  160.325   41.021    0.236    0.334    2.507
  591.788  160.281   41.420    0.214    0.311    2.599
  592.038  160.024   40.724    0.220    0.320    2.693
  592.288  160.086   40.819    0.222    0.335    2.812
  592.538  160.141   39.269    0.236    0.347    3.007
  592.788  159.584   38.334    0.248    0.357    3.317
  593.038  158.298   38.793    0.237    0.367    3.613
  593.288  157.224   41.015    0.233    0.375    3.979
  593.538  156.455   44.089    0.237    0.382    4.224
  593.788  156.108   45.033    0.225    0.364    4.475
  594.038  155.853   42.696    0.208    0.363    4.481
  594.288  156.113   40.848    0.220    0.361    4.333
  594.538  156.695   39.179    0.256    0.356    3.916
  594.788  156.216   37.203    0.264    0.350    3.462
  595.038  155.249   35.172    0.261    0.348    3.192
  595.288  154.774   33.989    0.252    0.350    3.064
  595.538  154.796   34.512    0.263    0.356    2.952
  595.788  155.809   37.949    0.248    0.363    2.897
  596.038  156.818   40.412    0.228    0.357    2.895
  596.288  156.836   41.783    0.223    0.343    2.919
  596.538  155.871   41.939    0.222    0.339    3.011
  596.788  154.407   41.852    0.221    0.337    3.097
  597.038  153.440   43.044    0.211    0.336    3.235
  597.288  151.976   45.444    0.197    0.334    3.377
  597.538  151.004   47.001    0.190    0.332    3.540
  597.788  151.026   49.344    0.184    0.330    3.682
  598.038  151.049   51.813    0.190    0.334    3.874
  598.288  151.566   54.400    0.185    0.333    4.053
  598.538  151.566   58.078    0.175    0.334    4.248
  598.788  152.101   60.849    0.169    0.331    4.435
  599.038  153.111   61.673    0.183    0.336    4.640
  599.288  154.620   60.068    0.197    0.334    4.809
  599.538  155.625   58.521    0.186    0.331    5.004
  599.788  157.134   59.223    0.172    0.331    5.245
  600.038  157.155   60.894    0.172    0.339    5.467
  600.288  157.175   61.901    0.185    0.342    5.730
  600.538  156.208   62.852    0.184    0.346    5.993
  600.788  155.238   64.464    0.176    0.349    6.293
  601.038  154.271   66.264    0.155    0.354    6.548
  601.288  153.799   68.425    0.141    0.355    6.863
  601.538  153.819   70.769    0.130    0.352    7.087
  601.788  153.837   73.113    0.156    0.349    7.293
  602.038  154.351   74.910    0.169    0.346    7.492
  602.288  154.374   76.402    0.151    0.345    7.654
  602.538  154.399   77.593    0.137    0.345    7.761
  602.788  155.899   77.627    0.132    0.340    7.871
  603.038  155.426   79.119    0.109    0.338    7.939
  603.288  153.467   82.679    0.093    0.348    8.006
  603.538  152.006   85.753    0.113    0.364    8.015
  603.788  152.523   88.401    0.123    0.368    7.996
  604.038  153.530   91.657    0.116    0.361    7.963
  604.288  153.555   94.731    0.092    0.349    7.913
  604.538  153.573   97.258    0.117    0.349    7.922
  604.788  153.101   98.205    0.134    0.357    7.931
  605.038  153.121   98.176    0.143    0.364    7.955
  605.288  153.638  100.763    0.134    0.370    7.965
  605.538  154.648  104.021    0.117    0.358    7.974
  605.788  156.157  107.459    0.093    0.345    8.044
  606.038  158.154  111.079    0.102    0.336    8.067
  606.288  159.169  116.464    0.125    0.322    8.120
  606.538  159.189  122.942    0.161    0.296    8.131
  606.788  158.709  132.278    0.179    0.306    7.905
  607.038  158.709  147.265    0.198    0.302    7.630
  607.288  158.264  139.401    0.194    0.296    7.114
  607.538  157.292  124.173    0.168    0.308    6.186
  607.788  157.315  107.309    0.179    0.319    5.311
  608.038  157.825   73.788    0.190    0.335    4.791
  608.288  158.345   55.031    0.180    0.319    4.523
  608.538  158.857   45.335    0.174    0.303    4.295
  608.788  159.869   45.852    0.160    0.289    4.253
  609.038  161.871   48.864    0.193    0.294    4.211
  609.288  164.862   52.303    0.205    0.288    4.263
  609.538  166.862   60.118    0.219    0.283    4.316
  609.788  167.374  120.119    0.154    0.313    8.155
  610.038  165.915  136.889    0.170    0.304    8.020
  610.288  163.956  147.804    0.197    0.305    7.475
  610.538  161.502  137.618    0.188    0.300    6.964
  610.788  158.061  113.372    0.180    0.311    6.490
  611.038  155.110   90.005    0.166    0.326    5.888
  611.288  153.150   73.964    0.195    0.334    5.438
  611.538  154.657   49.133    0.184    0.335    5.023
  611.788  156.659   44.819    0.170    0.305    4.722
  612.038  157.174   44.593    0.166    0.290    4.481
  612.288  156.702   48.174    0.194    0.292    4.328
  612.538  155.732   56.153    0.215    0.292    4.217
  612.788  154.768   67.370    0.227    0.288    4.148
  613.038  154.783   65.673    0.226    0.291    4.079
  613.288  155.303   57.828    0.198    0.296    4.047
  613.538  155.818   48.236    0.189    0.295    4.017
  613.788  156.330   41.571    0.193    0.299    4.021
  614.038  156.847   39.598    0.190    0.310    3.989
  614.288  158.849   41.430    0.189    0.323    3.959
  614.538  158.867   43.246    0.208    0.333    3.858
  614.788  157.905   45.069    0.198    0.341    3.794
  615.038  157.430   44.870    0.202    0.336    3.698
  615.288  156.953   44.636    0.230    0.327    3.572
  615.538  155.983   48.509    0.234    0.331    3.449
  615.788  156.006   49.455    0.231    0.341    3.215
  616.038  157.021   46.604    0.223    0.362    3.077
  616.288  158.030   46.395    0.210    0.366    2.973
  616.538  159.535   49.373    0.219    0.357    2.949
  616.788  161.039   55.898    0.223    0.365    2.953
  617.038  163.041   60.658    0.202    0.367    3.149
  617.288  163.553   69.223    0.186    0.359    3.387
  617.538  161.104   76.324    0.190    0.345    3.676
  617.788  159.140   83.718    0.191    0.329    3.954
  618.038  157.186   93.162    0.189    0.342    4.215
