~VERSION INFORMATION
 VERS.                 2.0:   CWLS LOG ASCII STANDARD -VERSION 2.0
 WRAP.                  NO:   ONE LINE PER DEPTH STEP
~WELL INFORMATION BLOCK
#MNEM.UNIT           DATA                    DESCRIPTION OF MNEMONIC
#---------    -------------------            -------------------------------
# Generated from Intellog Unique Number	CS_73_76/WELL/2193
WELL.         AMOCO CONKLIN                  : Well_name    - WELL
LOC .         00/10-25-074-07W4/0            : Location     - LOCATION
UWI .         00/10-25-074-07W4/0            : Uwi          - UNIQUE WELL ID
ENTR.         SP                             : Entered      - ENTERED BY
SRVC.         SCHLUMBERGER                   : Scn          - SERVICE COMPANY
STRT.M        252.984                        : top_depth    - START DEPTH
STOP.M        471.484                        : bot_depth    - STOP DEPTH
STEP.M        0.25                           : increment    - STEP LENGTH
 NULL. -999.2500:NULL Value
~CURVE INFORMATION BLOCK
#MNEM UNIT       ERCB CURVE CODE    CURVE DESCRIPTION
#-----------   ------------------   ----------------------------------
DEPT.M        00 001 00 00         : DEPTH        - DEPTH
GR  .API      00 310 00 00         : GR           - GAMMA RAY
DPHI.V/V      00 890 00 00         : PHID         - DENSITY POROSITY (SANDSTONE)
NPHI.V/V      00 330 00 00         : PHIN         - NEUTRON POROSITY (SANDSTONE)
ILD .OHMM     00 120 00 00         : RESD         - DEEP RESISTIVITY (DIL)
~PARAMETER INFORMATION
#MNEM.UNIT           DATA             DESCRIPTION OF MNEMONIC
#---------         -----------     ------------------------------
GL  .M        646.877              : gl           - GROUND LEVEL ELEVATION
EREF.M        650.138              : kb           - ELEVATION OF DEPTH REFERENCE
DATM.M        646.877              : datum        - DATUM ELEVATION
TDD .M        618.744              : tdd          - TOTAL DEPTH DRILLER
RUN .         ONE                  : Run          - RUN NUMBER
ENG .         BILL                 : Engineer     - RECORDING ENGINEER
WIT .         JIM                  : Witness      - WITNESSED BY
MUD .         GEL                  : Mud_type     - MUD TYPE
MATR.         SANDSTONE            : Logunit      - NEUTRON MATRIX
TMAX.C        26.1111              : BHT          - MAXIMUM RECORDED TEMPERATURE
BHTD.M        618.744              : BHTDEP       - MAXIMUM RECORDED TEMPERATURE
MATR.         1                    : LOGUNIT      - NEUTRON MATRIX
RMT .C        25                   : MDTP         - TEMPERATURE OF MUD
NEUT.         1                    : NEUTRON      - NEUTRON TYPE
RESI.         0                    : RESIST       - RESISTIVITY TYPE
RMC .OHMM     0.25                 : RMC          - RESISTIVITY OF MUD CAKE
RMF .OHMM     0.25                 : RMF          - RESISTIVITY OF MUD FILTRATE
SUFT.C        15                   : SUFT         - SURFACE TEMPERATURE
~A  DEPTH       GR     PHID     PHIN     RESD
# ...
  426.984   61.438    0.259    0.380   23.267
  427.234   60.572    0.271    0.369   24.388
  427.484   58.300    0.281    0.360   27.512
  427.734   53.876    0.294    0.355   30.675
  427.984   48.483    0.284    0.351   31.345
  428.234   45.484    0.278    0.358   32.117
  428.484   47.169    0.264    0.369   44.846
  428.734   48.238    0.259    0.381   58.684
  428.984   50.275    0.250    0.392   72.800
  429.234   51.935    0.245    0.396   82.054
  429.484   52.801    0.240    0.382   78.056
  429.734   50.770    0.242    0.367   76.279
  429.984   48.041    0.252    0.379   77.878
  430.234   46.773    0.264    0.390   84.200
  430.484   48.097    0.272    0.401   77.544
  430.734   50.731    0.264    0.408   73.244
  430.984   51.671    0.250    0.400   72.399
  431.234   50.725    0.255    0.415   74.475
  431.484   49.911    0.242    0.399   78.631
  431.734   51.010    0.225    0.395   84.954
  431.984   51.833    0.208    0.393   88.291
  432.234   51.113    0.188    0.381   75.613
  432.484   52.634    0.171    0.367   66.222
  432.734   55.634    0.163    0.364   58.293
  432.984   57.948    0.167    0.368   49.341
  433.234   60.540    0.196    0.368   43.110
  433.484   63.476    0.217    0.371   37.781
  433.734   65.173    0.237    0.394   32.263
  433.984   66.872    0.238    0.406   29.479
  434.234   66.778    0.224    0.407   29.375
  434.484   65.208    0.213    0.415   25.042
  434.734   66.378    0.196    0.420   21.643
  434.984   70.030    0.176    0.425   18.758
  435.234   75.598    0.167    0.416   16.039
  435.484   80.443    0.167    0.411   13.799
  435.734   83.608    0.173    0.407   12.735
  435.984   84.027    0.179    0.402   11.339
  436.234   84.329    0.188    0.395   10.375
  436.484   81.672    0.196    0.389    9.662
  436.734   79.876    0.183    0.387    8.661
  436.984   75.159    0.167    0.393    8.813
  437.234   69.120    0.127    0.374    9.821
  437.484   64.513    0.051    0.338   11.214
  437.734   59.856    0.030    0.308   12.238
  437.984   58.945    0.059    0.294   12.560
  438.234   64.279    0.092    0.313   12.489
  438.484   68.091    0.123    0.362   11.551
  438.734   68.526    0.127    0.366   10.882
  438.984   68.340    0.129    0.377   10.296
  439.234   69.725    0.144    0.380    9.998
  439.484   69.823    0.152    0.388   10.089
  439.734   69.791    0.161    0.402   10.865
  439.984   71.487    0.170    0.392   11.390
  440.234   72.732    0.179    0.375   11.672
  440.484   76.428    0.170    0.381   11.857
  440.734   78.127    0.153    0.402   12.036
  440.984   80.509    0.147    0.412   12.018
  441.234   81.357    0.142    0.410   11.956
  441.484   80.798    0.152    0.412   11.421
  441.734   79.808    0.155    0.423   10.596
  441.984   78.839    0.169    0.432   10.314
  442.234   79.275    0.165    0.407   10.083
  442.484   81.155    0.156    0.401   10.848
  442.734   83.830    0.157    0.418   11.136
  442.984   84.741    0.158    0.419   11.472
  443.234   86.671    0.157    0.415   11.777
  443.484   88.051    0.153    0.400   11.758
  443.734   89.037    0.159    0.392   12.012
  443.984   89.916    0.167    0.384   12.502
  444.234   90.141    0.181    0.374   14.572
  444.484   80.070    0.199    0.375   16.362
  444.734   70.636    0.212    0.393   18.223
  444.984   59.222    0.223    0.390   21.427
  445.234   53.181    0.230    0.381   23.634
  445.484   48.905    0.234    0.373   22.062
  445.734   45.270    0.237    0.377   19.851
  445.984   44.560    0.243    0.380   36.434
  446.234   46.705    0.257    0.374   33.378
  446.484   49.173    0.269    0.378   32.686
  446.734   50.519    0.276    0.399   32.803
  446.984   51.560    0.275    0.383   35.065
  447.234   50.593    0.266    0.371   40.589
  447.484   49.080    0.279    0.364   39.054
  447.734   48.078    0.271    0.377   43.925
  447.984   49.397    0.267    0.380   46.500
  448.234   51.595    0.267    0.367   50.425
  448.484   50.405    0.267    0.356   51.869
  448.734   53.297    0.264    0.373   53.629
  448.984   56.609    0.262    0.371   53.013
  449.234   58.740    0.262    0.363   52.309
  449.484   57.910    0.268    0.354   51.754
  449.734   54.187    0.276    0.348   51.012
  449.984   53.439    0.279    0.343   50.295
  450.234   54.061    0.281    0.344   51.069
  450.484   53.601    0.277    0.348   51.752
  450.734   52.210    0.276    0.360   55.096
  450.984   52.310    0.268    0.358   57.286
  451.234   52.922    0.258    0.352   60.043
  451.484   52.285    0.244    0.353   61.422
  451.734   52.378    0.247    0.372   61.242
  451.984   51.957    0.260    0.366   60.081
  452.234   50.880    0.282    0.368   60.082
  452.484   50.556    0.289    0.372   61.270
  452.734   48.977    0.289    0.364   63.510
  452.984   46.119    0.283    0.362   66.857
  453.234   40.463    0.281    0.384   69.555
  453.484   36.312    0.275    0.382   75.143
  453.734   35.229    0.269    0.380   83.356
  453.984   34.656    0.266    0.388   88.497
  454.234   36.018    0.274    0.390   93.688
  454.484   37.427    0.282    0.390  101.398
  454.734   38.865    0.289    0.395  106.128
  454.984   40.353    0.288    0.412  109.540
  455.234   40.929    0.283    0.420  115.364
  455.484   40.503    0.291    0.418  118.986
  455.734   39.494    0.302    0.431  119.395
  455.984   38.500    0.311    0.418  119.434
  456.234   37.511    0.308    0.413  114.171
  456.484   36.524    0.312    0.434  112.541
  456.734   35.492    0.314    0.457  108.703
  456.984   35.168    0.316    0.476  108.646
  457.234   34.972    0.317    0.463  108.776
  457.484   35.522    0.318    0.449  112.068
  457.734   35.794    0.315    0.433  117.841
  457.984   36.157    0.309    0.438  123.877
  458.234   36.692    0.304    0.443  129.371
  458.484   37.189    0.296    0.446  133.173
  458.734   36.745    0.294    0.443  132.968
  458.984   35.794    0.300    0.433  134.247
  459.234   34.086    0.298    0.438  142.283
  459.484   33.138    0.295    0.443  148.532
  459.734   33.404    0.291    0.433  148.522
  459.984   35.263    0.288    0.426  143.754
  460.234   36.745    0.289    0.438  128.627
  460.484   38.095    0.299    0.449  118.029
  460.734   38.653    0.305    0.445  113.568
  460.984   37.753    0.310    0.437  108.190
  461.234   35.820    0.314    0.441  105.545
  461.484   32.457    0.319    0.431  105.628
  461.734   32.723    0.316    0.438  103.556
  461.984   35.723    0.308    0.440  103.141
  462.234   38.065    0.303    0.428   99.853
  462.484   40.648    0.299    0.418   96.976
  462.734   43.163    0.294    0.410   91.861
  462.984   42.465    0.291    0.401   89.353
  463.234   40.735    0.284    0.393   84.839
  463.484   40.634    0.268    0.393   80.174
  463.734   42.161    0.260    0.403   75.445
  463.984   45.525    0.267    0.411   71.277
  464.234   51.322    0.277    0.418   64.097
  464.484   56.191    0.284    0.412   57.242
  464.734   60.856    0.286    0.404   54.408
  464.984   20.384    0.283    0.412   52.546
  465.234   21.810    0.259    0.415   50.779
  465.484   21.209    0.247    0.429   45.679
  465.734   21.113    0.244    0.427   37.074
  465.984   21.798    0.247    0.423   29.770
  466.234   21.757    0.240    0.418   26.156
  466.484   21.774    0.212    0.414   22.919
  466.734   22.088    0.187    0.409   18.496
  466.984   22.380    0.169    0.404   16.772
  467.234   22.399    0.166    0.390   14.984
  467.484   22.393    0.013    0.376   16.345
  467.734   22.381    0.018    0.359   18.564
  467.984   21.776    0.030    0.341   23.578
  468.234   21.819    0.015    0.318   28.843
  468.484   21.830    0.008    0.288   33.978
  468.734   21.842    0.001    0.269   39.826
  468.984   21.853   -0.000    0.246   48.444
  469.234   21.851    0.002    0.210   54.844
  469.484   21.515    0.002    0.182   60.225
  469.734   21.270    0.001    0.152   64.194
  469.984   21.309   -0.000    0.129   64.115
  470.234   20.473   -0.000    0.116   62.661
