~VERSION INFORMATION
 VERS.                 2.0:   CWLS LOG ASCII STANDARD -VERSION 2.0
 WRAP.                  NO:   ONE LINE PER DEPTH STEP
~WELL INFORMATION BLOCK
#MNEM.UNIT           DATA                    DESCRIPTION OF MNEMONIC
#---------    -------------------            -------------------------------
# Generated from Intellog Unique Number	CS_77_79/WELL/3309
WELL.         COLUMBIA GAS DEVELOPMENT       : Well_name    - WELL
LOC .         00/16-24-079-16W4/0            : Location     - LOCATION
UWI .         00/16-24-079-16W4/0            : Uwi          - UNIQUE WELL ID
ENTR.         JOETTE                         : Entered      - ENTERED BY
SRVC.         SCHLUMBERGER                   : Scn          - SERVICE COMPANY
DATE.         08-24-92                       : Date         - LOG DATE
STRT.M        180                            : top_depth    - START DEPTH
STOP.M        400                            : bot_depth    - STOP DEPTH
STEP.M        0.25                           : increment    - STEP LENGTH
 NULL. -999.2500:NULL Value
~CURVE INFORMATION BLOCK
#MNEM UNIT       ERCB CURVE CODE    CURVE DESCRIPTION
#-----------   ------------------   ----------------------------------
DEPT.M        00 001 00 00         : DEPTH        - DEPTH
ILD .OHMM     00 120 00 00         : RESD         - DEEP RESISTIVITY (DIL)
DPHI.V/V      00 890 00 00         : PHID         - DENSITY POROSITY (SANDSTONE)
NPHI.V/V      00 330 00 00         : PHIN         - NEUTRON POROSITY (SANDSTONE)
GR  .API      00 310 00 00         : GR           - GAMMA RAY
~PARAMETER INFORMATION
#MNEM.UNIT           DATA             DESCRIPTION OF MNEMONIC
#---------         -----------     ------------------------------
GL  .M        584.7                : gl           - GROUND LEVEL ELEVATION
EREF.M        588.2                : kb           - ELEVATION OF DEPTH REFERENCE
DATM.M        588.2                : datum        - DATUM ELEVATION
TDD .M        406                  : tdd          - TOTAL DEPTH DRILLER
RUN .         ONE                  : Run          - RUN NUMBER
ENG .         BILL                 : Engineer     - RECORDING ENGINEER
WIT .         JIM                  : Witness      - WITNESSED BY
MUD .         GEL                  : Mud_type     - MUD TYPE
MATR.         SANDSTONE            : Logunit      - NEUTRON MATRIX
TMAX.C        25                   : BHT          - MAXIMUM RECORDED TEMPERATURE
BHTD.M        406                  : BHTDEP       - MAXIMUM RECORDED TEMPERATURE
MATR.         1                    : LOGUNIT      - NEUTRON MATRIX
RMT .C        22                   : MDTP         - TEMPERATURE OF MUD
NEUT.         1                    : NEUTRON      - NEUTRON TYPE
RESI.         0                    : RESIST       - RESISTIVITY TYPE
RMC .OHMM     5                    : RMC          - RESISTIVITY OF MUD CAKE
RMF .OHMM     5                    : RMF          - RESISTIVITY OF MUD FILTRATE
SUFT.C        15                   : SUFT         - SURFACE TEMPERATURE
~A  DEPTH     RESD     PHID     PHIN       GR
# ...
  354.000    7.531    0.177    0.383  101.068
  354.250    6.731    0.176    0.381  101.049
  354.500    6.017    0.190    0.383  100.438
  354.750    5.795    0.203    0.398  109.357
  355.000    5.181    0.197    0.387  106.362
  355.250    4.631    0.189    0.394  100.381
  355.500    3.502    0.189    0.392   94.996
  355.750    2.648    0.196    0.388   99.151
  356.000    2.157    0.194    0.402   97.939
  356.250    2.077    0.200    0.426   93.747
  356.500    2.115    0.283    0.436   82.992
  356.750    2.276    0.280    0.446   82.972
  357.000    2.406    0.275    0.490   88.314
  357.250    2.689    0.277    0.512   84.723
  357.500    3.004    0.278    0.482   82.319
  357.750    3.753    0.279    0.473   84.685
  358.000    4.776    0.271    0.499   83.468
  358.250    5.335    0.251    0.435   78.088
  358.500    5.852    0.225    0.407   78.069
  358.750    6.300    0.215    0.381   81.618
  359.000    6.910    0.213    0.375   79.219
  359.250    7.439    0.223    0.371   79.204
  359.500    7.862    0.230    0.383   82.166
  359.750    8.785    0.236    0.378   79.762
  360.000    9.283    0.208    0.376   70.204
  360.250    8.454    0.198    0.373   78.532
  360.500    7.148    0.168    0.361   80.301
  360.750    5.930    0.167    0.336   90.413
  361.000    5.606    0.198    0.413   92.187
  361.250    5.299    0.202    0.417   93.956
  361.500    5.103    0.208    0.407   92.149
  361.750    4.735    0.203    0.395   86.163
  362.000    4.311    0.199    0.394   90.322
  362.250    4.151    0.213    0.417   92.683
  362.500    4.149    0.222    0.432   92.067
  362.750    4.303    0.224    0.443   94.438
  363.000    4.631    0.223    0.435   98.592
  363.250    4.805    0.194    0.431  102.150
  363.500    4.985    0.184    0.431  102.131
  363.750    4.982    0.160    0.416   96.746
  364.000    4.887    0.155    0.399   96.722
  364.250    4.885    0.150    0.390  100.285
  364.500    4.703    0.186    0.396  103.843
  364.750    4.701    0.229    0.402  106.800
  365.000    4.697    0.239    0.404  108.570
  365.250    4.784    0.236    0.404  113.325
  365.500    5.055    0.211    0.406  110.325
  365.750    5.544    0.198    0.401  107.320
  366.000    6.195    0.198    0.396  113.859
  366.250    7.457    0.193    0.389   92.973
  366.500    8.488    0.183    0.380   78.646
  366.750    8.970    0.176    0.362   64.914
  367.000    8.169    0.201    0.347   78.608
  367.250    7.036    0.228    0.341   86.339
  367.500    6.174    0.216    0.344   88.705
  367.750    5.727    0.204    0.360   94.647
  368.000    6.400    0.203    0.388   77.339
  368.250    7.848    0.169    0.362   60.026
  368.500    9.272    0.164    0.350   55.828
  368.750   11.369    0.196    0.353   49.852
  369.000   22.191    0.237    0.346   42.078
  369.250   25.735    0.251    0.336   44.448
  369.500   30.404    0.266    0.328   42.641
  369.750   33.967    0.274    0.335   43.213
  370.000   35.899    0.277    0.345   52.142
  370.250   36.552    0.272    0.333   53.315
  370.500   33.283    0.267    0.322   53.882
  370.750   30.311    0.244    0.312   54.469
  371.000   28.123    0.237    0.305   85.452
  371.250   26.582    0.212    0.325   87.817
  371.500   26.077    0.205    0.344   81.832
  371.750   28.062    0.225    0.356   83.606
  372.000   28.584    0.255    0.367   90.741
  372.250   30.773    0.249    0.350   79.394
  372.500   33.751    0.237    0.337   66.855
  372.750   34.359    0.230    0.331   59.682
  373.000   31.296    0.227    0.326   63.240
  373.250   26.956    0.202    0.319   67.990
  373.500   23.217    0.171    0.321   81.683
  373.750   20.755    0.172    0.331   94.184
  374.000   18.551    0.164    0.327   91.781
  374.250   17.211    0.165    0.333   92.954
  374.500   16.882    0.157    0.337   97.103
  374.750   17.516    0.156    0.333   97.685
  375.000   20.313    0.165    0.329   95.281
  375.250   27.847    0.179    0.329   98.243
  375.500   31.699    0.208    0.324   69.006
  375.750   35.414    0.214    0.321   72.569
  376.000   34.107    0.228    0.320   72.550
  376.250   28.835    0.250    0.357   64.174
  376.500   23.930    0.261    0.366   76.084
  376.750   20.611    0.256    0.342   79.050
  377.000   18.425    0.224    0.334   86.186
  377.250   19.467    0.193    0.328   92.725
  377.500   20.196    0.141    0.333   93.898
  377.750   22.989    0.198    0.329   77.176
  378.000   24.291    0.213    0.322   80.143
  378.250   22.125    0.200    0.315   83.701
  378.500   20.149    0.178    0.318   89.643
  378.750   18.012    0.176    0.327   98.572
  379.000   16.099    0.171    0.336   95.562
  379.250   14.935    0.164    0.332   97.933
  379.500   14.379    0.157    0.334   93.740
  379.750   13.851    0.156    0.334   85.966
  380.000   12.380    0.153    0.334   90.721
  380.250   10.863    0.155    0.334   94.279
  380.500   10.079    0.143    0.385   91.275
  380.750   10.073    0.098    0.403   94.241
  381.000   11.256    0.101    0.367  121.050
  381.250   14.868    0.165    0.344  106.127
  381.500   18.231    0.195    0.336   76.298
  381.750   18.557    0.201    0.341   82.241
  382.000   17.872    0.205    0.343   86.395
  382.250   16.895    0.202    0.338   89.352
  382.500   16.267    0.194    0.336   91.122
  382.750   15.960    0.187    0.331   93.492
  383.000   15.083    0.175    0.331   96.449
  383.250   14.527    0.169    0.337   91.665
  383.500   14.516    0.169    0.346   90.454
  383.750   15.059    0.163    0.324   95.204
  384.000   16.517    0.159    0.329   99.359
  384.250   18.455    0.170    0.332  101.128
  384.500   28.816    0.205    0.334   71.295
  384.750   29.335    0.212    0.328   68.891
  385.000   29.873    0.218    0.324   67.675
  385.250   28.762    0.189    0.321   65.276
  385.500   26.689    0.155    0.316   67.045
  385.750   22.564    0.120    0.323   78.950
  386.000   19.434    0.186    0.335   89.667
  386.250   17.371    0.178    0.341   92.629
  386.500   18.701    0.176    0.346   98.571
  386.750   21.291    0.191    0.351  102.129
  387.000   26.106    0.203    0.345   90.182
  387.250   32.612    0.220    0.346   81.816
  387.500   37.123    0.242    0.377   71.066
  387.750   39.218    0.250    0.363   74.018
  388.000   39.201    0.225    0.366   83.543
  388.250   39.184    0.224    0.372   84.115
  388.500   39.156    0.241    0.377   84.105
  388.750   37.705    0.253    0.373   75.740
  389.000   36.307    0.257    0.365   71.547
  389.250   34.967    0.250    0.357   73.913
  389.500   31.254    0.241    0.349   81.048
  389.750   29.546    0.233    0.350   86.390
  390.000   26.412    0.228    0.344   86.967
  390.250   23.172    0.221    0.318   89.934
  390.500   20.715    0.208    0.311   95.280
  390.750   19.216    0.179    0.309   97.045
  391.000   20.304    0.161    0.314   94.646
  391.250   20.679    0.157    0.307   85.088
  391.500   21.051    0.161    0.320   87.453
  391.750   20.649    0.167    0.314   86.838
  392.000   20.640    0.164    0.312   81.453
  392.250   20.631    0.154    0.320   80.232
  392.500   21.003    0.117    0.331   81.415
  392.750   22.194    0.125    0.340   84.377
  393.000   23.018    0.152    0.346   88.531
  393.250   21.757    0.206    0.352   81.949
  393.500   20.957    0.223    0.342   84.315
  393.750   18.389    0.188    0.334   91.455
  394.000   16.136    0.180    0.326  100.379
  394.250   14.695    0.159    0.323  109.898
  394.500   15.820    0.154    0.321  111.668
  394.750   18.347    0.155    0.315  119.399
  395.000   20.116    0.150    0.304  124.746
  395.250   20.110    0.146    0.297  124.131
  395.500   16.997    0.135    0.293   93.105
  395.750   16.372    0.088    0.292   78.777
  396.000   15.188    0.079    0.310   84.720
  396.250   14.623    0.084    0.316   96.625
  396.500   14.350    0.108    0.318  101.971
  396.750   14.075    0.155    0.320  111.491
  397.000   14.067    0.145    0.322  122.204
  397.250   14.320    0.136    0.329  133.517
