~VERSION INFORMATION
 VERS.                 2.0:   CWLS LOG ASCII STANDARD -VERSION 2.0
 WRAP.                  NO:   ONE LINE PER DEPTH STEP
~WELL INFORMATION BLOCK
#MNEM.UNIT           DATA                    DESCRIPTION OF MNEMONIC
#---------    -------------------            -------------------------------
# Generated from Intellog Unique Number	CW_73_75/WELL/924
WELL.         GULF POC DROWNED 10-16         : Well_name    - WELL
LOC .         00/10-16-075-21W4/0            : Location     - LOCATION
UWI .         00/10-16-075-21W4/0            : Uwi          - UNIQUE WELL ID
ENTR.         JAYE                           : Entered      - ENTERED BY
SRVC.         SCHLUMBERGER                   : Scn          - SERVICE COMPANY
DATE.         6 MAR 78                       : Date         - LOG DATE
STRT.M        356.616                        : top_depth    - START DEPTH
STOP.M        566.866                        : bot_depth    - STOP DEPTH
STEP.M        0.25                           : increment    - STEP LENGTH
 NULL. -999.2500:NULL Value
~CURVE INFORMATION BLOCK
#MNEM UNIT       ERCB CURVE CODE    CURVE DESCRIPTION
#-----------   ------------------   ----------------------------------
DEPT.M        00 001 00 00         : DEPTH        - DEPTH
ILD .OHMM     00 120 00 00         : RESD         - DEEP RESISTIVITY (DIL)
NPHI.V/V      00 330 00 00         : PHIN         - NEUTRON POROSITY (SANDSTONE)
DPHI.V/V      00 890 00 00         : PHID         - DENSITY POROSITY (SANDSTONE)
GR  .API      00 310 00 00         : GR           - GAMMA RAY
CALI.MM       00 280 01 00         : CAL          - CALIPER
~PARAMETER INFORMATION
#MNEM.UNIT           DATA             DESCRIPTION OF MNEMONIC
#---------         -----------     ------------------------------
GL  .M        666.598              : gl           - GROUND LEVEL ELEVATION
EREF.M        670.712              : kb           - ELEVATION OF DEPTH REFERENCE
DATM.M        666.598              : datum        - DATUM ELEVATION
TDD .M        569.976              : tdd          - TOTAL DEPTH DRILLER
RUN .         ONE                  : Run          - RUN NUMBER
ENG .         VERRAIRES            : Engineer     - RECORDING ENGINEER
WIT .         BRINKMAN/ROZENHART   : Witness      - WITNESSED BY
BASE.         EDM                  : Branch       - HOME BASE OF LOGGING UNIT
MUD .         GEL CHEM             : Mud_type     - MUD TYPE
MATR.         SANDSTONE            : Logunit      - NEUTRON MATRIX
TMAX.C        17.2222              : BHT          - MAXIMUM RECORDED TEMPERATURE
BHTD.M        569.671              : BHTDEP       - MAXIMUM RECORDED TEMPERATURE
RMT .C        17.7778              : MDTP         - TEMPERATURE OF MUD
MUDD.KG/M     1116                 : MWT          - MUD DENSITY
NEUT.         1                    : NEUTRON      - NEUTRON TYPE
RESI.         0                    : RESIST       - RESISTIVITY TYPE
RM  .OHMM     4.87                 : RM           - RESISTIVITY OF MUD
RMC .OHMM     0                    : RMC          - RESISTIVITY OF MUD CAKE
RMF .OHMM     5.89                 : RMF          - RESISTIVITY OF MUD FILTRATE
SUFT.C        -17.7778             : SUFT         - SURFACE TEMPERATURE
~A  DEPTH     RESD     PHIN     PHID       GR      CAL
# ...
  393.116    5.358    0.462    0.277   94.145  161.781
  393.366    5.367    0.462    0.262  102.411  161.488
  393.616    5.365    0.449    0.246  111.484  161.087
  393.866    5.363    0.432    0.237  109.510  160.686
  394.116    5.362    0.455    0.247   98.971  160.181
  394.366    5.360    0.471    0.285   89.922  159.570
  394.616    5.309    0.460    0.311   70.012  158.646
  394.866    5.230    0.434    0.318   54.322  158.138
  395.116    5.199    0.445    0.308   57.871  157.317
  395.366    5.207    0.444    0.301   60.056  156.812
  395.616    5.254    0.425    0.302   59.696  157.359
  395.866    5.320    0.421    0.300   59.149  158.538
  396.116    5.348    0.426    0.308   58.974  160.554
  396.366    5.347    0.436    0.317   58.801  162.044
  396.616    5.355    0.427    0.319   58.812  162.903
  396.866    5.363    0.422    0.309   59.447  162.819
  397.116    5.362    0.412    0.301   59.953  162.313
  397.366    5.330    0.414    0.313   60.958  161.704
  397.616    5.309    0.421    0.320   61.900  161.090
  397.866    5.269    0.435    0.317   62.967  159.959
  398.116    5.267    0.421    0.299   64.159  159.347
  398.366    5.265    0.427    0.311   64.728  158.736
  398.616    5.254    0.434    0.316   64.617  158.129
  398.866    5.252    0.429    0.303   63.450  157.513
  399.116    5.261    0.442    0.300   61.785  157.217
  399.366    5.259    0.464    0.302   60.185  157.030
  399.616    5.257    0.457    0.305   58.954  157.262
  399.866    5.265    0.444    0.310   57.353  157.491
  400.116    5.293    0.447    0.312   57.178  157.508
  400.366    5.311    0.452    0.316   58.679  157.847
  400.616    5.359    0.439    0.316   59.995  158.075
  400.866    5.437    0.441    0.327   60.255  158.305
  401.116    5.557    0.444    0.337   59.958  158.639
  401.366    5.680    0.433    0.330   59.720  158.873
  401.616    6.046    0.420    0.316   60.788  159.212
  401.866    7.311    0.389    0.293   63.033  159.439
  402.116    9.986    0.352    0.235   64.162  159.456
  402.366   12.483    0.296    0.059   61.877  159.793
  402.616   13.686    0.187    0.008   58.352  160.448
  402.866   13.456    0.214    0.098   61.467  160.677
  403.116   11.626    0.257    0.154   66.755  161.010
  403.366   10.156    0.348    0.190   71.482  161.028
  403.616    9.139    0.437    0.241   77.949  160.838
  403.866    7.881    0.435    0.290   82.181  160.439
  404.116    7.078    0.435    0.299   77.602  160.249
  404.366    6.428    0.445    0.278   74.075  159.952
  404.616    6.091    0.457    0.291   70.985  159.342
  404.866    5.879    0.444    0.301   70.064  157.787
  405.116    5.738    0.453    0.304   70.511  156.019
  405.366    5.652    0.447    0.289   72.510  154.886
  405.616    5.578    0.436    0.273   74.195  154.590
  405.866    5.586    0.421    0.276   75.263  154.401
  406.116    5.605    0.424    0.285   75.151  154.525
  406.366    5.656    0.447    0.263   75.038  154.859
  406.616    5.706    0.453    0.244   78.401  155.404
  406.866    5.704    0.443    0.258   83.875  156.162
  407.116    5.682    0.424    0.262   91.272  157.343
  407.366    5.669    0.435    0.236  101.586  158.199
  407.616    5.636    0.455    0.210  105.632  159.167
  407.866    5.645    0.469    0.238  101.983  159.815
  408.116    5.643    0.477    0.254   93.988  160.359
  408.366    5.641    0.480    0.272   88.105  160.802
  408.616    5.629    0.488    0.285   87.558  160.820
  408.866    5.628    0.499    0.302   91.914  160.842
  409.116    5.657    0.508    0.304   96.457  160.965
  409.366    5.666    0.525    0.286  101.743  161.092
  409.616    5.675    0.519    0.264  102.873  161.007
  409.866    5.662    0.521    0.242  101.146  161.236
  410.116    5.661    0.524    0.215  104.758  162.099
  410.366    5.659    0.485    0.180  112.713  162.852
  410.616    5.616    0.504    0.204  110.120  163.714
  410.866    5.614    0.510    0.227  108.951  164.049
  411.116    5.602    0.510    0.226  111.322  164.489
  411.366    5.611    0.499    0.207  115.616  165.456
  411.616    5.619    0.471    0.147  121.400  166.528
  411.866    5.618    0.472    0.145  119.550  167.808
  412.116    5.606    0.481    0.164  116.088  168.982
  412.366    5.491    0.491    0.185  113.430  170.054
  412.616    5.330    0.511    0.209  109.534  170.286
  412.866    5.144    0.528    0.237  106.254  170.309
  413.116    4.857    0.539    0.260  102.854  170.014
  413.366    4.460    0.543    0.288   99.948  169.190
  413.616    4.043    0.576    0.275   97.167  167.635
  413.866    3.740    0.596    0.274   93.890  165.760
  414.116    3.557    0.592    0.272   93.715  162.418
  414.366    3.683    0.550    0.267   93.168  158.971
  414.616    4.268    0.508    0.249   87.532  156.471
  414.866    5.208    0.496    0.256   81.400  155.018
  415.116    6.194    0.471    0.280   74.337  153.986
  415.366    7.421    0.445    0.310   65.164  153.066
  415.616    8.744    0.457    0.322   61.825  152.347
  415.866   11.258    0.474    0.314   61.898  151.735
  416.116   13.537    0.485    0.311   61.228  150.919
  416.366   17.788    0.485    0.298   57.826  150.408
  416.616   21.829    0.452    0.313   55.231  150.220
  416.866   23.495    0.446    0.323   55.429  150.556
  417.116   23.401    0.456    0.321   57.241  150.994
  417.366   22.214    0.472    0.311   59.176  151.962
  417.616   20.857    0.486    0.304   60.430  152.612
  417.866   19.045    0.490    0.324   58.580  153.265
  418.116   17.521    0.472    0.331   55.427  153.809
  418.366   16.209    0.453    0.316   57.859  154.458
  418.616   14.611    0.472    0.309   60.787  155.216
  418.866   13.075    0.467    0.319   62.538  155.758
  419.116   11.089    0.462    0.327   60.875  156.514
  419.366    9.652    0.467    0.334   58.838  157.166
  419.616    8.589    0.472    0.331   58.973  158.026
  419.866    7.476    0.462    0.321   59.605  159.097
  420.116    6.903    0.439    0.312   58.625  160.064
  420.366    6.327    0.453    0.314   57.333  160.819
  420.616    6.051    0.486    0.321   57.718  161.680
  420.866    5.851    0.498    0.326   58.412  162.436
  421.116    5.679    0.483    0.327   59.355  162.876
  421.366    5.522    0.460    0.326   59.926  163.106
  421.616    5.400    0.451    0.322   60.185  163.235
  421.866    5.250    0.437    0.321   60.198  162.942
  422.116    5.115    0.445    0.326   60.147  162.851
  422.366    5.057    0.474    0.334   60.096  162.665
  422.616    5.065    0.487    0.340   58.123  162.579
  422.866    5.082    0.463    0.344   57.887  162.391
  423.116    5.099    0.439    0.346   61.063  162.302
  423.366    5.107    0.447    0.336   60.704  162.007
  423.616    5.096    0.464    0.324   60.404  161.609
  423.866    5.075    0.461    0.320   59.239  161.310
  424.116    5.055    0.460    0.325   58.815  160.913
  424.366    5.072    0.464    0.310   59.633  160.617
  424.616    5.052    0.476    0.312   64.362  160.216
  424.866    5.032    0.470    0.306   71.015  159.817
  425.116    4.994    0.467    0.291   76.364  159.521
  425.366    5.002    0.479    0.278   78.362  159.651
  425.616    5.027    0.490    0.274   76.886  159.878
  425.866    5.045    0.487    0.286   75.904  160.000
  426.116    5.090    0.476    0.306   74.737  160.338
  426.366    5.107    0.469    0.314   73.321  160.466
  426.616    5.125    0.479    0.316   73.704  160.377
  426.866    5.180    0.499    0.326   76.571  160.294
  427.116    5.246    0.487    0.317   77.824  159.998
  427.366    5.254    0.472    0.315   77.155  160.018
  427.616    5.321    0.457    0.320   76.423  159.723
  427.866    5.449    0.481    0.311   75.751  159.324
  428.116    5.746    0.511    0.298   74.521  159.136
  428.366    6.289    0.489    0.287   72.299  159.046
  428.616    7.275    0.454    0.275   68.214  158.963
  428.866    9.161    0.426    0.236   63.509  158.987
  429.116   13.775    0.181    0.091   55.392  159.002
  429.366   19.131    0.163   -0.013   51.741  159.022
