~VERSION INFORMATION
 VERS.                 2.0:   CWLS LOG ASCII STANDARD -VERSION 2.0
 WRAP.                  NO:   ONE LINE PER DEPTH STEP
~WELL INFORMATION BLOCK
#MNEM.UNIT           DATA                    DESCRIPTION OF MNEMONIC
#---------    -------------------            -------------------------------
# Generated from Intellog Unique Number	CS_77_79/WELL/1989
WELL.         CAN WORLDWIDE ENR              : Well_name    - WELL
LOC .         00/10-05-079-03W4/0            : Location     - LOCATION
UWI .         00/10-05-079-03W4/0            : Uwi          - UNIQUE WELL ID
ENTR.         TIM                            : Entered      - ENTERED BY
SRVC.         SCHLUMBERGER                   : Scn          - SERVICE COMPANY
STRT.M        150                            : top_depth    - START DEPTH
STOP.M        385                            : bot_depth    - STOP DEPTH
STEP.M        0.25                           : increment    - STEP LENGTH
 NULL. -999.2500:NULL Value
~CURVE INFORMATION BLOCK
#MNEM UNIT       ERCB CURVE CODE    CURVE DESCRIPTION
#-----------   ------------------   ----------------------------------
DEPT.M        00 001 00 00         : DEPTH        - DEPTH
GR  .API      00 310 00 00         : GR           - GAMMA RAY
NPHI.V/V      00 330 00 00         : PHIN         - NEUTRON POROSITY (SANDSTONE)
DPHI.V/V      00 890 00 00         : PHID         - DENSITY POROSITY (SANDSTONE)
ILD .OHMM     00 120 00 00         : RESD         - DEEP RESISTIVITY (DIL)
~PARAMETER INFORMATION
#MNEM.UNIT           DATA             DESCRIPTION OF MNEMONIC
#---------         -----------     ------------------------------
GL  .M        548.88               : gl           - GROUND LEVEL ELEVATION
EREF.M        552.73               : kb           - ELEVATION OF DEPTH REFERENCE
DATM.M        552.73               : datum        - DATUM ELEVATION
TDD .M        396.4                : tdd          - TOTAL DEPTH DRILLER
RUN .         ONE                  : Run          - RUN NUMBER
ENG .         BILL                 : Engineer     - RECORDING ENGINEER
WIT .         JIM                  : Witness      - WITNESSED BY
MUD .         GEL                  : Mud_type     - MUD TYPE
MATR.         SANDSTONE            : Logunit      - NEUTRON MATRIX
TMAX.C        19                   : BHT          - MAXIMUM RECORDED TEMPERATURE
BHTD.M        396.4                : BHTDEP       - MAXIMUM RECORDED TEMPERATURE
MATR.         1                    : LOGUNIT      - NEUTRON MATRIX
RMT .C        16                   : MDTP         - TEMPERATURE OF MUD
NEUT.         1                    : NEUTRON      - NEUTRON TYPE
RESI.         5.3                  : RESIST       - RESISTIVITY TYPE
RMC .OHMM     3                    : RMC          - RESISTIVITY OF MUD CAKE
RMF .OHMM     4.6                  : RMF          - RESISTIVITY OF MUD FILTRATE
SUFT.C        15                   : SUFT         - SURFACE TEMPERATURE
~A  DEPTH       GR     PHIN     PHID     RESD
  150.000  109.756    0.356    0.182   12.876
  150.250  105.958    0.361    0.171   13.098
  150.500  101.536    0.368    0.187   13.575
  150.750   97.115    0.375    0.225   13.554
  151.000   94.549    0.376    0.234   13.533
  151.250   92.621    0.378    0.227   13.771
  151.500   90.678    0.380    0.223   14.004
  151.750   93.752    0.375    0.219   13.982
  152.000  101.812    0.379    0.217   13.965
  152.250  106.726    0.384    0.216   13.680
  152.500  108.539    0.381    0.215   13.152
  152.750  107.857    0.374    0.221   12.894
  153.000  104.059    0.373    0.235   12.874
  153.250   98.391    0.366    0.234   13.343
  153.500   96.448    0.361    0.229   13.823
  153.750   97.028    0.364    0.230   14.061
  154.000   98.840    0.386    0.231   14.034
  154.250   98.144    0.386    0.225   13.763
  154.500   97.463    0.377    0.218   13.482
  154.750  103.639    0.381    0.226   13.466
  155.000  109.206    0.390    0.237   13.191
  155.250  109.771    0.401    0.247   12.927
  155.500  104.088    0.402    0.242   12.902
  155.750   95.927    0.400    0.234   12.886
  156.000   93.984    0.395    0.226   12.856
  156.250  105.161    0.394    0.215   12.846
  156.500  111.946    0.392    0.201   12.588
  156.750  111.888    0.391    0.190   11.884
  157.000  113.076    0.391    0.187   11.210
  157.250  113.656    0.393    0.187   10.787
  157.500  116.077    0.403    0.188   10.179
  157.750  117.904    0.416    0.189    9.794
  158.000  119.716    0.423    0.189    9.239
  158.250  122.137    0.433    0.196    8.890
  158.500  122.702    0.441    0.207    8.392
  158.750  121.398    0.438    0.207    8.227
  159.000  118.846    0.433    0.207    7.910
  159.250  117.542    0.422    0.206    7.749
  159.500  121.833    0.414    0.205    7.740
  159.750  123.659    0.410    0.206    7.724
  160.000  122.949    0.415    0.218    7.712
  160.250  122.297    0.426    0.227    7.703
  160.500  120.369    0.436    0.232    7.836
  160.750  118.440    0.445    0.231    8.121
  161.000  117.759    0.452    0.230    8.734
  161.250  116.454    0.448    0.236    9.397
  161.500  113.874    0.435    0.249   10.300
  161.750  111.323    0.415    0.272   10.880
  162.000  108.162    0.400    0.298   11.926
  162.250  104.364    0.389    0.305   13.314
  162.500   96.173    0.387    0.304   14.324
  162.750   91.766    0.387    0.304   15.125
  163.000   93.564    0.390    0.354   16.272
  163.250   97.261    0.394    0.389   16.253
  163.500  103.436    0.405    0.432   16.221
  163.750  102.132    0.496    0.458   16.189
  164.000   82.735    0.533    0.477   16.475
  164.250   70.833    0.515    0.405   17.725
  164.500   57.670    0.477    0.353   18.716
  164.750   52.001    0.395    0.344   19.032
  165.000   51.929    0.385    0.346   19.725
  165.250   54.379    0.387    0.343   20.828
  165.500   58.684    0.393    0.338   22.003
  165.750   62.990    0.402    0.337   23.224
  166.000   69.166    0.406    0.338   23.197
  166.250   72.225    0.410    0.338   21.088
  166.500   74.646    0.411    0.337   19.916
  166.750   71.471    0.403    0.334   19.141
  167.000   67.049    0.397    0.324   18.764
  167.250   64.498    0.394    0.308   18.388
  167.500   64.425    0.392    0.296   18.013
  167.750   66.861    0.400    0.286   17.659
  168.000   70.558    0.415    0.316   17.291
  168.250   75.487    0.431    0.350   16.958
  168.500   67.948    0.423    0.370   16.931
  168.750   54.785    0.431    0.400   16.905
  169.000   46.623    0.447    0.415   16.878
  169.250   46.565    0.429    0.363   16.845
  169.500   50.248    0.412    0.358   16.819
  169.750   48.319    0.403    0.360   17.109
  170.000   38.273    0.397    0.357   17.075
  170.250   38.215    0.392    0.353   17.704
  170.500   41.274    0.387    0.352   18.341
  170.750   40.593    0.381    0.352   19.368
  171.000   38.650    0.375    0.351   20.073
  171.250   36.722    0.363    0.348   20.804
  171.500   34.171    0.368    0.344   21.570
  171.750   31.619    0.375    0.342   22.759
  172.000   32.185    0.371    0.342   23.170
  172.250   34.620    0.366    0.342   23.551
  172.500   39.549    0.361    0.340   23.523
  172.750   43.202    0.369    0.334   23.061
  173.000   45.029    0.382    0.328   21.359
  173.250   48.073    0.390    0.324   19.783
  173.500   49.291    0.387    0.321   18.676
  173.750   51.727    0.381    0.315   17.963
  174.000   56.656    0.376    0.304   17.610
  174.250   59.714    0.380    0.286   16.932
  174.500   62.773    0.386    0.279   16.599
  174.750   65.832    0.389    0.285   15.965
  175.000   68.905    0.396    0.289   15.350
  175.250   75.704    0.393    0.283   14.764
  175.500   83.112    0.386    0.267   13.938
  175.750   84.287    0.389    0.258   13.406
  176.000   84.881    0.398    0.251   13.889
  176.250   87.302    0.406    0.249   14.395
  176.500   89.738    0.409    0.259   15.486
  176.750   90.926    0.400    0.270   16.057
  177.000   85.881    0.395    0.281   16.025
  177.250   77.096    0.396    0.287   16.301
  177.500   63.933    0.396    0.303   16.583
  177.750   60.120    0.393    0.314   16.875
  178.000   58.816    0.381    0.303   17.160
  178.250   58.758    0.373    0.292   17.448
  178.500   60.584    0.366    0.297   17.428
  178.750   64.267    0.368    0.304   17.401
  179.000   66.702    0.373    0.309   17.366
  179.250   67.267    0.376    0.317   17.659
  179.500   65.963    0.384    0.319   17.638
  179.750   63.411    0.389    0.314   17.949
  180.000   59.599    0.384    0.309   17.914
  180.250   58.294    0.373    0.307   17.879
  180.500   58.221    0.368    0.302   17.528
  180.750   58.787    0.361    0.297   17.176
  181.000   63.107    0.369    0.296   16.819
  181.250   64.296    0.375    0.296   16.488
  181.500   62.368    0.380    0.300   16.469
  181.750   62.933    0.369    0.305   16.133
  182.000   64.122    0.351    0.306   15.809
  182.250   63.441    0.337    0.308   15.791
  182.500   61.483    0.336    0.307   15.474
  182.750   62.672    0.341    0.301   15.450
  183.000   65.108    0.346    0.298   15.426
  183.250   68.167    0.356    0.293   15.383
  183.500   71.863    0.355    0.287   15.365
  183.750   77.416    0.339    0.280   15.335
  184.000   80.475    0.332    0.261   15.317
  184.250   79.793    0.332    0.213   15.293
  184.500   84.099    0.338    0.248   15.850
  184.750   87.172    0.370    0.277   16.427
  185.000   90.231    0.383    0.304   16.704
  185.250   91.405    0.386    0.319   16.691
  185.500   90.724    0.388    0.320   16.343
  185.750   88.796    0.392    0.303   16.028
  186.000   88.738    0.393    0.297   14.565
  186.250   91.159    0.395    0.292   13.750
  186.500   94.218    0.397    0.289   13.226
  186.750   96.653    0.398    0.283   12.966
  187.000   99.727    0.398    0.277   12.466
  187.250  102.785    0.396    0.273   12.221
  187.500  108.338    0.394    0.266   11.971
  187.750  118.877    0.391    0.257   11.727
  188.000  127.561    0.388    0.242   11.496
  188.250  124.386    0.385    0.237   11.261
  188.500  120.573    0.404    0.235   11.036
  188.750  123.632    0.423    0.234   10.810
  189.000  126.691    0.428    0.231   10.798
  189.250  126.633    0.426    0.240   10.785
  189.500  126.575    0.424    0.262   10.768
  189.750  126.517    0.426    0.267   10.954
  190.000  124.589    0.432    0.272   11.134
  190.250  116.413    0.442    0.280   11.544
  190.500  107.628    0.451    0.286   11.964
  190.750  103.206    0.451    0.291   12.633
  191.000   98.770    0.445    0.292   13.088
  191.250   98.712    0.433    0.284   13.319
  191.500  101.742    0.420    0.270   13.293
  191.750  104.206    0.411    0.253   13.272
  192.000  108.527    0.415    0.238   13.257
  192.250  115.326    0.421    0.228   12.986
  192.500  124.618    0.429    0.217   12.966
  192.750  127.677    0.435    0.221   12.950
  193.000  124.502    0.440    0.247   12.691
  193.250  121.327    0.441    0.263   12.671
