~VERSION INFORMATION
 VERS.                 2.0:   CWLS LOG ASCII STANDARD -VERSION 2.0
 WRAP.                  NO:   ONE LINE PER DEPTH STEP
~WELL INFORMATION BLOCK
#MNEM.UNIT           DATA                    DESCRIPTION OF MNEMONIC
#---------    -------------------            -------------------------------
# Generated from Intellog Unique Number	CS_77_79/WELL/1024
WELL.         DOME COWPAR                    : Well_name    - WELL
LOC .         00/16-11-079-03W4/0            : Location     - LOCATION
UWI .         00/16-11-079-03W4/0            : Uwi          - UNIQUE WELL ID
ENTR.         JHS                            : Entered      - ENTERED BY
SRVC.         SCHLUMBERGER                   : Scn          - SERVICE COMPANY
STRT.M        120                            : top_depth    - START DEPTH
STOP.M        360                            : bot_depth    - STOP DEPTH
STEP.M        0.25                           : increment    - STEP LENGTH
 NULL. -999.2500:NULL Value
~CURVE INFORMATION BLOCK
#MNEM UNIT       ERCB CURVE CODE    CURVE DESCRIPTION
#-----------   ------------------   ----------------------------------
DEPT.M        00 001 00 00         : DEPTH        - DEPTH
DPHI.V/V      00 890 00 00         : PHID         - DENSITY POROSITY (LIMESTONE)
NPHI.V/V      00 330 00 00         : PHIN         - NEUTRON POROSITY (LIMESTONE)
GR  .API      00 310 00 00         : GR           - GAMMA RAY
ILD .OHMM     00 120 00 00         : RESD         - DEEP RESISTIVITY (DIL)
RHOB.KG/M3    00 350 00 00         : DENS         - BULK DENSITY
~PARAMETER INFORMATION
#MNEM.UNIT           DATA             DESCRIPTION OF MNEMONIC
#---------         -----------     ------------------------------
GL  .M        525.3                : gl           - GROUND LEVEL ELEVATION
EREF.M        528.7                : kb           - ELEVATION OF DEPTH REFERENCE
DATM.M        528.7                : datum        - DATUM ELEVATION
TDD .M        365                  : tdd          - TOTAL DEPTH DRILLER
RUN .         ONE                  : Run          - RUN NUMBER
ENG .         BILL                 : Engineer     - RECORDING ENGINEER
WIT .         JIM                  : Witness      - WITNESSED BY
MUD .         GEL                  : Mud_type     - MUD TYPE
MATR.         LIMESTONE            : Logunit      - NEUTRON MATRIX
TMAX.C        24                   : BHT          - MAXIMUM RECORDED TEMPERATURE
BHTD.M        365                  : BHTDEP       - MAXIMUM RECORDED TEMPERATURE
MATR.         1                    : LOGUNIT      - NEUTRON MATRIX
RMT .C        25                   : MDTP         - TEMPERATURE OF MUD
NEUT.         1                    : NEUTRON      - NEUTRON TYPE
RESI.         0                    : RESIST       - RESISTIVITY TYPE
RMC .OHMM     0.25                 : RMC          - RESISTIVITY OF MUD CAKE
RMF .OHMM     0.25                 : RMF          - RESISTIVITY OF MUD FILTRATE
SUFT.C        15                   : SUFT         - SURFACE TEMPERATURE
~A  DEPTH     PHID     PHIN       GR     RESD     DENS
# ...
  193.000    0.210    0.392   93.882    9.821    0.000
  193.250    0.218    0.378   92.689    9.641    0.000
  193.500    0.218    0.370   90.279    9.291    0.000
  193.750    0.205    0.360   87.866    8.789    0.000
  194.000    0.206    0.362   90.942    8.314    0.000
  194.250    0.217    0.378   98.284    8.011    0.000
  194.500    0.224    0.360  101.360    7.439    0.000
  194.750    0.219    0.350  106.263    7.303    0.000
  195.000    0.220    0.381  102.026    7.170    0.000
  195.250    0.230    0.409  101.447    7.305    0.000
  195.500    0.250    0.393  102.687    7.443    0.000
  195.750    0.249    0.386   98.445    7.870    0.000
  196.000    0.232    0.373   91.765    8.322    0.000
  196.250    0.198    0.358   96.677    8.965    0.000
  196.500    0.198    0.344   94.874    9.134    0.000
  196.750    0.207    0.343   87.578    9.481    0.000
  197.000    0.213    0.366   85.777    9.660    0.000
  197.250    0.215    0.372   85.198   10.026    0.000
  197.500    0.225    0.364   81.562   10.028    0.000
  197.750    0.235    0.375   77.334   10.217    0.000
  198.000    0.237    0.372   78.569   10.218    0.000
  198.250    0.232    0.367   75.550   10.220    0.000
  198.500    0.232    0.371   71.308   10.221    0.000
  198.750    0.235    0.360   72.556   10.034    0.000
  199.000    0.234    0.338   71.969   10.224    0.000
  199.250    0.234    0.339   79.312   10.612    0.000
  199.500    0.257    0.365   78.731   11.015    0.000
  199.750    0.311    0.376   71.441   11.434    0.000
  200.000    0.311    0.354   62.324   11.649    0.000
  200.250    0.318    0.355   65.394   11.650    0.000
  200.500    0.326    0.371   67.255   11.871    0.000
  200.750    0.323    0.379   63.623   11.872    0.000
  201.000    0.326    0.391   70.967   11.874    0.000
  201.250    0.324    0.384   74.659   11.657    0.000
  201.500    0.322    0.380   72.237   11.876    0.000
  201.750    0.325    0.378   68.608   11.878    0.000
  202.000    0.330    0.367   64.368   11.661    0.000
  202.250    0.319    0.364   64.395   11.662    0.000
  202.500    0.305    0.375   71.742   11.239    0.000
  202.750    0.285    0.380   74.210   10.830    0.000
  203.000    0.263    0.405   78.498    9.511    0.000
  203.250    0.251    0.382   90.110    8.669    0.000
  203.500    0.243    0.382   98.069    7.756    0.000
  203.750    0.237    0.380  101.142    6.686    0.000
  204.000    0.244    0.380   99.344    6.094    0.000
  204.250    0.252    0.428   95.708    5.873    0.000
  204.500    0.255    0.393   87.808    5.766    0.000
  204.750    0.259    0.389   92.103    5.766    0.000
  205.000    0.265    0.414   93.958    5.875    0.000
  205.250    0.257    0.399   90.942    5.876    0.000
  205.500    0.239    0.396   86.695    5.769    0.000
  205.750    0.228    0.403   92.820    5.559    0.000
  206.000    0.221    0.418   95.903    5.357    0.000
  206.250    0.211    0.373   95.315    5.162    0.000
  206.500    0.230    0.362   97.184    4.975    0.000
  206.750    0.259    0.392   96.589    4.706    0.000
  207.000    0.252    0.378  100.887    4.620    0.000
  207.250    0.265    0.378  101.522    4.707    0.000
  207.500    0.268    0.364   87.524    4.886    0.000
  207.750    0.277    0.397   93.651    5.166    0.000
  208.000    0.284    0.392   93.064    5.670    0.000
  208.250    0.294    0.363   77.238    6.457    0.000
  208.500    0.300    0.364   68.728    7.493    0.000
  208.750    0.292    0.375   68.150    8.534    0.000
  209.000    0.272    0.374   76.105    9.366    0.000
  209.250    0.262    0.354   76.738    9.542    0.000
  209.500    0.274    0.363   74.323    9.544    0.000
  209.750    0.302    0.361   76.790    9.197    0.000
  210.000    0.312    0.344   70.110    9.198    0.000
  210.250    0.299    0.337   67.703    9.199    0.000
  210.500    0.299    0.341   63.458    9.548    0.000
  210.750    0.288    0.357   62.263   10.286    0.000
  211.000    0.285    0.395   70.829   10.480    0.000
  211.250    0.289    0.383   71.464   10.481    0.000
  211.500    0.295    0.365   75.149   10.101    0.000
  211.750    0.301    0.358   74.566    9.916    0.000
  212.000    0.305    0.389   70.936    9.556    0.000
  212.250    0.300    0.380   69.132    9.209    0.000
  212.500    0.284    0.387   73.433    9.040    0.000
  212.750    0.281    0.375   78.334    9.041    0.000
  213.000    0.290    0.363   81.410    9.042    0.000
  213.250    0.274    0.368   74.122    8.877    0.000
  213.500    0.260    0.369   72.930    8.715    0.000
  213.750    0.253    0.360   79.663    8.398    0.000
  214.000    0.274    0.368   85.788    7.945    0.000
  214.250    0.278    0.369   77.279    7.656    0.000
  214.500    0.263    0.386   82.794    7.378    0.000
  214.750    0.251    0.388   93.187    6.979    0.000
  215.000    0.250    0.373   96.870    6.725    0.000
  215.250    0.338    0.399   91.410    6.245    0.000
  215.500    0.301    0.384   92.663    6.018    0.000
  215.750    0.253    0.379   95.732    5.799    0.000
  216.000    0.265    0.387   93.932    5.908    0.000
  216.250    0.268    0.374   92.130    6.133    0.000
  216.500    0.248    0.351   92.154    6.606    0.000
  216.750    0.239    0.355   86.085    7.117    0.000
  217.000    0.234    0.368   80.627    7.118    0.000
  217.250    0.248    0.362   85.531    6.988    0.000
  217.500    0.287    0.378   92.265    6.610    0.000
  217.750    0.281    0.407   93.514    6.253    0.000
  218.000    0.287    0.404   88.663    5.915    0.000
  218.250    0.372    0.416   91.130    5.806    0.000
  218.500    0.340    0.444   91.157    5.700    0.000
  218.750    0.336    0.409   88.133    5.701    0.000
  219.000    0.323    0.407   83.892    5.809    0.000
  219.250    0.322    0.400   90.022    5.918    0.000
  219.500    0.311    0.380   89.434    6.143    0.000
  219.750    0.308    0.372   88.241    6.376    0.000
  220.000    0.336    0.370   90.708    6.743    0.000
  220.250    0.241    0.366   89.513    6.999    0.000
  220.500    0.232    0.386   82.831    7.264    0.000
  220.750    0.230    0.375   83.478    7.540    0.000
  221.000    0.227    0.371   84.716    7.973    0.000
  221.250    0.223    0.370   89.016    8.431    0.000
  221.500    0.227    0.368   85.990    8.590    0.000
  221.750    0.239    0.360   82.968    8.752    0.000
  222.000    0.224    0.366   78.725    8.917    0.000
  222.250    0.222    0.353   72.657    9.086    0.000
  222.500    0.240    0.346   77.560    9.257    0.000
  222.750    0.259    0.343   78.197    9.432    0.000
  223.000    0.248    0.381   79.449    9.790    0.000
  223.250    0.234    0.387   81.909    9.975    0.000
  223.500    0.241    0.389   83.773   10.163    0.000
  223.750    0.231    0.376   81.355   10.355    0.000
  224.000    0.224    0.373   83.825   10.166    0.000
  224.250    0.221    0.368   93.005    9.980    0.000
  224.500    0.230    0.368   91.192    9.797    0.000
  224.750    0.242    0.376   85.120    9.618    0.000
  225.000    0.232    0.365   85.148    9.443    0.000
  225.250    0.228    0.359   90.055    9.270    0.000
  225.500    0.233    0.360   92.533    9.101    0.000
  225.750    0.225    0.363   89.505    8.934    0.000
  226.000    0.220    0.358   84.650    8.610    0.000
  226.250    0.218    0.354   88.340    8.453    0.000
  226.500    0.266    0.363   89.581    7.996    0.000
  226.750    0.257    0.365   87.778    7.705    0.000
  227.000    0.233    0.379   84.765    7.425    0.000
  227.250    0.238    0.374   87.838    7.156    0.000
  227.500    0.236    0.368   90.301    7.156    0.000
  227.750    0.229    0.390   92.160    7.026    0.000
  228.000    0.237    0.394   91.570    6.897    0.000
  228.250    0.248    0.385   88.549    6.771    0.000
  228.500    0.251    0.373   89.795    6.772    0.000
  228.750    0.255    0.361   87.993    6.773    0.000
  229.000    0.263    0.386   91.068    6.649    0.000
  229.250    0.244    0.416   90.486    6.650    0.000
