~VERSION INFORMATION
 VERS.                 2.0:   CWLS LOG ASCII STANDARD -VERSION 2.0
 WRAP.                  NO:   ONE LINE PER DEPTH STEP
~WELL INFORMATION BLOCK
#MNEM.UNIT           DATA                    DESCRIPTION OF MNEMONIC
#---------    -------------------            -------------------------------
# Generated from Intellog Unique Number	CW_70_72/WELL/1043
NULL.         -999.25                        : NULL_VALUE
WELL.         NORCEN WESTBURNE SPUR 10-26    : Well_name    - WELL              
LOC .         10-26-072-02W5                 : Location     - LOCATION          
UWI .         00/10-26-072-02W5/0            : Uwi          - UNIQUE WELL ID    
ENTR.         JAYE                           : Entered      - ENTERED BY        
SRVC.         COMPUTALOG                     : Scn          - SERVICE COMPANY   
DATE.         25 JAN 85                      : Date         - LOG DATE          
STRT.M        385                            : top_depth    - START DEPTH       
STOP.M        618                            : bot_depth    - STOP DEPTH        
STEP.M        0.25                           : increment    - STEP LENGTH       
~CURVE INFORMATION BLOCK
#MNEM UNIT       ERCB CURVE CODE    CURVE DESCRIPTION
#-----------   ------------------   ----------------------------------
DEPT.M        00 001 00 00         : DEPTH        - DEPTH                       
DPHI.V/V      00 890 00 00         : PHID         - DENSITY POROSITY (SANDSTONE)
NPHI.V/V      00 330 00 00         : PHIN         - NEUTRON POROSITY (SANDSTONE)
GR  .API      00 310 00 00         : GR           - GAMMA RAY                   
CALI.MM       00 280 01 00         : CAL          - CALIPER                     
ILD .OHMM     00 120 00 00         : RESD         - DEEP RESISTIVITY (DIL)      
~PARAMETER INFORMATION       
#MNEM.UNIT           DATA             DESCRIPTION OF MNEMONIC
#---------         -----------     ------------------------------
GL  .M        594.25               : gl           - GROUND LEVEL ELEVATION      
EREF.M        598.3                : kb           - ELEVATION OF DEPTH REFERENCE
DATM.M        594.25               : datum        - DATUM ELEVATION             
TDD .M        627                  : tdd          - TOTAL DEPTH DRILLER         
RUN .         ONE                  : Run          - RUN NUMBER                  
ENG .         HUDSON               : Engineer     - RECORDING ENGINEER          
WIT .         MCLEOD               : Witness      - WITNESSED BY                
BASE.         GRANDE PRAIRIE       : Branch       - HOME BASE OF LOGGING UNIT   
MUD .         GEL CHEM             : Mud_type     - MUD TYPE                    
MATR.         SANDSTONE            : Logunit      - NEUTRON MATRIX              
TMAX.C        36                   : BHT          - MAXIMUM RECORDED TEMPERATURE
BHTD.M        623.2                : BHTDEP       - MAXIMUM RECORDED TEMPERATURE
RMT .C        14                   : MDTP         - TEMPERATURE OF MUD          
MUDD.KG/M     1130                 : MWT          - MUD DENSITY                 
NEUT.         1                    : NEUTRON      - NEUTRON TYPE                
RESI.         0                    : RESIST       - RESISTIVITY TYPE            
RM  .OHMM     4                    : RM           - RESISTIVITY OF MUD          
RMC .OHMM     3.4                  : RMC          - RESISTIVITY OF MUD CAKE     
RMF .OHMM     3.5                  : RMF          - RESISTIVITY OF MUD FILTRATE 
SUFT.C        32                   : SUFT         - SURFACE TEMPERATURE         
~A  DEPTH     PHID     PHIN       GR      CAL     RESD
# ...
  494.500    0.243    0.395   70.228  202.786    4.891
  494.750    0.222    0.383   69.261  202.963    5.061
  495.000    0.192    0.327   68.923  203.347    5.379
  495.250    0.170    0.295   67.894  203.941    5.783
  495.500    0.142    0.276   66.799  204.324    6.158
  495.750    0.120    0.257   65.075  204.403    6.812
  496.000    0.097    0.233   61.328  204.474    8.163
  496.250    0.062    0.185   58.654  204.232    9.857
  496.500    0.035    0.165   56.108  203.459   11.589
  496.750    0.016    0.153   53.245  202.162   13.966
  497.000    0.004    0.141   50.067  200.445   15.627
  497.250    0.006    0.165   49.288  198.411   16.641
  497.500    0.041    0.191   51.035  197.744   16.483
  497.750    0.062    0.223   51.711  198.335   15.333
  498.000    0.067    0.215   51.690  198.724   13.967
  498.250    0.042    0.195   53.881  199.010   12.085
  498.500    0.008    0.229   58.153  199.396   10.398
  498.750    0.066    0.259   62.240  199.887    8.710
  499.000    0.117    0.286   65.627  199.540    7.255
  499.250    0.180    0.318   65.034  196.658    6.055
  499.500    0.198    0.327   65.143  195.787    5.150
  499.750    0.211    0.302   65.818  195.120    4.265
  500.000    0.223    0.329   66.937  194.666    3.663
  500.250    0.239    0.387   68.622  194.315    3.477
  500.500    0.266    0.405   70.621  193.862    3.171
  500.750    0.279    0.418   71.925  193.828    3.009
  501.000    0.274    0.416   72.287  193.897    2.917
  501.250    0.259    0.407   72.897  194.177    2.849
  501.500    0.256    0.405   72.751  194.771    2.805
  501.750    0.259    0.410   73.615  195.056    2.809
  502.000    0.268    0.405   72.521  195.542    2.861
  502.250    0.273    0.402   66.373  195.719    2.959
  502.500    0.271    0.404   63.386  195.791    3.072
  502.750    0.268    0.404   64.815  195.968    3.184
  503.000    0.269    0.402   64.481  196.464    3.151
  503.250    0.273    0.392   59.848  196.850    2.975
  503.500    0.281    0.382   59.450  197.238    2.771
  503.750    0.287    0.374   63.788  196.464    2.625
  504.000    0.288    0.375   69.704  195.168    2.540
  504.250    0.291    0.381   65.389  193.766    2.476
  504.500    0.296    0.383   65.998  193.737    2.428
  504.750    0.298    0.388   68.569  194.019    2.381
  505.000    0.287    0.400   70.254  194.090    2.361
  505.250    0.286    0.416   69.791  194.369    2.369
  505.500    0.295    0.434   69.076  194.337    2.377
  505.750    0.301    0.431   67.096  194.197    2.380
  506.000    0.298    0.420   66.129  195.319    2.369
  506.250    0.291    0.412   66.110  196.340    2.363
  506.500    0.290    0.412   66.594  196.825    2.398
  506.750    0.299    0.422   67.392  196.375    2.457
  507.000    0.299    0.423   68.511  194.342    2.620
  507.250    0.288    0.418   69.877  192.093    2.859
  507.500    0.261    0.398   69.859  191.852    3.240
  507.750    0.239    0.348   68.195  192.973    3.758
  508.000    0.211    0.333   65.713  193.995    4.341
  508.250    0.176    0.359   65.819  195.331    4.692
  508.500    0.187    0.404   65.988  196.559    4.479
  508.750    0.210    0.416   66.408  197.262    4.086
  509.000    0.269    0.408   66.769  197.436    3.740
  509.250    0.288    0.408   67.755  196.554    3.295
  509.500    0.282    0.411   69.442  196.208    3.028
  509.750    0.285    0.411   71.822  195.962    3.022
  510.000    0.284    0.402   72.748  196.353    3.118
  510.250    0.250    0.362   71.403  196.844    3.495
  510.500    0.205    0.319   68.413  197.755    4.235
  510.750    0.157    0.299   64.919  198.566    4.874
  511.000    0.122    0.281   60.920  198.844    5.129
  511.250    0.107    0.265   61.971  199.023    4.687
  511.500    0.096    0.263   63.909  199.097    4.074
  511.750    0.154    0.297   67.301  199.062    3.450
  512.000    0.198    0.340   71.196  198.602    2.999
  512.250    0.250    0.370   71.554  197.938    2.804
  512.500    0.261    0.389   71.216  196.957    2.750
  512.750    0.260    0.398   70.882  196.077    2.838
  513.000    0.253    0.402   69.915  195.310    3.027
  513.250    0.248    0.392   71.535  194.752    3.192
  513.500    0.242    0.381   74.546  194.607    3.345
  513.750    0.227    0.365   77.937  195.100    3.499
  514.000    0.208    0.391   81.012  195.799    3.662
  514.250    0.199    0.417   81.243  196.086    3.773
  514.500    0.207    0.431   81.915  196.155    3.873
  514.750    0.208    0.426   81.897  196.439    3.953
  515.000    0.211    0.400   78.465  196.723    4.035
  515.250    0.219    0.382   79.645  197.843    4.102
  515.500    0.205    0.392   81.392  198.968    4.123
  515.750    0.193    0.430   83.140  199.252    4.121
  516.000    0.180    0.428   83.626  197.529    4.086
  516.250    0.191    0.419   79.120  196.553    3.992
  516.500    0.202    0.411   78.152  195.043    3.899
  516.750    0.212    0.407   78.575  193.109    3.781
  517.000    0.220    0.405   80.067  192.341    3.722
  517.250    0.226    0.404   81.882  192.521    3.710
  517.500    0.220    0.407   84.577  195.641    3.715
  517.750    0.208    0.409   87.019  198.136    3.780
  518.000    0.201    0.408   87.189  199.367    3.857
  518.250    0.205    0.411   82.936  198.169    3.960
  518.500    0.199    0.424   78.116  196.872    4.056
  518.750    0.201    0.439   75.254  195.472    4.154
  519.000    0.215    0.419   74.413  194.178    4.224
  519.250    0.206    0.390   76.855  193.088    4.254
  519.500    0.201    0.379   78.856  192.104    4.259
  519.750    0.202    0.386   80.603  191.438    4.193
  520.000    0.200    0.394   86.141  191.301    4.127
  520.250    0.186    0.403   87.509  191.163    4.054
  520.500    0.196    0.397   81.614  190.813    4.028
  520.750    0.204    0.400   77.806  190.565    4.034
  521.000    0.193    0.412   82.964  191.167    4.055
  521.250    0.186    0.433   86.417  194.078    4.107
  521.500    0.182    0.438   87.406  196.468    4.184
  521.750    0.178    0.425   87.702  196.961    4.287
  522.000    0.174    0.421   88.630  197.032    4.374
  522.250    0.184    0.429   91.450  197.098    4.464
  522.500    0.186    0.431   88.715  196.856    4.556
  522.750    0.181    0.427   83.388  196.921    4.641
  523.000    0.190    0.419   83.114  197.208    4.701
  523.250    0.199    0.414   84.357  197.490    4.725
  523.500    0.187    0.416   88.380  197.247    4.760
  523.750    0.174    0.407   93.539  197.315    4.774
  524.000    0.175    0.402   90.359  197.917    4.771
  524.250    0.186    0.401   87.750  198.513    4.778
  524.500    0.185    0.404   89.878  199.216    4.786
  524.750    0.179    0.410   92.760  200.025    4.800
  525.000    0.176    0.406   94.573  201.042    4.861
  525.250    0.176    0.398   93.793  202.166    4.905
  525.500    0.173    0.399   92.638  202.870    4.939
  525.750    0.168    0.402   91.100  203.044    4.955
  526.000    0.161    0.409   90.575  201.326    4.993
  526.250    0.156    0.416   91.312  197.820    5.047
  526.500    0.165    0.413   92.679  195.786    5.111
  526.750    0.168    0.410   94.493  195.223    5.167
  527.000    0.173    0.417   93.525  195.078    5.182
  527.250    0.184    0.408   85.863  195.043    5.102
  527.500    0.200    0.397   86.409  195.221    4.861
  527.750    0.206    0.388   88.473  195.818    4.553
  528.000    0.193    0.414   91.737  197.686    4.256
  528.250    0.179    0.434   94.053  197.965    4.063
  528.500    0.169    0.437   95.487  197.506    4.108
  528.750    0.155    0.427   97.170  197.897    4.241
  529.000    0.159    0.415   98.729  199.023    4.446
  529.250    0.156    0.421   99.847  200.881    4.695
  529.500    0.153    0.421   96.162  201.267    5.055
  529.750    0.147    0.413   90.837  201.440    5.454
  530.000    0.140    0.403   91.697  201.619    5.749
  530.250    0.149    0.395   92.123  201.791    5.889
  530.500    0.164    0.402   88.184  202.077    5.944
  530.750    0.178    0.416   95.240  202.151    5.985
