~VERSION INFORMATION
 VERS.                 2.0:   CWLS LOG ASCII STANDARD -VERSION 2.0
 WRAP.                  NO:   ONE LINE PER DEPTH STEP
~WELL INFORMATION BLOCK
#MNEM.UNIT           DATA                    DESCRIPTION OF MNEMONIC
#---------    -------------------            -------------------------------
# Generated from Intellog Unique Number	CS_73_76/WELL/3251
WELL.         10-32-076-08W4                 : Well_name    - WELL
LOC .         00/10-32-076-08W4/0            : Location     - LOCATION
UWI .         00/10-32-076-08W4/0            : Uwi          - UNIQUE WELL ID
ENTR.         SP                             : Entered      - ENTERED BY
SRVC.         SCHLUMBERGER                   : Scn          - SERVICE COMPANY
STRT.M        198.12                         : top_depth    - START DEPTH
STOP.M        426.37                         : bot_depth    - STOP DEPTH
STEP.M        0.25                           : increment    - STEP LENGTH
 NULL. -999.2500:NULL Value
~CURVE INFORMATION BLOCK
#MNEM UNIT       ERCB CURVE CODE    CURVE DESCRIPTION
#-----------   ------------------   ----------------------------------
DEPT.M        00 001 00 00         : DEPTH        - DEPTH
GR  .API      00 310 00 00         : GR           - GAMMA RAY
DPHI.V/V      00 890 00 00         : PHID         - DENSITY POROSITY (SANDSTONE)
NPHI.V/V      00 330 00 00         : PHIN         - NEUTRON POROSITY (SANDSTONE)
ILD .OHMM     00 120 00 00         : RESD         - DEEP RESISTIVITY (DIL)
~PARAMETER INFORMATION
#MNEM.UNIT           DATA             DESCRIPTION OF MNEMONIC
#---------         -----------     ------------------------------
GL  .M        615.696              : gl           - GROUND LEVEL ELEVATION
EREF.M        618.134              : kb           - ELEVATION OF DEPTH REFERENCE
DATM.M        615.696              : datum        - DATUM ELEVATION
TDD .M        426.72               : tdd          - TOTAL DEPTH DRILLER
RUN .         ONE                  : Run          - RUN NUMBER
ENG .         BILL                 : Engineer     - RECORDING ENGINEER
WIT .         JIM                  : Witness      - WITNESSED BY
MUD .         GEL                  : Mud_type     - MUD TYPE
MATR.         SANDSTONE            : Logunit      - NEUTRON MATRIX
TMAX.C        13.3333              : BHT          - MAXIMUM RECORDED TEMPERATURE
BHTD.M        426.72               : BHTDEP       - MAXIMUM RECORDED TEMPERATURE
MATR.         1                    : LOGUNIT      - NEUTRON MATRIX
RMT .C        25                   : MDTP         - TEMPERATURE OF MUD
NEUT.         1                    : NEUTRON      - NEUTRON TYPE
RESI.         0                    : RESIST       - RESISTIVITY TYPE
RMC .OHMM     0.25                 : RMC          - RESISTIVITY OF MUD CAKE
RMF .OHMM     0.25                 : RMF          - RESISTIVITY OF MUD FILTRATE
SUFT.C        15                   : SUFT         - SURFACE TEMPERATURE
~A  DEPTH       GR     PHID     PHIN     RESD
# ...
  372.120   65.934    0.180    0.370   15.137
  372.370   59.801    0.228    0.391   18.201
  372.620   55.596    0.286    0.409   20.871
  372.870   56.959    0.290    0.422   29.370
  373.120   57.158    0.300    0.412   35.241
  373.370   54.532    0.293    0.399   39.511
  373.620   52.877    0.299    0.399   42.167
  373.870   52.244    0.311    0.397   42.038
  374.120   57.092    0.295    0.400   41.353
  374.370   65.034    0.303    0.399   41.019
  374.620   67.764    0.295    0.388   39.776
  374.870   64.755    0.284    0.378   39.325
  375.120   64.093    0.298    0.394   38.319
  375.370   66.137    0.302    0.405   38.391
  375.620   66.626    0.305    0.414   37.668
  375.870   68.226    0.304    0.417   37.736
  376.120   70.686    0.299    0.405   37.714
  376.370   73.330    0.319    0.399   38.529
  376.620   74.471    0.319    0.405   38.593
  376.870   74.441    0.319    0.399   39.214
  377.120   74.214    0.314    0.390   39.564
  377.370   75.511    0.321    0.387   39.926
  377.620   77.466    0.314    0.389   39.413
  377.870   78.378    0.310    0.394   36.636
  378.120   79.032    0.313    0.401   33.000
  378.370   79.775    0.319    0.403   24.073
  378.620   82.720    0.304    0.386   18.810
  378.870   90.014    0.296    0.379   13.888
  379.120   98.998    0.288    0.392   11.553
  379.370  107.029    0.263    0.399    9.619
  379.620  113.225    0.235    0.409    9.145
  379.870  120.122    0.180    0.410    8.602
  380.120  122.718    0.218    0.424    8.302
  380.370  126.177    0.244    0.438    8.673
  380.620  115.229    0.239    0.449    9.956
  380.870   94.013    0.260    0.461   11.714
  381.120   81.553    0.282    0.473   13.204
  381.370   76.152    0.300    0.468   14.746
  381.620   79.608    0.306    0.452   16.113
  381.870   81.419    0.289    0.436   16.438
  382.120   77.694    0.276    0.423   16.123
  382.370   74.339    0.274    0.406   15.288
  382.620   73.919    0.281    0.388   14.408
  382.870   76.745    0.267    0.379   13.609
  383.120   81.638    0.249    0.371   13.001
  383.370   82.944    0.236    0.364   12.611
  383.620   85.862    0.244    0.367   12.258
  383.870   89.641    0.266    0.376   12.085
  384.120   93.850    0.263    0.382   12.063
  384.370   92.181    0.254    0.383   12.343
  384.620   88.660    0.252    0.383   13.689
  384.870   85.478    0.264    0.389   14.058
  385.120   83.595    0.274    0.397   14.481
  385.370   88.751    0.321    0.413   14.801
  385.620   92.343    0.318    0.426   14.475
  385.870   95.174    0.288    0.424   14.269
  386.120   96.620    0.255    0.405   13.471
  386.370   94.855    0.231    0.392   12.412
  386.620   92.408    0.217    0.390   11.910
  386.870   91.216    0.216    0.379   11.225
  387.120   89.955    0.228    0.369   10.815
  387.370   89.463    0.241    0.386   10.498
  387.620   88.649    0.259    0.387   10.232
  387.870   87.710    0.271    0.386   10.460
  388.120   87.776    0.256    0.395   10.578
  388.370   85.410    0.241    0.404   10.931
  388.620   83.016    0.241    0.403   11.053
  388.870   82.264    0.237    0.390   11.278
  389.120   84.997    0.217    0.395   11.235
  389.370   91.881    0.213    0.373   10.887
  389.620   96.938    0.235    0.393   10.504
  389.870   98.883    0.230    0.400    9.666
  390.120   98.266    0.223    0.399    9.270
  390.370   97.816    0.206    0.401    8.808
  390.620  100.255    0.209    0.402    8.567
  390.870  105.077    0.216    0.399    8.318
  391.120  103.798    0.199    0.404    8.077
  391.370  105.824    0.192    0.410    7.839
  391.620  109.375    0.212    0.405    7.844
  391.870  111.426    0.217    0.400    7.852
  392.120  109.525    0.207    0.407    7.713
  392.370  106.197    0.213    0.406    7.790
  392.620  105.141    0.208    0.406    7.842
  392.870  105.794    0.202    0.412    7.981
  393.120  104.006    0.196    0.412    7.982
  393.370  102.116    0.185    0.406    8.160
  393.620  100.344    0.177    0.406    8.137
  393.870   96.079    0.017    0.407    8.321
  394.120   94.651    0.024    0.400    8.309
  394.370   96.271    0.071    0.390    8.305
  394.620  101.822    0.182    0.379    8.265
  394.870  105.163    0.188    0.379    8.166
  395.120  107.369    0.178    0.388    7.926
  395.370  111.121    0.198    0.379    7.694
  395.620  112.960    0.211    0.381    7.592
  395.870  109.593    0.223    0.395    7.526
  396.120  106.477    0.206    0.402    7.481
  396.370  109.740    0.208    0.413    7.717
  396.620  110.344    0.202    0.417    7.950
  396.870  107.873    0.192    0.414    8.188
  397.120  105.254    0.168    0.411    8.301
  397.370  104.541    0.163    0.413    8.332
  397.620  104.586    0.162    0.400    8.342
  397.870  106.133    0.182    0.379    8.183
  398.120  107.862    0.200    0.393    8.195
  398.370  109.777    0.201    0.403    8.200
  398.620  110.301    0.191    0.414    8.296
  398.870  106.897    0.191    0.404    8.380
  399.120  104.607    0.197    0.411    8.517
  399.370  103.634    0.213    0.415    8.516
  399.620  103.421    0.210    0.401    8.522
  399.870  105.242    0.201    0.392    8.394
  400.120  108.878    0.191    0.396    8.372
  400.370  111.021    0.172    0.404    8.371
  400.620  111.115    0.164    0.401    8.373
  400.870  108.510    0.165    0.396    8.375
  401.120  106.904    0.160    0.403    8.378
  401.370  105.784    0.174    0.410    8.397
  401.620  109.164    0.183    0.407    8.218
  401.870  112.004    0.180    0.397    8.226
  402.120  115.897    0.176    0.391    8.406
  402.370  118.931    0.172    0.403    8.410
  402.620  121.962    0.174    0.403    8.674
  402.870  122.469    0.160    0.387    8.848
  403.120  122.111    0.153    0.385    9.215
  403.370  122.126    0.184    0.376    9.440
  403.620  119.579    0.228    0.387   10.538
  403.870  111.979    0.229    0.417   14.633
  404.120   98.364    0.236    0.440   19.946
  404.370   84.453    0.287    0.446   22.177
  404.620   76.646    0.312    0.428   25.497
  404.870   67.966    0.299    0.423   29.420
  405.120   60.135    0.331    0.435   35.032
  405.370   52.280    0.352    0.435   38.040
  405.620   49.939    0.353    0.439   43.067
  405.870   50.039    0.342    0.442   45.355
  406.120   54.304    0.333    0.431   46.740
  406.370   59.649    0.321    0.409   47.424
  406.620   62.396    0.315    0.402   45.713
  406.870   61.920    0.313    0.407   35.730
  407.120   55.320    0.322    0.421   32.399
  407.370   49.429    0.333    0.428   30.894
  407.620   47.596    0.332    0.434   36.740
  407.870   45.043    0.333    0.443   44.058
  408.120   44.166    0.342    0.446   53.833
  408.370   44.373    0.351    0.440   62.235
  408.620   45.174    0.351    0.438   67.308
  408.870   43.535    0.347    0.426   70.115
  409.120   44.564    0.337    0.420   73.341
  409.370   47.150    0.339    0.426   73.142
  409.620   46.159    0.340    0.436   72.048
  409.870   45.340    0.342    0.434   71.377
  410.120   47.675    0.342    0.434   70.559
  410.370   49.229    0.341    0.430   69.625
  410.620   49.091    0.334    0.423   68.985
  410.870   47.084    0.327    0.414   68.061
  411.120   45.473    0.311    0.417   68.024
  411.370   44.607    0.304    0.409   67.710
  411.620   45.191    0.322    0.393   66.983
  411.870   46.419    0.324    0.395   71.688
  412.120   48.455    0.344    0.410   68.175
  412.370   50.474    0.342    0.430   65.094
  412.620   50.118    0.327    0.449   65.089
  412.870   48.108    0.327    0.446   63.737
  413.120   47.630    0.335    0.441   59.373
  413.370   46.936    0.347    0.445   56.930
  413.620   47.002    0.342    0.444   55.135
  413.870   47.388    0.331    0.435   54.541
  414.120   48.740    0.335    0.427   52.612
  414.370   51.579    0.347    0.423   46.957
  414.620   53.841    0.337    0.407   44.245
  414.870   54.564    0.334    0.429   41.041
  415.120   53.955    0.356    0.483   39.787
  415.370   54.712    0.361    0.484   39.730
