~VERSION INFORMATION
 VERS.                 2.0:   CWLS LOG ASCII STANDARD -VERSION 2.0
 WRAP.                  NO:   ONE LINE PER DEPTH STEP
~WELL INFORMATION BLOCK
#MNEM.UNIT           DATA                    DESCRIPTION OF MNEMONIC
#---------    -------------------            -------------------------------
# Generated from Intellog Unique Number	CS_77_79/WELL/999
WELL.         HUSKEY OIL OPERATIONS LTD      : Well_name    - WELL
LOC .         00/11-26-077-16W4/0            : Location     - LOCATION
UWI .         00/11-26-077-16W4/0            : Uwi          - UNIQUE WELL ID
ENTR.         SP                             : Entered      - ENTERED BY
SRVC.         SCHLUMBERGER                   : Scn          - SERVICE COMPANY
STRT.M        280                            : top_depth    - START DEPTH
STOP.M        480                            : bot_depth    - STOP DEPTH
STEP.M        0.25                           : increment    - STEP LENGTH
 NULL. -999.2500:NULL Value
~CURVE INFORMATION BLOCK
#MNEM UNIT       ERCB CURVE CODE    CURVE DESCRIPTION
#-----------   ------------------   ----------------------------------
DEPT.M        00 001 00 00         : DEPTH        - DEPTH
ILD .OHMM     00 120 00 00         : RESD         - DEEP RESISTIVITY (DIL)
DPHI.V/V      00 890 00 00         : PHID         - DENSITY POROSITY (LIMESTONE)
NPHI.V/V      00 330 00 00         : PHIN         - NEUTRON POROSITY (LIMESTONE)
GR  .API      00 310 00 00         : GR           - GAMMA RAY
~PARAMETER INFORMATION
#MNEM.UNIT           DATA             DESCRIPTION OF MNEMONIC
#---------         -----------     ------------------------------
GL  .M        672.11               : gl           - GROUND LEVEL ELEVATION
EREF.M        675.69               : kb           - ELEVATION OF DEPTH REFERENCE
DATM.M        672.11               : datum        - DATUM ELEVATION
TDD .M        487                  : tdd          - TOTAL DEPTH DRILLER
RUN .         ONE                  : Run          - RUN NUMBER
ENG .         BILL                 : Engineer     - RECORDING ENGINEER
WIT .         JIM                  : Witness      - WITNESSED BY
MUD .         GEL                  : Mud_type     - MUD TYPE
MATR.         LIMESTONE            : Logunit      - NEUTRON MATRIX
TMAX.C        22                   : BHT          - MAXIMUM RECORDED TEMPERATURE
BHTD.M        487                  : BHTDEP       - MAXIMUM RECORDED TEMPERATURE
MATR.         1                    : LOGUNIT      - NEUTRON MATRIX
RMT .C        25                   : MDTP         - TEMPERATURE OF MUD
NEUT.         1                    : NEUTRON      - NEUTRON TYPE
RESI.         0                    : RESIST       - RESISTIVITY TYPE
RMC .OHMM     0.25                 : RMC          - RESISTIVITY OF MUD CAKE
RMF .OHMM     0.25                 : RMF          - RESISTIVITY OF MUD FILTRATE
SUFT.C        15                   : SUFT         - SURFACE TEMPERATURE
~A  DEPTH     RESD     PHID     PHIN       GR
# ...
  323.500   12.010    0.257    0.457   78.182
  323.750   10.346    0.236    0.383   77.573
  324.000    8.910    0.186    0.355   79.403
  324.250    6.989    0.206    0.360   85.501
  324.500    5.800    0.236    0.405   95.258
  324.750    5.186    0.250    0.463  102.576
  325.000    4.551    0.232    0.479  106.845
  325.250    4.146    0.232    0.469  108.675
  325.500    4.557    0.237    0.467  104.407
  325.750    4.822    0.242    0.490   98.311
  326.000    5.818    0.255    0.509   93.433
  326.250    6.888    0.267    0.494   88.556
  326.500    8.790    0.294    0.472   80.020
  326.750   10.216    0.311    0.473   72.704
  327.000   10.811    0.328    0.468   69.046
  327.250   10.420    0.323    0.474   67.827
  327.500    9.673    0.324    0.486   67.828
  327.750    8.027    0.323    0.492   69.658
  328.000    7.314    0.318    0.506   78.196
  328.250    6.916    0.312    0.514   82.465
  328.500    6.920    0.306    0.523   88.563
  328.750    7.747    0.299    0.519   92.832
  329.000    8.354    0.301    0.494   92.833
  329.250    8.840    0.304    0.475   90.394
  329.500    9.714    0.301    0.448   86.737
  329.750    9.719    0.298    0.442   86.127
  330.000    9.544    0.291    0.435   86.738
  330.250    9.370    0.283    0.430   89.178
  330.500    9.201    0.265    0.431   92.837
  330.750    9.035    0.276    0.431   88.570
  331.000    8.547    0.273    0.417   84.302
  331.250    7.787    0.273    0.414   86.132
  331.500    6.963    0.287    0.459   87.352
  331.750    7.510    0.300    0.474   81.255
  332.000    8.249    0.267    0.493   75.159
  332.250    9.953    0.288    0.469   67.842
  332.500   12.008    0.301    0.448   62.965
  332.750   15.041    0.293    0.430   54.429
  333.000   16.217    0.299    0.408   46.503
  333.250   15.058    0.265    0.409   44.065
  333.500   13.215    0.250    0.409   47.724
  333.750   11.815    0.250    0.416   52.603
  334.000   12.046    0.266    0.439   55.043
  334.250   12.510    0.254    0.448   66.019
  334.500   14.009    0.263    0.464   71.508
  334.750   15.105    0.302    0.448   67.240
  335.000   16.596    0.306    0.430   55.656
  335.250   17.561    0.315    0.413   48.339
  335.500   18.934    0.316    0.414   43.462
  335.750   21.602    0.318    0.414   43.463
  336.000   22.433    0.324    0.409   44.073
  336.250   23.745    0.312    0.406   47.123
  336.500   25.603    0.322    0.423   50.172
  336.750   27.605    0.323    0.439   51.392
  337.000   33.943    0.310    0.444   49.564
  337.250   37.284    0.301    0.434   48.346
  337.500   44.147    0.302    0.445   48.956
  337.750   53.272    0.306    0.461   49.566
  338.000   57.435    0.318    0.465   50.177
  338.250   61.934    0.316    0.442   50.787
  338.500   56.444    0.313    0.429   49.569
  338.750   53.378    0.307    0.430   49.569
  339.000   49.556    0.299    0.447   48.960
  339.250   46.002    0.312    0.470   48.961
  339.500   41.142    0.317    0.463   48.962
  339.750   39.641    0.322    0.442   47.743
  340.000   36.812    0.318    0.437   47.744
  340.250   35.476    0.312    0.437   48.354
  340.500   34.834    0.302    0.451   49.575
  340.750   33.571    0.313    0.462   52.015
  341.000   32.354    0.305    0.470   52.625
  341.250   31.177    0.302    0.475   51.406
  341.500   28.943    0.306    0.478   49.578
  341.750   26.864    0.312    0.480   48.969
  342.000   23.142    0.318    0.479   49.580
  342.250   19.565    0.321    0.484   50.800
  342.500   17.825    0.322    0.492   52.630
  342.750   16.546    0.318    0.476   53.240
  343.000   15.361    0.313    0.445   52.631
  343.250   14.263    0.308    0.419   51.412
  343.500   13.746    0.311    0.431   52.023
  343.750   13.751    0.308    0.424   52.634
  344.000   13.500    0.310    0.417   52.634
  344.250   13.508    0.313    0.411   50.806
  344.500   13.774    0.306    0.407   49.587
  344.750   13.780    0.301    0.425   48.978
  345.000   13.786    0.305    0.426   47.759
  345.250   13.793    0.306    0.415   48.370
  345.500   13.543    0.307    0.400   48.370
  345.750   13.549    0.310    0.387   48.371
  346.000   13.305    0.320    0.397   47.152
  346.250   13.067    0.329    0.418   45.933
  346.500   13.072    0.313    0.431   45.325
  346.750   12.838    0.318    0.418   45.325
  347.000   12.843    0.318    0.420   46.546
  347.250   12.850    0.318    0.435   46.546
  347.500   12.621    0.313    0.439   47.157
  347.750   12.625    0.319    0.424   47.767
  348.000   12.636    0.310    0.404   47.768
  348.250   12.407    0.303    0.396   47.160
  348.500   12.413    0.295    0.400   47.160
  348.750   12.188    0.300    0.412   47.770
  349.000   12.193    0.307    0.425   47.771
  349.250   12.197    0.311    0.431   48.992
  349.500   11.982    0.318    0.437   50.212
  349.750   11.987    0.325    0.443   47.164
  350.000   11.770    0.330    0.449   46.555
  350.250   11.776    0.324    0.437   47.165
  350.500   11.783    0.334    0.430   47.776
  350.750   11.789    0.340    0.420   47.777
  351.000   11.794    0.337    0.420   47.777
  351.250   12.021    0.336    0.430   47.778
  351.500   12.257    0.334    0.428   48.389
  351.750   12.729    0.319    0.408   48.389
  352.000   13.222    0.306    0.403   48.390
  352.250   13.736    0.313    0.404   48.391
  352.500   14.267    0.319    0.419   48.392
  352.750   14.275    0.329    0.417   48.392
  353.000   14.552    0.328    0.403   47.174
  353.250   14.559    0.324    0.402   46.565
  353.500   14.294    0.323    0.428   45.346
  353.750   14.034    0.330    0.442   45.347
  354.000   13.277    0.340    0.463   45.957
  354.250   12.795    0.344    0.464   46.568
  354.500   12.330    0.352    0.458   47.788
  354.750   11.666    0.361    0.435   48.398
  355.000   11.454    0.351    0.424   49.619
  355.250   11.461    0.341    0.437   50.229
  355.500   11.254    0.351    0.458   48.401
  355.750   11.052    0.361    0.468   46.572
  356.000   12.140    0.351    0.457   47.183
  356.250   11.698    0.350    0.452   48.403
  356.500   11.490    0.339    0.452   47.794
  356.750   11.493    0.334    0.464   46.575
  357.000   11.285    0.333    0.472   48.405
  357.250   11.292    0.337    0.485   50.235
  357.500   11.089    0.337    0.481   51.456
  357.750   10.888    0.324    0.485   55.115
  358.000   10.893    0.315    0.485   56.945
  358.250   10.899    0.331    0.477   58.775
  358.500   10.908    0.336    0.464   59.995
  358.750   10.912    0.324    0.469   59.386
  359.000   10.917    0.318    0.475   56.338
  359.250   10.925    0.334    0.470   58.778
  359.500   10.930    0.330    0.460   59.998
  359.750   10.934    0.324    0.459   61.218
  360.000   10.736    0.318    0.494   62.439
  360.250   10.347    0.312    0.497   63.049
  360.500    9.787    0.304    0.491   64.879
  360.750    9.086    0.312    0.488   67.929
  361.000    8.593    0.320    0.488   68.540
  361.250    8.129    0.318    0.479   69.760
  361.500    7.981    0.314    0.489   70.371
  361.750    7.692    0.300    0.508   70.371
  362.000    7.696    0.306    0.515   70.372
  362.250    7.996    0.291    0.521   71.593
  362.500    8.148    0.278    0.504   72.203
  362.750    8.625    0.263    0.487   73.423
  363.000    9.128    0.272    0.513   70.375
  363.250    9.480    0.286    0.509   63.059
  363.500   10.419    0.302    0.482   58.181
  363.750   11.235    0.300    0.455   55.743
  364.000   11.669    0.314    0.458   54.525
  364.250   12.119    0.315    0.455   53.306
  364.500   12.588    0.311    0.440   52.087
  364.750   12.594    0.314    0.449   50.258
  365.000   12.837    0.320    0.460   49.040
  365.250   12.848    0.314    0.470   48.431
  365.500   13.095    0.304    0.466   49.041
  365.750   13.347    0.297    0.457   49.042
  366.000   13.866    0.298    0.448   49.652
  366.250   14.132    0.304    0.446   49.653
  366.500   15.241    0.300    0.452   49.654
  366.750   16.747    0.295    0.452   52.703
