~VERSION INFORMATION
 VERS.                 2.0:   CWLS LOG ASCII STANDARD -VERSION 2.0
 WRAP.                  NO:   ONE LINE PER DEPTH STEP
~WELL INFORMATION BLOCK
#MNEM.UNIT           DATA                    DESCRIPTION OF MNEMONIC
#---------    -------------------            -------------------------------
# Generated from Intellog Unique Number	CC_80_83/WELL/2409
NULL.         -999.25                        : NULL_VALUE
WELL.         PEX HOUSE                      : Well_name    - WELL
LOC .         11-26-080-16W4                 : Location     - LOCATION          
UWI .         00/11-26-080-16W4/0            : Uwi          - UNIQUE WELL ID    
ENTR.         DW                             : Entered      - ENTERED BY        
SRVC.         SCHLUMBERGER                   : Scn          - SERVICE COMPANY   
DATE.         13 FEB 82                      : Date         - LOG DATE
STRT.M        152                            : top_depth    - START DEPTH       
STOP.M        385.096                        : bot_depth    - STOP DEPTH        
STEP.M        0.3                            : increment    - STEP LENGTH       
~CURVE INFORMATION BLOCK
#MNEM UNIT       ERCB CURVE CODE    CURVE DESCRIPTION
#-----------   ------------------   ----------------------------------
DEPT.M        00 001 00 00         : DEPTH        - DEPTH                       
DPHI.V/V      00 890 00 00         : PHID         - DENSITY POROSITY (LIMESTONE)
NPHI.V/V      00 330 00 00         : PHIN         - NEUTRON POROSITY (LIMESTONE)
GR  .API      00 310 00 00         : GR           - GAMMA RAY                   
ILD .OHMM     00 120 00 00         : RESD         - DEEP RESISTIVITY (DIL)      
~PARAMETER INFORMATION       
#MNEM.UNIT           DATA             DESCRIPTION OF MNEMONIC
#---------         -----------     ------------------------------
GL  .M        566.17               : gl           - GROUND LEVEL ELEVATION      
EREF.M        569.97               : kb           - ELEVATION OF DEPTH REFERENCE
DATM.M        569.97               : datum        - DATUM ELEVATION             
TDD .M        380                  : tdd          - TOTAL DEPTH DRILLER         
RUN .         ONE                  : Run          - RUN NUMBER                  
ENG .         BILL                 : Engineer     - RECORDING ENGINEER          
WIT .         JIM                  : Witness      - WITNESSED BY                
MUD .         GEL                  : Mud_type     - MUD TYPE                    
MATR.         LIMESTONE            : Logunit      - NEUTRON MATRIX              
TMAX.C        19.4                 : BHT          - MAXIMUM RECORDED TEMPERATURE
BHTD.M        380                  : BHTDEP       - MAXIMUM RECORDED TEMPERATURE
MATR.         1                    : LOGUNIT      - NEUTRON MATRIX              
RMT .C        25                   : MDTP         - TEMPERATURE OF MUD          
NEUT.         1                    : NEUTRON      - NEUTRON TYPE                
RESI.         0                    : RESIST       - RESISTIVITY TYPE            
RMC .OHMM     0.25                 : RMC          - RESISTIVITY OF MUD CAKE     
RMF .OHMM     0.25                 : RMF          - RESISTIVITY OF MUD FILTRATE 
SUFT.C        15                   : SUFT         - SURFACE TEMPERATURE         
~A  DEPTH     PHID     PHIN       GR     RESD
# ...
  256.401    0.297    0.538   73.533    6.554
  256.701    0.293    0.568   73.538    5.845
  257.001    0.297    0.557   75.402    5.313
  257.301    0.293    0.502   79.126    5.213
  257.601    0.274    0.482   80.990    5.213
  257.901    0.281    0.487   80.995    5.520
  258.201    0.317    0.548   76.661    5.845
  258.501    0.310    0.561   77.285    5.958
  258.801    0.299    0.505   79.769    5.735
  259.101    0.292    0.467   79.154    5.416
  259.401    0.277    0.478   76.679    5.214
  259.701    0.232    0.456   81.022    5.314
  260.001    0.232    0.488   83.507    5.846
  260.301    0.234    0.506   88.471    6.191
  260.601    0.231    0.473   86.615    6.942
  260.901    0.222    0.441   84.142    7.076
  261.201    0.222    0.446   82.906    6.812
  261.501    0.287    0.461   79.812    6.192
  261.801    0.292    0.472   77.337    5.960
  262.101    0.269    0.478   77.343    6.192
  262.401    0.259    0.473   77.345    7.214
  262.701    0.257    0.477   76.731    7.936
  263.001    0.254    0.483   75.496    8.404
  263.301    0.247    0.451   76.120    8.404
  263.601    0.243    0.460   77.984    8.404
  263.901    0.251    0.460   81.088    7.787
  264.201    0.252    0.461   82.333    7.640
  264.501    0.248    0.485   81.098    7.354
  264.801    0.266    0.493   82.343    7.079
  265.101    0.284    0.457   79.867    7.079
  265.401    0.292    0.432   74.912    7.355
  265.701    0.277    0.471   69.959    7.497
  266.001    0.257    0.457   62.524    7.497
  266.301    0.279    0.488   59.430    7.355
  266.601    0.297    0.473   59.435    8.092
  266.901    0.305    0.409   64.398    8.248
  267.201    0.319    0.498   71.221    7.356
  267.501    0.326    0.537   85.483    5.963
  267.801    0.259    0.508   84.869    4.743
  268.101    0.288    0.546   83.633    3.495
  268.401    0.330    0.536   87.357    3.058
  268.701    0.292    0.518   87.362    2.625
  269.001    0.282    0.552   87.366    2.254
  269.301    0.283    0.570   90.471    2.254
  269.600    0.282    0.541   92.954    2.341
  269.900    0.270    0.524   90.480    2.626
  270.200    0.254    0.498   87.385    2.780
  270.500    0.226    0.507   84.910    3.365
  270.800    0.249    0.501   81.816    4.567
  271.100    0.270    0.477   78.102    5.527
  271.400    0.265    0.466   78.108    6.563
  271.700    0.237    0.448   79.351    6.689
  272.000    0.229    0.473   76.875    6.690
  272.300    0.218    0.465   78.739    6.563
  272.600    0.219    0.450   80.603    6.819
  272.900    0.240    0.461   79.989    7.084
  273.200    0.234    0.461   83.093    7.085
  273.500    0.230    0.468   86.197    7.085
  273.800    0.232    0.487   81.244    6.691
  274.100    0.229    0.492   79.387    5.635
  274.400    0.238    0.497   83.112    5.221
  274.700    0.248    0.478   85.596    5.026
  275.000    0.247    0.458   85.600    5.026
  275.300    0.240    0.451   82.506    4.838
  275.600    0.230    0.443   82.511    4.233
  275.900    0.230    0.448   82.515    3.998
  276.200    0.247    0.491   81.281    4.153
  276.500    0.243    0.472   80.045    4.483
  276.800    0.244    0.479   78.809    4.657
  277.100    0.275    0.458   75.095    5.124
  277.400    0.298    0.459   69.521    6.201
  277.700    0.336    0.463   63.327    6.822
  278.000    0.309    0.448   60.233    7.363
  278.300    0.153    0.412   62.098    8.578
  278.600    0.151    0.398   63.960   10.186
  278.900    0.161    0.393   78.222   10.786
  279.200    0.219    0.398   84.426   10.787
  279.500    0.315    0.423   74.512   10.187
  279.800    0.319    0.467   68.319    8.102
  280.100    0.314    0.479   68.324    7.507
  280.400    0.300    0.444   74.527    7.226
  280.700    0.283    0.439   76.391    7.226
  281.000    0.264    0.441   75.776    7.226
  281.300    0.259    0.436   72.682    6.956
  281.600    0.265    0.434   70.826    6.569
  281.900    0.304    0.448   70.211    6.569
  282.200    0.316    0.462   71.455    6.696
  282.500    0.308    0.474   73.939    7.091
  282.800    0.293    0.476   75.184    7.367
  283.100    0.291    0.426   70.850    7.509
  283.400    0.293    0.410   68.374    7.654
  283.700    0.265    0.432   76.438    7.367
  284.000    0.259    0.429   78.922    7.228
  284.300    0.295    0.413   79.547    7.229
  284.600    0.300    0.447   80.791    7.229
  284.900    0.281    0.462   74.597    7.510
  285.200    0.220    0.457   68.402    7.953
  285.500    0.056    0.383   57.249   10.589
  285.800    0.012    0.261   45.477   14.099
  286.100    0.011    0.169   46.722   19.134
  286.400    0.127    0.195   51.065   20.262
  286.700    0.197    0.319   59.748   19.135
  287.000    0.276    0.437   66.571   14.372
  287.300    0.339    0.463   67.816   11.431
  287.600    0.331    0.474   68.441   10.002
  287.900    0.320    0.469   69.066    8.424
  288.200    0.344    0.428   67.830    7.805
  288.500    0.355    0.447   64.735    8.109
  288.800    0.347    0.448   62.880   11.877
  289.100    0.330    0.403   62.265   13.575
  289.400    0.336    0.402   61.650   12.578
  289.700    0.317    0.422   64.135   12.107
  290.000    0.280    0.439   63.519   11.006
  290.300    0.282    0.464   62.905   10.394
  290.600    0.285    0.464   65.388    9.448
  290.900    0.269    0.444   66.632    9.270
  291.200    0.255    0.436   64.777    8.923
  291.500    0.270    0.429   74.080    9.270
  291.800    0.249    0.416   80.903    8.923
  292.100    0.231    0.424   77.189    8.111
  292.400    0.236    0.464   80.913    6.329
  292.700    0.241    0.477   82.777    5.754
  293.000    0.231    0.485   85.261    5.754
  293.300    0.235    0.472   86.507    6.093
  293.600    0.241    0.447   85.270    6.832
  293.900    0.243    0.444   82.796    6.964
  294.199    0.229    0.453   83.420    6.833
  294.499    0.206    0.457   83.424    6.704
  294.799    0.192    0.459   82.190    6.577
  295.099    0.233    0.448   86.533    6.453
  295.399    0.234    0.444   89.638    6.453
  295.699    0.200    0.435   90.882    6.578
  295.999    0.206    0.433   91.507    6.705
  296.299    0.241    0.447   90.893    6.212
  296.599    0.244    0.454   90.276    6.332
  296.899    0.228    0.448   86.561    7.100
  297.199    0.209    0.429   79.748    8.431
  297.499    0.211    0.417   77.272   10.204
  297.799    0.200    0.429   82.857   10.806
  298.099    0.204    0.409   84.102   11.443
  298.399    0.219    0.404   82.246   11.663
  298.699    0.224    0.437   82.870   11.015
  298.999    0.241    0.445   84.734    8.929
  299.299    0.249    0.425   82.260    7.520
  299.599    0.236    0.442   83.505    6.836
  299.899    0.201    0.483   88.469    6.581
  300.199    0.185    0.457   90.952    7.240
  300.499    0.231    0.458   89.717    7.521
  300.799    0.250    0.443   79.804    7.814
  301.099    0.257    0.429   73.609    8.275
  301.399    0.260    0.422   69.895    9.104
  301.699    0.251    0.447   68.040    9.279
  301.999    0.245    0.444   69.286    9.826
  302.299    0.292    0.419   73.009    9.826
  302.599    0.303    0.433   76.733    9.641
  302.899    0.302    0.445   69.918    9.459
  303.199    0.280    0.435   64.964    9.459
  303.499    0.213    0.447   71.168    9.105
  303.799    0.227    0.465   81.710    8.933
  304.099    0.255    0.448   79.235    8.437
  304.399    0.261    0.432   71.181    7.967
  304.699    0.264    0.433   73.665    7.669
  304.999    0.241    0.420   79.249    7.524
  305.299    0.244    0.425   79.255    7.525
  305.599    0.249    0.433   80.499    7.525
  305.899    0.235    0.442   79.883    7.525
  306.199    0.229    0.427   71.829    7.383
  306.499    0.245    0.417   78.032    7.383
  306.799    0.268    0.417   83.617    7.526
  307.099    0.276    0.423   72.464    7.671
  307.399    0.271    0.449   69.989    7.970
  307.699    0.255    0.476   72.472    8.123
  307.999    0.247    0.474   78.676    8.280
  308.299    0.282    0.454   84.259    8.124
