~VERSION INFORMATION
 VERS.                 2.0:   CWLS LOG ASCII STANDARD -VERSION 2.0
 WRAP.                  NO:   ONE LINE PER DEPTH STEP
~WELL INFORMATION BLOCK
#MNEM.UNIT           DATA                    DESCRIPTION OF MNEMONIC
#---------    -------------------            -------------------------------
# Generated from Intellog Unique Number	CX_WELLS/WELL/3723
WELL.         COSEKA ET AL GRANOR            : Well_name    - WELL
LOC .         00/11-35-085-17W4/0            : Location     - LOCATION
UWI .         00/11-35-085-17W400            : Uwi          - UNIQUE WELL ID
ENTR.         T                              : Entered      - ENTERED BY
SRVC.         SCHLUMBERGER                   : Scn          - SERVICE COMPANY
STRT.M        160                            : top_depth    - START DEPTH
STOP.M        260                            : bot_depth    - STOP DEPTH
STEP.M        0.25                           : increment    - STEP LENGTH
 NULL. -999.2500:NULL Value
~CURVE INFORMATION BLOCK
#MNEM UNIT       ERCB CURVE CODE    CURVE DESCRIPTION
#-----------   ------------------   ----------------------------------
DEPT.M        00 001 00 00         : DEPTH        - DEPTH
GR  .API      00 310 00 00         : GR           - GAMMA RAY
NPHI.V/V      00 330 00 00         : PHIN         - NEUTRON POROSITY (SANDSTONE)
ILD .OHMM     00 120 00 00         : RESD         - DEEP RESISTIVITY (DIL)
~PARAMETER INFORMATION
#MNEM.UNIT           DATA             DESCRIPTION OF MNEMONIC
#---------         -----------     ------------------------------
GL  .M        511                  : gl           - GROUND LEVEL ELEVATION
EREF.M        514.55               : kb           - ELEVATION OF DEPTH REFERENCE
DATM.M        514.55               : datum        - DATUM ELEVATION
TDD .M        262                  : tdd          - TOTAL DEPTH DRILLER
RUN .         ONE                  : Run          - RUN NUMBER
ENG .         BILL                 : Engineer     - RECORDING ENGINEER
WIT .         JIM                  : Witness      - WITNESSED BY
MUD .         GEL                  : Mud_type     - MUD TYPE
MATR.         SANDSTONE            : Logunit      - NEUTRON MATRIX
TMAX.C        25                   : BHT          - MAXIMUM RECORDED TEMPERATURE
BHTD.M        262                  : BHTDEP       - MAXIMUM RECORDED TEMPERATURE
MATR.         1                    : LOGUNIT      - NEUTRON MATRIX
RMT .C        25                   : MDTP         - TEMPERATURE OF MUD
NEUT.         1                    : NEUTRON      - NEUTRON TYPE
RESI.         4.3                  : RESIST       - RESISTIVITY TYPE
RMC .OHMM     5                    : RMC          - RESISTIVITY OF MUD CAKE
RMF .OHMM     9                    : RMF          - RESISTIVITY OF MUD FILTRATE
SUFT.C        4                    : SUFT         - SURFACE TEMPERATURE
~A  DEPTH       GR     PHIN     RESD
# ...
  214.250   82.769    0.457   12.069
  214.500   83.421    0.460   11.412
  214.750   85.891    0.460   10.998
  215.000   89.574    0.461   10.022
  215.250   93.257    0.462    9.476
  215.500   95.727    0.466    8.960
  215.750   97.603    0.470    8.004
  216.000   99.478    0.474    7.288
  216.250  100.118    0.477    6.763
  216.500  102.005    0.479    6.774
  216.750  103.240    0.481    6.918
  217.000  104.498    0.481    7.060
  217.250  106.373    0.477    7.491
  217.500  107.620    0.473    7.941
  217.750  107.059    0.458    8.922
  218.000  105.903    0.444    9.826
  218.250  104.140    0.429   14.977
  218.500  103.557    0.407   17.150
  218.750   96.933    0.398   20.001
  219.000   73.927    0.398   28.248
  219.250   59.422    0.400   35.568
  219.500   46.128    0.406   46.526
  219.750   37.068    0.409   50.314
  220.000   36.507    0.414   51.364
  220.250   39.606    0.417   51.447
  220.500   42.065    0.423   51.529
  220.750   43.334    0.429   51.611
  221.000   43.986    0.431   51.694
  221.250   44.020    0.432   51.777
  221.500   45.895    0.434   50.900
  221.750   48.354    0.435   47.257
  222.000   50.825    0.436   44.683
  222.250   55.148    0.437   42.266
  222.500   56.383    0.440   39.964
  222.750   57.641    0.443   36.402
  223.000   57.697    0.444   34.433
  223.250   57.731    0.446   32.570
  223.500   57.788    0.447   30.809
  223.750   57.822    0.449   28.592
  224.000   60.326    0.449   26.524
  224.250   62.785    0.449   24.150
  224.500   65.244    0.449   21.574
  224.750   69.545    0.451   18.551
  225.000   72.004    0.456   15.650
  225.250   77.505    0.471   12.709
  225.500   84.220    0.484   10.718
  225.750   97.615    0.498    8.220
  226.000  106.148    0.507    5.412
  226.250  111.055    0.516    4.654
  226.500  112.931    0.512    3.926
  226.750  112.976    0.508    3.575
  227.000  109.989    0.504    3.866
  227.250  106.386    0.500    4.177
  227.500  100.963    0.499    4.693
  227.750   93.733    0.502    4.699
  228.000   93.778    0.503    4.619
  228.250  101.716    0.506    4.539
  228.500  100.549    0.508    4.545
  228.750   97.585    0.508    4.554
  229.000   96.406    0.483    4.647
  229.250   94.038    0.480    5.122
  229.500   92.848    0.475    6.829
  229.750   89.873    0.471    9.105
  230.000   86.875    0.464   11.919
  230.250   80.251    0.464   13.380
  230.500   77.882    0.463   18.190
  230.750   76.704    0.462   19.663
  231.000   73.134    0.459   22.507
  231.250   71.944    0.457   25.763
  231.500   68.340    0.454   29.489
  231.750   61.716    0.449   44.949
  232.000   55.710    0.446   55.550
  232.250   51.511    0.445   62.358
  232.500   48.513    0.449   71.406
  232.750   43.102    0.452   75.731
  233.000   38.903    0.454   75.852
  233.250   37.736    0.456   73.160
  233.500   42.025    0.457   67.868
  233.750   48.133    0.458   59.459
  234.000   63.953    0.459   36.273
  234.250   74.912    0.463   25.776
  234.500   89.519    0.474   23.044
  234.750   95.627    0.477   22.636
  235.000   98.109    0.480   22.682
  235.250   98.143    0.483   23.592
  235.500   97.593    0.481   25.492
  235.750   97.021    0.467   29.179
  236.000   95.247    0.465   48.002
  236.250   91.654    0.458   56.002
  236.500   87.456    0.451   71.872
  236.750   69.312    0.442   88.823
  237.000   60.274    0.437   97.905
  237.250   64.552    0.451   92.609
  237.500   70.054    0.462   85.911
  237.750   76.768    0.475   75.296
  238.000   81.069    0.479   64.746
  238.250   81.732    0.484   58.952
  238.500   78.734    0.482   56.837
  238.750   71.504    0.475   53.784
  239.000   67.911    0.469   48.991
  239.250   66.744    0.467   47.195
  239.500   64.959    0.464   45.520
  239.750   59.548    0.458   48.277
  240.000   53.530    0.452   49.266
  240.250   49.949    0.445   52.249
  240.500   49.376    0.435   52.354
  240.750   48.209    0.435   51.447
  241.000   48.860    0.436   48.645
  241.250   54.373    0.438   46.900
  241.500   59.875    0.439   44.381
  241.750   65.377    0.440   43.595
  242.000   63.626    0.442   42.874
  242.250   61.830    0.444   42.908
  242.500   57.642    0.446   41.402
  242.750   56.475    0.449   39.900
  243.000   58.934    0.451   37.727
  243.250   63.223    0.451   35.012
  243.500   66.918    0.450   30.698
  243.750   69.994    0.449   28.489
  244.000   71.858    0.448   26.429
  244.250   71.903    0.447   52.612
  244.500   67.705    0.445   86.551
  244.750   61.081    0.437  142.327
  245.000   50.819    0.409  179.353
  245.250   42.365    0.392  163.238
  245.500   43.623    0.409  118.183
  245.750   47.934    0.428   77.814
  246.000   51.000    0.441   50.266
  246.250   59.533    0.454   35.030
  246.500   69.885    0.462   23.508
  246.750   80.249    0.478   19.833
  247.000   83.325    0.484   17.054
  247.250   83.382    0.493   21.473
  247.500   79.789    0.499   26.026
  247.750   73.760    0.499   35.382
  248.000   65.935    0.499   38.248
  248.250   61.736    0.492   39.046
  248.500   60.557    0.484   39.109
  248.750   59.996    0.481   39.925
  249.000   55.809    0.476   40.808
  249.250   50.386    0.462   40.824
  249.500   44.368    0.456   41.677
  249.750   41.382    0.439   42.581
  250.000   42.651    0.424   42.632
  250.250   44.515    0.429   42.701
  250.500   47.581    0.433   41.169
  250.750   54.913    0.436   38.957
  251.000   57.978    0.445   36.821
  251.250   61.661    0.455   32.271
  251.500   67.781    0.461   28.284
  251.750   76.920    0.468   23.411
  252.000   86.060    0.476   20.518
  252.250   94.604    0.482   16.990
  252.500  101.330    0.487   15.761
  252.750  103.801    0.486   14.909
  253.000  105.070    0.484   15.220
  253.250  105.699    0.483   16.459
  253.500  104.542    0.483   18.476
  253.750  101.556    0.483   21.980
  254.000   96.133    0.479   23.769
  254.250   87.691    0.474   23.797
  254.500   79.854    0.472   23.385
  254.750   79.899    0.475   22.129
  255.000   81.157    0.479   20.157
  255.250   84.245    0.483   19.418
  255.500   90.342    0.479   17.354
  255.750  100.099    0.472   16.099
  256.000  108.632    0.469   14.115
  256.250  116.559    0.484   12.366
  256.500  117.222    0.489   11.264
  256.750  111.799    0.496    9.686
  257.000   98.506    0.490    8.985
  257.250   88.244    0.478   10.890
  257.500   81.620    0.473   13.982
  257.750   76.209    0.453   16.940
  258.000   72.010    0.443   20.547
  258.250   69.641    0.433   21.372
  258.500   69.069    0.429   21.406
  258.750   69.114    0.423   20.638
  259.000   70.978    0.418   19.913
  259.250   74.055    0.413   19.553
  259.500   76.537    0.395   19.592
  259.750   79.007    0.375   19.631
  260.000   81.466    0.330   19.647
