~VERSION INFORMATION
 VERS.                 2.0:   CWLS LOG ASCII STANDARD -VERSION 2.0
 WRAP.                  NO:   ONE LINE PER DEPTH STEP
~WELL INFORMATION BLOCK
#MNEM.UNIT           DATA                    DESCRIPTION OF MNEMONIC
#---------    -------------------            -------------------------------
# Generated from Intellog Unique Number	CW_70_72/WELL/1048
NULL.         -999.25                        : NULL_VALUE
WELL.         SUNDANCE ET AL SMITH 10-33     : Well_name    - WELL              
LOC .         10-33-072-25W4                 : Location     - LOCATION          
UWI .         00/10-33-072-25W4/0            : Uwi          - UNIQUE WELL ID    
ENTR.         JAYE                           : Entered      - ENTERED BY        
SRVC.         SCHLUMBERGER                   : Scn          - SERVICE COMPANY   
DATE.         14 JAN 77                      : Date         - LOG DATE          
STRT.M        441.96                         : top_depth    - START DEPTH       
STOP.M        656.71                         : bot_depth    - STOP DEPTH        
STEP.M        0.25                           : increment    - STEP LENGTH       
~CURVE INFORMATION BLOCK
#MNEM UNIT       ERCB CURVE CODE    CURVE DESCRIPTION
#-----------   ------------------   ----------------------------------
DEPT.M        00 001 00 00         : DEPTH        - DEPTH                       
DPHI.V/V      00 890 00 00         : PHID         - DENSITY POROSITY (SANDSTONE)
NPHI.V/V      00 330 00 00         : PHIN         - NEUTRON POROSITY (SANDSTONE)
GR  .API      00 310 00 00         : GR           - GAMMA RAY                   
CALI.MM       00 280 01 00         : CAL          - CALIPER                     
ILD .OHMM     00 120 00 00         : RESD         - DEEP RESISTIVITY (DIL)      
~PARAMETER INFORMATION       
#MNEM.UNIT           DATA             DESCRIPTION OF MNEMONIC
#---------         -----------     ------------------------------
GL  .M        664.159              : gl           - GROUND LEVEL ELEVATION      
EREF.M        667.817              : kb           - ELEVATION OF DEPTH REFERENCE
DATM.M        664.159              : datum        - DATUM ELEVATION             
TDD .M        670.56               : tdd          - TOTAL DEPTH DRILLER         
RUN .         ONE                  : Run          - RUN NUMBER                  
MATR.         SANDSTONE            : Logunit      - NEUTRON MATRIX              
TMAX.C        -17.7778             : BHT          - MAXIMUM RECORDED TEMPERATURE
BHTD.M        671.17               : BHTDEP       - MAXIMUM RECORDED TEMPERATURE
RMT .C        17.7778              : MDTP         - TEMPERATURE OF MUD          
MUDD.KG/M     0                    : MWT          - MUD DENSITY                 
NEUT.         1                    : NEUTRON      - NEUTRON TYPE                
RESI.         0                    : RESIST       - RESISTIVITY TYPE            
RM  .OHMM     4.02                 : RM           - RESISTIVITY OF MUD          
RMC .OHMM     0                    : RMC          - RESISTIVITY OF MUD CAKE     
RMF .OHMM     3.71                 : RMF          - RESISTIVITY OF MUD FILTRATE 
SUFT.C        -17.7778             : SUFT         - SURFACE TEMPERATURE         
~A  DEPTH     PHID     PHIN       GR      CAL     RESD
# ...
  624.460    0.286    0.368   38.222  147.365    2.811
  624.710    0.287    0.367   38.353  147.176    2.842
  624.960    0.282    0.363   38.180  147.502    2.900
  625.210    0.269    0.359   39.710  147.723    2.976
  625.460    0.273    0.354   40.996  147.946    3.174
  625.710    0.269    0.348   40.945  147.554    3.513
  625.960    0.250    0.336   38.767  147.053    3.873
  626.210    0.226    0.314   37.926  146.967    3.967
  626.460    0.207    0.322   38.847  147.706    3.858
  626.710    0.235    0.336   40.377  149.575    3.544
  626.960    0.295    0.356   43.182  150.826    3.328
  627.210    0.279    0.362   45.624  150.431    3.113
  627.460    0.280    0.343   46.606  150.036    3.011
  627.710    0.269    0.338   46.494  150.876    3.000
  627.960    0.265    0.344   46.444  152.950    3.089
  628.210    0.281    0.347   46.879  154.615    3.211
  628.460    0.272    0.339   48.408  155.248    3.450
  628.710    0.250    0.328   50.121  155.368    3.783
  628.960    0.253    0.310   50.372  155.283    3.896
  629.210    0.240    0.318   50.383  154.990    3.860
  629.460    0.246    0.339   50.090  154.597    3.645
  629.710    0.265    0.362   50.646  153.685    3.525
  629.960    0.273    0.358   51.445  154.732    3.410
  630.210    0.282    0.352   52.246  152.176    3.384
  630.460    0.288    0.349   53.594  146.120    3.409
  630.710    0.267    0.345   54.453  149.018    3.498
  630.960    0.250    0.343   55.253  152.842    3.609
  631.210    0.229    0.350   55.689  146.273    3.737
  631.460    0.266    0.378   57.583  152.053    3.856
  631.710    0.263    0.351   55.466  149.704    4.053
  631.960    0.243    0.317   54.503  148.587    4.387
  632.210    0.233    0.296   56.459  147.268    4.593
  632.460    0.228    0.314   58.778  145.227    4.627
  632.710    0.231    0.348   62.070  144.624    4.550
  632.960    0.241    0.362   64.996  146.082    4.483
  633.210    0.246    0.363   67.984  150.112    4.400
  633.460    0.242    0.353   70.911  151.364    4.367
  633.710    0.225    0.348   73.413  146.545    4.375
  633.960    0.216    0.352   76.341  146.457    4.399
  634.210    0.219    0.356   79.207  145.242    4.464
  634.460    0.221    0.348   82.499  144.743    4.571
  634.710    0.206    0.333   85.365  144.450    4.717
  634.960    0.200    0.326   80.757  144.774    4.795
  635.210    0.212    0.333   79.490  145.822    4.875
  635.460    0.202    0.348   80.291  146.352    4.928
  635.710    0.190    0.341   81.879  147.296    4.983
  635.960    0.203    0.328   84.564  147.930    5.066
  636.210    0.186    0.334   87.126  148.360    5.150
  636.460    0.197    0.340   90.114  147.963    5.187
  636.710    0.207    0.341   93.346  146.744    5.235
  636.960    0.201    0.338   90.438  145.526    5.273
  637.210    0.222    0.330   91.056  144.617    5.311
  637.460    0.219    0.325   92.647  144.325    5.311
  637.710    0.209    0.324   94.175  144.445    5.310
  637.960    0.197    0.324   92.605  144.564    5.359
  638.210    0.233    0.324   86.597  144.684    5.428
  638.460    0.219    0.328   79.679  145.423    5.477
  638.710    0.205    0.332   80.906  146.776    5.487
  638.960    0.207    0.335   83.893  148.234    5.558
  639.210    0.215    0.332   87.185  145.883    5.671
  639.460    0.241    0.326   90.355  143.121    5.916
  639.710    0.206    0.320   93.889  141.079    6.781
  639.960    0.168    0.313   97.789  140.274    7.831
  640.210    0.174    0.310   91.539  142.143    8.539
  640.460    0.120    0.334   94.162  145.144    9.295
  640.710    0.097    0.375  102.013  151.438    9.415
  640.960    0.153    0.470  113.935  158.864    9.362
  641.210    0.180    0.557  129.078  160.117    9.430
  641.460    0.188    0.470  120.154  160.032    9.534
  641.710    0.129    0.325  111.291  160.153    9.497
  641.960    0.094    0.290   94.526  160.166    9.340
  642.210    0.116    0.299   94.537  160.389    8.934
  642.460    0.129    0.372   95.761  161.128    7.850
  642.710    0.182    0.497  100.937  161.661    6.936
  642.960    0.247    0.576   89.643  159.411    7.038
  643.210    0.441    0.469   80.049  154.385    7.466
  643.460    0.272    0.436   81.397  153.167    8.007
  643.710    0.239    0.412   86.268  152.876    8.928
  643.960    0.221    0.391   85.854  153.096    8.492
  644.210    0.223    0.378   84.404  153.629    7.126
  644.460    0.218    0.369   89.337  154.159    6.667
  644.710    0.208    0.328   98.767  154.588    6.520
  644.960    0.198    0.325  124.547  154.913    6.941
  645.210    0.180    0.393  141.210  153.695    8.015
  645.460    0.177    0.486  151.370  159.372    9.410
  645.710    0.205    0.541  154.419  161.243   10.396
  645.960    0.321    0.590  156.312  153.746    9.583
  646.210    0.274    0.600  148.360  151.601    8.786
  646.460    0.218    0.492  143.386  153.060    8.451
  646.710    0.192    0.550  153.850  154.721    8.735
  646.960    0.186    0.536  166.623  156.179    9.198
  647.210    0.138    0.465  174.961  156.198    9.810
  647.460    0.114    0.352  182.689  155.904   10.718
  647.710    0.108    0.349  164.161  154.480   11.495
  647.960    0.115    0.339  169.216  153.982   12.216
  648.210    0.117    0.326  177.431  154.617   12.465
  648.460    0.123    0.325  185.281  155.252   12.213
  648.710    0.146    0.334  156.786  156.297   10.931
  648.960    0.163    0.331  123.915  155.903    9.189
  649.210    0.193    0.321   85.027  152.317    7.611
  649.460    0.273    0.317   88.380  149.865    6.292
  649.710    0.262    0.323  112.519  149.263    4.622
  649.960    0.234    0.353  127.844  149.279    4.365
  650.210    0.198    0.365  160.006  149.298    4.388
  650.460    0.156    0.388  173.812  149.418    4.655
  650.710    0.138    0.365  186.039  149.329    4.829
  650.960    0.176    0.381  264.148  148.009    4.891
  651.210    0.200    0.534  270.296  146.585    4.766
  651.460    0.224    0.580  289.451  146.397    4.509
  651.710    0.237    0.569  309.762  148.059    4.111
  651.960    0.220    0.539  313.904  150.650    3.797
  652.210    0.194    0.486  315.433  151.900    3.659
  652.460    0.209    0.451  315.930  152.537    3.747
  652.710    0.206    0.408  315.331  152.654    3.953
  652.960    0.195    0.383  314.186  152.979    4.231
  653.210    0.186    0.356  314.014  153.102    4.455
  653.460    0.177    0.339  314.391  152.602    4.657
  653.710    0.162    0.445  314.642  152.104    4.903
  653.960    0.206    0.453  315.140  152.021    5.040
  654.210    0.234    0.441  315.210  152.241    5.030
  654.460    0.222    0.435  315.221  152.465    5.002
  654.710    0.203    0.420  314.927  152.481    4.964
  654.960    0.200    0.425  314.630  152.704    4.900
  655.210    0.206    0.452  314.519  152.204    4.845
  655.460    0.194    0.452  315.076  152.324    4.899
  655.710    0.181    0.430  316.058  153.266    4.962
  655.960    0.170    0.398  317.345  154.110    5.007
  656.210    0.149    0.374  319.846  154.226    5.044
  656.460    0.134    0.362  320.585  153.935    5.053
  656.710    0.083    0.371  301.268  153.231    5.061
