~VERSION INFORMATION
 VERS.                 2.0:   CWLS LOG ASCII STANDARD -VERSION 2.0
 WRAP.                  NO:   ONE LINE PER DEPTH STEP
~WELL INFORMATION BLOCK
#MNEM.UNIT           DATA                    DESCRIPTION OF MNEMONIC
#---------    -------------------            -------------------------------
# Generated from Intellog Unique Number	CC_80_83/WELL/2343
NULL.         -999.25                        : NULL_VALUE
WELL.         BVX ET AL WATCHUSK             : Well_name    - WELL
LOC .         10-09-082-03W4                 : Location     - LOCATION          
UWI .         00/10-09-082-03W400            : Uwi          - UNIQUE WELL ID    
ENTR.         DW                             : Entered      - ENTERED BY        
SRVC.         SCHLUMBERGER                   : Scn          - SERVICE COMPANY   
DATE.         18 FEB 78                      : Date         - LOG DATE
STRT.M        115.824                        : top_depth    - START DEPTH       
STOP.M        262.126                        : bot_depth    - STOP DEPTH        
STEP.M        0.305                          : increment    - STEP LENGTH       
~CURVE INFORMATION BLOCK
#MNEM UNIT       ERCB CURVE CODE    CURVE DESCRIPTION
#-----------   ------------------   ----------------------------------
DEPT.M        00 001 00 00         : DEPTH        - DEPTH                       
DPHI.V/V      00 890 00 00         : PHID         - DENSITY POROSITY (LIMESTONE)
NPHI.V/V      00 330 00 00         : PHIN         - NEUTRON POROSITY (LIMESTONE)
GR  .API      00 310 00 00         : GR           - GAMMA RAY                   
ILD .OHMM     00 120 00 00         : RESD         - DEEP RESISTIVITY (DIL)      
~PARAMETER INFORMATION       
#MNEM.UNIT           DATA             DESCRIPTION OF MNEMONIC
#---------         -----------     ------------------------------
GL  .M        454.152              : gl           - GROUND LEVEL ELEVATION      
EREF.M        457.2                : kb           - ELEVATION OF DEPTH REFERENCE
DATM.M        457.2                : datum        - DATUM ELEVATION             
TDD .M        267.005              : tdd          - TOTAL DEPTH DRILLER         
RUN .         ONE                  : Run          - RUN NUMBER                  
ENG .         BILL                 : Engineer     - RECORDING ENGINEER          
WIT .         JIM                  : Witness      - WITNESSED BY                
MUD .         GEL                  : Mud_type     - MUD TYPE                    
MATR.         LIMESTONE            : Logunit      - NEUTRON MATRIX              
TMAX.C        15.5556              : BHT          - MAXIMUM RECORDED TEMPERATURE
BHTD.M        267.005              : BHTDEP       - MAXIMUM RECORDED TEMPERATURE
MATR.         1                    : LOGUNIT      - NEUTRON MATRIX              
RMT .C        25                   : MDTP         - TEMPERATURE OF MUD          
NEUT.         1                    : NEUTRON      - NEUTRON TYPE                
RESI.         0                    : RESIST       - RESISTIVITY TYPE            
RMC .OHMM     0.25                 : RMC          - RESISTIVITY OF MUD CAKE     
RMF .OHMM     0.25                 : RMF          - RESISTIVITY OF MUD FILTRATE 
SUFT.C        15                   : SUFT         - SURFACE TEMPERATURE         
~A  DEPTH     PHID     PHIN       GR     RESD
  115.824    0.397    0.524   53.225   10.627
  116.129    0.367    0.491   58.665   10.615
  116.434    0.294    0.484   62.895   10.216
  116.738    0.312    0.518   67.730    9.473
  117.043    0.306    0.539   71.960    9.122
  117.348    0.304    0.505   73.165    8.456
  117.653    0.320    0.499   70.743    8.451
  117.958    0.325    0.500   67.109    8.438
  118.262    0.306    0.485   66.500    8.590
  118.567    0.302    0.477   66.496    8.746
  118.872    0.340    0.501   66.494    8.902
  119.177    0.342    0.490   63.465    8.729
  119.482    0.319    0.489   64.670    8.093
  119.786    0.297    0.495   66.482    7.791
  120.091    0.289    0.517   69.501    7.639
  120.396    0.313    0.528   70.709    7.633
  120.701    0.332    0.537   71.310    7.486
  121.006    0.307    0.529   68.282    7.480
  121.310    0.305    0.513   67.673    7.466
  121.615    0.320    0.494   68.878    7.460
  121.920    0.325    0.484   67.666    7.737
  122.225    0.326    0.472   65.243    8.174
  122.530    0.332    0.459   61.609    8.475
  122.834    0.313    0.490   61.606    8.471
  123.139    0.301    0.461   64.625    8.304
  123.444    0.318    0.457   65.228    8.145
  123.749    0.323    0.464   64.619    7.690
  124.054    0.318    0.460   56.148    7.685
  124.358    0.350    0.486   47.675    7.681
  124.663    0.378    0.480   50.092    8.265
  124.968    0.377    0.466   53.717    8.570
  125.273    0.349    0.448   54.317    8.564
  125.578    0.347    0.447   53.103    8.551
  125.882    0.357    0.481   49.472    8.384
  126.187    0.365    0.497   44.629    8.221
  126.492    0.413    0.464   40.391    7.914
  126.797    0.366    0.434   39.177    7.617
  127.102    0.353    0.423   40.988    7.471
  127.406    0.358    0.422   47.033    7.326
  127.711    0.372    0.435   51.868    7.320
  128.016    0.339    0.459   54.284    7.312
  128.321    0.328    0.471   53.069    7.443
  128.626    0.353    0.462   52.462    7.436
  128.930    0.340    0.459   51.853    7.429
  129.235    0.331    0.465   52.455    7.424
  129.540    0.325    0.474   54.870    7.415
  129.845    0.354    0.487   57.890    7.409
  130.150    0.357    0.452   57.887    7.679
  130.454    0.341    0.464   48.206    7.816
  130.759    0.351    0.472   45.176    7.956
  131.064    0.368    0.459   45.778    8.100
  131.369    0.378    0.477   47.589    8.093
  131.674    0.351    0.475   50.004    7.503
  131.978    0.328    0.462   52.420    7.223
  132.283    0.324    0.477   59.674    6.954
  132.588    0.330    0.509   63.299    6.815
  132.893    0.325    0.512   63.900    6.937
  133.198    0.341    0.479   62.687    7.195
  133.502    0.354    0.469   57.240    7.463
  133.807    0.357    0.465   49.374    7.735
  134.112    0.353    0.459   46.345    7.730
  134.417    0.358    0.452   45.737    7.438
  134.722    0.366    0.444   45.730    7.297
  135.026    0.363    0.445   45.728    7.019
  135.331    0.341    0.467   45.121    7.013
  135.636    0.315    0.477   45.116    7.139
  135.941    0.306    0.456   48.138    7.403
  136.246    0.323    0.440   53.578    7.678
  136.550    0.350    0.450   50.549    8.261
  136.855    0.359    0.469   53.569    8.410
  137.160    0.327    0.447   60.824    8.562
  137.465    0.310    0.457   62.634    8.392
  137.769    0.334    0.485   61.421    8.386
  138.074    0.342    0.475   60.812    8.225
  138.379    0.353    0.461   61.412    8.065
  138.684    0.363    0.451   62.015    8.058
  138.989    0.324    0.451   63.824    8.044
  139.293    0.322    0.465   62.611    8.037
  139.598    0.304    0.482   62.004    8.181
  139.903    0.304    0.491   63.208    8.175
  140.208    0.333    0.480   66.228    8.167
  140.513    0.342    0.474   67.436    8.160
  140.817    0.338    0.482   68.037    8.153
  141.122    0.332    0.494   66.824    7.994
  141.427    0.309    0.491   64.398    7.840
  141.732    0.293    0.474   62.582    7.834
  142.037    0.316    0.458   58.948    7.970
  142.341    0.347    0.455   57.131    8.114
  142.646    0.344    0.447   55.916    8.895
  142.951    0.333    0.458   56.519    9.936
  143.256    0.324    0.476   59.538   10.308
  143.561    0.292    0.454   60.140   10.684
  143.865    0.232    0.390   56.506   10.480
  144.170    0.203    0.352   53.478    9.717
  144.475    0.205    0.461   52.870    8.523
  144.780    0.285    0.484   55.286    7.902
  145.085    0.339    0.481   59.516    7.750
  145.389    0.346    0.496   64.955    7.601
  145.694    0.346    0.489   65.557    7.595
  145.999    0.341    0.466   64.344    7.586
  146.304    0.368    0.449   63.735    7.578
  146.609    0.364    0.448   63.731    7.713
  146.913    0.349    0.446   65.542    7.706
  147.218    0.323    0.469   67.957    7.555
  147.523    0.321    0.512   68.557    7.548
  147.828    0.320    0.519   67.950    7.541
  148.132    0.334    0.502   64.922    7.533
  148.437    0.369    0.499   63.104    7.388
  148.742    0.354    0.510   66.123    7.520
  149.047    0.337    0.497   67.935    7.514
  149.352    0.332    0.495   69.140    7.507
  149.656    0.337    0.467   64.903    7.637
  149.961    0.344    0.457   62.480    7.354
  150.266    0.349    0.448   64.291    6.820
  150.571    0.354    0.449   69.126    6.325
  150.876    0.354    0.463   72.750    4.780
  151.180    0.354    0.481   73.352    3.230
  151.485    0.356    0.489   71.534    2.533
  151.790    0.349    0.508   73.344    2.483
  152.095    0.322    0.576   78.784    2.528
  152.400    0.308    0.573   86.038    2.670
  152.704    0.291    0.565   89.664    2.770
  153.009    0.280    0.567   89.660    3.036
  153.314    0.263    0.576   90.866    3.208
  153.619    0.256    0.578   95.096    3.518
  153.924    0.247    0.570   94.487    4.079
  154.228    0.260    0.558   91.460    4.730
  154.533    0.287    0.550   95.084    5.185
  154.838    0.295    0.548   98.106    5.376
  155.143    0.280    0.532   96.287    5.372
  155.448    0.257    0.526   93.259    5.266
  155.752    0.241    0.514   90.836    5.261
  156.057    0.249    0.503   87.203    5.257
  156.362    0.272    0.509   83.570    5.452
  156.667    0.285    0.527   81.751    5.863
  156.972    0.302    0.543   81.748    6.081
  157.276    0.297    0.515   82.348    6.191
  157.581    0.269    0.488   78.716    6.301
  157.886    0.258    0.476   73.874    6.297
  158.191    0.277    0.484   71.451    6.288
  158.495    0.264    0.495   71.447    6.282
  158.800    0.262    0.494   74.467    6.162
  159.105    0.266    0.485   78.093    6.039
  159.410    0.279    0.480   78.693    6.149
  159.715    0.316    0.478   76.875    6.261
  160.019    0.302    0.489   74.452    6.612
  160.324    0.297    0.543   74.447    6.608
  160.629    0.300    0.524   75.654    6.722
  160.934    0.297    0.513   75.649    6.844
  161.239    0.277    0.494   76.251    6.708
  161.543    0.271    0.490   75.643    6.704
  161.848    0.274    0.497   77.453    6.700
  162.153    0.275    0.495   79.870    6.568
  162.458    0.280    0.484   83.494    6.320
  162.763    0.274    0.478   80.466    6.084
  163.067    0.278    0.478   82.278    5.967
  163.372    0.280    0.490   85.297    5.851
  163.677    0.269    0.519   86.504    5.737
  163.982    0.272    0.506   86.500    5.626
  164.287    0.261    0.487   90.730    5.621
  164.591    0.250    0.485   93.751    5.616
  164.896    0.239    0.496   93.747    5.612
  165.201    0.228    0.478   90.113    5.401
  165.506    0.226    0.466   87.084    5.103
  165.811    0.231    0.477   84.662    4.646
  166.115    0.256    0.505   82.240    4.308
  166.420    0.265    0.559   82.236    4.223
  166.725    0.256    0.570   91.910    4.220
  167.030    0.255    0.561   94.325    4.061
  167.335    0.257    0.510   92.505    3.909
  167.639    0.263    0.513   91.899    3.979
  167.944    0.276    0.547   94.919    4.364
  168.249    0.284    0.569   97.939    4.441
  168.554    0.268    0.522   97.936    4.274
