~VERSION INFORMATION
 VERS.                 2.0:   CWLS LOG ASCII STANDARD -VERSION 2.0
 WRAP.                  NO:   ONE LINE PER DEPTH STEP
~WELL INFORMATION BLOCK
#MNEM.UNIT           DATA                    DESCRIPTION OF MNEMONIC
#---------    -------------------            -------------------------------
# Generated from Intellog Unique Number	CS_69_70/WELL/2879
WELL.         HUSKY OIL PRODUCTION LTD.      : Well_name    - WELL
LOC .         00/12-28-069-08W4/0            : Location     - LOCATION
UWI .         00/12-28-069-08W4/0            : Uwi          - UNIQUE WELL ID
ENTR.         JOETTE                         : Entered      - ENTERED BY
SRVC.         SCHLUMBERGER                   : Scn          - SERVICE COMPANY
DATE.         05/15/92                       : Date         - LOG DATE
STRT.M        325                            : top_depth    - START DEPTH
STOP.M        575                            : bot_depth    - STOP DEPTH
STEP.M        0.25                           : increment    - STEP LENGTH
 NULL. -999.2500:NULL Value
~CURVE INFORMATION BLOCK
#MNEM UNIT       ERCB CURVE CODE    CURVE DESCRIPTION
#-----------   ------------------   ----------------------------------
DEPT.M        00 001 00 00         : DEPTH        - DEPTH
GR  .API      00 310 00 00         : GR           - GAMMA RAY
CALI.MM       00 280 01 00         : CAL          - CALIPER
ILD .OHMM     00 120 00 00         : RESD         - DEEP RESISTIVITY (DIL)
DPHI.V/V      00 890 00 00         : PHID         - DENSITY POROSITY (SANDSTONE)
NPHI.V/V      00 330 00 00         : PHIN         - NEUTRON POROSITY (SANDSTONE)
~PARAMETER INFORMATION
#MNEM.UNIT           DATA             DESCRIPTION OF MNEMONIC
#---------         -----------     ------------------------------
GL  .M        662.9                : gl           - GROUND LEVEL ELEVATION
EREF.M        666.9                : kb           - ELEVATION OF DEPTH REFERENCE
DATM.M        666.9                : datum        - DATUM ELEVATION
TDD .M        580                  : tdd          - TOTAL DEPTH DRILLER
RUN .         ONE                  : Run          - RUN NUMBER
ENG .         BILL                 : Engineer     - RECORDING ENGINEER
WIT .         JIM                  : Witness      - WITNESSED BY
MUD .         GEL                  : Mud_type     - MUD TYPE
MATR.         SANDSTONE            : Logunit      - NEUTRON MATRIX
TMAX.C        26                   : BHT          - MAXIMUM RECORDED TEMPERATURE
BHTD.M        580                  : BHTDEP       - MAXIMUM RECORDED TEMPERATURE
RMT .C        18                   : MDTP         - TEMPERATURE OF MUD
MUDD.KG/M     1080                 : MWT          - MUD DENSITY
NEUT.         1                    : NEUTRON      - NEUTRON TYPE
RESI.         0                    : RESIST       - RESISTIVITY TYPE
RM  .OHMM     8.55                 : RM           - RESISTIVITY OF MUD
RMC .OHMM     8.57                 : RMC          - RESISTIVITY OF MUD CAKE
RMF .OHMM     8.57                 : RMF          - RESISTIVITY OF MUD FILTRATE
SUFT.C        4                    : SUFT         - SURFACE TEMPERATURE
~A  DEPTH       GR      CAL     RESD     PHID     PHIN
  325.000   89.997  167.297    3.038    0.255    0.516
  325.250   90.686  167.410    2.773    0.269    0.505
  325.500   91.960  169.563    2.626    0.271    0.486
  325.750   90.821  173.699    2.533    0.275    0.481
  326.000   89.682  178.841    2.443    0.304    0.506
  326.250   92.164  179.932    2.446    0.312    0.537
  326.500   94.025  174.011    2.540    0.318    0.479
  326.750   94.714  167.112    2.689    0.304    0.473
  327.000   94.178  164.208    2.792    0.278    0.511
  327.250   94.246  164.321    3.010    0.284    0.544
  327.500   96.124  166.446    3.126    0.282    0.535
  327.750   95.589  169.576    3.248    0.277    0.500
  328.000   92.036  169.689    3.252    0.279    0.486
  328.250   87.259  167.819    3.255    0.268    0.470
  328.500   89.775  167.932    3.199    0.269    0.470
  328.750   91.050  169.023    3.086    0.276    0.490
  329.000   91.721  170.142    2.976    0.280    0.496
  329.250  100.824  166.232    2.870    0.288    0.505
  329.500  106.943  167.351    2.718    0.271    0.468
  329.750   87.080  165.481    2.528    0.265    0.463
  330.000   85.941  167.606    2.626    0.276    0.488
  330.250   84.199  170.736    2.937    0.286    0.491
  330.500   81.250  170.821    3.739    0.282    0.502
  330.750   74.663  168.923    4.673    0.226    0.286
  331.000   56.024  164.007    7.572    0.223    0.228
  331.250   49.437  157.109    8.313    0.266    0.220
  331.500   44.074  152.193   10.390    0.307    0.252
  331.750   67.693  152.306   12.059    0.353    0.303
  332.000   76.846  153.453   10.605    0.292    0.340
  332.250   73.277  154.516    8.193    0.271    0.411
  332.500   67.310  154.629    6.330    0.263    0.411
  332.750   62.551  154.770    6.338    0.292    0.416
  333.000   59.601  154.884    6.343    0.303    0.411
  333.250   61.480  155.025    6.470    0.316    0.384
  333.500   65.788  155.138    6.476    0.314    0.403
  333.750   68.857  154.274    6.605    0.293    0.402
  334.000   73.752  154.330    6.610    0.275    0.385
  334.250   79.268  153.466    6.617    0.261    0.387
  334.500   84.163  153.551    6.626    0.249    0.404
  334.750   91.472  154.727    6.629    0.247    0.411
  335.000   94.591  155.817    6.637    0.240    0.402
  335.250   92.849  158.948    6.770    0.228    0.399
  335.500   95.917  160.066    7.164    0.239    0.401
  335.750   97.192  160.151    7.303    0.250    0.406
  336.000   86.984  160.264    7.449    0.258    0.409
  336.250   81.018  157.360    7.454    0.272    0.403
  336.500   82.293  157.502    7.325    0.286    0.392
  336.750   87.808  158.621    7.202    0.279    0.395
  337.000   87.876  160.745    7.206    0.269    0.401
  337.250   80.083  155.858    7.348    0.280    0.393
  337.500   71.702  152.954    7.634    0.289    0.377
  337.750   64.529  151.056    7.785    0.299    0.365
  338.000   65.200  149.186    7.791    0.310    0.370
  338.250   67.079  149.242    7.656    0.323    0.386
  338.500   70.181  150.390    7.251    0.336    0.405
  338.750   73.869  151.480    6.993    0.334    0.403
  339.000   80.575  152.599    6.872    0.328    0.395
  339.250   85.470  152.712    6.753    0.317    0.388
  339.500   91.607  151.848    6.890    0.308    0.389
  339.750   92.864  151.961    7.024    0.299    0.399
  340.000   91.122  153.080    7.299    0.305    0.417
  340.250   84.552  155.176    7.305    0.316    0.420
  340.500   74.948  156.295    7.311    0.315    0.383
  340.750   57.499  154.397    6.926    0.292    0.348
  341.000   63.618  153.533    6.556    0.259    0.370
  341.250   83.634  153.646    5.984    0.178    0.416
  341.500   90.323  159.794    5.564    0.221    0.452
  341.750   99.476  163.930    5.465    0.180    0.442
  342.000   95.889  163.037    5.272    0.107    0.439
  342.250   88.733  159.156    5.182    0.162    0.449
  342.500   96.645  162.286    4.817    0.243    0.474
  342.750  104.575  166.422    4.560    0.259    0.470
  343.000  110.057  165.529    4.163    0.256    0.480
  343.250  116.176  164.637    3.870    0.256    0.516
  343.500  112.623  166.790    3.597    0.260    0.503
  343.750  113.898  168.943    3.344    0.286    0.497
  344.000  111.552  170.005    3.166    0.296    0.533
  344.250  106.189  173.164    2.890    0.309    0.581
  344.500  102.620  173.277    2.839    0.320    0.565
  344.750   96.050  168.333    3.357    0.299    0.511
  345.000   88.273  159.423    4.519    0.293    0.476
  345.250   78.082  157.496    5.648    0.271    0.439
  345.500   72.702  156.604    6.558    0.272    0.421
  345.750   64.322  155.768    7.199    0.331    0.471
  346.000   52.321  154.847    7.341    0.400    0.485
  346.250   49.355  153.983    6.824    0.417    0.441
  346.500   58.491  153.062    6.462    0.384    0.383
  346.750   59.800  153.147    6.355    0.371    0.354
  347.000   56.230  151.305    6.356    0.361    0.392
  347.250   53.867  150.384    6.246    0.352    0.411
  347.500   55.763  150.497    6.252    0.348    0.393
  347.750   55.831  150.582    6.259    0.346    0.415
  348.000   54.692  150.695    6.150    0.347    0.428
  348.250   51.122  150.809    6.158    0.353    0.434
  348.500   46.966  151.927    6.051    0.357    0.412
  348.750   50.654  151.035    5.948    0.364    0.409
  349.000   69.446  150.227    5.954    0.362    0.403
  349.250   88.237  150.284    5.959    0.360    0.395
  349.500  132.994  149.391    5.855    0.351    0.388
  349.750  156.009  149.504    5.863    0.349    0.414
  350.000  137.353  149.618    5.763    0.347    0.443
  350.250  102.405  149.759    5.765    0.352    0.469
  350.500   69.853  148.838    5.771    0.358    0.447
  350.750   45.163  148.980    5.777    0.364    0.432
  351.000   46.455  150.098    5.677    0.366    0.427
  351.250   46.523  151.189    5.683    0.367    0.414
  351.500   50.832  153.370    5.690    0.363    0.405
  351.750   55.107  153.427    5.696    0.361    0.409
  352.000   58.795  154.574    5.700    0.361    0.417
  352.250   61.914  153.738    5.814    0.361    0.421
  352.500   61.965  153.795    5.929    0.360    0.411
  352.750   66.861  152.959    5.935    0.356    0.401
  353.000   71.153  153.044    6.166    0.355    0.401
  353.250   71.221  152.123    6.171    0.360    0.418
  353.500   69.478  152.264    6.294    0.352    0.442
  353.750   68.943  150.366    6.418    0.337    0.433
  354.000   68.407  149.473    6.545    0.336    0.432
  354.250   69.078  149.558    6.672    0.337    0.432
  354.500   74.008  149.671    7.062    0.335    0.423
  354.750   77.076  150.819    7.335    0.333    0.429
  355.000   76.540  151.909    7.480    0.332    0.425
  355.250   75.401  152.022    7.627    0.330    0.426
  355.500   77.279  150.152    7.778    0.326    0.443
  355.750   80.365  149.288    7.931    0.323    0.447
  356.000   81.656  148.339    7.939    0.321    0.434
  356.250   83.569  148.509    7.947    0.322    0.421
  356.500   83.603  148.594    7.668    0.322    0.410
  356.750   84.894  150.746    7.397    0.311    0.397
  357.000   86.772  152.871    7.406    0.287    0.381
  357.250   88.651  153.962    7.549    0.277    0.385
  357.500   89.925  155.081    7.843    0.267    0.390
  357.750   89.993  155.194    8.149    0.265    0.388
  358.000   90.044  155.307    8.153    0.272    0.389
  358.250   88.302  156.511    7.723    0.277    0.393
  358.500   85.956  156.539    7.048    0.283    0.394
  358.750   90.885  157.714    6.674    0.278    0.399
  359.000   93.954  158.805    6.438    0.274    0.405
  359.250   98.849  161.935    6.325    0.281    0.414
  359.500  100.124  164.060    6.451    0.307    0.436
  359.750   89.330  157.161    6.576    0.329    0.431
  360.000   67.657  155.263    6.962    0.338    0.414
  360.250   68.345  156.382    6.966    0.329    0.410
  360.500   70.223  157.501    6.978    0.327    0.416
  360.750   69.084  157.614    6.856    0.334    0.432
  361.000   72.756  157.727    6.735    0.327    0.412
  361.250   87.927  159.824    6.379    0.296    0.417
