~VERSION INFORMATION
 VERS.                 2.0:   CWLS LOG ASCII STANDARD -VERSION 2.0
 WRAP.                  NO:   ONE LINE PER DEPTH STEP
~WELL INFORMATION BLOCK
#MNEM.UNIT           DATA                    DESCRIPTION OF MNEMONIC
#---------    -------------------            -------------------------------
# Generated from Intellog Unique Number	CW_82_90/WELL/1031
WELL.         13-22-083-22W4                 : Well_name    - WELL
LOC .         13-22-083-22W4                 : Location     - LOCATION
UWI .         00/13-22-083-22W4/0            : Uwi          - UNIQUE WELL ID
ENTR.         JAYE                           : Entered      - ENTERED BY
SRVC.         SCHLUMBERGER                   : Scn          - SERVICE COMPANY
DATE.         16 FEB 86                      : Date         - LOG DATE
STRT.M        210                            : top_depth    - START DEPTH
STOP.M        441                            : bot_depth    - STOP DEPTH
STEP.M        0.25                           : increment    - STEP LENGTH
 NULL. -999.2500:NULL Value
~CURVE INFORMATION BLOCK
#MNEM UNIT       ERCB CURVE CODE    CURVE DESCRIPTION
#-----------   ------------------   ----------------------------------
DEPT.M        00 001 00 00         : DEPTH        - DEPTH
CALI.MM       00 280 01 00         : CAL          - CALIPER
GR  .API      00 310 00 00         : GR           - GAMMA RAY
NPHI.V/V      00 330 00 00         : PHIN         - NEUTRON POROSITY (SANDSTONE)
DPHI.V/V      00 890 00 00         : PHID         - DENSITY POROSITY (SANDSTONE)
ILD .OHMM     00 120 00 00         : RESD         - DEEP RESISTIVITY (DIL)
~PARAMETER INFORMATION
#MNEM.UNIT           DATA             DESCRIPTION OF MNEMONIC
#---------         -----------     ------------------------------
GL  .M        607.4                : gl           - GROUND LEVEL ELEVATION
EREF.M        611                  : kb           - ELEVATION OF DEPTH REFERENCE
DATM.M        607.4                : datum        - DATUM ELEVATION
TDD .M        442                  : tdd          - TOTAL DEPTH DRILLER
RUN .         ONE                  : Run          - RUN NUMBER
ENG .         NAGY                 : Engineer     - RECORDING ENGINEER
WIT .         KOSS                 : Witness      - WITNESSED BY
BASE.         S.L.                 : Branch       - HOME BASE OF LOGGING UNIT
MUD .         GEL CHEM             : Mud_type     - MUD TYPE
MATR.         SANDSTONE            : Logunit      - NEUTRON MATRIX
TMAX.C        20                   : BHT          - MAXIMUM RECORDED TEMPERATURE
BHTD.M        442                  : BHTDEP       - MAXIMUM RECORDED TEMPERATURE
RMT .C        12                   : MDTP         - TEMPERATURE OF MUD
MUDD.KG/M     1125                 : MWT          - MUD DENSITY
NEUT.         1                    : NEUTRON      - NEUTRON TYPE
RESI.         0                    : RESIST       - RESISTIVITY TYPE
RM  .OHMM     5.87                 : RM           - RESISTIVITY OF MUD
RMC .OHMM     0                    : RMC          - RESISTIVITY OF MUD CAKE
RMF .OHMM     5.23                 : RMF          - RESISTIVITY OF MUD FILTRATE
SUFT.C        0                    : SUFT         - SURFACE TEMPERATURE
~A  DEPTH      CAL       GR     PHIN     PHID     RESD
# ...
  319.500  246.391   59.201    0.432    0.283   11.069
  319.750  246.476   58.066    0.438    0.303   10.931
  320.000  246.459   57.806    0.448    0.307   10.717
  320.250  246.024   60.605    0.469    0.290   10.584
  320.500  245.374   65.156    0.442    0.274   10.453
  320.750  245.150   63.770    0.424    0.290   10.400
  321.000  244.719   61.759    0.417    0.293   10.289
  321.250  244.389   63.619    0.421    0.287   10.069
  321.500  243.849   65.734    0.440    0.295    9.796
  321.750  242.789   68.348    0.461    0.291    9.499
  322.000  242.146   69.648    0.463    0.281    9.380
  322.250  241.604   68.388    0.468    0.275    9.367
  322.500  241.168   67.062    0.457    0.283    9.443
  322.750  240.736   67.616    0.439    0.301    9.734
  323.000  239.882   69.415    0.443    0.303    9.813
  323.250  239.862   74.590    0.439    0.290    9.303
  323.500  239.431   78.201    0.435    0.274    8.308
  323.750  236.497   76.691    0.452    0.270    7.405
  324.000  234.913   74.118    0.481    0.266    7.021
  324.250  234.583   72.796    0.484    0.264    6.946
  324.500  234.672   69.598    0.488    0.252    7.082
  324.750  235.174   65.028    0.481    0.233    7.272
  325.000  236.612   63.080    0.465    0.242    7.841
  325.250  238.882   71.627    0.447    0.265    8.265
  325.500  241.152   77.800    0.452    0.290    8.553
  325.750  243.220   76.664    0.462    0.311    8.783
  326.000  245.696   73.966    0.467    0.307    9.277
  326.250  247.449   67.022    0.456    0.248    9.964
  326.500  248.993   62.138    0.318    0.195   10.782
  326.750  250.640   57.942    0.293    0.169   11.407
  327.000  250.936   59.302    0.291    0.107   13.300
  327.250  249.249   64.604    0.300    0.149   13.813
  327.500  247.254   73.838    0.378    0.232   13.440
  327.750  248.169   77.199    0.492    0.264   11.870
  328.000  249.404   77.312    0.510    0.293    9.200
  328.250  249.902   74.366    0.495    0.293    8.355
  328.500  249.159   73.355    0.473    0.289    8.010
  328.750  247.577   73.655    0.482    0.279    7.852
  329.000  246.514   73.458    0.464    0.270    7.655
  329.250  245.144   71.823    0.447    0.274    7.532
  329.500  244.503   69.313    0.458    0.290    7.522
  329.750  246.775   67.677    0.482    0.290    7.739
  330.000  248.004   67.539    0.468    0.285    8.038
  330.250  245.799   68.405    0.452    0.282    8.148
  330.500  244.844   71.391    0.467    0.275    8.063
  330.750  245.866   75.379    0.478    0.267    7.628
  331.000  250.012   76.243    0.482    0.253    7.045
  331.250  252.598   75.982    0.481    0.243    6.593
  331.500  252.786   77.781    0.468    0.250    6.343
  331.750  252.247   78.083    0.475    0.253    6.207
  332.000  251.603   77.946    0.488    0.258    6.433
  332.250  250.961   82.934    0.435    0.255    6.884
  332.500  250.316   83.611    0.435    0.248    7.366
  332.750  250.608   80.913    0.461    0.242    7.825
  333.000  251.634   80.090    0.460    0.234    8.020
  333.250  251.634   81.827    0.451    0.233    8.253
  333.500  251.634   81.816    0.456    0.247    8.319
  333.750  258.752   82.368    0.462    0.251    8.186
  334.000  253.538   82.731    0.465    0.250    7.951
  334.250  248.727   82.343    0.474    0.243    7.780
  334.500  245.481   84.581    0.482    0.250    7.542
  334.750  243.903   87.632    0.481    0.260    7.365
  335.000  244.926   88.247    0.471    0.260    7.365
  335.250  245.634   89.295    0.462    0.250    7.365
  335.500  243.638   89.660    0.438    0.236    7.366
  335.750  241.538   85.651    0.419    0.235    7.634
  336.000  242.141   74.083    0.436    0.223    8.384
  336.250  242.851   68.949    0.446    0.220    9.685
  336.500  242.940   69.063    0.450    0.264   10.381
  336.750  242.504   69.301    0.446    0.273   11.663
  337.000  242.070   67.229    0.385    0.256   12.019
  337.250  243.507   66.843    0.374    0.219   12.671
  337.500  245.050   66.081    0.400    0.270   13.482
  337.750  245.966   64.445    0.425    0.277   13.770
  338.000  246.573   63.433    0.431    0.273   13.805
  338.250  246.871   63.174    0.433    0.260   13.788
  338.500  247.786   63.602    0.425    0.248   13.718
  338.750  248.494   66.776    0.413    0.249   13.624
  339.000  248.995   64.265    0.418    0.246   14.151
  339.250  249.398   60.944    0.406    0.216   15.254
  339.500  249.898   58.247    0.290    0.112   17.423
  339.750  249.883   57.611    0.259    0.083   21.161
  340.000  247.676   59.910    0.253    0.100   22.897
  340.250  244.949   63.273    0.387    0.122   23.781
  340.500  243.370   64.761    0.434    0.166   23.315
  340.750  242.207   64.563    0.433    0.221   21.691
  341.000  241.044   67.611    0.415    0.216   17.419
  341.250  239.567   73.161    0.357    0.206   15.099
  341.500  239.653   78.523    0.390    0.209   13.587
  341.750  241.715   78.256    0.404    0.213   12.976
  342.000  243.882   77.125    0.405    0.224   12.392
  342.250  245.838   68.806    0.412    0.245   12.081
  342.500  246.554   62.798    0.410    0.232   12.571
  342.750  247.465   57.102    0.377    0.199   13.375
  343.000  247.973   49.595    0.195    0.081   16.674
  343.250  248.266   50.207    0.168    0.024   31.385
  343.500  248.561   57.319    0.173    0.018   32.473
  343.750  248.855   68.802    0.256    0.175   31.420
  344.000  249.254   74.101    0.403    0.209   27.956
  344.250  250.170   71.966    0.442    0.228   20.150
  344.500  251.192   70.513    0.459    0.231   13.158
  344.750  251.799   71.816    0.457    0.229   11.258
  345.000  251.782   74.993    0.439    0.224   10.632
  345.250  249.784   78.293    0.373    0.216   10.502
  345.500  249.554   73.908    0.374    0.202   10.586
  345.750  250.475   72.648    0.403    0.190   10.832
  346.000  251.498   73.137    0.401    0.200   11.105
  346.250  252.518   75.123    0.399    0.202   11.361
  346.500  253.022   77.736    0.413    0.201   11.670
  346.750  252.589   80.475    0.421    0.202   11.829
  347.000  251.942   80.714    0.424    0.203   12.105
  347.250  251.823   77.578    0.424    0.204   12.295
  347.500  252.532   77.753    0.422    0.200   12.392
  347.750  253.139   79.180    0.420    0.202   12.516
  348.000  253.534   80.168    0.416    0.209   12.713
  348.250  252.789   80.658    0.417    0.204   12.935
  348.500  249.648   82.332    0.410    0.203   13.038
  348.750  249.313   82.822    0.407    0.215   13.168
  349.000  249.813   79.749    0.409    0.205   13.081
  349.250  250.320   79.425    0.419    0.192   12.943
  349.500  250.921   82.163    0.435    0.186   12.828
  349.750  251.214   82.464    0.427    0.183   12.647
  350.000  250.994   83.015    0.420    0.188   12.489
  350.250  250.138   84.564    0.422    0.219   12.246
  350.500  249.707   84.992    0.439    0.231   12.114
  350.750  249.683   85.043    0.440    0.238   11.853
  351.000  249.875   82.721    0.427    0.236   11.385
  351.250  250.169   81.086    0.444    0.229   11.077
  351.500  250.258   81.762    0.421    0.213   10.838
  351.750  250.027   83.250    0.407    0.212   10.646
  352.000  249.906   82.174    0.413    0.220   10.533
  352.250  250.303   82.041    0.430    0.225   10.384
  352.500  251.011   80.781    0.453    0.222   10.274
  352.750  251.305   78.645    0.433    0.218   10.222
  353.000  251.291   76.822    0.432    0.221   10.171
  353.250  251.584   78.996    0.427    0.216   10.349
  353.500  251.774   82.108    0.407    0.207   10.649
  353.750  252.586   85.410    0.401    0.202   10.655
  354.000  253.506   89.959    0.403    0.221   10.290
  354.250  255.774   85.012    0.455    0.226    9.792
  354.500  257.216   81.877    0.457    0.221    9.527
  354.750  259.070   81.992    0.450    0.214    9.218
  355.000  260.303   84.167    0.443    0.211    8.870
  355.250  260.906   84.153    0.444    0.214    8.631
  355.500  260.787   83.706    0.457    0.215    8.523
  355.750  259.518   86.317    0.476    0.208    8.450
