~VERSION INFORMATION
 VERS.                 2.0:   CWLS LOG ASCII STANDARD -VERSION 2.0
 WRAP.                  NO:   ONE LINE PER DEPTH STEP
~WELL INFORMATION BLOCK
#MNEM.UNIT           DATA                    DESCRIPTION OF MNEMONIC
#---------    -------------------            -------------------------------
# Generated from Intellog Unique Number	CW_82_90/WELL/3072
WELL.         10-08-086-22W4                 : Well_name    - WELL
LOC .         00/10-08-086-22W4/0            : Location     - LOCATION
UWI .         00/10-08-086-22W4/0            : Uwi          - UNIQUE WELL ID
ENTR.         MAX                            : Entered      - ENTERED BY
SRVC.         SCHLUMBERGER                   : Scn          - SERVICE COMPANY
STRT.M        167.64                         : top_depth    - START DEPTH
STOP.M        373.39                         : bot_depth    - STOP DEPTH
STEP.M        0.25                           : increment    - STEP LENGTH
 NULL. -999.2500:NULL Value
~CURVE INFORMATION BLOCK
#MNEM UNIT       ERCB CURVE CODE    CURVE DESCRIPTION
#-----------   ------------------   ----------------------------------
DEPT.M        00 001 00 00         : DEPTH        - DEPTH
GR  .API      00 310 00 00         : GR           - GAMMA RAY
ILD .OHMM     00 120 00 00         : RESD         - DEEP RESISTIVITY (DIL)
NPHI.V/V      00 330 00 00         : PHIN         - NEUTRON POROSITY (SANDSTONE)
DPHI.V/V      00 890 00 00         : PHID         - DENSITY POROSITY (SANDSTONE)
CALI.MM       00 280 01 00         : CAL          - CALIPER
~PARAMETER INFORMATION
#MNEM.UNIT           DATA             DESCRIPTION OF MNEMONIC
#---------         -----------     ------------------------------
GL  .M        576.925              : gl           - GROUND LEVEL ELEVATION
EREF.M        580.187              : kb           - ELEVATION OF DEPTH REFERENCE
DATM.M        576.925              : datum        - DATUM ELEVATION
TDD .M        373.075              : tdd          - TOTAL DEPTH DRILLER
RUN .         ONE                  : Run          - RUN NUMBER
ENG .         BILL                 : Engineer     - RECORDING ENGINEER
WIT .         JIM                  : Witness      - WITNESSED BY
MUD .         GEL                  : Mud_type     - MUD TYPE
MATR.         SANDSTONE            : Logunit      - NEUTRON MATRIX
TMAX.C        20.5556              : BHT          - MAXIMUM RECORDED TEMPERATURE
BHTD.M        373.075              : BHTDEP       - MAXIMUM RECORDED TEMPERATURE
MATR.         1                    : LOGUNIT      - NEUTRON MATRIX
RMT .C        6.66667              : MDTP         - TEMPERATURE OF MUD
NEUT.         1                    : NEUTRON      - NEUTRON TYPE
RESI.         0                    : RESIST       - RESISTIVITY TYPE
RMC .OHMM     5.5                  : RMC          - RESISTIVITY OF MUD CAKE
RMF .OHMM     3.23                 : RMF          - RESISTIVITY OF MUD FILTRATE
SUFT.C        -15                  : SUFT         - SURFACE TEMPERATURE
~A  DEPTH       GR     RESD     PHIN     PHID      CAL
# ...
  350.140   72.784   18.762    0.451    0.174  154.823
  350.390   71.350   19.982    0.459    0.207  154.850
  350.640   71.363   24.165    0.463    0.225  154.874
  350.890   72.248   32.885    0.439    0.261  154.896
  351.140   73.717   40.868    0.429    0.272  154.923
  351.390   76.053   51.725    0.423    0.268  154.948
  351.640   80.717   66.662    0.406    0.257  154.975
  351.890   87.993   62.506    0.405    0.249  155.002
  352.140   93.819   55.002    0.398    0.262  154.532
  352.390   95.576   47.524    0.407    0.254  155.051
  352.640   95.300   39.962    0.417    0.230  155.570
  352.890   93.864   30.130    0.403    0.215  154.119
  353.140   96.202   26.755    0.390    0.200  153.655
  353.390   98.542   23.973    0.384    0.188  153.682
  353.640   97.976   21.095    0.400    0.168  153.701
  353.890   93.052   18.062    0.422    0.163  152.255
  354.140   86.387   15.892    0.397    0.173  151.788
  354.390   82.918   15.736    0.389    0.166  152.307
  354.640   83.223   16.606    0.398    0.151  153.807
  354.890   87.304   16.001    0.402    0.154  155.304
  355.140   96.904   15.006    0.395    0.190  155.820
  355.390  102.729   15.269    0.426    0.162  156.832
  355.640  105.939   15.679    0.447    0.166  157.348
  355.890  100.725   16.102    0.440    0.185  157.381
  356.140   92.027   16.991    0.411    0.213  156.908
  356.390   68.221   17.932    0.394    0.289  155.463
  356.640   64.172   20.532    0.390    0.266  154.998
  356.890   61.861   23.303    0.376    0.250  154.543
  357.140   59.844   23.930    0.340    0.225  153.571
  357.390   58.698   25.714    0.313    0.211  153.107
  357.640   60.744   26.406    0.318    0.191  153.131
  357.890   61.632   26.869    0.344    0.208  154.136
  358.140   59.903   27.343    0.348    0.236  154.656
  358.390   59.917   27.571    0.338    0.234  155.172
  358.640   63.710   27.056    0.351    0.226  155.691
  358.890   69.534   26.553    0.358    0.218  155.715
  359.140   78.555   25.816    0.369    0.211  155.248
  359.390   85.831   24.878    0.382    0.201  155.272
  359.640   89.915   24.192    0.383    0.204  155.789
  359.890   92.542   23.311    0.374    0.214  156.803
  360.140   96.916   22.461    0.377    0.230  157.316
  360.390  108.551   21.449    0.387    0.211  157.832
  360.640  114.957   20.669    0.408    0.186  158.355
  360.890  108.580   19.737    0.392    0.142  158.871
  361.140  112.372   18.846    0.394    0.147  159.387
  361.390  125.458   17.513    0.399    0.153  159.415
  361.640  137.383   16.274    0.406    0.156  159.439
  361.890  141.176   14.582    0.415    0.158  159.463
  362.140  146.128   13.427    0.419    0.161  159.491
  362.390  150.209   12.363    0.411    0.164  159.026
  362.640  150.804   12.024    0.400    0.167  158.556
  362.890  148.497   11.905    0.387    0.172  158.583
  363.140  147.061   12.225    0.373    0.177  158.605
  363.390  144.172   12.554    0.367    0.208  157.648
  363.640  134.018   12.774    0.365    0.219  156.692
  363.890  134.033   13.000    0.373    0.205  156.224
  364.140  136.080   13.229    0.378    0.195  156.252
  364.390  134.065   13.462    0.384    0.184  156.276
  364.640  130.882   13.823    0.388    0.169  155.809
  364.890  127.992   14.067    0.388    0.154  156.325
  365.140  124.815   14.576    0.384    0.154  157.336
  365.390  123.086   14.968    0.377    0.176  157.382
  365.640  121.066   15.233    0.371    0.179  156.899
  365.890  113.530   15.785    0.366    0.167  156.927
  366.140   62.711   16.506    0.360    0.159  156.945
  366.390   24.960   17.735    0.354    0.166  158.448
  366.640   24.686   18.383    0.332    0.205  159.459
  366.890   27.896   19.573    0.312    0.281  158.008
  367.140   36.336   20.653    0.318    0.263  154.097
  367.390  120.300   21.602    0.356    0.249  150.679
  367.640  137.747   22.794    0.371    0.240  148.735
  367.890  138.052   24.495    0.382    0.260  147.779
  368.140  138.066   26.321    0.391    0.289  146.820
  368.390  138.080   28.030    0.397    0.291  147.342
  368.640  138.095   30.397    0.406    0.283  149.823
  368.890  138.403   32.371    0.413    0.282  151.815
  369.140  138.416   34.787    0.415    0.283  153.318
  369.390  138.432   37.045    0.415    0.291  152.853
  369.640  138.448   38.733    0.415    0.319  152.389
  369.890  138.461   39.059    0.415    0.311  152.410
  370.140  138.475   39.392    0.415    0.286  152.929
  370.390  139.074   40.079    0.415    0.273  153.443
  370.640  139.379   37.927    0.415    0.295  153.470
  370.890  136.197   35.890    0.415    0.282  153.989
  371.140  121.108   33.959    0.415    0.269  154.014
  371.390  105.437   32.133    0.416    0.262  154.038
  371.640   98.191   29.859    0.417    0.271  153.574
  371.890   97.334   28.258    0.419    0.308  152.617
  372.140   96.769   27.978    0.420    0.341  151.163
  372.390   96.201   28.216    0.420    0.352  148.236
  372.640   92.443   28.976    0.420    0.348  144.821
  372.890   91.588   31.420    0.420    0.327  141.894
  373.140   93.341   33.457    0.421    0.218  138.970
  373.390   95.970   34.047    0.421    0.148  137.516
