~VERSION INFORMATION
 VERS.                 2.0:   CWLS LOG ASCII STANDARD -VERSION 2.0
 WRAP.                  NO:   ONE LINE PER DEPTH STEP
~WELL INFORMATION BLOCK
#MNEM.UNIT           DATA                    DESCRIPTION OF MNEMONIC
#---------    -------------------            -------------------------------
# Generated from Intellog Unique Number	CS_73_76/WELL/4864
WELL.         ALBERTA ENERGY CO.LTD.         : Well_name    - WELL
LOC .         00/12-36-072-03W4/0            : Location     - LOCATION
UWI .         00/12-36-072-03W4/0            : Uwi          - UNIQUE WELL ID
ENTR.         JOETTE                         : Entered      - ENTERED BY
SRVC.         SCHLUMBERGER                   : Scn          - SERVICE COMPANY
DATE.         05/13/92                       : Date         - LOG DATE
STRT.M        345                            : top_depth    - START DEPTH
STOP.M        575                            : bot_depth    - STOP DEPTH
STEP.M        0.25                           : increment    - STEP LENGTH
 NULL. -999.2500:NULL Value
~CURVE INFORMATION BLOCK
#MNEM UNIT       ERCB CURVE CODE    CURVE DESCRIPTION
#-----------   ------------------   ----------------------------------
DEPT.M        00 001 00 00         : DEPTH        - DEPTH
ILD .OHMM     00 120 00 00         : RESD         - DEEP RESISTIVITY (DIL)
DPHI.V/V      00 890 00 00         : PHID         - DENSITY POROSITY (SANDSTONE)
NPHI.V/V      00 330 00 00         : PHIN         - NEUTRON POROSITY (SANDSTONE)
GR  .API      00 310 00 00         : GR           - GAMMA RAY
CALI.MM       00 280 01 00         : CAL          - CALIPER
~PARAMETER INFORMATION
#MNEM.UNIT           DATA             DESCRIPTION OF MNEMONIC
#---------         -----------     ------------------------------
GL  .M        698.81               : gl           - GROUND LEVEL ELEVATION
EREF.M        702.22               : kb           - ELEVATION OF DEPTH REFERENCE
DATM.M        702.22               : datum        - DATUM ELEVATION
TDD .M        588                  : tdd          - TOTAL DEPTH DRILLER
RUN .         ONE                  : Run          - RUN NUMBER
ENG .         BILL                 : Engineer     - RECORDING ENGINEER
WIT .         JIM                  : Witness      - WITNESSED BY
MUD .         GEL                  : Mud_type     - MUD TYPE
MATR.         SANDSTONE            : Logunit      - NEUTRON MATRIX
TMAX.C        30                   : BHT          - MAXIMUM RECORDED TEMPERATURE
BHTD.M        588                  : BHTDEP       - MAXIMUM RECORDED TEMPERATURE
MATR.         1                    : LOGUNIT      - NEUTRON MATRIX
RMT .C        12                   : MDTP         - TEMPERATURE OF MUD
NEUT.         1                    : NEUTRON      - NEUTRON TYPE
RESI.         0                    : RESIST       - RESISTIVITY TYPE
RMC .OHMM     2.7                  : RMC          - RESISTIVITY OF MUD CAKE
RMF .OHMM     2.6                  : RMF          - RESISTIVITY OF MUD FILTRATE
SUFT.C        15                   : SUFT         - SURFACE TEMPERATURE
~A  DEPTH     RESD     PHID     PHIN       GR      CAL
# ...
  491.000    6.753    0.249    0.423   74.479  151.348
  491.250    7.706    0.250    0.454   82.190  151.407
  491.500   10.602    0.268    0.411   82.235  151.467
  491.750   10.813    0.296    0.347   75.793  150.756
  492.000   11.237    0.311    0.322   63.455  150.786
  492.250   11.454    0.313    0.315   53.487  149.303
  492.500   11.464    0.311    0.322   53.521  149.333
  492.750   11.473    0.311    0.327   52.987  148.606
  493.000   11.059    0.309    0.326   53.622  147.895
  493.250   10.661    0.301    0.323   54.857  147.183
  493.500   10.085    0.290    0.322   56.059  147.228
  493.750    9.192    0.277    0.324   57.873  147.303
  494.000    8.694    0.269    0.335   57.917  146.561
  494.250    8.074    0.275    0.353   58.574  146.636
  494.500    8.709    0.274    0.349   60.399  145.925
  494.750   11.985    0.283    0.346   61.601  145.955
  495.000   13.676    0.296    0.344   64.594  145.243
  495.250   13.945    0.267    0.342   66.408  145.303
  495.500   12.237    0.287    0.331   63.516  145.363
  495.750    9.781    0.298    0.338   65.318  145.422
  496.000    7.817    0.294    0.327   71.282  145.467
  496.250    6.609    0.304    0.322   69.558  145.527
  496.500    6.022    0.315    0.338   73.719  145.617
  496.750    5.490    0.323    0.400   80.250  145.661
  497.000    5.290    0.318    0.392   72.629  145.751
  497.250    5.100    0.319    0.397   57.343  145.781
  497.500    5.008    0.329    0.392   60.926  146.627
  497.750    5.203    0.337    0.404   59.792  146.702
  498.000    5.614    0.324    0.413   52.772  146.761
  498.250    6.056    0.302    0.421   51.626  146.806
  498.500    6.531    0.289    0.429   57.568  146.866
  498.750    7.049    0.247    0.411   64.688  146.941
  499.000    7.185    0.233    0.391   69.450  147.802
  499.250    7.191    0.213    0.397   75.403  147.846
  499.500    7.331    0.209    0.408   80.176  149.479
  499.750    7.070    0.214    0.411   83.158  151.912
  500.000    6.943    0.220    0.403   83.792  154.345
  500.250    6.818    0.222    0.400   85.016  155.161
  500.500    6.573    0.215    0.398   88.010  156.007
  500.750    6.454    0.211    0.405   92.783  154.495
  501.000    6.459    0.209    0.410   89.879  153.768
  501.250    6.464    0.218    0.394   93.462  153.843
  501.500    6.472    0.227    0.387   91.749  153.888
  501.750    6.355    0.238    0.386   85.297  153.963
  502.000    6.124    0.246    0.372   74.127  154.007
  502.250    5.796    0.254    0.375   58.841  154.112
  502.500    5.586    0.258    0.387   61.845  153.400
  502.750    5.485    0.259    0.381   62.480  153.445
  503.000    5.288    0.260    0.373   61.345  153.475
  503.250    5.194    0.261    0.371   61.980  152.764
  503.500    5.199    0.265    0.369   62.024  152.823
  503.750    5.201    0.275    0.375   61.480  152.898
  504.000    5.206    0.277    0.381   60.345  152.142
  504.250    5.211    0.273    0.373   60.980  152.202
  504.500    5.216    0.273    0.374   61.024  152.261
  504.750    5.218    0.274    0.376   60.480  152.321
  505.000    5.322    0.274    0.365   59.345  152.381
  505.250    5.325    0.274    0.358   56.442  152.486
  505.500    5.429    0.274    0.367   54.128  152.515
  505.750    5.537    0.274    0.377   52.404  152.575
  506.000    5.647    0.273    0.390   53.038  152.650
  506.250    5.649    0.274    0.396   56.031  152.710
  506.500    5.762    0.272    0.399   60.215  152.769
  506.750    5.875    0.272    0.397   62.618  152.829
  507.000    5.879    0.275    0.391   61.495  152.874
  507.250    5.883    0.270    0.387   61.540  152.949
  507.500    5.567    0.273    0.378   60.405  153.009
  507.750    5.467    0.279    0.370   58.681  152.267
  508.000    5.370    0.278    0.361   57.547  152.357
  508.250    5.476    0.267    0.359   57.592  152.402
  508.500    5.582    0.263    0.369   58.827  151.660
  508.750    5.588    0.266    0.382   61.219  151.720
  509.000    5.592    0.272    0.377   64.201  151.795
  509.250    5.391    0.276    0.376   65.425  151.855
  509.500    5.294    0.277    0.375   64.324  151.143
  509.750    5.105    0.280    0.378   63.757  151.203
  510.000    5.108    0.277    0.384   61.443  150.461
  510.250    5.111    0.270    0.382   59.730  150.521
  510.500    5.311    0.260    0.373   60.955  150.581
  510.750    5.414    0.255    0.367   63.937  150.641
  511.000    5.522    0.255    0.375   68.120  150.701
  511.250    5.631    0.261    0.387   67.575  150.775
  511.500    5.529    0.269    0.396   65.840  150.835
  511.750    5.433    0.274    0.400   62.937  150.880
  512.000    5.436    0.272    0.398   62.981  150.940
  512.250    5.440    0.267    0.391   61.858  151.014
  512.500    5.342    0.257    0.387   61.903  151.089
  512.750    5.347    0.259    0.388   60.190  151.149
  513.000    5.351    0.267    0.372   59.623  151.209
  513.250    5.159    0.275    0.374   57.320  151.268
  513.500    4.971    0.280    0.389   59.735  151.313
  513.750    4.883    0.276    0.400   59.190  151.373
  514.000    4.708    0.273    0.394   59.235  151.448
  514.250    4.623    0.273    0.391   59.869  151.522
  514.500    4.627    0.270    0.393   58.145  151.552
  514.750    4.630    0.262    0.391   59.358  151.612
  515.000    4.722    0.261    0.386   64.721  151.672
  515.250    4.816    0.269    0.380   64.755  151.747
  515.500    4.819    0.257    0.372   59.492  151.806
  515.750    4.914    0.258    0.371   58.358  151.866
  516.000    4.917    0.269    0.376   61.941  151.926
  516.250    4.920    0.275    0.384   61.986  152.001
  516.500    4.833    0.269    0.390   54.376  152.045
  516.750    4.837    0.265    0.391   56.780  152.105
  517.000    4.751    0.257    0.390   60.362  152.180
  517.250    4.665    0.260    0.390   62.766  152.240
  517.500    4.499    0.269    0.396   62.822  152.299
  517.750    4.335    0.270    0.409   65.815  152.359
  518.000    3.878    0.259    0.431   68.797  152.419
  518.250    3.669    0.268    0.424   67.073  152.479
  518.500    3.602    0.283    0.401   51.197  152.539
  518.750    3.605    0.285    0.400   47.715  152.598
  519.000    3.678    0.264    0.427   51.876  152.658
  519.250    3.751    0.262    0.432   58.407  152.718
  519.500    3.683    0.286    0.424   59.631  152.822
  519.750    3.420    0.298    0.413   49.652  152.852
  520.000    3.358    0.303    0.407   43.812  153.683
  520.250    3.299    0.298    0.404   37.949  153.743
  520.500    3.364    0.296    0.399   35.646  153.833
  520.750    3.494    0.303    0.406   36.281  153.878
  521.000    3.770    0.301    0.412   36.915  153.922
  521.250    3.772    0.288    0.402   39.908  153.997
  521.500    3.847    0.270    0.404   46.439  154.057
  521.750    3.850    0.276    0.402   55.329  154.132
  522.000    3.712    0.263    0.391   54.206  154.191
  522.250    3.577    0.279    0.381   53.650  154.266
  522.500    3.447    0.291    0.379   48.977  154.296
  522.750    3.323    0.297    0.381   44.894  154.371
  523.000    3.144    0.308    0.371   43.170  154.445
  523.250    3.088    0.321    0.377   40.267  154.475
  523.500    3.033    0.336    0.400   32.056  154.550
  523.750    3.036    0.341    0.399   30.933  153.824
  524.000    3.095    0.343    0.393   31.568  153.883
  524.250    3.277    0.338    0.388   31.023  153.928
  524.500    3.469    0.327    0.385   30.467  153.988
  524.750    3.672    0.307    0.387   31.101  154.063
  525.000    3.815    0.295    0.406   34.106  154.137
  525.250    3.891    0.250    0.432   40.637  154.182
  525.500    3.895    0.265    0.459   54.243  154.257
  525.750    3.897    0.283    0.461   69.630  154.317
  526.000    3.828    0.274    0.445   57.871  154.362
  526.250    3.690    0.261    0.417   61.465  154.421
  526.500    3.623    0.256    0.412   63.279  154.496
  526.750    3.428    0.308    0.420   59.196  153.770
  527.000    3.243    0.319    0.418   50.986  153.829
  527.250    3.068    0.293    0.413   45.123  153.889
