~VERSION INFORMATION
 VERS.                 2.0:   CWLS LOG ASCII STANDARD -VERSION 2.0
 WRAP.                  NO:   ONE LINE PER DEPTH STEP
~WELL INFORMATION BLOCK
#MNEM.UNIT           DATA                    DESCRIPTION OF MNEMONIC
#---------    -------------------            -------------------------------
# Generated from Intellog Unique Number	CS_69_70/WELL/862
WELL.         GULF OIL CANADA                : Well_name    - WELL
LOC .         00/10-10-069-15W4/0            : Location     - LOCATION
UWI .         00/10-10-069-15W4/0            : Uwi          - UNIQUE WELL ID
ENTR.         SP                             : Entered      - ENTERED BY
SRVC.         SCHLUMBERGER                   : Scn          - SERVICE COMPANY
STRT.M        260                            : top_depth    - START DEPTH
STOP.M        475                            : bot_depth    - STOP DEPTH
STEP.M        0.25                           : increment    - STEP LENGTH
 NULL. -999.2500:NULL Value
~CURVE INFORMATION BLOCK
#MNEM UNIT       ERCB CURVE CODE    CURVE DESCRIPTION
#-----------   ------------------   ----------------------------------
DEPT.M        00 001 00 00         : DEPTH        - DEPTH
GR  .API      00 310 00 00         : GR           - GAMMA RAY
NPHI.V/V      00 330 00 00         : PHIN         - NEUTRON POROSITY (LIMESTONE)
DPHI.V/V      00 890 00 00         : PHID         - DENSITY POROSITY (LIMESTONE)
ILD .OHMM     00 120 00 00         : RESD         - DEEP RESISTIVITY (DIL)
~PARAMETER INFORMATION
#MNEM.UNIT           DATA             DESCRIPTION OF MNEMONIC
#---------         -----------     ------------------------------
GL  .M        548.59               : gl           - GROUND LEVEL ELEVATION
EREF.M        552.55               : kb           - ELEVATION OF DEPTH REFERENCE
DATM.M        548.59               : datum        - DATUM ELEVATION
TDD .M        482                  : tdd          - TOTAL DEPTH DRILLER
RUN .         ONE                  : Run          - RUN NUMBER
ENG .         BILL                 : Engineer     - RECORDING ENGINEER
WIT .         JIM                  : Witness      - WITNESSED BY
MUD .         GEL                  : Mud_type     - MUD TYPE
MATR.         LIMESTONE            : Logunit      - NEUTRON MATRIX
TMAX.C        24                   : BHT          - MAXIMUM RECORDED TEMPERATURE
BHTD.M        482                  : BHTDEP       - MAXIMUM RECORDED TEMPERATURE
MATR.         1                    : LOGUNIT      - NEUTRON MATRIX
RMT .C        25                   : MDTP         - TEMPERATURE OF MUD
NEUT.         1                    : NEUTRON      - NEUTRON TYPE
RESI.         0                    : RESIST       - RESISTIVITY TYPE
RMC .OHMM     0.25                 : RMC          - RESISTIVITY OF MUD CAKE
RMF .OHMM     0.25                 : RMF          - RESISTIVITY OF MUD FILTRATE
SUFT.C        15                   : SUFT         - SURFACE TEMPERATURE
~A  DEPTH       GR     PHIN     PHID     RESD
# ...
  390.500  103.667    0.453    0.199    3.274
  390.750  109.069    0.453    0.187    3.143
  391.000  111.267    0.442    0.187    3.068
  391.250  113.526    0.429    0.204    3.007
  391.500  114.124    0.434    0.215    3.013
  391.750  113.360    0.450    0.224    3.070
  392.000  111.586    0.459    0.215    3.134
  392.250  110.346    0.464    0.213    3.242
  392.500  113.792    0.456    0.225    3.315
  392.750  116.345    0.485    0.216    3.225
  393.000  119.493    0.506    0.224    3.131
  393.250  121.574    0.531    0.233    3.028
  393.500  121.816    0.529    0.227    2.902
  393.750  122.059    0.528    0.222    2.796
  394.000  123.072    0.549    0.251    2.730
  394.250  122.248    0.565    0.240    2.655
  394.500  121.127    0.580    0.229    2.592
  394.750  123.151    0.567    0.245    2.512
  395.000  124.578    0.557    0.255    2.448
  395.250  126.005    0.558    0.250    2.532
  395.500  125.122    0.547    0.245    2.585
  395.750  122.933    0.527    0.240    2.659
  396.000  121.220    0.515    0.234    2.524
  396.250  119.802    0.505    0.225    2.605
  396.500  117.673    0.504    0.213    2.700
  396.750  119.161    0.516    0.204    2.818
  397.000  117.269    0.514    0.194    2.931
  397.250  112.354    0.484    0.200    3.020
  397.500  105.778    0.471    0.208    3.147
  397.750   96.771    0.459    0.197    3.291
  398.000   91.381    0.439    0.187    3.430
  398.250   92.098    0.436    0.181    3.594
  398.500   94.653    0.445    0.217    3.717
  398.750   97.623    0.441    0.228    3.816
  399.000   98.340    0.433    0.209    3.924
  399.250   96.567    0.427    0.220    4.029
  399.500   99.004    0.429    0.216    4.136
  399.750   99.543    0.436    0.191    4.278
  400.000   98.480    0.399    0.155    4.491
  400.250   92.794    0.325    0.116    4.697
  400.500   96.891    0.358    0.153    4.876
  400.750   98.260    0.391    0.174    5.119
  401.000   97.317    0.412    0.198    5.285
  401.250   92.342    0.225    0.157    5.405
  401.500   79.659    0.205    0.059    5.487
  401.750   71.304    0.193    0.036    5.591
  402.000   78.010    0.302    0.056    6.092
  402.250   88.333    0.374    0.106    7.589
  402.500   94.741    0.398    0.133    8.425
  402.750  100.913    0.419    0.154    6.690
  403.000  105.661    0.433    0.181    5.195
  403.250  105.371    0.431    0.182    4.996
  403.500  106.087    0.430    0.172    4.528
  403.750  106.804    0.427    0.184    4.371
  404.000  108.115    0.443    0.185    4.283
  404.250  107.586    0.454    0.175    4.260
  404.500  105.339    0.439    0.167    4.261
  404.750  107.895    0.428    0.164    4.286
  405.000  108.729    0.420    0.161    4.295
  405.250  109.387    0.416    0.167    4.320
  405.500  109.156    0.432    0.186    4.328
  405.750  107.264    0.424    0.186    4.345
  406.000  106.084    0.425    0.173    4.346
  406.250  106.090    0.439    0.156    4.355
  406.500  106.509    0.424    0.144    4.396
  406.750  108.354    0.403    0.138    4.463
  407.000  109.604    0.400    0.174    4.590
  407.250  112.219    0.410    0.186    4.660
  407.500  113.587    0.424    0.199    4.670
  407.750  115.075    0.431    0.190    4.287
  408.000  115.969    0.441    0.179    4.272
  408.250  115.382    0.440    0.178    4.265
  408.500  114.143    0.421    0.187    4.258
  408.750  112.666    0.411    0.193    4.251
  409.000  110.122    0.413    0.185    4.259
  409.250  107.459    0.418    0.185    4.244
  409.500  106.219    0.423    0.194    4.253
  409.750  108.893    0.421    0.164    4.254
  410.000  111.211    0.415    0.159    4.279
  410.250  112.699    0.426    0.173    4.287
  410.500  113.179    0.435    0.186    4.320
  410.750  113.421    0.425    0.191    4.353
  411.000  114.079    0.417    0.198    4.387
  411.250  115.211    0.408    0.205    4.429
  411.500  115.869    0.400    0.202    4.462
  411.750  116.468    0.393    0.182    4.480
  412.000  116.413    0.385    0.184    4.514
  412.250  114.225    0.399    0.197    4.549
  412.500  109.132    0.415    0.190    4.584
  412.750  104.691    0.434    0.184    4.584
  413.000  101.909    0.445    0.184    4.484
  413.250  102.626    0.435    0.196    4.273
  413.500  108.383    0.436    0.206    3.945
  413.750  113.607    0.464    0.218    3.608
  414.000  115.687    0.494    0.228    2.919
  414.250  116.700    0.530    0.196    2.296
  414.500  115.757    0.548    0.177    1.921
  414.750  113.272    0.531    0.174    2.081
  415.000  114.700    0.530    0.195    2.457
  415.250  114.647    0.528    0.207    2.722
  415.500  108.842    0.510    0.217    3.249
  415.750  100.547    0.477    0.194    4.102
  416.000   95.098    0.403    0.132    4.779
  416.250   91.130    0.342    0.062    5.909
  416.500   89.832    0.307    0.075    6.911
  416.750   96.715    0.312    0.102    7.364
  417.000  102.235    0.373    0.127    6.837
  417.250  101.944    0.402    0.161    6.036
  417.500   98.570    0.411    0.153    5.573
  417.750  100.531    0.390    0.130    5.320
  418.000  104.866    0.372    0.103    5.156
  418.250  107.480    0.392    0.137    4.987
  418.500  109.026    0.410    0.164    4.823
  418.750  104.644    0.395    0.146    4.683
  419.000  108.385    0.384    0.122    4.546
  419.250  112.542    0.374    0.110    4.405
  419.500  114.444    0.410    0.157    4.277
  419.750  116.703    0.432    0.184    4.175
  420.000  118.843    0.433    0.195    4.077
  420.250  121.457    0.420    0.182    3.995
  420.500  124.545    0.411    0.174    3.907
  420.750  128.346    0.440    0.172    3.828
  421.000  135.584    0.444    0.191    3.731
  421.250  143.416    0.428    0.181    3.629
  421.500  132.157    0.419    0.168    3.542
  421.750  122.735    0.433    0.160    3.414
  422.000  121.080    0.463    0.164    3.345
  422.250  123.518    0.476    0.167    3.290
  422.500  125.657    0.479    0.151    3.224
  422.750  127.381    0.474    0.141    3.148
  423.000  121.695    0.472    0.137    3.096
  423.250  121.464    0.474    0.134    3.039
  423.500  123.367    0.482    0.155    2.973
  423.750  124.143    0.479    0.185    2.913
  424.000  124.563    0.474    0.211    2.865
  424.250  130.439    0.479    0.191    2.818
  424.500  135.247    0.488    0.178    2.798
  424.750  135.607    0.510    0.199    2.814
  425.000  132.055    0.520    0.209    2.905
  425.250  127.199    0.503    0.189    3.148
  425.500  122.106    0.480    0.180    3.316
  425.750  114.937    0.414    0.171    3.361
  426.000  112.452    0.412    0.161    3.209
  426.250  119.395    0.453    0.148    3.092
  426.500  132.741    0.496    0.165    2.941
  426.750  135.118    0.518    0.207    2.720
  427.000  133.404    0.539    0.204    2.675
  427.250  130.623    0.544    0.188    2.814
  427.500  126.301    0.534    0.171    3.009
  427.750  121.504    0.518    0.172    3.219
  428.000  117.536    0.506    0.182    3.553
  428.250  114.103    0.492    0.185    3.900
  428.500  110.788    0.439    0.154    4.314
  428.750  104.212    0.405    0.109    4.779
  429.000  103.566    0.384    0.096    5.179
  429.250  108.492    0.397    0.146    5.457
  429.500  111.225    0.405    0.168    5.499
  429.750  106.665    0.384    0.185    5.530
  430.000   98.726    0.343    0.199    5.806
  430.250   87.703    0.320    0.224    6.409
  430.500   78.460    0.302    0.243    7.275
  430.750   76.330    0.296    0.197    8.243
  431.000   74.617    0.288    0.120    9.201
  431.250   74.266    0.281    0.074   10.290
  431.500   77.000    0.274    0.015   11.109
  431.750   80.680    0.295    0.027   11.028
  432.000   87.920    0.313    0.086    8.741
  432.250   93.913    0.334    0.160    6.940
  432.500   98.544    0.352    0.186    5.871
  432.750  101.514    0.368    0.172    5.291
  433.000  105.077    0.383    0.163    4.715
  433.250  110.240    0.397    0.164    4.451
  433.500  117.420    0.412    0.174    4.242
  433.750  123.592    0.432    0.180    4.133
