~VERSION INFORMATION
 VERS.                 2.0:   CWLS LOG ASCII STANDARD -VERSION 2.0
 WRAP.                  NO:   ONE LINE PER DEPTH STEP
~WELL INFORMATION BLOCK
#MNEM.UNIT           DATA                    DESCRIPTION OF MNEMONIC
#---------    -------------------            -------------------------------
# Generated from Intellog Unique Number	CS_73_76/WELL/838
WELL.         MIAMI OIL PRODUCERS            : Well_name    - WELL
LOC .         00/10-32-073-11W4/0            : Location     - LOCATION
UWI .         00/10-32-073-11W4/0            : Uwi          - UNIQUE WELL ID
ENTR.         SP                             : Entered      - ENTERED BY
SRVC.         SCHLUMBERGER                   : Scn          - SERVICE COMPANY
STRT.M        295.656                        : top_depth    - START DEPTH
STOP.M        533.156                        : bot_depth    - STOP DEPTH
STEP.M        0.25                           : increment    - STEP LENGTH
 NULL. -999.2500:NULL Value
~CURVE INFORMATION BLOCK
#MNEM UNIT       ERCB CURVE CODE    CURVE DESCRIPTION
#-----------   ------------------   ----------------------------------
DEPT.M        00 001 00 00         : DEPTH        - DEPTH
GR  .API      00 310 00 00         : GR           - GAMMA RAY
DPHI.V/V      00 890 00 00         : PHID         - DENSITY POROSITY (SANDSTONE)
NPHI.V/V      00 330 00 00         : PHIN         - NEUTRON POROSITY (SANDSTONE)
ILD .OHMM     00 120 00 00         : RESD         - DEEP RESISTIVITY (DIL)
~PARAMETER INFORMATION
#MNEM.UNIT           DATA             DESCRIPTION OF MNEMONIC
#---------         -----------     ------------------------------
GL  .M        644.347              : gl           - GROUND LEVEL ELEVATION
EREF.M        647.395              : kb           - ELEVATION OF DEPTH REFERENCE
DATM.M        644.347              : datum        - DATUM ELEVATION
TDD .M        636.727              : tdd          - TOTAL DEPTH DRILLER
RUN .         ONE                  : Run          - RUN NUMBER
ENG .         BILL                 : Engineer     - RECORDING ENGINEER
WIT .         JIM                  : Witness      - WITNESSED BY
MUD .         GEL                  : Mud_type     - MUD TYPE
MATR.         SANDSTONE            : Logunit      - NEUTRON MATRIX
TMAX.C        25.5556              : BHT          - MAXIMUM RECORDED TEMPERATURE
BHTD.M        636.727              : BHTDEP       - MAXIMUM RECORDED TEMPERATURE
MATR.         1                    : LOGUNIT      - NEUTRON MATRIX
RMT .C        25                   : MDTP         - TEMPERATURE OF MUD
NEUT.         1                    : NEUTRON      - NEUTRON TYPE
RESI.         0                    : RESIST       - RESISTIVITY TYPE
RMC .OHMM     0.25                 : RMC          - RESISTIVITY OF MUD CAKE
RMF .OHMM     0.25                 : RMF          - RESISTIVITY OF MUD FILTRATE
SUFT.C        15                   : SUFT         - SURFACE TEMPERATURE
~A  DEPTH       GR     PHID     PHIN     RESD
# ...
  469.656   70.396    0.267    0.421   19.015
  469.906   70.420    0.257    0.418   19.860
  470.156   69.795    0.284    0.416   21.427
  470.406   69.720    0.304    0.419   22.366
  470.656   72.536    0.316    0.421   23.309
  470.906   78.401    0.305    0.413   23.937
  471.156   81.778    0.290    0.406   23.841
  471.406   78.128    0.279    0.402   18.838
  471.656   75.736    0.265    0.397   16.303
  471.906   76.867    0.245    0.385   14.806
  472.156   78.875    0.244    0.390   14.121
  472.406   80.598    0.249    0.398   14.038
  472.656   79.459    0.256    0.408   14.848
  472.906   78.124    0.263    0.406   14.977
  473.156   78.922    0.271    0.406   15.751
  473.406   80.251    0.269    0.410   16.212
  473.656   84.521    0.255    0.403   16.468
  473.906   86.906    0.242    0.404   14.003
  474.156   93.077    0.229    0.393   12.554
  474.406   98.408    0.219    0.379   11.291
  474.656  102.666    0.218    0.406   10.312
  474.906  105.976    0.222    0.426    9.634
  475.156  104.485    0.226    0.418    8.898
  475.406  101.743    0.233    0.410    8.897
  475.656   97.514    0.236    0.400    9.572
  475.906   93.637    0.238    0.404   10.269
  476.156   90.611    0.246    0.392   11.610
  476.406   87.701    0.250    0.381   13.511
  476.656   83.066    0.247    0.384   16.687
  476.906   77.629    0.242    0.384   21.850
  477.156   62.135    0.266    0.380   27.805
  477.406   52.352    0.279    0.373   33.024
  477.656   52.435    0.289    0.374   38.265
  477.906   54.682    0.277    0.364   41.085
  478.156   60.754    0.264    0.357   38.124
  478.406   64.530    0.256    0.357   30.688
  478.656   71.966    0.251    0.360   26.462
  478.906   76.311    0.249    0.354   22.157
  479.156   78.956    0.246    0.349   18.841
  479.406   83.971    0.236    0.343   16.457
  479.656   87.135    0.220    0.353   14.653
  479.906   89.504    0.211    0.358   13.656
  480.156   90.169    0.204    0.367   13.238
  480.406   90.102    0.213    0.375   13.159
  480.656   88.051    0.205    0.392   13.396
  480.906   83.841    0.212    0.381   14.236
  481.156   81.246    0.216    0.380   15.157
  481.406   82.240    0.206    0.385   18.050
  481.656   82.809    0.221    0.388   20.297
  481.906   78.682    0.247    0.381   21.744
  482.156   72.742    0.261    0.372   25.354
  482.406   67.610    0.269    0.353   27.053
  482.656   71.871    0.256    0.337   21.306
  482.906   78.683    0.238    0.324   18.843
  483.156   82.632    0.217    0.319   17.942
  483.406   79.400    0.187    0.325   17.130
  483.656   73.296    0.155    0.343   16.963
  483.906   72.282    0.146    0.384   16.846
  484.156   73.500    0.162    0.389   16.855
  484.406   68.462    0.195    0.379   17.004
  484.656   64.251    0.212    0.369   17.176
  484.906   67.509    0.222    0.373   17.166
  485.156   69.528    0.213    0.372   17.646
  485.406   70.821    0.217    0.356   18.188
  485.656   71.815    0.224    0.357   19.248
  485.906   72.920    0.243    0.359   21.653
  486.156   74.903    0.258    0.356   27.616
  486.406   78.321    0.258    0.378   32.586
  486.656   84.720    0.276    0.392   42.161
  486.906   88.278    0.285    0.389   51.769
  487.156   90.164    0.283    0.377   64.990
  487.406   85.332    0.286    0.370   79.117
  487.656   81.261    0.292    0.368  125.467
  487.906   82.356    0.301    0.365  146.050
  488.156   89.698    0.312    0.363  160.608
  488.406   96.954    0.310    0.374  168.225
  488.656  101.264    0.304    0.390  172.971
  488.906  102.277    0.307    0.397  185.227
  489.156  102.532    0.308    0.394  200.988
  489.406   98.448    0.317    0.377  229.359
  489.656   92.309    0.308    0.376  251.871
  489.906   89.666    0.298    0.379  270.768
  490.156   86.473    0.296    0.383  270.974
  490.406   83.591    0.295    0.373  262.927
  490.656   78.255    0.296    0.371  249.360
  490.906   73.616    0.301    0.369  247.844
  491.156   68.676    0.309    0.363  247.769
  491.406   63.998    0.305    0.360  248.003
  491.656   60.976    0.310    0.357  242.928
  491.906   64.471    0.305    0.365  235.822
  492.156   68.563    0.303    0.378  229.921
  492.406   71.055    0.314    0.389  226.021
  492.656   72.794    0.321    0.388  221.551
  492.906   74.383    0.326    0.394  222.407
  493.156   75.851    0.324    0.404  229.178
  493.406   71.925    0.321    0.396  241.044
  493.656   64.140    0.323    0.392  254.642
  493.906   57.772    0.320    0.394  234.812
  494.156   55.035    0.313    0.394  152.652
  494.406   62.434    0.311    0.392   93.523
  494.656   73.836    0.309    0.382   44.048
  494.906   96.489    0.302    0.372   25.239
  495.156  128.718    0.286    0.363   14.383
  495.406  141.717    0.255    0.349   10.430
  495.656  131.774    0.226    0.347    8.939
  495.906  114.777    0.201    0.361    8.482
  496.156  103.673    0.193    0.381    8.690
  496.406   95.384    0.197    0.394    9.721
  496.656   95.286    0.185    0.393   10.492
  496.906   93.100    0.180    0.384   11.015
  497.156   89.301    0.206    0.379   11.808
  497.406   81.141    0.250    0.372   11.294
  497.656   75.960    0.250    0.366   10.690
  497.906   75.017    0.238    0.373    9.753
  498.156   85.395    0.227    0.379    8.524
  498.406   93.854    0.198    0.392    7.681
  498.656  103.820    0.175    0.410    6.921
  498.906  111.066    0.188    0.409    6.371
  499.156  114.141    0.197    0.420    6.336
  499.406  112.925    0.187    0.429    6.512
  499.656  109.990    0.176    0.423    7.286
  499.906  107.010    0.182    0.432    7.588
  500.156  104.377    0.187    0.435    7.843
  500.406   96.897    0.181    0.414    7.640
  500.656   91.710    0.177    0.385    7.429
  500.906   95.286    0.189    0.387    7.734
  501.156   99.572    0.199    0.396    8.506
  501.406   96.981    0.219    0.410    9.264
  501.656   86.790    0.233    0.410    9.729
  501.906   75.239    0.246    0.397    9.784
  502.156   69.302    0.244    0.387    9.430
  502.406   71.847    0.232    0.383    9.128
  502.656   79.220    0.219    0.394    9.044
  502.906   83.207    0.219    0.401    8.900
  503.156   82.999    0.225    0.399    8.906
  503.406   81.885    0.222    0.396    8.920
  503.656   79.811    0.229    0.397    9.071
  503.906   77.825    0.227    0.392    9.059
  504.156   78.627    0.217    0.388    9.053
  504.406   81.809    0.213    0.387    8.884
  504.656   81.605    0.221    0.390    8.900
  504.906   80.799    0.222    0.382    8.731
  505.156   80.787    0.226    0.372    8.455
  505.406   79.728    0.229    0.365    8.392
  505.656   77.291    0.228    0.361    7.990
  505.906   74.374    0.237    0.366    7.593
  506.156   71.476    0.225    0.368    7.187
  506.406   70.119    0.215    0.363    6.658
  506.656   66.991    0.247    0.366    6.211
  506.906   60.736    0.261    0.373    5.915
  507.156   58.377    0.283    0.365    5.560
  507.406   58.039    0.283    0.360    5.234
  507.656   57.316    0.266    0.367    4.928
  507.906   53.822    0.274    0.377    4.502
  508.156   49.323    0.283    0.384    4.138
  508.406   46.089    0.306    0.393    3.758
  508.656   43.401    0.325    0.390    3.537
  508.906   42.294    0.337    0.387    3.325
  509.156   40.700    0.346    0.393    3.182
  509.406   39.259    0.337    0.391    3.108
  509.656   44.968    0.330    0.376    3.184
  509.906   49.313    0.311    0.362    3.278
  510.156   51.453    0.303    0.363    3.507
  510.406   53.028    0.297    0.370    3.687
  510.656   56.717    0.281    0.366    4.131
  510.906   65.757    0.265    0.364    4.476
  511.156   70.190    0.251    0.362    4.832
  511.406   72.255    0.238    0.361    5.144
  511.656   73.710    0.251    0.376    5.342
  511.906   74.667    0.252    0.369    5.590
  512.156   80.178    0.219    0.359    5.641
  512.406   83.446    0.192    0.361    5.826
  512.656   78.593    0.224    0.374    5.817
  512.906   71.172    0.250    0.383    5.595
