~VERSION INFORMATION
 VERS.                 2.0:   CWLS LOG ASCII STANDARD -VERSION 2.0
 WRAP.                  NO:   ONE LINE PER DEPTH STEP
~WELL INFORMATION BLOCK
#MNEM.UNIT           DATA                    DESCRIPTION OF MNEMONIC
#---------    -------------------            -------------------------------
# Generated from Intellog Unique Number	CW_70_72/WELL/1041
NULL.         -999.25                        : NULL_VALUE
WELL.         HOME ALMX MITSUE 10-23         : Well_name    - WELL              
LOC .         10-23-071-04W5                 : Location     - LOCATION          
UWI .         00/10-23-071-04W5/0            : Uwi          - UNIQUE WELL ID    
ENTR.         JAYE                           : Entered      - ENTERED BY        
SRVC.         SCHLUMBERGER                   : Scn          - SERVICE COMPANY   
DATE.         20 FEB 74                      : Date         - LOG DATE          
STRT.M        502.92                         : top_depth    - START DEPTH       
STOP.M        731.42                         : bot_depth    - STOP DEPTH        
STEP.M        0.25                           : increment    - STEP LENGTH       
~CURVE INFORMATION BLOCK
#MNEM UNIT       ERCB CURVE CODE    CURVE DESCRIPTION
#-----------   ------------------   ----------------------------------
DEPT.M        00 001 00 00         : DEPTH        - DEPTH                       
DPHI.V/V      00 890 00 00         : PHID         - DENSITY POROSITY (SANDSTONE)
NPHI.V/V      00 330 00 00         : PHIN         - NEUTRON POROSITY (SANDSTONE)
GR  .API      00 310 00 00         : GR           - GAMMA RAY                   
CALI.MM       00 280 01 00         : CAL          - CALIPER                     
ILD .OHMM     00 120 00 00         : RESD         - DEEP RESISTIVITY (DIL)      
~PARAMETER INFORMATION       
#MNEM.UNIT           DATA             DESCRIPTION OF MNEMONIC
#---------         -----------     ------------------------------
GL  .M        670.011              : gl           - GROUND LEVEL ELEVATION      
EREF.M        674.218              : kb           - ELEVATION OF DEPTH REFERENCE
DATM.M        670.011              : datum        - DATUM ELEVATION             
TDD .M        760.476              : tdd          - TOTAL DEPTH DRILLER         
RUN .         ONE                  : Run          - RUN NUMBER                  
BASE.         EDM                  : Branch       - HOME BASE OF LOGGING UNIT   
MUD .         GEL                  : Mud_type     - MUD TYPE                    
MATR.         SANDSTONE            : Logunit      - NEUTRON MATRIX              
TMAX.C        26.6667              : BHT          - MAXIMUM RECORDED TEMPERATURE
BHTD.M        763.219              : BHTDEP       - MAXIMUM RECORDED TEMPERATURE
RMT .C        10                   : MDTP         - TEMPERATURE OF MUD          
MUDD.KG/M     1128                 : MWT          - MUD DENSITY                 
NEUT.         1                    : NEUTRON      - NEUTRON TYPE                
RESI.         0                    : RESIST       - RESISTIVITY TYPE            
RM  .OHMM     5.97                 : RM           - RESISTIVITY OF MUD          
RMC .OHMM     3.87                 : RMC          - RESISTIVITY OF MUD CAKE     
RMF .OHMM     0.37                 : RMF          - RESISTIVITY OF MUD FILTRATE 
SUFT.C        0                    : SUFT         - SURFACE TEMPERATURE         
~A  DEPTH     PHID     PHIN       GR      CAL     RESD
# ...
  575.920    0.270    0.474   51.718  150.925    2.130
  576.170    0.273    0.463   53.825  149.808    2.069
  576.420    0.291    0.445   55.554  149.324    2.009
  576.670    0.314    0.428   51.120  149.268    1.955
  576.920    0.320    0.436   48.197  149.643    1.937
  577.170    0.302    0.444   45.964  149.687    1.912
  577.420    0.283    0.441   45.367  149.641    1.926
  577.670    0.277    0.435   46.781  149.702    1.972
  577.920    0.273    0.420   49.452  149.219    2.052
  578.170    0.267    0.408   51.183  147.247    2.191
  578.420    0.258    0.397   51.087  145.696    2.494
  578.670    0.244    0.389   54.953  146.177    2.844
  578.920    0.203    0.456   61.775  149.003    3.279
  579.170    0.159    0.542   73.246  152.579    3.856
  579.420    0.147    0.584   87.422  155.836    4.014
  579.670    0.158    0.591   97.009  159.515    3.855
  579.920    0.175    0.565  104.834  159.887    3.820
  580.170    0.184    0.558  100.086  155.355    3.861
  580.420    0.177    0.538   97.099  155.405    3.990
  580.670    0.173    0.501   96.127  156.308    4.183
  580.920    0.169    0.478   98.547  156.683    4.370
  581.170    0.177    0.486   98.514  157.264    4.515
  581.420    0.181    0.501  100.873  157.649    4.708
  581.670    0.189    0.498  100.838  157.799    4.786
  581.920    0.197    0.482  100.997  157.754    4.856
  582.170    0.187    0.477  102.409  157.701    4.828
  582.420    0.178    0.478  100.804  157.326    4.723
  582.670    0.177    0.471   98.572  156.310    4.671
  582.920    0.172    0.473   97.538  155.624    4.586
  583.170    0.181    0.484   98.826  154.719    4.495
  583.420    0.199    0.488   99.487  153.061    4.381
  583.670    0.221    0.484   97.443  150.878    4.231
  583.920    0.232    0.475   92.256  146.979    4.079
  584.170    0.232    0.472   86.440  141.589    3.854
  584.420    0.220    0.467   81.944  137.917    3.661
  584.670    0.207    0.456   78.015  134.770    3.422
  584.920    0.199    0.444   75.970  136.102    3.222
  585.170    0.212    0.452   75.377  141.490    3.011
  585.420    0.198    0.453   76.100  149.328    2.798
  585.670    0.185    0.440   78.897  147.146    2.654
  585.920    0.213    0.427   75.848  141.540    2.654
  586.170    0.244    0.413   71.918  140.533    2.732
  586.420    0.221    0.410   70.374  141.750    2.955
  586.670    0.199    0.437   70.096  143.402    3.172
  586.920    0.164    0.466   73.897  144.426    3.375
  587.170    0.146    0.487   79.083  145.752    3.443
  587.420    0.163    0.525   84.582  147.194    3.380
  587.670    0.174    0.553   89.895  148.418    3.211
  587.920    0.160    0.502   91.623  149.117    3.045
  588.170    0.192    0.458   89.203  149.484    2.936
  588.420    0.247    0.433   85.400  149.438    2.877
  588.670    0.228    0.435   80.528  148.950    2.840
  588.920    0.211    0.450   76.159  148.584    2.794
  589.170    0.227    0.446   74.743  148.207    2.753
  589.420    0.265    0.448   71.380  147.835    2.649
  589.670    0.274    0.451   65.754  147.464    2.498
  589.920    0.280    0.459   61.824  148.794    2.374
  590.170    0.289    0.474   63.617  151.307    2.331
  590.420    0.291    0.472   64.653  153.280    2.322
  590.670    0.304    0.459   65.124  153.541    2.334
  590.920    0.276    0.463   67.543  153.064    2.338
  591.170    0.271    0.446   68.515  151.945    2.359
  591.420    0.268    0.447   65.782  150.718    2.372
  591.670    0.261    0.457   62.671  149.914    2.363
  591.920    0.260    0.461   62.576  149.537    2.329
  592.170    0.257    0.457   62.671  149.496    2.290
  592.420    0.252    0.453   65.341  148.909    2.244
  592.670    0.219    0.505   70.339  142.455    2.188
  592.920    0.183    0.533   74.017  147.734    2.117
  593.170    0.174    0.546   77.380  153.443    2.037
  593.420    0.196    0.560   81.306  157.121    1.960
  593.670    0.201    0.570   85.047  157.914    1.921
  593.920    0.206    0.552   88.160  158.190    1.882
  594.170    0.214    0.553   89.701  158.555    1.875
  594.420    0.227    0.525   85.959  158.828    1.838
  594.670    0.218    0.503   82.280  159.512    1.814
  594.920    0.215    0.497   80.927  159.896    1.814
  595.170    0.232    0.501   80.709  160.694    1.830
  595.420    0.234    0.503   85.075  161.694    1.857
  595.670    0.224    0.487   88.377  162.078    1.881
  595.920    0.211    0.528   90.044  162.348    1.950
  596.170    0.197    0.657   88.126  161.972    2.125
  596.420    0.236    0.668   85.141  161.391    2.332
  596.670    0.261    0.681   83.599  160.588    2.728
  596.920    0.256    0.707   83.565  161.284    2.939
  597.170    0.284    0.734   85.423  163.259    2.512
  597.420    0.306    0.741   87.965  167.362    2.044
  597.670    0.307    0.736   88.251  169.865    1.630
  597.920    0.293    0.720   90.103  171.419    1.403
  598.170    0.274    0.672   93.781  178.938    1.362
  598.420    0.255    0.553   96.201  181.980    1.528
  598.670    0.213    0.505   92.210  174.777    1.916
  598.920    0.171    0.392   86.081  166.830    2.622
  599.170    0.187    0.402   79.950  161.979    3.318
  599.420    0.185    0.415   77.528  159.579    3.889
  599.670    0.177    0.424   78.379  157.817    4.025
  599.920    0.169    0.441   81.678  156.373    3.654
  600.170    0.165    0.440   78.627  155.140    3.409
  600.420    0.188    0.441   79.789  154.139    3.100
  600.670    0.216    0.461   84.036  150.671    2.798
  600.920    0.234    0.464   84.066  148.371    2.544
  601.170    0.254    0.463   79.131  148.001    2.272
  601.420    0.265    0.457   73.128  148.374    2.104
  601.670    0.284    0.443   66.305  148.963    1.945
  601.920    0.283    0.434   61.308  149.445    1.828
  602.170    0.294    0.471   59.832  150.354    1.736
  602.420    0.290    0.468   62.185  151.043    1.689
  602.670    0.287    0.455   63.598  151.736    1.668
  602.920    0.275    0.428   63.569  151.890    1.683
  603.170    0.283    0.422   63.224  151.629    1.758
  603.420    0.292    0.427   63.253  151.364    1.884
  603.670    0.288    0.442   64.039  151.314    2.026
  603.920    0.278    0.472   64.762  151.039    2.188
  604.170    0.264    0.460   65.422  150.778    2.336
  604.420    0.254    0.453   66.336  150.512    2.471
  604.670    0.236    0.458   68.439  150.140    2.558
  604.920    0.231    0.481   70.483  150.942    2.600
  605.170    0.242    0.475   75.859  152.589    2.629
  605.420    0.242    0.495   73.878  154.136    2.648
  605.670    0.219    0.500   75.607  154.728    2.672
  605.920    0.233    0.487   77.521  154.780    2.701
  606.170    0.262    0.469   75.166  153.661    2.796
  606.420    0.294    0.463   77.709  150.622    2.878
  606.670    0.294    0.488   77.930  148.110    3.045
  606.920    0.288    0.482   74.503  146.770    3.258
  607.170    0.281    0.447   70.385  146.406    3.485
  607.420    0.269    0.434   65.451  146.773    3.838
  607.670    0.270    0.426   60.329  147.257    4.121
  607.920    0.269    0.429   57.530  147.838    4.368
  608.170    0.253    0.446   58.442  145.232    4.075
  608.420    0.250    0.441   58.472  142.084    3.483
  608.670    0.267    0.442   57.496  142.036    2.901
  608.920    0.283    0.451   57.842  145.820    2.480
  609.170    0.297    0.473   58.819  150.353    2.077
  609.420    0.306    0.481   60.483  150.298    1.788
  609.670    0.302    0.487   61.834  147.256    1.579
  609.920    0.306    0.508   62.243  142.300    1.447
  610.170    0.303    0.505   61.079  139.471    1.402
  610.420    0.310    0.488   59.538  142.304    1.460
  610.670    0.317    0.461   58.188  143.210    1.576
  610.920    0.288    0.446   58.973  138.991    1.912
  611.170    0.263    0.445   62.902  138.723    2.341
  611.420    0.247    0.506   68.403  142.512    2.882
  611.670    0.291    0.603   74.844  146.621    3.606
  611.920    0.318    0.674   82.860  148.262    4.571
  612.170    0.360    0.714   81.947  149.069    5.147
