~VERSION INFORMATION
 VERS.                 2.0:   CWLS LOG ASCII STANDARD -VERSION 2.0
 WRAP.                  NO:   ONE LINE PER DEPTH STEP
~WELL INFORMATION BLOCK
#MNEM.UNIT           DATA                    DESCRIPTION OF MNEMONIC
#---------    -------------------            -------------------------------
# Generated from Intellog Unique Number	CW_70_72/WELL/1071
NULL.         -999.25                        : NULL_VALUE
WELL.         SCEPTER ET AL FRANCIS 15-20    : Well_name    - WELL              
LOC .         15-20-072-21W4                 : Location     - LOCATION          
UWI .         00/15-20-072-21W4/0            : Uwi          - UNIQUE WELL ID    
ENTR.         JAYE                           : Entered      - ENTERED BY        
SRVC.         WESTERN ATLAS                  : Scn          - SERVICE COMPANY   
DATE.         20 FEB 88                      : Date         - LOG DATE          
STRT.M        345                            : top_depth    - START DEPTH       
STOP.M        544                            : bot_depth    - STOP DEPTH        
STEP.M        0.25                           : increment    - STEP LENGTH       
~CURVE INFORMATION BLOCK
#MNEM UNIT       ERCB CURVE CODE    CURVE DESCRIPTION
#-----------   ------------------   ----------------------------------
DEPT.M        00 001 00 00         : DEPTH        - DEPTH                       
DPHI.V/V      00 890 00 00         : PHID         - DENSITY POROSITY (SANDSTONE)
NPHI.V/V      00 330 00 00         : PHIN         - NEUTRON POROSITY (SANDSTONE)
GR  .API      00 310 00 00         : GR           - GAMMA RAY                   
CALI.MM       00 280 01 00         : CAL          - CALIPER                     
ILD .OHMM     00 120 00 00         : RESD         - DEEP RESISTIVITY (DIL)      
~PARAMETER INFORMATION       
#MNEM.UNIT           DATA             DESCRIPTION OF MNEMONIC
#---------         -----------     ------------------------------
GL  .M        620.4                : gl           - GROUND LEVEL ELEVATION      
EREF.M        624                  : kb           - ELEVATION OF DEPTH REFERENCE
DATM.M        620.4                : datum        - DATUM ELEVATION             
TDD .M        547                  : tdd          - TOTAL DEPTH DRILLER         
RUN .         ONE                  : Run          - RUN NUMBER                  
ENG .         HUTCHEON             : Engineer     - RECORDING ENGINEER          
WIT .         TALLMAN              : Witness      - WITNESSED BY                
BASE.         SLAVE LAKE           : Branch       - HOME BASE OF LOGGING UNIT   
MUD .         GEL CHEM             : Mud_type     - MUD TYPE                    
MATR.         SANDSTONE            : Logunit      - NEUTRON MATRIX              
TMAX.C        24                   : BHT          - MAXIMUM RECORDED TEMPERATURE
BHTD.M        548.6                : BHTDEP       - MAXIMUM RECORDED TEMPERATURE
RMT .C        15                   : MDTP         - TEMPERATURE OF MUD          
MUDD.KG/M     1030                 : MWT          - MUD DENSITY                 
NEUT.         1                    : NEUTRON      - NEUTRON TYPE                
RESI.         0                    : RESIST       - RESISTIVITY TYPE            
RM  .OHMM     3.6                  : RM           - RESISTIVITY OF MUD          
RMC .OHMM     4                    : RMC          - RESISTIVITY OF MUD CAKE     
RMF .OHMM     3.5                  : RMF          - RESISTIVITY OF MUD FILTRATE 
SUFT.C        0                    : SUFT         - SURFACE TEMPERATURE         
~A  DEPTH     PHID     PHIN       GR      CAL     RESD
# ...
  491.000    0.190    0.368   88.280  213.632    5.184
  491.250    0.186    0.363   91.193  212.992    5.308
  491.500    0.172    0.362   89.222  211.336    5.515
  491.750    0.138    0.362   85.240  210.189    5.686
  492.000    0.114    0.369   81.317  209.036    5.834
  492.250    0.133    0.376   80.872  208.499    5.920
  492.500    0.162    0.384   84.028  208.067    5.947
  492.750    0.151    0.373   87.062  207.532    5.948
  493.000    0.160    0.361   87.960  206.892    5.900
  493.250    0.155    0.360   89.225  206.255    5.810
  493.500    0.150    0.378   87.622  205.508    5.744
  493.750    0.163    0.387   88.459  205.685    5.720
  494.000    0.174    0.386   91.491  206.370    5.634
  494.250    0.183    0.378   90.682  206.948    5.518
  494.500    0.180    0.366   96.157  207.426    5.519
  494.750    0.171    0.348   93.821  207.605    5.543
  495.000    0.154    0.346   80.134  207.474    5.616
  495.250    0.135    0.370   80.606  206.938    5.674
  495.500    0.119    0.378   82.114  206.505    5.779
  495.750    0.148    0.386   81.547  206.162    5.939
  496.000    0.179    0.380   83.117  205.931    6.078
  496.250    0.148    0.362   87.249  206.006    6.210
  496.500    0.107    0.364   89.002  206.181    6.253
  496.750    0.127    0.366   89.228  206.356    6.272
  497.000    0.151    0.362   92.385  206.121    6.285
  497.250    0.182    0.357   88.523  206.200    6.302
  497.500    0.201    0.352   82.892  206.372    6.324
  497.750    0.204    0.366   84.765  206.952    6.274
  498.000    0.191    0.390   84.017  207.327    6.215
  498.250    0.167    0.386   83.938  207.499    6.132
  498.500    0.174    0.358   87.644  207.481    6.016
  498.750    0.167    0.347   92.326  207.453    5.798
  499.000    0.167    0.352   88.403  207.624    5.513
  499.250    0.174    0.363   88.507  207.696    5.185
  499.500    0.176    0.393   92.518  207.668    5.098
  499.750    0.173    0.408   95.370  207.846    5.212
  500.000    0.170    0.409   93.217  208.124    5.354
  500.250    0.162    0.403   93.688  207.283    5.645
  500.500    0.148    0.389   95.563  167.689    6.073
  500.750    0.131    0.368   92.006  160.643    6.667
  501.000    0.104    0.343   79.600  196.213    7.512
  501.250    0.146    0.316   70.306  206.966    8.540
  501.500    0.145    0.309   65.835  211.715   10.530
  501.750    0.112    0.301   64.903  212.704    9.305
  502.000    0.072    0.292   61.833  212.677    8.313
  502.250    0.116    0.278   62.975  212.948    8.055
  502.500    0.150    0.326   71.869  213.123    8.109
  502.750    0.141    0.368   78.382  213.191    8.441
  503.000    0.122    0.317   69.698  213.173    8.951
  503.250    0.089    0.289   58.208  213.244    8.895
  503.500    0.067    0.262   56.481  213.215    8.260
  503.750    0.133    0.295   68.243  213.385    7.182
  504.000    0.166    0.342   78.662  213.253    6.331
  504.250    0.163    0.363   83.771  213.117    5.869
  504.500    0.159    0.367   80.397  212.994    5.634
  504.750    0.159    0.368   80.685  212.969    5.714
  505.000    0.168    0.364   85.855  212.944    5.904
  505.250    0.153    0.356   86.448  212.909    6.149
  505.500    0.134    0.368   81.182  212.464    6.326
  505.750    0.144    0.371   82.692  212.239    6.624
  506.000    0.137    0.362   87.251  211.908    6.779
  506.250    0.124    0.356   80.642  211.578    6.839
  506.500    0.125    0.360   80.260  211.443    6.752
  506.750    0.157    0.367   82.620  211.421    6.671
  507.000    0.164    0.368   82.972  211.386    6.595
  507.250    0.169    0.373   83.258  211.361    6.567
  507.500    0.169    0.368   84.096  211.333    6.653
  507.750    0.162    0.352   85.849  210.992    6.810
  508.000    0.133    0.343   87.051  210.762    6.971
  508.250    0.119    0.336   85.327  210.836    7.044
  508.500    0.131    0.339   84.150  210.806    6.978
  508.750    0.140    0.327   82.912  210.884    6.736
  509.000    0.095    0.323   82.285  210.748    6.488
  509.250    0.105    0.325   83.488  210.930    6.216
  509.500    0.151    0.338   88.964  211.306    6.035
  509.750    0.158    0.348   97.856  211.678    6.008
  510.000    0.166    0.359   95.702  211.759    6.245
  510.250    0.173    0.356   91.717  211.936    6.440
  510.500    0.093    0.338   88.285  212.308    6.628
  510.750    0.021    0.326   84.057  212.489    6.849
  511.000    0.010    0.317   76.533  212.759    6.883
  511.250    0.100    0.327   74.807  212.733    6.816
  511.500    0.146    0.330   79.794  212.808    6.158
  511.750    0.138    0.334   83.438  212.575    5.311
  512.000    0.128    0.341   83.175  212.241    4.515
  512.250    0.177    0.352   84.439  212.621    3.639
  512.500    0.237    0.363   80.458  214.525    2.976
  512.750    0.505    0.398   75.009  221.717    2.591
  513.000    0.481    0.477   72.183  271.732    2.298
  513.250    0.459    0.454   69.786  302.928    2.146
  513.500    0.494    0.462   67.024  306.561    2.192
  513.750    0.472    0.481   66.214  309.585    2.497
  514.000    0.416    0.451   66.013  309.454    3.126
  514.250    0.286    0.437   66.850  258.469    3.728
  514.500    0.236    0.406   71.227  210.941    4.341
  514.750    0.155    0.373   75.055  211.926    5.158
  515.000    0.118    0.345   74.243  213.831    6.108
  515.250    0.164    0.334   77.400  214.209    6.231
  515.500    0.201    0.331   82.205  213.774    5.445
  515.750    0.235    0.343   86.701  215.069    5.001
  516.000    0.256    0.375   88.455  219.413    5.054
  516.250    0.290    0.422   87.217  229.658    5.311
  516.500    0.174    0.448   83.722  221.897    6.309
  516.750    0.128    0.362   80.836  213.327    7.793
  517.000    0.124    0.313   76.670  209.534    8.325
  517.250    0.103    0.309   69.940  209.406    8.139
  517.500    0.043    0.311   61.196  209.173    7.658
  517.750    0.099    0.332   68.196  209.853    7.082
  518.000    0.155    0.350   77.394  210.537    6.246
  518.250    0.153    0.363   80.671  211.121    5.844
  518.500    0.064    0.359   81.448  211.903    5.665
  518.750    0.059    0.353   80.456  212.791    5.576
  519.000    0.148    0.363   73.054  217.135    5.434
  519.250    0.183    0.357   75.478  214.058    5.389
  519.500    0.176    0.340   80.465  212.503    5.319
  519.750    0.201    0.369   77.700  212.474    5.237
  520.000    0.205    0.394   81.040  213.871    5.103
  520.250    0.233    0.406   82.733  215.875    4.951
  520.500    0.239    0.413   83.692  218.287    4.888
  520.750    0.276    0.429   82.515  212.461    4.875
  521.000    0.279    0.424   80.361  213.756    4.784
  521.250    0.322    0.424   79.916  217.288    4.722
  521.500    0.272    0.399   78.985  216.647    4.698
  521.750    0.195    0.388   76.710  209.905    4.696
  522.000    0.190    0.411   74.435  212.116    4.705
  522.250    0.213    0.412   75.699  218.394    4.695
  522.500    0.260    0.400   79.710  216.940    4.747
  522.750    0.279    0.392   84.269  217.216    4.648
  523.000    0.296    0.396   83.886  210.984    4.430
  523.250    0.343    0.416   82.465  216.345    4.388
  523.500    0.343    0.438   81.899  216.521    4.491
  523.750    0.305    0.435   82.309  220.967    4.736
  524.000    0.297    0.429   84.854  214.939    5.096
  524.250    0.334    0.446   87.522  209.415    5.444
  524.500    0.275    0.419   84.820  212.032    5.834
  524.750    0.190    0.357   83.155  218.613    6.264
  525.000    0.160    0.339   85.701  213.298    6.522
  525.250    0.133    0.334   87.027  209.099    6.296
  525.500    0.185    0.344   79.809  207.849    5.977
  525.750    0.228    0.376   76.984  212.092    5.549
  526.000    0.317    0.407   83.374  221.931    4.716
  526.250    0.271    0.425   87.752  235.226    4.214
  526.500    0.245    0.449   86.758  223.501    4.029
  526.750    0.202    0.468   87.715  220.013    4.035
  527.000    0.228    0.471   92.153  222.527    4.193
  527.250    0.291    0.442   91.649  224.331    4.503
