~VERSION INFORMATION
 VERS.                 2.0:   CWLS LOG ASCII STANDARD -VERSION 2.0
 WRAP.                  NO:   ONE LINE PER DEPTH STEP
~WELL INFORMATION BLOCK
#MNEM.UNIT           DATA                    DESCRIPTION OF MNEMONIC
#---------    -------------------            -------------------------------
# Generated from Intellog Unique Number	CS_69_70/WELL/887
WELL.         BRALORNE RESOURCES LIMITED     : Well_name    - WELL
LOC .         00/11-15-069-10W4/0            : Location     - LOCATION
UWI .         00/11-15-069-10W4/0            : Uwi          - UNIQUE WELL ID
ENTR.         SP                             : Entered      - ENTERED BY
SRVC.         SCHLUMBERGER                   : Scn          - SERVICE COMPANY
STRT.M        381                            : top_depth    - START DEPTH
STOP.M        600.25                         : bot_depth    - STOP DEPTH
STEP.M        0.25                           : increment    - STEP LENGTH
 NULL. -999.2500:NULL Value
~CURVE INFORMATION BLOCK
#MNEM UNIT       ERCB CURVE CODE    CURVE DESCRIPTION
#-----------   ------------------   ----------------------------------
DEPT.M        00 001 00 00         : DEPTH        - DEPTH
GR  .API      00 310 00 00         : GR           - GAMMA RAY
DPHI.V/V      00 890 00 00         : PHID         - DENSITY POROSITY (SANDSTONE)
NPHI.V/V      00 330 00 00         : PHIN         - NEUTRON POROSITY (SANDSTONE)
ILD .OHMM     00 120 00 00         : RESD         - DEEP RESISTIVITY (DIL)
~PARAMETER INFORMATION
#MNEM.UNIT           DATA             DESCRIPTION OF MNEMONIC
#---------         -----------     ------------------------------
GL  .M        708.05               : gl           - GROUND LEVEL ELEVATION
EREF.M        712.47               : kb           - ELEVATION OF DEPTH REFERENCE
DATM.M        708.05               : datum        - DATUM ELEVATION
TDD .M        605.638              : tdd          - TOTAL DEPTH DRILLER
RUN .         ONE                  : Run          - RUN NUMBER
ENG .         BILL                 : Engineer     - RECORDING ENGINEER
WIT .         JIM                  : Witness      - WITNESSED BY
MUD .         GEL                  : Mud_type     - MUD TYPE
MATR.         SANDSTONE            : Logunit      - NEUTRON MATRIX
TMAX.C        15.5556              : BHT          - MAXIMUM RECORDED TEMPERATURE
BHTD.M        605.638              : BHTDEP       - MAXIMUM RECORDED TEMPERATURE
MATR.         1                    : LOGUNIT      - NEUTRON MATRIX
RMT .C        25                   : MDTP         - TEMPERATURE OF MUD
NEUT.         1                    : NEUTRON      - NEUTRON TYPE
RESI.         0                    : RESIST       - RESISTIVITY TYPE
RMC .OHMM     0.25                 : RMC          - RESISTIVITY OF MUD CAKE
RMF .OHMM     0.25                 : RMF          - RESISTIVITY OF MUD FILTRATE
SUFT.C        15                   : SUFT         - SURFACE TEMPERATURE
~A  DEPTH       GR     PHID     PHIN     RESD
# ...
  555.000   68.710    0.288    0.388    3.937
  555.250   63.190    0.293    0.380    3.797
  555.500   67.009    0.298    0.388    3.831
  555.750   73.336    0.300    0.385    3.901
  556.000   83.409    0.292    0.377    4.000
  556.250   93.798    0.283    0.369    4.097
  556.500   99.563    0.268    0.371    4.233
  556.750  105.253    0.256    0.388    4.331
  557.000  107.385    0.247    0.404    4.565
  557.250  104.962    0.240    0.394    4.971
  557.500  105.219    0.226    0.378    5.441
  557.750  108.889    0.200    0.363    5.967
  558.000   98.123    0.144    0.335    6.193
  558.250   84.930    0.059    0.301    5.706
  558.500   91.577    0.068    0.294    5.262
  558.750   90.048    0.190    0.334    4.888
  559.000   85.242    0.238    0.377    4.541
  559.250   82.476    0.258    0.389    4.343
  559.500   84.069    0.266    0.379    4.197
  559.750   83.998    0.260    0.371    4.091
  560.000   78.853    0.246    0.367    4.067
  560.250   71.494    0.232    0.370    4.086
  560.500   65.147    0.228    0.366    4.125
  560.750   70.371    0.222    0.327    4.329
  561.000   84.855    0.213    0.307    4.595
  561.250   97.403    0.200    0.312    4.835
  561.500  106.122    0.187    0.322    5.072
  561.750  109.743    0.172    0.333    5.309
  562.000  113.413    0.173    0.346    5.503
  562.250  108.215    0.187    0.360    5.631
  562.500   99.788    0.195    0.374    5.708
  562.750   91.353    0.191    0.357    5.325
  563.000   86.998    0.188    0.330    4.903
  563.250   85.376    0.190    0.320    4.547
  563.500   80.577    0.200    0.323    4.230
  563.750   72.090    0.215    0.329    3.889
  564.000   64.275    0.230    0.333    3.678
  564.250   58.531    0.239    0.334    3.452
  564.500   62.415    0.244    0.328    3.289
  564.750   78.984    0.225    0.325    3.284
  565.000   93.348    0.196    0.325    3.445
  565.250  105.939    0.187    0.338    3.559
  565.500  110.989    0.193    0.360    3.758
  565.750  115.658    0.183    0.380    3.745
  566.000  119.020    0.170    0.395    3.764
  566.250  123.333    0.140    0.424    3.824
  566.500  124.514    0.105    0.463    3.932
  566.750  119.526    0.086    0.442    4.047
  567.000  119.441    0.063    0.429    4.051
  567.250  125.049    0.017    0.431    4.033
  567.500  128.573    0.102    0.459    3.992
  567.750  130.891    0.133    0.482    3.973
  568.000  132.538    0.134    0.469    4.032
  568.250  132.249    0.132    0.458    4.214
  568.500  119.576    0.150    0.435    4.286
  568.750  110.541    0.184    0.401    4.074
  569.000  100.419    0.191    0.363    3.810
  569.250   92.840    0.194    0.357    3.494
  569.500   86.495    0.205    0.363    3.216
  569.750   81.978    0.254    0.368    3.035
  570.000   82.958    0.257    0.371    2.935
  570.250   86.372    0.246    0.367    3.072
  570.500   90.335    0.237    0.362    3.292
  570.750   99.590    0.229    0.363    3.575
  571.000  109.247    0.219    0.365    3.850
  571.250  115.680    0.204    0.367    4.182
  571.500  119.591    0.195    0.368    4.551
  571.750  121.609    0.190    0.360    4.894
  572.000  122.163    0.188    0.353    5.192
  572.250  123.155    0.184    0.350    5.481
  572.500  125.188    0.179    0.350    5.619
  572.750  127.515    0.172    0.355    5.497
  573.000  129.566    0.172    0.354    5.353
  573.250  130.083    0.184    0.354    5.207
  573.500  122.738    0.193    0.358    5.226
  573.750   73.642    0.200    0.372    5.366
  574.000   70.276    0.208    0.400    5.457
  574.250   67.745    0.224    0.364    5.396
  574.500   66.577    0.236    0.347    5.205
  574.750   70.576    0.249    0.341    4.854
  575.000   74.780    0.236    0.337    4.593
  575.250   79.423    0.215    0.326    4.246
  575.500   81.830    0.189    0.316    3.952
  575.750   78.939    0.173    0.328    3.607
  576.000   78.936    0.219    0.343    3.384
  576.250   87.863    0.235    0.341    3.285
  576.500   97.136    0.241    0.340    3.190
  576.750  107.550    0.231    0.349    3.387
  577.000  117.474    0.230    0.363    3.664
  577.250  123.053    0.212    0.375    4.018
  577.500  125.924    0.175    0.377    4.456
  577.750  120.821    0.154    0.334    4.856
  578.000  118.794    0.154    0.324    5.108
  578.250  118.683    0.160    0.326    5.349
  578.500  115.072    0.172    0.324    4.808
  578.750  106.125    0.188    0.309    4.447
  579.000   98.375    0.220    0.292    3.960
  579.250   97.681    0.212    0.311    3.695
  579.500  105.988    0.195    0.331    3.890
  579.750  111.287    0.171    0.329    4.215
  580.000  110.032    0.151    0.322    4.599
  580.250   99.719    0.137    0.319    4.910
  580.500   90.615    0.137    0.327    5.068
  580.750   81.189    0.224    0.335    5.004
  581.000   77.511    0.226    0.340    4.788
  581.250   75.463    0.219    0.335    4.414
  581.500   75.061    0.217    0.326    4.146
  581.750   74.142    0.221    0.340    3.944
  582.000   72.655    0.233    0.355    3.892
  582.250   68.870    0.230    0.346    3.606
  582.500   62.044    0.227    0.339    2.955
  582.750   49.937    0.236    0.358    2.402
  583.000   39.770    0.270    0.378    2.045
  583.250   36.572    0.289    0.373    1.809
  583.500   38.258    0.316    0.370    1.708
  583.750   39.736    0.313    0.374    1.695
  584.000   40.403    0.309    0.368    1.706
  584.250   40.843    0.313    0.362    1.736
  584.500   40.585    0.315    0.359    1.754
  584.750   39.117    0.304    0.360    1.774
  585.000   37.662    0.292    0.356    1.779
  585.250   36.192    0.287    0.357    1.780
  585.500   36.480    0.280    0.354    1.781
  585.750   37.795    0.289    0.352    1.781
  586.000   38.120    0.302    0.364    1.782
  586.250   37.531    0.313    0.374    1.772
  586.500   36.426    0.324    0.367    1.760
  586.750   36.489    0.319    0.356    1.749
  587.000   37.272    0.305    0.349    1.737
  587.250   39.350    0.294    0.355    1.736
  587.500   39.507    0.313    0.360    1.732
  587.750   37.607    0.322    0.363    1.731
  588.000   36.410    0.320    0.363    1.730
  588.250   35.521    0.313    0.367    1.725
  588.500   35.248    0.317    0.375    1.731
  588.750   34.786    0.313    0.380    1.741
  589.000   33.623    0.311    0.379    1.744
  589.250   32.522    0.313    0.374    1.748
  589.500   35.302    0.330    0.368    1.746
  589.750   37.475    0.330    0.367    1.747
  590.000   38.524    0.321    0.369    1.747
  590.250   38.080    0.313    0.375    1.736
  590.500   37.614    0.333    0.373    1.718
  590.750   38.046    0.344    0.375    1.692
  591.000   39.674    0.335    0.376    1.665
  591.250   38.147    0.327    0.376    1.631
  591.500   34.996    0.338    0.383    1.595
  591.750   32.092    0.330    0.385    1.569
  592.000   31.941    0.323    0.378    1.556
  592.250   33.728    0.320    0.372    1.540
  592.500   36.927    0.323    0.369    1.524
  592.750   44.254    0.327    0.369    1.519
  593.000   56.903    0.328    0.377    1.525
  593.250   65.793    0.321    0.379    1.551
  593.500   72.742    0.311    0.367    1.687
  593.750   81.716    0.293    0.356    1.968
  594.000  113.604    0.217    0.348    2.275
  594.250  131.267    0.165    0.348    2.951
  594.500  139.444    0.142    0.364    3.578
  594.750  141.030    0.143    0.371    3.994
  595.000  137.693    0.158    0.370    4.301
  595.250  141.583    0.163    0.371    4.457
  595.500  141.611    0.162    0.378    4.513
  595.750  137.737    0.152    0.371    4.526
  596.000  132.338    0.170    0.363    4.436
  596.250  132.832    0.155    0.364    4.382
  596.500  139.994    0.147    0.376    4.202
  596.750  143.952    0.157    0.376    4.228
  597.000  142.239    0.162    0.362    4.247
  597.250  136.485    0.178    0.366    4.264
  597.500  131.303    0.166    0.387    4.241
  597.750  125.367    0.138    0.412    4.216
  598.000  108.436    0.109    0.412    4.167
  598.250   89.704    0.063    0.397    4.123
