~VERSION INFORMATION
 VERS.                 2.0:   CWLS LOG ASCII STANDARD -VERSION 2.0
 WRAP.                  NO:   ONE LINE PER DEPTH STEP
~WELL INFORMATION BLOCK
#MNEM.UNIT           DATA                    DESCRIPTION OF MNEMONIC
#---------    -------------------            -------------------------------
# Generated from Intellog Unique Number	CN_91_93/WELL/2803
WELL.         PARAMOUNT RESOURCES LTD.       : Well_name    - WELL
LOC .         00/16-33-093-21W4/0            : Location     - LOCATION
UWI .         00/16-33-093-21W4/0            : Uwi          - UNIQUE WELL ID
ENTR.         JOETTE                         : Entered      - ENTERED BY
SRVC.         COMPUTALOG                     : Scn          - SERVICE COMPANY
DATE.         03/24/92                       : Date         - LOG DATE
STRT.M        190                            : top_depth    - START DEPTH
STOP.M        360                            : bot_depth    - STOP DEPTH
STEP.M        0.25                           : increment    - STEP LENGTH
 NULL. -999.2500:NULL Value
~CURVE INFORMATION BLOCK
#MNEM UNIT       ERCB CURVE CODE    CURVE DESCRIPTION
#-----------   ------------------   ----------------------------------
DEPT.M        00 001 00 00         : DEPTH        - DEPTH
CALI.MM       00 280 01 00         : CAL          - CALIPER
GR  .API      00 310 00 00         : GR           - GAMMA RAY
NPHI.V/V      00 330 00 00         : PHIN         - NEUTRON POROSITY (SANDSTONE)
DPHI.V/V      00 890 00 00         : PHID         - DENSITY POROSITY (SANDSTONE)
ILD .OHMM     00 120 00 00         : RESD         - DEEP RESISTIVITY (DIL)
~PARAMETER INFORMATION
#MNEM.UNIT           DATA             DESCRIPTION OF MNEMONIC
#---------         -----------     ------------------------------
GL  .M        445.9                : gl           - GROUND LEVEL ELEVATION
EREF.M        449.3                : kb           - ELEVATION OF DEPTH REFERENCE
DATM.M        449.3                : datum        - DATUM ELEVATION
TDD .M        359.4                : tdd          - TOTAL DEPTH DRILLER
RUN .         ONE                  : Run          - RUN NUMBER
ENG .         BILL                 : Engineer     - RECORDING ENGINEER
WIT .         JIM                  : Witness      - WITNESSED BY
MUD .         GEL                  : Mud_type     - MUD TYPE
MATR.         SANDSTONE            : Logunit      - NEUTRON MATRIX
TMAX.C        29                   : BHT          - MAXIMUM RECORDED TEMPERATURE
BHTD.M        359.4                : BHTDEP       - MAXIMUM RECORDED TEMPERATURE
RMT .C        11                   : MDTP         - TEMPERATURE OF MUD
MUDD.KG/M     1110                 : MWT          - MUD DENSITY
NEUT.         1                    : NEUTRON      - NEUTRON TYPE
RESI.         0                    : RESIST       - RESISTIVITY TYPE
RM  .OHMM     3.2                  : RM           - RESISTIVITY OF MUD
RMC .OHMM     3.2                  : RMC          - RESISTIVITY OF MUD CAKE
RMF .OHMM     3.2                  : RMF          - RESISTIVITY OF MUD FILTRATE
SUFT.C        4                    : SUFT         - SURFACE TEMPERATURE
~A  DEPTH      CAL       GR     PHIN     PHID     RESD
  190.000  159.797  130.977    0.434    0.235    6.174
  190.250  161.738  133.371    0.449    0.243    6.156
  190.500  162.708  130.848    0.461    0.248    6.025
  190.750  164.650  130.169    0.449    0.246    5.893
  191.000  166.591  130.703    0.441    0.232    5.876
  191.250  166.456  134.326    0.433    0.223    5.747
  191.500  166.349  137.350    0.446    0.224    5.512
  191.750  166.242  139.744    0.476    0.231    5.284
  192.000  166.134  139.081    0.483    0.235    5.368
  192.250  166.027  137.141    0.490    0.231    5.465
  192.500  165.946  136.494    0.492    0.222    5.999
  192.750  167.887  133.971    0.492    0.210    6.222
  193.000  171.877  128.360    0.486    0.185    6.440
  193.250  169.694  124.010    0.472    0.166    6.426
  193.500  166.568  120.873    0.452    0.175    6.284
  193.750  161.312  128.797    0.442    0.187    6.271
  194.000  158.079  133.035    0.436    0.202    6.016
  194.250  158.025  131.110    0.426    0.228    5.771
  194.500  157.917  134.119    0.420    0.233    5.322
  194.750  157.810  135.930    0.437    0.236    5.512
  195.000  157.703  135.850    0.445    0.241    7.490
  195.250  157.595  131.499    0.410    0.255    7.774
  195.500  157.515  110.525    0.351    0.258    9.785
  195.750  157.380   47.729    0.317    0.250   16.464
  196.000  154.200   35.374    0.308    0.255   22.374
  196.250  153.069   30.992    0.307    0.230   21.866
  196.500  152.988   34.631    0.319    0.228   19.793
  196.750  153.905   40.097    0.349    0.258   17.585
  197.000  155.846   46.792    0.380    0.271   12.123
  197.250  157.787   53.504    0.392    0.251   10.966
  197.500  159.728   68.188    0.400    0.266   10.740
  197.750  160.672   74.900    0.387    0.298   10.709
  198.000  162.586   71.132    0.392    0.294   11.100
  198.250  162.506   66.168    0.400    0.282   11.721
  198.500  160.323   64.227    0.404    0.279   12.395
  198.750  155.067   70.341    0.403    0.276   14.152
  199.000  152.965   79.494    0.371    0.271   15.848
  199.250  151.834   76.357    0.365    0.278   18.095
  199.500  155.823   67.689    0.346    0.305   19.107
  199.750  161.861   52.860    0.348    0.304   19.080
  200.000  165.851   42.963    0.357    0.300   20.148
  200.250  165.716   52.747    0.363    0.303   20.867
  200.500  162.536   56.370    0.364    0.303   21.229
  200.750  162.429   50.774    0.353    0.290   21.582
  201.000  164.424   48.236    0.338    0.272   21.520
  201.250  165.314   47.573    0.338    0.279   21.473
  201.500  162.160   48.123    0.342    0.298   21.412
  201.750  162.053   51.115    0.342    0.308   21.350
  202.000  164.965   51.681    0.354    0.309   21.289
  202.250  164.884   51.601    0.367    0.307   21.212
  202.500  163.726   51.536    0.359    0.296   21.167
  202.750  162.648   55.790    0.350    0.299   21.106
  203.000  163.511   59.413    0.362    0.305   20.232
  203.250  164.454   59.364    0.362    0.300   19.787
  203.500  164.347   58.685    0.358    0.302   19.338
  203.750  162.191   59.235    0.352    0.308   19.674
  204.000  156.963   51.796    0.346    0.316   20.376
  204.250  152.758   51.085    0.352    0.278   21.563
  204.500  156.775   50.422    0.361    0.239   22.334
  204.750  162.813   48.530    0.371    0.241   21.424
  205.000  164.754   54.611    0.377    0.278   19.378
  205.250  164.646   71.139    0.372    0.286   17.541
  205.500  164.539   77.236    0.374    0.256   15.275
  205.750  163.434   87.021    0.388    0.238   13.571
  206.000  163.300  100.476    0.396    0.225   10.721
  206.250  163.219  105.328    0.400    0.227    9.157
  206.500  161.037  103.404    0.406    0.231    7.233
  206.750  160.929  100.267    0.411    0.235    6.675
  207.000  160.822  102.046    0.428    0.240    6.524
  207.250  160.741  103.243    0.427    0.246    6.637
  207.500  160.607  106.235    0.419    0.241    7.008
  207.750  160.473  106.769    0.409    0.234    6.859
  208.000  161.443  106.720    0.401    0.231    6.704
  208.250  161.309  106.025    0.392    0.226    6.435
  208.500  161.202  105.379    0.397    0.223    6.169
  208.750  161.148   99.169    0.407    0.230    6.156
  209.000  162.065   92.959    0.398    0.254    6.757
  209.250  164.006   84.259    0.400    0.259    7.427
  209.500  164.896   81.752    0.404    0.288    8.474
  209.750  162.767   79.230    0.396    0.301    8.783
  210.000  159.533   77.322    0.360    0.279    8.928
  210.250  158.455   80.945    0.363    0.271    8.903
  210.500  158.348   85.182    0.379    0.234    8.877
  210.750  158.214   88.805    0.377    0.213    8.858
  211.000  159.130   89.339    0.374    0.198    8.826
  211.250  159.023   88.692    0.384    0.213    8.973
  211.500  159.967   87.382    0.395    0.226    8.954
  211.750  159.832   87.916    0.406    0.236    9.273
  212.000  159.752   89.113    0.400    0.245    9.612
  212.250  159.591   90.892    0.405    0.254    9.591
  212.500  159.537   92.041    0.413    0.260    9.743
  212.750  160.481   90.779    0.405    0.269    9.919
  213.000  163.419   84.553    0.388    0.267    9.884
  213.250  163.312   82.015    0.382    0.265   10.244
  213.500  159.081   83.179    0.374    0.267   10.414
  213.750  156.978   82.533    0.373    0.277   10.997
  214.000  153.772   79.363    0.388    0.281   11.865
  214.250  152.667   79.331    0.393    0.281   13.547
  214.500  149.487   74.334    0.385    0.281   15.171
  214.750  147.331   67.510    0.367    0.277   16.652
  215.000  151.320   66.831    0.369    0.278   16.941
  215.250  158.356   68.610    0.375    0.278   17.546
  215.500  160.270   69.144    0.376    0.274   17.508
  215.750  159.165   70.341    0.383    0.276   16.771
  216.000  158.034   73.349    0.395    0.286   16.414
  216.250  157.953   76.358    0.394    0.292   16.355
  216.500  157.819   75.678    0.380    0.289   16.639
  216.750  157.738   73.156    0.363    0.280   17.258
  217.000  157.631   68.774    0.356    0.257   18.943
  217.250  157.550   65.636    0.361    0.236   19.285
  217.500  156.365   61.885    0.363    0.236   19.974
  217.750  154.263   59.993    0.362    0.243   19.521
  218.000  152.080   64.230    0.365    0.273   19.106
  218.250  151.946   70.926    0.371    0.298   18.686
  218.500  152.889   70.215    0.365    0.302   18.275
  218.750  153.806   70.797    0.361    0.298   18.223
  219.000  153.699   75.050    0.364    0.301   18.525
  219.250  155.640   71.299    0.370    0.299   20.305
  219.500  156.584   61.385    0.368    0.290   21.060
  219.750  159.522   58.248    0.373    0.288   21.844
  220.000  159.442   59.413    0.383    0.298   22.657
  220.250  159.361   55.031    0.392    0.307   22.608
  220.500  158.229   56.195    0.396    0.309   22.511
  220.750  156.020   58.589    0.380    0.309   22.032
  221.000  154.915   57.295    0.370    0.308   21.548
  221.250  153.757   61.565    0.369    0.306   20.655
  221.500  152.625   63.943    0.358    0.298   20.216
  221.750  152.491   60.207    0.346    0.296   21.347
  222.000  152.437   55.210    0.352    0.306   22.574
  222.250  152.356   51.459    0.360    0.325   24.796
  222.500  153.246   47.707    0.363    0.325   26.202
  222.750  153.166   42.096    0.358    0.293   27.158
  223.000  156.104   40.818    0.346    0.273   26.561
  223.250  157.048   46.285    0.346    0.321   25.479
  223.500  157.965   54.840    0.350    0.338   24.937
  223.750  158.908   57.832    0.352    0.340   24.830
  224.000  158.801   58.996    0.355    0.336   25.260
  224.250  158.694   55.859    0.368    0.336   25.698
  224.500  158.559   52.722    0.375    0.338   26.106
  224.750  158.452   54.501    0.374    0.338   27.039
  225.000  158.318   55.682    0.368    0.332   26.961
  225.250  158.264   50.087    0.364    0.330   26.903
  225.500  157.132   45.705    0.356    0.333   26.807
  225.750  157.025   50.556    0.355    0.334   26.768
  226.000  155.893   51.753    0.360    0.333   26.653
  226.250  155.759   49.215    0.374    0.332   26.614
