~VERSION INFORMATION
 VERS.                 2.0:   CWLS LOG ASCII STANDARD -VERSION 2.0
 WRAP.                  NO:   ONE LINE PER DEPTH STEP
~WELL INFORMATION BLOCK
#MNEM.UNIT           DATA                    DESCRIPTION OF MNEMONIC
#---------    -------------------            -------------------------------
# Generated from Intellog Unique Number	CS_73_76/WELL/2199
WELL.         SIEBENS OIL & GAS LTD.         : Well_name    - WELL
LOC .         00/11-08-074-09W4/0            : Location     - LOCATION
UWI .         00/11-08-074-09W4/0            : Uwi          - UNIQUE WELL ID
ENTR.         SP                             : Entered      - ENTERED BY
SRVC.         SCHLUMBERGER                   : Scn          - SERVICE COMPANY
STRT.M        298.704                        : top_depth    - START DEPTH
STOP.M        481.454                        : bot_depth    - STOP DEPTH
STEP.M        0.25                           : increment    - STEP LENGTH
 NULL. -999.2500:NULL Value
~CURVE INFORMATION BLOCK
#MNEM UNIT       ERCB CURVE CODE    CURVE DESCRIPTION
#-----------   ------------------   ----------------------------------
DEPT.M        00 001 00 00         : DEPTH        - DEPTH
GR  .API      00 310 00 00         : GR           - GAMMA RAY
DPHI.V/V      00 890 00 00         : PHID         - DENSITY POROSITY (SANDSTONE)
NPHI.V/V      00 330 00 00         : PHIN         - NEUTRON POROSITY (SANDSTONE)
ILD .OHMM     00 120 00 00         : RESD         - DEEP RESISTIVITY (DIL)
~PARAMETER INFORMATION
#MNEM.UNIT           DATA             DESCRIPTION OF MNEMONIC
#---------         -----------     ------------------------------
GL  .M        666.598              : gl           - GROUND LEVEL ELEVATION
EREF.M        670.255              : kb           - ELEVATION OF DEPTH REFERENCE
DATM.M        666.598              : datum        - DATUM ELEVATION
TDD .M        493.776              : tdd          - TOTAL DEPTH DRILLER
RUN .         ONE                  : Run          - RUN NUMBER
ENG .         BILL                 : Engineer     - RECORDING ENGINEER
WIT .         JIM                  : Witness      - WITNESSED BY
MUD .         GEL                  : Mud_type     - MUD TYPE
MATR.         SANDSTONE            : Logunit      - NEUTRON MATRIX
TMAX.C        13.3333              : BHT          - MAXIMUM RECORDED TEMPERATURE
BHTD.M        493.776              : BHTDEP       - MAXIMUM RECORDED TEMPERATURE
MATR.         1                    : LOGUNIT      - NEUTRON MATRIX
RMT .C        25                   : MDTP         - TEMPERATURE OF MUD
NEUT.         1                    : NEUTRON      - NEUTRON TYPE
RESI.         0                    : RESIST       - RESISTIVITY TYPE
RMC .OHMM     0.25                 : RMC          - RESISTIVITY OF MUD CAKE
RMF .OHMM     0.25                 : RMF          - RESISTIVITY OF MUD FILTRATE
SUFT.C        15                   : SUFT         - SURFACE TEMPERATURE
~A  DEPTH       GR     PHID     PHIN     RESD
# ...
  342.204   94.941    0.204    0.478    9.830
  342.454   94.538    0.204    0.484    9.809
  342.704   93.912    0.213    0.479    9.806
  342.954   94.729    0.225    0.458    9.793
  343.204   93.402    0.229    0.453    9.987
  343.454   92.378    0.228    0.443    9.984
  343.704   92.197    0.241    0.434    9.986
  343.954   92.203    0.238    0.436    9.986
  344.204   91.082    0.225    0.448    9.980
  344.454   92.348    0.225    0.447    9.956
  344.704   93.394    0.221    0.447    9.802
  344.954   92.041    0.211    0.449    9.442
  345.204   92.175    0.197    0.452    9.277
  345.454   89.094    0.173    0.444    9.384
  345.704   81.343    0.148    0.352    9.970
  345.954   73.484    0.122    0.270   10.167
  346.204   65.966    0.089    0.271   10.487
  346.454   69.295    0.187    0.316   10.813
  346.704   76.961    0.238    0.383   10.938
  346.954   83.860    0.252    0.422   10.811
  347.204   81.477    0.249    0.436   10.705
  347.454   77.411    0.240    0.428   10.532
  347.704   79.415    0.229    0.406   10.435
  347.954   81.474    0.218    0.416   10.333
  348.204   84.043    0.216    0.430   10.014
  348.454   84.630    0.215    0.432    9.788
  348.704   85.615    0.226    0.431    9.598
  348.954   85.691    0.219    0.435    9.297
  349.204   84.565    0.211    0.434    9.223
  349.454   86.745    0.218    0.428    8.930
  349.704   90.079    0.221    0.433    8.632
  349.954   93.139    0.216    0.444    8.777
  350.204   93.946    0.209    0.450    8.910
  350.454   92.642    0.222    0.447    9.185
  350.704   92.435    0.215    0.447    9.471
  350.954   93.968    0.212    0.443    9.611
  351.204   93.916    0.209    0.442    9.619
  351.454   93.891    0.196    0.429    9.406
  351.704   94.127    0.195    0.420    9.134
  351.954   91.142    0.196    0.421    8.921
  352.204   89.034    0.207    0.429    8.754
  352.454   86.457    0.224    0.444    8.882
  352.704   85.606    0.230    0.459    8.967
  352.954   86.725    0.243    0.462    9.082
  353.204   84.293    0.245    0.453    9.269
  353.454   83.669    0.246    0.444    9.262
  353.704   82.573    0.251    0.437    9.098
  353.954   82.802    0.251    0.445    9.082
  354.204   83.816    0.242    0.462    9.060
  354.454   84.780    0.243    0.476    8.909
  354.704   87.127    0.247    0.456    8.914
  354.954   89.695    0.235    0.443    8.915
  355.204   88.248    0.245    0.453    8.896
  355.454   86.455    0.236    0.456    9.083
  355.704   84.888    0.243    0.458    9.247
  355.954   82.252    0.245    0.448    9.241
  356.204   81.252    0.240    0.421    9.244
  356.454   81.832    0.227    0.410    9.244
  356.704   83.459    0.229    0.417    9.243
  356.954   84.248    0.233    0.425    9.242
  357.204   83.208    0.208    0.426    9.245
  357.454   83.049    0.206    0.417    9.328
  357.704   83.759    0.212    0.425    9.422
  357.954   80.435    0.221    0.431    9.721
  358.204   75.251    0.222    0.433    9.964
  358.454   69.827    0.223    0.407    9.949
  358.704   65.018    0.238    0.390   10.119
  358.954   65.692    0.247    0.383   10.334
  359.204   68.678    0.230    0.380   10.312
  359.454   70.305    0.208    0.365   10.310
  359.704   71.184    0.218    0.350   10.301
  359.954   70.609    0.226    0.328   10.486
  360.204   68.377    0.241    0.311   10.501
  360.454   66.243    0.265    0.398   10.526
  360.704   66.841    0.297    0.428   10.705
  360.954   66.954    0.299    0.433   10.767
  361.204   66.271    0.293    0.427   11.109
  361.454   64.780    0.283    0.422   11.473
  361.704   64.558    0.283    0.417   11.575
  361.954   64.522    0.294    0.416   11.717
  362.204   63.805    0.298    0.419   11.718
  362.454   61.766    0.304    0.420   11.717
  362.704   60.326    0.313    0.424   11.713
  362.954   61.232    0.322    0.433   11.545
  363.204   62.956    0.323    0.441   10.039
  363.454   65.471    0.318    0.438    7.258
  363.704   67.945    0.304    0.437    5.590
  363.954   76.581    0.264    0.456    4.898
  364.204   85.252    0.245    0.479    4.554
  364.454   92.657    0.247    0.511    4.363
  364.704   98.086    0.256    0.513    4.183
  364.954   98.543    0.237    0.509    4.235
  365.204   97.208    0.220    0.483    4.369
  365.454   94.384    0.220    0.475    4.501
  365.704   92.275    0.230    0.479    4.824
  365.954   87.101    0.223    0.472    5.247
  366.204   82.625    0.229    0.467    5.571
  366.454   81.727    0.249    0.474    6.172
  366.704   77.622    0.272    0.475    6.707
  366.954   71.029    0.269    0.429    7.457
  367.204   69.028    0.281    0.419    8.101
  367.454   67.300    0.291    0.423    8.586
  367.704   66.682    0.303    0.434    8.704
  367.954   66.966    0.293    0.439    8.839
  368.204   65.031    0.296    0.436    8.718
  368.454   63.627    0.295    0.441    8.729
  368.704   63.351    0.291    0.447    8.507
  368.954   65.552    0.284    0.454    8.256
  369.204   67.854    0.276    0.447    7.936
  369.454   70.960    0.270    0.452    7.468
  369.704   73.838    0.269    0.445    6.911
  369.954   76.697    0.252    0.453    6.512
  370.204   79.519    0.233    0.465    6.014
  370.454   80.577    0.235    0.446    6.023
  370.704   75.854    0.266    0.466    6.416
  370.954   66.564    0.289    0.483    6.881
  371.204   62.038    0.302    0.481    7.447
  371.454   61.194    0.308    0.494    7.899
  371.704   62.621    0.292    0.483    8.391
  371.954   64.233    0.308    0.476    8.658
  372.204   65.034    0.299    0.469    8.691
  372.454   65.569    0.293    0.468    8.864
  372.704   65.585    0.307    0.475    8.635
  372.954   65.565    0.298    0.478    7.988
  373.204   66.590    0.293    0.467    6.867
  373.454   70.870    0.275    0.481    5.751
  373.704   75.442    0.265    0.506    5.180
  373.954   80.806    0.271    0.510    4.865
  374.204   79.634    0.273    0.488    4.832
  374.454   76.933    0.278    0.483    4.926
  374.704   77.257    0.276    0.488    5.080
  374.954   80.253    0.270    0.478    5.068
  375.204   84.048    0.256    0.494    4.668
  375.454   85.735    0.259    0.518    4.384
  375.704   85.826    0.268    0.561    4.346
  375.954   84.223    0.288    0.548    4.468
  376.204   81.028    0.304    0.516    4.794
  376.454   75.886    0.298    0.492    5.031
  376.704   80.482    0.285    0.489    5.249
  376.954   77.906    0.287    0.493    5.541
  377.204   75.059    0.293    0.477    5.700
  377.454   75.480    0.291    0.480    5.775
  377.704   77.101    0.288    0.492    5.799
  377.954   79.303    0.272    0.505    5.802
  378.204   82.055    0.257    0.495    5.804
  378.454   83.354    0.243    0.477    5.827
  378.704   82.362    0.247    0.467    5.911
  378.954   80.740    0.256    0.461    5.971
  379.204   80.023    0.260    0.467    6.014
  379.454   81.234    0.252    0.462    6.021
  379.704   76.697    0.252    0.435    6.112
  379.954   75.817    0.232    0.419    6.360
  380.204   76.840    0.238    0.440    6.346
  380.454   74.730    0.250    0.445    6.523
  380.704   72.086    0.253    0.440    6.720
  380.954   72.510    0.243    0.446    6.934
  381.204   73.725    0.236    0.471    6.944
  381.454   77.929    0.254    0.479    6.383
  381.704   84.740    0.268    0.469    4.819
  381.954   92.422    0.265    0.466    3.694
  382.204   99.687    0.240    0.505    3.191
  382.454  106.180    0.217    0.531    2.929
  382.704  108.787    0.224    0.531    2.829
  382.954  111.366    0.221    0.522    2.790
  383.204  112.523    0.219    0.528    2.706
  383.454  114.434    0.234    0.543    2.625
  383.704  110.302    0.226    0.543    2.547
  383.954  106.012    0.217    0.576    2.477
  384.204  100.724    0.219    0.574    2.399
  384.454   92.727    0.202    0.543    2.968
  384.704   87.718    0.201    0.520    3.653
  384.954   87.608    0.211    0.490    4.214
  385.204   87.837    0.224    0.469    4.963
  385.454   89.595    0.215    0.452    5.531
