~VERSION INFORMATION
 VERS.                 2.0:   CWLS LOG ASCII STANDARD -VERSION 2.0
 WRAP.                  NO:   ONE LINE PER DEPTH STEP
~WELL INFORMATION BLOCK
#MNEM.UNIT           DATA                    DESCRIPTION OF MNEMONIC
#---------    -------------------            -------------------------------
# Generated from Intellog Unique Number	CN_91_93/WELL/3281
NULL.         -999.2500                      : Null_value
WELL.         PARAMOUNT RESOURCES LTD.       : Well_name    - WELL              
LOC .         00/11-31-093-18W4/0            : Location     - LOCATION          
UWI .         00/11-31-093-18W400            : Uwi          - UNIQUE WELL ID    
ENTR.         JOETTE                         : Entered      - ENTERED BY        
SRVC.         COMPUTALOG                     : Scn          - SERVICE COMPANY   
DATE.         04/29/92                       : Date         - LOG DATE          
STRT.M        85                             : top_depth    - START DEPTH       
STOP.M        240                            : bot_depth    - STOP DEPTH        
STEP.M        0.25                           : increment    - STEP LENGTH       
~CURVE INFORMATION BLOCK
#MNEM UNIT       ERCB CURVE CODE    CURVE DESCRIPTION
#-----------   ------------------   ----------------------------------
DEPT.M        00 001 00 00         : DEPTH        - DEPTH                       
CALI.MM       00 280 01 00         : CAL          - CALIPER                     
GR  .API      00 310 00 00         : GR           - GAMMA RAY                   
NPHI.V/V      00 330 00 00         : PHIN         - NEUTRON POROSITY (SANDSTONE)
DPHI.V/V      00 890 00 00         : PHID         - DENSITY POROSITY (SANDSTONE)
ILD .OHMM     00 120 00 00         : RESD         - DEEP RESISTIVITY (DIL)      
~PARAMETER INFORMATION       
#MNEM.UNIT           DATA             DESCRIPTION OF MNEMONIC
#---------         -----------     ------------------------------
GL  .M        521                  : gl           - GROUND LEVEL ELEVATION      
EREF.M        524.8                : kb           - ELEVATION OF DEPTH REFERENCE
DATM.M        524.8                : datum        - DATUM ELEVATION             
TDD .M        241.5                : tdd          - TOTAL DEPTH DRILLER         
RUN .         ONE                  : Run          - RUN NUMBER                  
ENG .         BILL                 : Engineer     - RECORDING ENGINEER          
WIT .         JIM                  : Witness      - WITNESSED BY                
MUD .         GEL                  : Mud_type     - MUD TYPE                    
MATR.         SANDSTONE            : Logunit      - NEUTRON MATRIX              
TMAX.C        21                   : BHT          - MAXIMUM RECORDED TEMPERATURE
BHTD.M        241.5                : BHTDEP       - MAXIMUM RECORDED TEMPERATURE
RMT .C        16                   : MDTP         - TEMPERATURE OF MUD          
MUDD.KG/M     1080                 : MWT          - MUD DENSITY                 
NEUT.         1                    : NEUTRON      - NEUTRON TYPE                
RESI.         0                    : RESIST       - RESISTIVITY TYPE            
RM  .OHMM     3.9                  : RM           - RESISTIVITY OF MUD          
RMC .OHMM     3.9                  : RMC          - RESISTIVITY OF MUD CAKE     
RMF .OHMM     3.9                  : RMF          - RESISTIVITY OF MUD FILTRATE 
SUFT.C        4                    : SUFT         - SURFACE TEMPERATURE         
~A  DEPTH      CAL       GR     PHIN     PHID     RESD
# ...
  158.000  160.160   63.963    0.276    0.107    7.580
  158.250  158.195   71.065    0.318    0.131    9.621
  158.500  158.202   74.320    0.361    0.134   10.938
  158.750  158.702   79.646    0.395    0.161   12.099
  159.000  158.218   84.972    0.419    0.194    9.617
  159.250  161.676   86.751    0.438    0.231    9.441
  159.500  164.145   83.503    0.443    0.238    9.792
  159.750  164.646   76.707    0.442    0.236   10.251
  160.000  163.668   70.207    0.406    0.210   10.830
  160.250  163.674   71.690    0.385    0.188   11.130
  160.500  162.696   74.651    0.400    0.195   11.027
  160.750  162.703   80.272    0.418    0.229   10.925
  161.000  162.710   87.373    0.432    0.253   10.627
  161.250  163.211   81.760    0.444    0.262    9.964
  161.500  163.218   82.356    0.442    0.255    9.516
  161.750  162.732   84.725    0.418    0.247    9.172
  162.000  162.741   85.912    0.395    0.254    9.004
  162.250  163.242   84.144    0.427    0.253    8.678
  162.500  163.247   85.626    0.444    0.249    8.212
  162.750  162.270   88.290    0.454    0.246    7.843
  163.000  161.786   90.069    0.447    0.258    7.287
  163.250  161.791   88.299    0.403    0.256    6.832
  163.500  161.798   89.191    0.416    0.255    6.348
  163.750  162.299   92.448    0.443    0.251    5.952
  164.000  162.307   94.522    0.477    0.253    5.282
  164.250  162.806   95.412    0.524    0.257    4.436
  164.500  163.306   97.191    0.554    0.258    4.198
  164.750  162.822   95.125    0.550    0.251    4.315
  165.000  161.842   74.139    0.532    0.214    4.861
  165.250  159.880   67.048    0.438    0.154    9.324
  165.500  159.887   64.688    0.390    0.206   11.727
  165.750  159.401   68.535    0.409    0.248   13.580
  166.000  158.425   70.906    0.417    0.294   14.747
  166.250  158.925   71.204    0.423    0.281   13.577
  166.500  159.424   74.165    0.434    0.265   11.195
  166.750  160.908   77.717    0.432    0.255    9.147
  167.000  161.409   79.791    0.426    0.253    7.204
  167.250  161.416   82.752    0.418    0.248    6.107
  167.500  161.425   89.261    0.448    0.241    5.520
  167.750  160.445   91.926    0.463    0.242    5.223
  168.000  159.466   90.452    0.474    0.236    5.468
  168.250  159.968   82.179    0.477    0.225    6.048
  168.500  159.968   65.923    0.401    0.170    7.003
  168.750  160.476   50.258    0.274    0.062    8.336
  169.000  160.976   49.967    0.312    0.127    9.923
  169.250  160.489   67.414    0.369    0.207   10.677
  169.500  155.571   77.174    0.415    0.237   11.177
  169.750  153.113   79.545    0.400    0.278   11.488
  170.000  150.657   76.001    0.385    0.287   11.381
  170.250  150.664   71.570    0.358    0.282   11.173
  170.500  151.165   73.350    0.363    0.264   10.768
  170.750  152.156   78.971    0.388    0.166   10.097
  171.000  157.091   87.549    0.409    0.159    9.467
  171.250  160.057   93.762    0.422    0.196    8.796
  171.500  159.079   92.584    0.429    0.227    8.024
  171.750  158.101   90.223    0.426    0.245    8.023
  172.000  156.629   89.932    0.419    0.253    8.023
  172.250  156.636   87.866    0.419    0.257    8.020
  172.500  158.614   89.940    0.422    0.252    7.520
  172.750  160.100   93.197    0.434    0.243    6.674
  173.000  161.093   93.201    0.440    0.231    6.258
  173.250  162.085   89.067    0.419    0.225    5.708
  173.500  163.079   89.367    0.399    0.223    5.451
  173.750  163.079   92.623    0.415    0.223    5.112
  174.000  163.092   99.723    0.447    0.241    4.749
  174.250  163.594  106.823    0.469    0.243    4.662
  174.500  163.606  107.714    0.508    0.226    4.792
  174.750  163.608  102.693    0.534    0.218    5.016
  175.000  148.799   71.690    0.367    0.115    6.128
  175.250  149.806   52.662    0.290    0.037    6.910
  175.500  154.286   61.893    0.321    0.176    7.648
  175.750  154.301   80.941    0.370    0.208    8.159
  176.000  153.821   93.444    0.382    0.224    8.703
  176.250  152.843   95.238    0.369    0.238    8.703
  176.500  151.869   94.654    0.377    0.240    9.027
  176.750  150.893   99.124    0.381    0.237    9.630
  177.000  150.413  108.356    0.384    0.236   10.367
  177.250  149.931  103.010    0.388    0.240   11.058
  177.500  150.444   95.582    0.387    0.240   11.796
  177.750  151.450   92.023    0.367    0.238   12.352
  178.000  154.938   89.653    0.361    0.244   12.697
  178.250  156.938   87.581    0.364    0.241   12.932
  178.500  152.990   91.755    0.383    0.226   13.050
  178.750  150.029   96.225    0.399    0.217   12.808
  179.000  151.034   96.235    0.418    0.214   12.003
  179.250  156.503   97.435    0.423    0.222   11.042
  179.500  158.006   98.634    0.426    0.227    9.972
  179.750  159.015   97.454    0.429    0.230    9.345
  180.000  159.029   95.381    0.435    0.225    8.677
  180.250  159.046   93.902    0.440    0.218    8.283
  180.500  158.564   95.398    0.444    0.211    7.907
  180.750  158.086   97.788    0.442    0.212    7.833
  181.000  157.110   94.525    0.407    0.234    8.356
  181.250  156.134   91.263    0.391    0.251    9.598
  181.500  154.664   88.297    0.391    0.260   11.870
  181.750  152.695   80.275    0.356    0.216   12.546
  182.000  151.227   74.930    0.301    0.140   13.632
  182.250  150.743   73.451    0.333    0.112   14.542
  182.500  154.229   77.627    0.376    0.159   14.010
  182.750  155.238   82.694    0.395    0.197   13.375
  183.000  154.760   86.272    0.391    0.231   12.534
  183.250  153.784   89.852    0.386    0.243   11.856
  183.500  152.804   91.051    0.400    0.248   11.213
  183.750  153.813   89.871    0.415    0.243   10.704
  184.000  157.797   88.391    0.396    0.243   10.410
  184.250  156.817   88.103    0.378    0.252   10.312
  184.500  154.354   90.494    0.379    0.266   10.310
  184.750  158.335   93.180    0.393    0.237   10.119
  185.000  158.849   95.868    0.384    0.225    9.840
  185.250  155.892   98.256    0.382    0.218    9.658
  185.500  157.888  100.347    0.386    0.216    9.658
  185.750  159.391   99.466    0.404    0.221    9.477
  186.000  160.399   97.393    0.414    0.226    9.303
  186.250  160.414   94.725    0.406    0.230    9.130
  186.500  157.955   92.355    0.382    0.232    9.128
  186.750  155.985   89.686    0.376    0.237    9.211
  187.000  154.516   92.669    0.378    0.237    9.296
  187.250  154.033   97.439    0.407    0.226    9.039
  187.500  155.041  101.612    0.442    0.224    8.471
  187.750  159.022   98.647    0.459    0.221    8.162
  188.000  160.525   90.327    0.358    0.165    8.390
  188.250  160.539   77.843    0.290    0.121    8.544
  188.500  160.558   80.232    0.269    0.134    8.703
  188.750  160.558   88.868    0.326    0.182    9.283
  189.000  160.595   99.291    0.385    0.204    9.543
  189.250  160.109   98.707    0.417    0.214    9.366
  189.500  159.135   96.039    0.410    0.228    8.227
  189.750  158.160   93.963    0.391    0.237    7.499
  190.000  157.677   91.296    0.378    0.242    7.292
  190.250  157.195   90.711    0.398    0.247    7.026
  190.500  157.211   96.074    0.434    0.263    6.287
  190.750  157.230  102.330    0.524    0.279    4.184
  191.000  156.748  106.801    0.493    0.260    3.849
  191.250  156.266  101.159    0.448    0.240    3.743
  191.500  155.786   95.516    0.427    0.239    3.993
  191.750  155.306   90.171    0.402    0.248    4.938
  192.000  155.323   82.149    0.367    0.238    6.108
  192.250  154.843   77.697    0.313    0.191    6.220
  192.500  154.859   75.921    0.367    0.157    6.575
  192.750  155.372   83.666    0.424    0.121    8.676
  193.000  159.352   93.491    0.440    0.204    8.674
  193.250  164.327   98.260    0.429    0.218    8.054
  193.500  164.343   96.785    0.426    0.227    7.074
  193.750  163.863   96.494    0.452    0.229    6.508
  194.000  164.374   98.290    0.468    0.225    6.447
  194.250  160.919  100.084    0.483    0.226    6.447
