~VERSION INFORMATION
 VERS.                 2.0:   CWLS LOG ASCII STANDARD -VERSION 2.0
 WRAP.                  NO:   ONE LINE PER DEPTH STEP
~WELL INFORMATION BLOCK
#MNEM.UNIT           DATA                    DESCRIPTION OF MNEMONIC
#---------    -------------------            -------------------------------
# Generated from Intellog Unique Number	CS_67_68/WELL/858
WELL.         AEC MARGUERITA                 : Well_name    - WELL
LOC .         00/15-26-068-05W4/0            : Location     - LOCATION
UWI .         00/15-26-068-05W4/0            : Uwi          - UNIQUE WELL ID
ENTR.         SP                             : Entered      - ENTERED BY
SRVC.         SCHLUMBERGER                   : Scn          - SERVICE COMPANY
STRT.M        360                            : top_depth    - START DEPTH
STOP.M        605                            : bot_depth    - STOP DEPTH
STEP.M        0.25                           : increment    - STEP LENGTH
 NULL. -999.2500:NULL Value
~CURVE INFORMATION BLOCK
#MNEM UNIT       ERCB CURVE CODE    CURVE DESCRIPTION
#-----------   ------------------   ----------------------------------
DEPT.M        00 001 00 00         : DEPTH        - DEPTH
ILD .OHMM     00 120 00 00         : RESD         - DEEP RESISTIVITY (DIL)
DPHI.V/V      00 890 00 00         : PHID         - DENSITY POROSITY (LIMESTONE)
NPHI.V/V      00 330 00 00         : PHIN         - NEUTRON POROSITY (LIMESTONE)
GR  .API      00 310 00 00         : GR           - GAMMA RAY
~PARAMETER INFORMATION
#MNEM.UNIT           DATA             DESCRIPTION OF MNEMONIC
#---------         -----------     ------------------------------
GL  .M        713.2                : gl           - GROUND LEVEL ELEVATION
EREF.M        716.8                : kb           - ELEVATION OF DEPTH REFERENCE
DATM.M        713.2                : datum        - DATUM ELEVATION
TDD .M        610                  : tdd          - TOTAL DEPTH DRILLER
RUN .         ONE                  : Run          - RUN NUMBER
ENG .         BILL                 : Engineer     - RECORDING ENGINEER
WIT .         JIM                  : Witness      - WITNESSED BY
MUD .         GEL                  : Mud_type     - MUD TYPE
MATR.         LIMESTONE            : Logunit      - NEUTRON MATRIX
TMAX.C        24                   : BHT          - MAXIMUM RECORDED TEMPERATURE
BHTD.M        610                  : BHTDEP       - MAXIMUM RECORDED TEMPERATURE
MATR.         1                    : LOGUNIT      - NEUTRON MATRIX
RMT .C        25                   : MDTP         - TEMPERATURE OF MUD
NEUT.         1                    : NEUTRON      - NEUTRON TYPE
RESI.         0                    : RESIST       - RESISTIVITY TYPE
RMC .OHMM     0.25                 : RMC          - RESISTIVITY OF MUD CAKE
RMF .OHMM     0.25                 : RMF          - RESISTIVITY OF MUD FILTRATE
SUFT.C        15                   : SUFT         - SURFACE TEMPERATURE
~A  DEPTH     RESD     PHID     PHIN       GR
# ...
  534.000   10.160    0.258    0.358   55.791
  534.250   10.567    0.249    0.373   63.284
  534.500   11.582    0.250    0.386   67.583
  534.750   12.159    0.243    0.429   59.658
  535.000   12.505    0.264    0.413   41.660
  535.250   12.504    0.284    0.380   31.832
  535.500   12.387    0.295    0.351   43.440
  535.750   12.248    0.285    0.378   54.619
  536.000   12.156    0.269    0.436   63.341
  536.250   13.449    0.251    0.466   70.772
  536.500   17.220    0.267    0.405   48.290
  536.750   21.518    0.299    0.381   40.673
  537.000   25.467    0.305    0.391   38.584
  537.250   17.120    0.306    0.396   35.266
  537.500   12.999    0.315    0.364   39.319
  537.750    9.944    0.280    0.344   50.068
  538.000    8.061    0.244    0.358   65.731
  538.250    7.177    0.223    0.384   73.961
  538.500    6.797    0.195    0.378   72.548
  538.750    6.733    0.161    0.357   73.960
  539.000    6.620    0.172    0.386   76.600
  539.250    6.571    0.210    0.402   75.862
  539.500    6.521    0.226    0.415   74.756
  539.750    6.509    0.235    0.413   75.922
  540.000    6.459    0.225    0.401   78.747
  540.250    6.399    0.214    0.391   82.924
  540.500    6.268    0.210    0.412   89.065
  540.750    6.140    0.200    0.434   93.856
  541.000    5.958    0.195    0.446   94.654
  541.250    5.858    0.202    0.442   89.248
  541.500    5.814    0.204    0.417   85.008
  541.750    5.814    0.196    0.396   83.350
  542.000    5.890    0.192    0.398   80.523
  542.250    5.979    0.193    0.402   85.007
  542.500    6.103    0.205    0.404   91.763
  542.750    6.183    0.203    0.426   96.983
  543.000    6.300    0.196    0.451   96.307
  543.250    5.921    0.190    0.445   89.119
  543.500    6.252    0.197    0.428   86.662
  543.750    7.358    0.205    0.415   91.452
  544.000    8.515    0.186    0.429   88.687
  544.250    9.653    0.161    0.442   76.832
  544.500   11.728    0.141    0.437   58.772
  544.750   14.738    0.249    0.393   46.732
  545.000   17.574    0.280    0.363   38.869
  545.250   20.147    0.301    0.351   48.819
  545.500   20.566    0.285    0.379   55.452
  545.750   21.671    0.278    0.398   60.857
  546.000   22.709    0.287    0.399   47.281
  546.250   24.383    0.299    0.383   37.391
  546.500   27.745    0.312    0.374   30.695
  546.750   23.439    0.325    0.365   32.844
  547.000   20.558    0.297    0.357   45.559
  547.250   17.696    0.273    0.375   53.850
  547.500   16.603    0.264    0.398   61.405
  547.750   15.375    0.279    0.412   57.780
  548.000   14.534    0.292    0.401   54.831
  548.250   14.078    0.289    0.395   59.621
  548.500   13.559    0.272    0.399   62.938
  548.750   12.889    0.258    0.403   66.868
  549.000   12.322    0.247    0.404   63.367
  549.250   11.890    0.261    0.395   62.322
  549.500   11.735    0.277    0.387   69.692
  549.750   11.625    0.261    0.411   74.237
  550.000   11.646    0.247    0.430   78.474
  550.250   13.427    0.269    0.442   62.196
  550.500   16.810    0.299    0.401   45.181
  550.750   22.555    0.308    0.382   39.775
  551.000   28.185    0.309    0.390   43.705
  551.250   30.719    0.316    0.402   39.282
  551.500   31.950    0.306    0.395   42.536
  551.750   28.712    0.260    0.392   45.239
  552.000   24.623    0.240    0.400   43.887
  552.250   22.420    0.042    0.378   46.834
  552.500   19.924    0.072    0.329   49.843
  552.750   18.415    0.210    0.349   47.447
  553.000   18.005    0.239    0.382   44.191
  553.250   18.105    0.269    0.397   47.077
  553.500   18.690    0.301    0.396   51.131
  553.750   21.227    0.262    0.409   55.000
  554.000   24.290    0.216    0.392   56.535
  554.250   26.227    0.160    0.350   48.672
  554.500   28.319    0.167    0.339   44.064
  554.750   29.179    0.234    0.361   39.334
  555.000   27.738    0.273    0.383   40.869
  555.250   24.465    0.249    0.328   49.467
  555.500   20.902    0.185    0.325   56.961
  555.750   19.320    0.241    0.356   49.957
  556.000   18.366    0.294    0.383   42.033
  556.250   17.956    0.315    0.403   44.796
  556.500   17.955    0.323    0.394   51.860
  556.750   18.362    0.296    0.372   62.117
  557.000   11.890    0.254    0.376   71.207
  557.250    9.951    0.224    0.385   79.990
  557.500    8.646    0.209    0.391   87.545
  557.750    7.873    0.192    0.393   93.195
  558.000    7.755    0.180    0.386   94.730
  558.250    8.661    0.169    0.382   89.877
  558.500    9.493    0.186    0.403   84.594
  558.750   10.231    0.217    0.415   76.485
  559.000   11.213    0.246    0.415   69.052
  559.250   11.995    0.254    0.395   66.778
  559.500   12.475    0.240    0.382   68.866
  559.750   12.687    0.224    0.404   71.507
  560.000   12.926    0.223    0.424   75.990
  560.250   12.497    0.245    0.413   80.473
  560.500   12.661    0.257    0.398   79.183
  560.750   13.392    0.266    0.417   71.443
  561.000   14.112    0.274    0.432   70.336
  561.250   14.787    0.274    0.435   63.395
  561.500   15.466    0.292    0.460   53.013
  561.750   15.847    0.318    0.491   47.238
  562.000   15.935    0.335    0.444   54.854
  562.250   15.815    0.298    0.402   62.962
  562.500   16.634    0.271    0.423   66.831
  562.750   15.813    0.275    0.461   54.115
  563.000   16.915    0.315    0.459   46.437
  563.250   18.470    0.305    0.431   49.200
  563.500   19.943    0.288    0.413   54.727
  563.750   21.574    0.288    0.397   45.267
  564.000   22.948    0.296    0.416   38.510
  564.250   23.957    0.293    0.437   36.666
  564.500   26.014    0.270    0.379   41.580
  564.750   27.931    0.177    0.336   41.088
  565.000   32.081    0.282    0.386   31.996
  565.250   36.165    0.318    0.426   26.774
  565.500   41.617    0.337    0.409   26.958
  565.750   47.623    0.342    0.399   26.036
  566.000   43.852    0.349    0.399   23.578
  566.250   34.827    0.355    0.378   24.867
  566.500   24.951    0.341    0.366   34.572
  566.750   19.816    0.332    0.362   46.426
  567.000   14.961    0.271    0.360   56.376
  567.250   11.860    0.208    0.362   66.327
  567.500   10.778    0.180    0.378   70.319
  567.750   10.132    0.164    0.367   69.581
  568.000    9.595    0.159    0.356   74.678
  568.250    9.173    0.165    0.343   82.049
  568.500    8.769    0.177    0.336   88.682
  568.750    8.415    0.179    0.360   92.612
  569.000    8.351    0.174    0.378   93.595
  569.250    8.367    0.173    0.395   91.567
  569.500    8.524    0.172    0.406   87.328
  569.750    8.428    0.169    0.416   82.413
  570.000    8.668    0.180    0.398   82.843
  570.250    8.619    0.191    0.380   84.132
  570.500    8.602    0.196    0.387   86.342
  570.750    8.602    0.185    0.392   87.693
  571.000    8.601    0.177    0.380   89.412
  571.250    8.521    0.172    0.394   91.500
  571.500    8.472    0.166    0.403   94.632
  571.750    8.424    0.166    0.410   95.921
  572.000    8.345    0.168    0.414   94.201
  572.250    8.282    0.168    0.407   92.787
  572.500    8.266    0.163    0.397   94.015
  572.750    8.281    0.157    0.390   96.226
  573.000    8.281    0.149    0.393   98.129
  573.250    8.343    0.158    0.409   98.374
  573.500    8.484    0.172    0.424   96.654
  573.750    8.579    0.167    0.412   95.486
  574.000    8.643    0.165    0.406   96.591
  574.250    8.839    0.174    0.413   95.423
  574.500    9.526    0.181    0.391   70.975
  574.750   10.679    0.060    0.317   57.891
  575.000   11.617    0.038    0.288   52.853
  575.250   12.015    0.030    0.278   48.614
  575.500   11.725    0.175    0.274   59.179
  575.750   11.272    0.190    0.291   69.313
  576.000   10.898    0.207    0.353   78.834
  576.250   10.224    0.206    0.361   86.081
  576.500    9.647    0.194    0.368   91.547
  576.750    9.450    0.183    0.366   94.925
  577.000    9.274    0.174    0.366   97.258
  577.250    9.050    0.169    0.372   98.609
