~VERSION INFORMATION
 VERS.                 2.0:   CWLS LOG ASCII STANDARD -VERSION 2.0
 WRAP.                  NO:   ONE LINE PER DEPTH STEP
~WELL INFORMATION BLOCK
#MNEM.UNIT           DATA                    DESCRIPTION OF MNEMONIC
#---------    -------------------            -------------------------------
# Generated from Intellog Unique Number	CS_77_79/WELL/1012
WELL.         ICGR CHARD                     : Well_name    - WELL
LOC .         00/11-36-078-06W4/0            : Location     - LOCATION
UWI .         00/11-36-078-06W4/0            : Uwi          - UNIQUE WELL ID
ENTR.         JHS                            : Entered      - ENTERED BY
SRVC.         SCHLUMBERGER                   : Scn          - SERVICE COMPANY
STRT.M        100                            : top_depth    - START DEPTH
STOP.M        375                            : bot_depth    - STOP DEPTH
STEP.M        0.25                           : increment    - STEP LENGTH
 NULL. -999.2500:NULL Value
~CURVE INFORMATION BLOCK
#MNEM UNIT       ERCB CURVE CODE    CURVE DESCRIPTION
#-----------   ------------------   ----------------------------------
DEPT.M        00 001 00 00         : DEPTH        - DEPTH
DPHI.V/V      00 890 00 00         : PHID         - DENSITY POROSITY (LIMESTONE)
NPHI.V/V      00 330 00 00         : PHIN         - NEUTRON POROSITY (LIMESTONE)
GR  .API      00 310 00 00         : GR           - GAMMA RAY
ILD .OHMM     00 120 00 00         : RESD         - DEEP RESISTIVITY (DIL)
~PARAMETER INFORMATION
#MNEM.UNIT           DATA             DESCRIPTION OF MNEMONIC
#---------         -----------     ------------------------------
GL  .M        533.73               : gl           - GROUND LEVEL ELEVATION
EREF.M        537.26               : kb           - ELEVATION OF DEPTH REFERENCE
DATM.M        537.26               : datum        - DATUM ELEVATION
TDD .M        381                  : tdd          - TOTAL DEPTH DRILLER
RUN .         ONE                  : Run          - RUN NUMBER
ENG .         BILL                 : Engineer     - RECORDING ENGINEER
WIT .         JIM                  : Witness      - WITNESSED BY
MUD .         GEL                  : Mud_type     - MUD TYPE
MATR.         LIMESTONE            : Logunit      - NEUTRON MATRIX
TMAX.C        20                   : BHT          - MAXIMUM RECORDED TEMPERATURE
BHTD.M        381                  : BHTDEP       - MAXIMUM RECORDED TEMPERATURE
MATR.         1                    : LOGUNIT      - NEUTRON MATRIX
RMT .C        25                   : MDTP         - TEMPERATURE OF MUD
NEUT.         1                    : NEUTRON      - NEUTRON TYPE
RESI.         0                    : RESIST       - RESISTIVITY TYPE
RMC .OHMM     0.25                 : RMC          - RESISTIVITY OF MUD CAKE
RMF .OHMM     0.25                 : RMF          - RESISTIVITY OF MUD FILTRATE
SUFT.C        15                   : SUFT         - SURFACE TEMPERATURE
~A  DEPTH     PHID     PHIN       GR     RESD
# ...
  187.000    0.379    0.466   49.592   21.236
  187.250    0.380    0.472   48.980   21.259
  187.500    0.379    0.450   53.265   21.295
  187.750    0.373    0.438   53.878   20.924
  188.000    0.369    0.440   52.653   20.969
  188.250    0.368    0.435   53.265   20.592
  188.500    0.374    0.428   53.878   20.244
  188.750    0.378    0.444   52.653   19.904
  189.000    0.375    0.459   55.102   19.920
  189.250    0.369    0.454   58.163   19.586
  189.500    0.366    0.451   57.551   19.255
  189.750    0.366    0.451   54.490   19.274
  190.000    0.361    0.453   56.939   18.956
  190.250    0.361    0.437   59.388   18.972
  190.500    0.368    0.424   58.776   18.653
  190.750    0.369    0.445   57.551   18.691
  191.000    0.368    0.450   58.776   18.360
  191.250    0.374    0.444   61.224   18.381
  191.500    0.377    0.449   60.000   18.065
  191.750    0.375    0.460   55.714   18.094
  192.000    0.358    0.466   56.327   17.779
  192.250    0.353    0.460   56.939   17.148
  192.500    0.354    0.435   54.490   16.535
  192.750    0.347    0.417   52.041   15.939
  193.000    0.342    0.427   48.980   16.273
  193.250    0.327    0.446   44.694   19.334
  193.500    0.290    0.440   42.245   25.256
  193.750    0.159    0.323   40.408   31.758
  194.000    0.079    0.153   37.347   38.447
  194.250    0.055    0.124   33.061   42.343
  194.500    0.116    0.136   31.224   39.322
  194.750    0.159    0.195   30.612   33.197
  195.000    0.248    0.285   33.673   22.325
  195.250    0.311    0.353   37.959   18.148
  195.500    0.352    0.421   37.959   17.175
  195.750    0.344    0.413   42.857   17.527
  196.000    0.344    0.417   52.041   17.555
  196.250    0.353    0.424   45.918   17.932
  196.500    0.349    0.400   41.633   17.947
  196.750    0.343    0.387   48.367   17.311
  197.000    0.345    0.448   58.776   16.691
  197.250    0.353    0.467   63.061   15.501
  197.500    0.356    0.469   55.714   13.854
  197.750    0.352    0.474   52.653   12.149
  198.000    0.333    0.450   64.898   10.065
  198.250    0.307    0.425   75.918    8.994
  198.500    0.289    0.460   81.429    8.511
  198.750    0.305    0.510   74.082    9.024
  199.000    0.337    0.512   64.898   10.519
  199.250    0.348    0.470   60.000   12.264
  199.500    0.354    0.443   57.551   14.027
  199.750    0.354    0.430   56.939   15.750
  200.000    0.344    0.433   56.327   16.375
  200.250    0.339    0.444   56.939   16.403
  200.500    0.339    0.460   59.388   16.124
  200.750    0.343    0.457   58.776   15.252
  201.000    0.322    0.434   60.612   13.905
  201.250    0.271    0.397   70.408   13.398
  201.500    0.225    0.396   73.469   12.438
  201.750    0.254    0.419   69.796   11.338
  202.000    0.292    0.438   71.633   10.726
  202.250    0.308    0.423   73.469   10.149
  202.500    0.296    0.419   72.857    9.604
  202.750    0.280    0.429   75.918    9.088
  203.000    0.300    0.454   77.143    8.595
  203.250    0.327    0.439   77.755    8.288
  203.500    0.323    0.430   78.367    8.148
  203.750    0.310    0.427   81.429    8.002
  204.000    0.297    0.453   85.714    8.017
  204.250    0.290    0.440   88.775    7.880
  204.500    0.286    0.430   90.000    7.743
  204.750    0.278    0.432   88.163    7.464
  205.000    0.274    0.450   88.775    7.200
  205.250    0.273    0.459   94.898    6.688
  205.500    0.268    0.449   99.184    6.444
  205.750    0.262    0.450   98.571    5.985
  206.000    0.253    0.483   96.123    5.770
  206.250    0.246    0.488  102.857    5.357
  206.500    0.249    0.475  105.306    5.068
  206.750    0.259    0.466  104.694    4.620
  207.000    0.253    0.471  102.857    4.452
  207.250    0.246    0.499  102.857    4.212
  207.500    0.232    0.522  100.408    3.838
  207.750    0.232    0.535   99.796    3.498
  208.000    0.253    0.549   97.959    3.309
  208.250    0.260    0.561   99.796    3.250
  208.500    0.262    0.557  101.020    3.194
  208.750    0.268    0.558   98.571    3.260
  209.000    0.276    0.539   96.123    3.731
  209.250    0.263    0.535   97.959    4.108
  209.500    0.247    0.549   98.571    4.700
  209.750    0.250    0.525   97.347    5.175
  210.000    0.255    0.499   90.000    5.590
  210.250    0.268    0.472   87.551    5.928
  210.500    0.279    0.489   89.388    6.166
  210.750    0.289    0.513   88.775    6.060
  211.000    0.297    0.492   86.939    5.626
  211.250    0.301    0.477   83.265    4.933
  211.500    0.291    0.475   86.326    3.862
  211.750    0.270    0.505   93.674    3.655
  212.000    0.253    0.537  100.408    3.660
  212.250    0.244    0.549  104.082    3.736
  212.500    0.244    0.530  101.633    3.887
  212.750    0.263    0.523   97.347    3.895
  213.000    0.269    0.542   96.123    3.898
  213.250    0.266    0.556   96.735    3.690
  213.500    0.264    0.540   97.959    3.491
  213.750    0.274    0.535   97.959    3.367
  214.000    0.280    0.546   99.796    3.307
  214.250    0.275    0.577   98.571    3.376
  214.500    0.279    0.552   97.959    3.580
  214.750    0.277    0.556  102.245    4.095
  215.000    0.271    0.600   99.796    5.055
  215.250    0.275    0.561   94.898    5.779
  215.500    0.294    0.530   85.714    7.549
  215.750    0.316    0.489   72.857    9.316
  216.000    0.314    0.467   69.184   10.653
  216.250    0.316    0.462   73.469   11.514
  216.500    0.321    0.457   75.306   10.691
  216.750    0.324    0.446   73.469    9.923
  217.000    0.314    0.443   71.633    8.379
  217.250    0.310    0.428   71.020    7.632
  217.500    0.306    0.409   72.245    7.224
  217.750    0.290    0.407   74.082    6.834
  218.000    0.271    0.424   77.143    6.345
  218.250    0.253    0.438   80.816    6.476
  218.500    0.244    0.478   81.429    7.137
  218.750    0.249    0.477   82.653    7.279
  219.000    0.259    0.473   84.490    7.573
  219.250    0.253    0.487   80.816    7.444
  219.500    0.248    0.472   79.592    7.178
  219.750    0.249    0.463   83.877    6.794
  220.000    0.263    0.461   86.939    6.679
  220.250    0.255    0.465   86.939    6.684
  220.500    0.239    0.471   85.102    6.824
  220.750    0.229    0.484   84.490    6.965
  221.000    0.231    0.486   82.653    7.244
  221.250    0.239    0.494   82.653    7.540
  221.500    0.252    0.504   83.265    7.841
  221.750    0.258    0.510   83.877    8.156
  222.000    0.254    0.492   86.939    8.328
  222.250    0.261    0.473   84.490    7.878
  222.500    0.269    0.462   77.755    6.528
  222.750    0.270    0.439   82.041    5.307
  223.000    0.273    0.419   88.163    4.397
  223.250    0.276    0.476   93.061    3.712
  223.500    0.280    0.505   97.347    3.196
  223.750    0.280    0.528  101.020    3.141
  224.000    0.281    0.577   99.184    3.525
  224.250    0.290    0.616   99.796    4.109
  224.500    0.308    0.611  106.531    4.880
  224.750    0.317    0.601  117.551    6.256
  225.000    0.324    0.580  103.469    7.573
  225.250    0.329    0.499   89.388    9.527
  225.500    0.337    0.486   75.918   10.487
  225.750    0.345    0.477   66.735   11.549
  226.000    0.346    0.461   61.837   11.575
  226.250    0.345    0.450   64.286   11.586
  226.500    0.345    0.438   65.510   11.386
  226.750    0.349    0.450   61.837   10.982
  227.000    0.355    0.439   61.224   10.597
  227.250    0.341    0.430   61.837   10.409
  227.500    0.334    0.445   61.224   10.623
  227.750    0.334    0.473   58.163   11.051
  228.000    0.338    0.493   58.163   11.071
  228.250    0.343    0.475   63.673   10.879
  228.500    0.344    0.456   67.959   10.489
  228.750    0.344    0.445   67.959    9.377
  229.000    0.339    0.441   69.184    8.540
  229.250    0.298    0.430   74.082    8.081
  229.500    0.279    0.431   80.204    7.944
  229.750    0.272    0.455   79.592    7.960
  230.000    0.292    0.505   75.918    7.969
  230.250    0.300    0.516   78.980    8.136
