~VERSION INFORMATION
 VERS.                 2.0:   CWLS LOG ASCII STANDARD -VERSION 2.0
 WRAP.                  NO:   ONE LINE PER DEPTH STEP
~WELL INFORMATION BLOCK
#MNEM.UNIT           DATA                    DESCRIPTION OF MNEMONIC
#---------    -------------------            -------------------------------
# Generated from Intellog Unique Number	CN_91_93/WELL/1169
WELL.         11-15-091-17W4                 : Well_name    - WELL
LOC .         00/11-15-091-17W4/0            : Location     - LOCATION
UWI .         00/11-15-091-17W400            : Uwi          - UNIQUE WELL ID
ENTR.         JOETTE                         : Entered      - ENTERED BY
SRVC.         SCHLUMBERGER                   : Scn          - SERVICE COMPANY
DATE.         01/30/92                       : Date         - LOG DATE
STRT.F        344.488                        : top_depth    - START DEPTH
STOP.F        803.806                        : bot_depth    - STOP DEPTH
STEP.F        0.82                           : increment    - STEP LENGTH
 NULL. -999.2500:NULL Value
~CURVE INFORMATION BLOCK
#MNEM UNIT       ERCB CURVE CODE    CURVE DESCRIPTION
#-----------   ------------------   ----------------------------------
DEPT.F        00 001 00 00         : DEPTH        - DEPTH
ILD .OHMM     00 120 00 00         : RESD         - DEEP RESISTIVITY (DIL)
DPHI.V/V      00 890 00 00         : PHID         - DENSITY POROSITY (SANDSTONE)
NPHI.V/V      00 330 00 00         : PHIN         - NEUTRON POROSITY (SANDSTONE)
CALI.IN       00 280 01 00         : CAL          - CALIPER
GR  .API      00 310 00 00         : GR           - GAMMA RAY
~PARAMETER INFORMATION
#MNEM.UNIT           DATA             DESCRIPTION OF MNEMONIC
#---------         -----------     ------------------------------
GL  .M        504                  : gl           - GROUND LEVEL ELEVATION
EREF.M        507.8                : kb           - ELEVATION OF DEPTH REFERENCE
DATM.M        507.8                : datum        - DATUM ELEVATION
TDD .M        246                  : tdd          - TOTAL DEPTH DRILLER
RUN .         ONE                  : Run          - RUN NUMBER
ENG .         BILL                 : Engineer     - RECORDING ENGINEER
WIT .         JIM                  : Witness      - WITNESSED BY
MUD .         GEL                  : Mud_type     - MUD TYPE
MATR.         SANDSTONE            : Logunit      - NEUTRON MATRIX
TMAX.F        69.8                 : BHT          - MAXIMUM RECORDED TEMPERATURE
BHTD.F        807.087              : BHTDEP       - MAXIMUM RECORDED TEMPERATURE
RMT .F        47                   : MDTP         - TEMPERATURE OF MUD
MUDD.LB/G     10                   : MWT          - MUD DENSITY
NEUT.         1                    : NEUTRON      - NEUTRON TYPE
RESI.         0                    : RESIST       - RESISTIVITY TYPE
RM  .OHMM     2.8                  : RM           - RESISTIVITY OF MUD
RMC .OHMM     7.42                 : RMC          - RESISTIVITY OF MUD CAKE
RMF .OHMM     2.28                 : RMF          - RESISTIVITY OF MUD FILTRATE
SUFT.F        39.2                 : SUFT         - SURFACE TEMPERATURE
~A  DEPTH     RESD     PHID     PHIN      CAL       GR
# ...
  464.239   51.190    0.032    0.181    6.682   63.934
  465.059   49.888    0.068    0.239    6.664   63.830
  465.879   27.331    0.178    0.313    6.705   65.565
  466.699   18.025    0.218    0.364    6.884   69.775
  467.520   15.278    0.222    0.390    7.613   77.022
  468.340   14.090    0.222    0.402    8.048   82.432
  469.160   13.479    0.225    0.459    8.090   87.229
  469.980   13.259    0.228    0.427    8.131   92.026
  470.801   13.157    0.215    0.425    8.154   96.823
  471.621   12.945    0.218    0.438    8.154  100.395
  472.441   13.464    0.200    0.444    8.159  100.853
  473.261   15.086    0.143    0.431    8.161  100.723
  474.081   16.585    0.139    0.423    8.163  101.284
  474.902   19.472    0.197    0.424    8.168  101.768
  475.722   19.689    0.216    0.429    8.189  101.664
  476.542   19.189    0.228    0.436    8.407   94.771
  477.362   20.531    0.257    0.431    8.586   89.180
  478.182   21.358    0.269    0.416    8.647   77.386
  479.003   19.866    0.261    0.407    8.652   69.906
  479.823   20.093    0.256    0.410    8.673   71.589
  480.643   21.087    0.255    0.413    8.673   73.962
  481.463   22.135    0.251    0.415    8.697   76.309
  482.283   22.814    0.239    0.412    8.697   78.043
  483.104   23.727    0.224    0.412    9.135   74.264
  483.924   23.999    0.228    0.414    9.097   70.460
  484.744   22.542    0.269    0.408    9.100   66.655
  485.564   21.564    0.255    0.409    9.063   62.876
  486.385   20.634    0.249    0.414    9.046   59.097
  487.205   21.460    0.244    0.413    9.048   54.680
  488.025   21.494    0.252    0.412    9.070   52.127
  488.845   20.759    0.262    0.418    9.151   48.296
  489.665   20.226    0.247    0.416    9.291   50.030
  490.486   19.529    0.250    0.415    9.314   54.241
  491.306   19.389    0.250    0.414    9.257   63.326
  492.126   19.261    0.233    0.416    9.161   76.112
  492.946   19.481    0.211    0.416    9.066   84.584
  493.766   20.833    0.184    0.408    8.989   92.418
  494.587   21.863    0.113    0.374    8.894   92.954
  495.407   23.819    0.142    0.341    8.876   91.573
  496.227   24.329    0.213    0.362    8.958   88.433
  497.047   21.602    0.246    0.398    9.019   82.178
  497.867   16.541    0.243    0.423    9.063   84.525
  498.688   15.243    0.222    0.445    9.083   89.296
  499.508   14.582    0.207    0.448    9.105   91.030
  500.328   14.348    0.186    0.443    8.971   87.252
  501.148   14.374    0.174    0.401    8.835   85.233
  501.969   14.811    0.158    0.423    8.740   85.768
  502.789   15.543    0.192    0.439    8.782   86.303
  503.609   17.101    0.218    0.455    8.843   85.535
  504.429   18.799    0.194    0.433    8.806   82.982
  505.249   22.066    0.070    0.407    8.612   80.428
  506.070   21.109    0.116    0.275    8.477   78.487
  506.890   15.422    0.166    0.293    8.558   77.133
  507.710   11.373    0.257    0.332    9.012   77.642
  508.530    7.296    0.283    0.380    9.171   80.575
  509.350    4.304    0.273    0.539    9.253   81.723
  510.171    3.683    0.250    0.504    9.253   81.594
  510.991    3.868    0.226    0.469    9.279   79.014
  511.811    4.623    0.214    0.448    9.260   81.974
  512.631    6.182    0.202    0.429    9.265   84.346
  513.451    8.816    0.196    0.411    9.246   87.866
  514.272   13.421    0.210    0.412    9.246   85.925
  515.092   16.198    0.215    0.424    9.252   83.398
  515.912   15.496    0.213    0.424    9.273   73.416
  516.732   14.155    0.207    0.438    9.273   79.490
  517.552   12.923    0.175    0.464    9.318   87.349
  518.373   14.214    0.143    0.457    9.379   90.896
  519.193   18.143    0.112    0.430    9.381   92.017
  520.013   19.213    0.149    0.387    9.381   93.139
  520.833   21.529    0.209    0.393    9.387   93.036
  521.654   23.035    0.240    0.390    9.310   86.168
  522.474   23.735    0.249    0.394    9.234   80.526
  523.294   23.773    0.244    0.405    9.177   80.422
  524.114   22.954    0.248    0.402    9.062   80.319
  524.934   21.169    0.250    0.401    8.966   80.190
  525.755   22.441    0.238    0.406    8.793   80.061
  526.575   23.321    0.240    0.409    8.657   76.282
  527.395   23.160    0.256    0.401    8.464   69.388
  528.215   22.362    0.241    0.398    8.348   70.510
  529.035   24.131    0.218    0.404    8.194   73.496
  529.856   27.810    0.194    0.386    8.138   83.193
  530.676   30.866    0.183    0.352    8.138   92.304
  531.496   36.219    0.177    0.334    8.103   95.876
  532.316   39.459    0.143    0.324    7.969   93.909
  533.136   45.464    0.142    0.316    7.969   88.879
  533.957   44.744    0.157    0.340    7.934   84.488
  534.777   41.222    0.183    0.390    7.740   83.746
  535.597   29.297    0.208    0.419    7.605   85.480
  536.417   22.416    0.234    0.434    7.489   88.440
  537.238   21.846    0.264    0.436    7.276   91.986
  538.058   22.510    0.286    0.441    7.160   91.908
  538.878   23.856    0.271    0.439    7.104   83.203
  539.698   24.392    0.216    0.427    7.109   78.173
  540.518   25.572    0.237    0.423    7.149   77.457
  541.339   25.864    0.248    0.405    7.149   78.528
  542.159   25.919    0.253    0.391    7.273   80.900
  542.979   27.983    0.239    0.390    7.352   82.609
  543.799   30.479    0.228    0.399    7.352   82.531
  544.619   32.292    0.222    0.407    7.417   84.214
  545.440   30.892    0.209    0.415    7.458   85.948
  546.260   33.978    0.183    0.412    7.461   87.070
  547.080   38.418    0.015    0.221    7.483   87.579
  547.900   53.298    0.030    0.214    7.505   85.025
  548.720   73.941    0.055    0.264    7.547   75.707
  549.541   80.576    0.099    0.293    7.608   63.327
  550.361   28.261    0.136    0.428    7.709   63.224
  551.181   26.531    0.178    0.437    7.809   64.906
  552.001   23.345    0.241    0.437    7.910   59.316
  552.822   19.429    0.223    0.437    7.910   59.799
  553.642   17.739    0.132    0.425    7.994   63.958
  554.462   16.200    0.093    0.420    8.114   66.943
  555.282   14.518    0.096    0.406    8.157   70.489
  556.102   13.386    0.158    0.386    8.217   69.773
  556.923   14.591    0.183    0.364    8.338   69.005
  557.743   15.887    0.172    0.439    8.360   67.703
  558.563   19.175    0.145    0.410    8.382   66.374
  559.383   21.287    0.174    0.391    8.364   65.046
  560.203   20.746    0.182    0.394    8.367   64.942
  561.024   20.031    0.167    0.408    8.351   65.425
  561.844   19.168    0.162    0.421    8.352   65.935
  562.664   18.845    0.175    0.431    8.352   67.031
  563.484   18.889    0.175    0.425    8.358   67.540
  564.304   18.585    0.177    0.418    8.358   60.698
  565.125   18.282    0.188    0.411    8.364   56.255
  565.945   17.983    0.195    0.412    8.365   56.152
  566.765   17.689    0.205    0.416    8.387   60.975
  567.585   17.726    0.090    0.428    8.389   71.285
  568.406   18.260    0.088    0.430    8.392   79.145
  569.226   18.469    0.113    0.409    8.375   85.167
  570.046   17.669    0.138    0.432    8.358   86.901
  570.866   16.442    0.162    0.449    8.321   88.635
  571.686   15.725    0.201    0.443    8.285   90.982
  572.507   15.184    0.138    0.419    8.267   79.827
  573.327   14.797    0.154    0.428    8.211   77.222
  574.147   14.975    0.179    0.432    8.174   79.594
  574.967   16.318    0.192    0.435    8.098   87.454
  575.787   17.125    0.198    0.425    8.042   87.963
  576.608   17.161    0.195    0.401    8.024   88.421
  577.428   16.570    0.161    0.401    8.009   88.956
  578.248   16.295    0.118    0.401    7.990   90.052
  579.068   16.178    0.100    0.405    7.990   91.173
  579.888   16.987    0.147    0.409    7.956   92.295
  580.709   17.998    0.207    0.414    7.958   93.391
  581.529   18.379    0.211    0.409    7.958   94.513
  582.349   19.288    0.178    0.405    7.964   96.247
  583.169   21.413    0.102    0.350    7.965   83.254
