~VERSION INFORMATION
 VERS.                 2.0:   CWLS LOG ASCII STANDARD -VERSION 2.0
 WRAP.                  NO:   ONE LINE PER DEPTH STEP
~WELL INFORMATION BLOCK
#MNEM.UNIT           DATA                    DESCRIPTION OF MNEMONIC
#---------    -------------------            -------------------------------
# Generated from Intellog Unique Number	CS_77_79/WELL/1009
WELL.         MESA PORTAGE                   : Well_name    - WELL
LOC .         00/11-34-079-18W4/0            : Location     - LOCATION
UWI .         00/11-34-079-18W4/0            : Uwi          - UNIQUE WELL ID
ENTR.         JHS                            : Entered      - ENTERED BY
SRVC.         SCHLUMBERGER                   : Scn          - SERVICE COMPANY
STRT.M        152.4                          : top_depth    - START DEPTH
STOP.M        374.65                         : bot_depth    - STOP DEPTH
STEP.M        0.25                           : increment    - STEP LENGTH
 NULL. -999.2500:NULL Value
~CURVE INFORMATION BLOCK
#MNEM UNIT       ERCB CURVE CODE    CURVE DESCRIPTION
#-----------   ------------------   ----------------------------------
DEPT.M        00 001 00 00         : DEPTH        - DEPTH
RHOB.KG/M3    00 350 00 00         : DENS         - BULK DENSITY
GR  .API      00 310 00 00         : GR           - GAMMA RAY
DPHI.V/V      00 890 00 00         : PHID         - DENSITY POROSITY (SANDSTONE)
NPHI.V/V      00 330 00 00         : PHIN         - NEUTRON POROSITY (SANDSTONE)
ILD .OHMM     00 120 00 00         : RESD         - DEEP RESISTIVITY (DIL)
~PARAMETER INFORMATION
#MNEM.UNIT           DATA             DESCRIPTION OF MNEMONIC
#---------         -----------     ------------------------------
GL  .M        554.462              : gl           - GROUND LEVEL ELEVATION
EREF.M        557.814              : kb           - ELEVATION OF DEPTH REFERENCE
DATM.M        557.814              : datum        - DATUM ELEVATION
TDD .M        374.904              : tdd          - TOTAL DEPTH DRILLER
RUN .         ONE                  : Run          - RUN NUMBER
ENG .         BILL                 : Engineer     - RECORDING ENGINEER
WIT .         JIM                  : Witness      - WITNESSED BY
MUD .         GEL                  : Mud_type     - MUD TYPE
MATR.         SANDSTONE            : Logunit      - NEUTRON MATRIX
TMAX.C        60                   : BHT          - MAXIMUM RECORDED TEMPERATURE
BHTD.M        374.904              : BHTDEP       - MAXIMUM RECORDED TEMPERATURE
MATR.         1                    : LOGUNIT      - NEUTRON MATRIX
RMT .C        25                   : MDTP         - TEMPERATURE OF MUD
NEUT.         1                    : NEUTRON      - NEUTRON TYPE
RESI.         0                    : RESIST       - RESISTIVITY TYPE
RMC .OHMM     0.25                 : RMC          - RESISTIVITY OF MUD CAKE
RMF .OHMM     0.25                 : RMF          - RESISTIVITY OF MUD FILTRATE
SUFT.C        15                   : SUFT         - SURFACE TEMPERATURE
~A  DEPTH     DENS       GR     PHID     PHIN     RESD
  152.400    0.000   63.678    0.262    0.576    2.962
  152.650    0.000   63.632    0.265    0.553    3.046
  152.900    0.000   66.168    0.256    0.545    3.094
  153.150    0.000   65.753    0.256    0.552    3.141
  153.400    0.000   62.704    0.254    0.525    3.204
  153.650    0.000   60.624    0.246    0.510    3.271
  153.900    0.000   60.720    0.241    0.504    3.325
  154.150    0.000   60.751    0.265    0.516    3.332
  154.400    0.000   60.820    0.260    0.544    3.333
  154.650    0.000   63.462    0.240    0.566    3.283
  154.900    0.000   64.527    0.223    0.575    3.220
  155.150    0.000   63.842    0.224    0.553    3.162
  155.400    0.000   63.836    0.235    0.546    3.113
  155.650    0.000   64.769    0.246    0.562    3.049
  155.900    0.000   64.553    0.257    0.551    3.058
  156.150    0.000   61.074    0.252    0.544    3.054
  156.400    0.000   59.484    0.249    0.548    3.112
  156.650    0.000   59.584    0.253    0.573    3.119
  156.900    0.000   61.052    0.249    0.589    3.159
  157.150    0.000   64.746    0.231    0.560    3.195
  157.400    0.000   61.554    0.230    0.549    3.308
  157.650    0.000   57.995    0.239    0.548    3.311
  157.900    0.000   59.319    0.242    0.536    3.388
  158.150    0.000   60.151    0.239    0.519    3.337
  158.400    0.000   58.541    0.230    0.501    3.311
  158.650    0.000   56.722    0.231    0.518    3.207
  158.900    0.000   56.106    0.225    0.523    2.979
  159.150    0.000   56.312    0.238    0.524    2.781
  159.400    0.000   56.761    0.261    0.538    2.529
  159.650    0.000   57.470    0.266    0.558    2.448
  159.900    0.000   57.486    0.295    0.591    2.427
  160.150    0.000   59.107    0.292    0.609    2.390
  160.400    0.000   59.963    0.267    0.617    2.390
  160.650    0.000   55.295    0.265    0.609    2.450
  160.900    0.000   53.935    0.283    0.589    2.486
  161.150    0.000   54.141    0.284    0.579    2.526
  161.400    0.000   54.535    0.278    0.559    2.495
  161.650    0.000   57.022    0.285    0.547    2.468
  161.900    0.000   57.652    0.285    0.554    2.406
  162.150    0.000   56.983    0.273    0.582    2.408
  162.400    0.000   55.681    0.298    0.580    2.538
  162.650    0.000   54.794    0.248    0.573    2.615
  162.900    0.000   53.949    0.255    0.585    2.698
  163.150    0.000   53.266    0.273    0.582    2.762
  163.400    0.000   53.332    0.262    0.558    2.762
  163.650    0.000   53.899    0.236    0.544    2.718
  163.900    0.000   54.146    0.239    0.555    2.716
  164.150    0.000   55.927    0.264    0.573    2.716
  164.400    0.000   57.423    0.240    0.586    2.720
  164.650    0.000   57.457    0.252    0.573    2.736
  164.900    0.000   57.117    0.255    0.573    2.829
  165.150    0.000   58.346    0.259    0.558    2.918
  165.400    0.000   59.795    0.243    0.545    2.999
  165.650    0.000   59.700    0.238    0.539    3.053
  165.900    0.000   56.993    0.241    0.561    3.116
  166.150    0.000   55.922    0.246    0.539    3.196
  166.400    0.000   56.863    0.241    0.535    3.244
  166.650    0.000   61.854    0.239    0.565    3.246
  166.900    0.000   62.147    0.238    0.557    3.250
  167.150    0.000   62.110    0.227    0.549    3.203
  167.400    0.000   62.846    0.211    0.562    3.196
  167.650    0.000   62.785    0.225    0.586    3.197
  167.900    0.000   61.750    0.249    0.587    3.200
  168.150    0.000   60.599    0.240    0.570    3.202
  168.400    0.000   59.187    0.240    0.558    3.206
  168.650    0.000   57.934    0.229    0.550    3.114
  168.900    0.000   55.293    0.239    0.555    3.035
  169.150    0.000   54.321    0.259    0.551    2.991
  169.400    0.000   56.407    0.257    0.551    2.929
  169.650    0.000   56.932    0.267    0.582    2.943
  169.900    0.000   59.097    0.263    0.605    2.990
  170.150    0.000   59.947    0.259    0.581    3.080
  170.400    0.000   59.937    0.276    0.577    3.176
  170.650    0.000   61.911    0.231    0.572    3.326
  170.900    0.000   64.010    0.219    0.554    3.429
  171.150    0.000   62.983    0.217    0.563    3.428
  171.400    0.000   61.706    0.238    0.586    3.499
  171.650    0.000   62.664    0.249    0.570    3.491
  171.900    0.000   63.095    0.247    0.555    3.629
  172.150    0.000   62.144    0.231    0.549    3.776
  172.400    0.000   60.231    0.247    0.550    4.122
  172.650    0.000   57.816    0.233    0.527    4.680
  172.900    0.000   53.810    0.225    0.526    5.264
  173.150    0.000   51.386    0.238    0.539    5.775
  173.400    0.000   48.349    0.210    0.503    6.258
  173.650    0.000   46.541    0.179    0.479    6.515
  173.900    0.000   47.338    0.170    0.476    6.795
  174.150    0.000   48.223    0.238    0.480    6.815
  174.400    0.000   50.831    0.214    0.482    6.674
  174.650    0.000   53.446    0.207    0.490    6.563
  174.900    0.000   54.421    0.224    0.466    6.453
  175.150    0.000   55.312    0.244    0.459    6.320
  175.400    0.000   53.041    0.239    0.469    6.341
  175.650    0.000   51.514    0.235    0.497    6.343
  175.900    0.000   53.214    0.236    0.512    6.343
  176.150    0.000   54.207    0.245    0.522    6.562
  176.400    0.000   52.771    0.221    0.508    6.789
  176.650    0.000   49.639    0.236    0.477    7.018
  176.900    0.000   46.277    0.246    0.473    7.488
  177.150    0.000   47.630    0.236    0.489    7.738
  177.400    0.000   47.493    0.212    0.480    8.159
  177.650    0.000   46.540    0.195    0.435    8.699
  177.900    0.000   44.804    0.191    0.464    9.015
  178.150    0.000   44.480    0.238    0.444    9.309
  178.400    0.000   45.783    0.211    0.439    9.623
  178.650    0.000   48.745    0.218    0.447    9.685
  178.900    0.000   49.508    0.239    0.445    9.697
  179.150    0.000   48.916    0.225    0.440    9.709
  179.400    0.000   46.743    0.209    0.449    9.722
  179.650    0.000   44.613    0.225    0.435    9.570
  179.900    0.000   44.549    0.211    0.443    9.497
  180.150    0.000   45.249    0.220    0.441    9.204
  180.400    0.000   45.625    0.239    0.438    9.336
  180.650    0.000   46.451    0.250    0.456    9.600
  180.900    0.000   47.723    0.229    0.443    9.589
  181.150    0.000   48.462    0.219    0.425    9.793
  181.400    0.000   46.677    0.227    0.409    9.795
  181.650    0.000   46.028    0.229    0.399    9.799
  181.900    0.000   43.260    0.233    0.405    9.802
  182.150    0.000   43.458    0.233    0.424    9.781
  182.400    0.000   44.552    0.230    0.435    9.797
  182.650    0.000   45.155    0.245    0.427    9.746
  182.900    0.000   44.047    0.241    0.422    9.685
  183.150    0.000   42.743    0.256    0.433    9.863
  183.400    0.000   45.147    0.277    0.454    9.868
  183.650    0.000   46.711    0.268    0.456    9.874
  183.900    0.000   45.971    0.254    0.446    9.878
  184.150    0.000   41.940    0.247    0.443    9.832
  184.400    0.000   38.809    0.254    0.463    9.721
  184.650    0.000   34.694    0.293    0.479    9.136
  184.900    0.000   33.503    0.295    0.485    8.807
  185.150    0.000   37.965    0.297    0.476    8.132
  185.400    0.000   39.410    0.308    0.470    7.777
  185.650    0.000   40.719    0.316    0.476    7.807
  185.900    0.000   40.219    0.302    0.497    8.299
  186.150    0.000   39.377    0.289    0.498    9.781
  186.400    0.000   40.124    0.253    0.468   12.154
  186.650    0.000   40.945    0.220    0.426   13.949
  186.900    0.000   42.877    0.192    0.417   15.500
  187.150    0.000   44.480    0.188    0.442   14.812
  187.400    0.000   51.849    0.294    0.444   12.304
  187.650    0.000   54.628    0.265    0.440    9.718
  187.900    0.000   55.541    0.249    0.447    8.219
  188.150    0.000   54.460    0.265    0.480    7.624
  188.400    0.000   55.057    0.261    0.519    7.603
  188.650    0.000   56.625    0.290    0.518    8.124
