~VERSION INFORMATION
 VERS.                 2.0:   CWLS LOG ASCII STANDARD -VERSION 2.0
 WRAP.                  NO:   ONE LINE PER DEPTH STEP
~WELL INFORMATION BLOCK
#MNEM.UNIT           DATA                    DESCRIPTION OF MNEMONIC
#---------    -------------------            -------------------------------
# Generated from Intellog Unique Number	CW_70_72/WELL/3019
NULL.         -999.25                        : NULL_VALUE
WELL.         SUN BOUVIER 10-02              : Well_name    - WELL              
LOC .         10-02-070-24W4                 : Location     - LOCATION          
UWI .         00/10-02-070-24W4/0            : Uwi          - UNIQUE WELL ID    
ENTR.         jj                             : Entered      - ENTERED BY        
SRVC.         SCHLUMBERGER                   : Scn          - SERVICE COMPANY   
DATE.         28 JAN 78                      : Date         - LOG DATE          
STRT.M        426.72                         : top_depth    - START DEPTH       
STOP.M        633.97                         : bot_depth    - STOP DEPTH        
STEP.M        0.25                           : increment    - STEP LENGTH       
~CURVE INFORMATION BLOCK
#MNEM UNIT       ERCB CURVE CODE    CURVE DESCRIPTION
#-----------   ------------------   ----------------------------------
DEPT.M        00 001 00 00         : DEPTH        - DEPTH                       
ILD .OHMM     00 120 00 00         : RESD         - DEEP RESISTIVITY (DIL)      
CALI.MM       00 280 01 00         : CAL          - CALIPER                     
GR  .API      00 310 00 00         : GR           - GAMMA RAY                   
NPHI.V/V      00 330 00 00         : PHIN         - NEUTRON POROSITY (SANDSTONE)
DPHI.V/V      00 890 00 00         : PHID         - DENSITY POROSITY (SANDSTONE)
~PARAMETER INFORMATION       
#MNEM.UNIT           DATA             DESCRIPTION OF MNEMONIC
#---------         -----------     ------------------------------
GL  .M        637.184              : gl           - GROUND LEVEL ELEVATION      
EREF.M        640.324              : kb           - ELEVATION OF DEPTH REFERENCE
DATM.M        637.184              : datum        - DATUM ELEVATION             
TDD .M        656.234              : tdd          - TOTAL DEPTH DRILLER         
RUN .         ONE                  : Run          - RUN NUMBER                  
ENG .         CHMIELEWSKI          : Engineer     - RECORDING ENGINEER          
WIT .         BROWN                : Witness      - WITNESSED BY                
BASE.         EDM                  : Branch       - HOME BASE OF LOGGING UNIT   
MUD .         GEL CHEM             : Mud_type     - MUD TYPE                    
MATR.         SANDSTONE            : Logunit      - NEUTRON MATRIX              
TMAX.C        22.7778              : BHT          - MAXIMUM RECORDED TEMPERATURE
BHTD.M        656.539              : BHTDEP       - MAXIMUM RECORDED TEMPERATURE
RMT .C        20                   : MDTP         - TEMPERATURE OF MUD          
MUDD.KG/M     0                    : MWT          - MUD DENSITY                 
NEUT.         1                    : NEUTRON      - NEUTRON TYPE                
RESI.         0                    : RESIST       - RESISTIVITY TYPE            
RM  .OHMM     4.44                 : RM           - RESISTIVITY OF MUD          
RMC .OHMM     0.25                 : RMC          - RESISTIVITY OF MUD CAKE     
RMF .OHMM     3.02                 : RMF          - RESISTIVITY OF MUD FILTRATE 
SUFT.C        -17.7778             : SUFT         - SURFACE TEMPERATURE         
~A  DEPTH     RESD      CAL       GR     PHIN     PHID
  426.720    2.184  214.443  108.892    0.547    0.214
  426.970    2.216  212.003  108.325    0.536    0.186
  427.220    2.245  211.361  109.630    0.551    0.200
  427.470    2.270  210.716  110.247    0.562    0.210
  427.720    2.325  209.653  110.367    0.544    0.204
  427.970    2.395  208.375  108.678    0.510    0.210
  428.220    2.509  207.416  107.175    0.499    0.197
  428.470    2.633  207.089  105.860    0.507    0.215
  428.720    2.687  207.081  104.109    0.517    0.211
  428.970    2.742  207.178  101.983    0.524    0.218
  429.220    2.778  206.641  102.664    0.509    0.234
  429.470    2.803  206.209  105.839    0.494    0.219
  429.720    2.808  206.201  109.138    0.535    0.190
  429.970    2.813  206.086  110.256    0.540    0.206
  430.220    2.786  206.180  110.998    0.528    0.196
  430.470    2.744  206.276  111.429    0.524    0.197
  430.720    2.673  206.375  111.487    0.533    0.211
  430.970    2.599  206.469  107.678    0.545    0.212
  431.220    2.518  206.989  105.302    0.554    0.194
  431.470    2.403  206.769  103.549    0.571    0.211
  431.720    2.310  206.445  100.178    0.560    0.244
  431.970    2.349  205.168   93.934    0.575    0.262
  432.220    2.535  200.722   87.818    0.527    0.292
  432.470    2.829  194.377   81.326    0.454    0.313
  432.720    3.111  186.554   75.770    0.391    0.229
  432.970    3.427  167.113   72.147    0.409    0.259
  433.220    3.754  159.711   72.828    0.424    0.271
  433.470    3.947  158.646   70.952    0.442    0.298
  433.720    3.724  160.537   73.628    0.425    0.302
  433.970    3.450  164.645   81.668    0.428    0.283
  434.220    3.213  170.761   88.710    0.479    0.349
  434.470    2.977  178.991   95.503    0.578    0.416
  434.720    2.773  195.457   92.191    0.600    0.512
  434.970    2.741  239.064   91.625    0.585    0.550
  435.220    2.904  242.539   96.733    0.548    0.361
  435.470    3.175  223.626  102.030    0.517    0.250
  435.720    3.427  195.420  105.018    0.437    0.208
  435.970    3.796  182.737  101.208    0.404    0.204
  436.220    4.260  176.285   92.284    0.418    0.248
  436.470    4.624  174.272   84.731    0.430    0.286
  436.720    4.925  171.516   81.545    0.392    0.280
  436.970    5.208  168.022   80.043    0.378    0.290
  437.220    5.394  165.160   77.856    0.404    0.288
  437.470    5.333  163.565   73.610    0.425    0.268
  437.720    5.224  162.923   68.864    0.437    0.259
  437.970    5.079  162.599   65.055    0.475    0.241
  438.220    4.911  162.164   66.421    0.444    0.256
  438.470    4.731  162.054   67.724    0.415    0.285
  438.720    4.565  161.516   67.284    0.400    0.298
  438.970    4.414  161.295   70.146    0.389    0.299
  439.220    4.356  161.391   74.881    0.385    0.295
  439.470    4.412  161.696   83.108    0.406    0.284
  439.720    4.520  161.476   87.406    0.431    0.257
  439.970    4.665  161.575   87.775    0.440    0.238
  440.220    5.053  161.672   83.964    0.455    0.245
  440.470    5.525  161.345   81.964    0.466    0.273
  440.720    5.985  162.287   79.713    0.449    0.259
  440.970    6.108  163.546   79.770    0.445    0.264
  441.220    5.721  167.338   82.135    0.435    0.264
  441.470    5.124  173.349   84.812    0.428    0.247
  441.720    4.676  184.957   81.001    0.442    0.304
  441.970    4.348  199.311   75.445    0.461    0.403
  442.220    4.614  186.839   69.140    0.388    0.432
  442.470    5.286  176.269   64.895    0.266    0.365
  442.720    5.999  169.185   61.335    0.280    0.359
  442.970    6.463  163.473   82.409    0.354    0.280
  443.220    6.213  163.566   89.949    0.389    0.243
  443.470    5.896  164.087   93.062    0.405    0.255
  443.720    5.492  164.713   92.994    0.391    0.244
  443.970    5.135  165.760   93.427    0.388    0.270
  444.220    4.721  167.229   95.229    0.395    0.252
  444.470    4.406  169.543   97.282    0.399    0.239
  444.720    4.197  175.341  101.019    0.410    0.223
  444.970    4.157  180.190   99.703    0.427    0.196
  445.220    4.379  185.039   94.085    0.441    0.240
  445.470    4.708  184.502   86.284    0.389    0.295
  445.720    5.158  176.889   75.490    0.377    0.286
  445.970    5.453  170.861   82.407    0.384    0.265
  446.220    5.639  167.578   88.762    0.395    0.220
  446.470    5.401  167.463   93.184    0.407    0.222
  446.720    5.135  167.771   95.612    0.401    0.238
  446.970    4.783  168.185   98.538    0.393    0.243
  447.220    4.489  168.597  100.215    0.394    0.260
  447.470    4.276  168.587  100.958    0.409    0.278
  447.720    4.165  168.367  100.954    0.412    0.237
  447.970    4.064  167.725   99.514    0.412    0.219
  448.220    3.915  166.025   91.775    0.415    0.210
  448.470    3.674  164.536   83.974    0.412    0.261
  448.720    3.403  164.317   77.357    0.410    0.310
  448.970    3.117  165.364   74.608    0.419    0.323
  449.220    2.823  168.523   86.889    0.440    0.331
  449.470    2.519  177.808   96.239    0.481    0.344
  449.720    2.325  189.733  102.906    0.546    0.384
  449.970    2.158  200.918  107.579    0.579    0.400
  450.220    2.055  221.080  106.388    0.591    0.376
  450.470    2.006  207.765  104.636    0.576    0.399
  450.720    2.078  201.946  106.564    0.568    0.307
  450.970    2.201  210.385  110.613    0.560    0.410
  451.220    2.691  211.854  110.420    0.522    0.380
  451.470    3.003  202.765  106.236    0.446    0.313
  451.720    3.266  187.652   99.059    0.466    0.289
  451.970    3.551  178.243   86.829    0.486    0.310
  452.220    3.748  172.215   76.533    0.432    0.320
  452.470    3.698  166.503   75.156    0.419    0.280
  452.720    3.602  162.376   79.391    0.420    0.280
  452.970    3.582  164.585   84.438    0.430    0.267
  453.220    3.615  173.341   88.486    0.494    0.265
  453.470    3.730  174.809   89.479    0.495    0.340
  453.720    3.922  171.421   90.284    0.453    0.296
  453.970    4.194  168.348   91.650    0.454    0.209
  454.220    4.594  167.177   91.707    0.465    0.227
  454.470    5.023  166.113   89.020    0.469    0.252
  454.720    5.503  165.047   83.901    0.464    0.272
  454.970    5.939  164.932   79.219    0.441    0.305
  455.220    6.268  164.712   80.958    0.439    0.319
  455.470    6.565  164.705   78.833    0.458    0.298
  455.720    6.852  164.906   71.156    0.462    0.295
  455.970    7.893  164.896   68.719    0.447    0.284
  456.220    9.491  164.466   66.592    0.396    0.250
  456.470   10.475  164.457   63.781    0.323    0.219
  456.720   11.604  164.658   59.597    0.248    0.188
  456.970   11.494  164.860   55.226    0.208    0.123
  457.220   10.470  164.429   51.728    0.214    0.077
  457.470    9.273  163.891   56.649    0.292    0.127
  457.720    7.884  163.672   63.068    0.340    0.164
  457.970    6.445  164.085   66.554    0.372    0.227
  458.220    5.752  164.075   67.111    0.414    0.246
  458.470    5.623  164.806   66.607    0.379    0.209
  458.720    5.633  166.487   67.100    0.337    0.186
  458.970    5.518  167.534   68.341    0.336    0.177
  459.220    5.315  166.891   70.955    0.391    0.247
  459.470    5.081  164.770   73.819    0.425    0.273
  459.720    4.877  163.069   74.625    0.424    0.279
  459.970    4.602  162.639   71.750    0.426    0.288
  460.220    4.392  162.205   69.561    0.428    0.305
  460.470    4.214  162.198   68.309    0.431    0.308
  460.720    4.037  162.400   68.429    0.438    0.302
  460.970    3.889  162.180   68.922    0.433    0.289
  461.220    3.753  161.643   69.042    0.431    0.305
  461.470    3.622  160.893   69.971    0.435    0.327
  461.720    3.482  160.461   69.217    0.437    0.329
  461.970    3.379  160.453   72.580    0.433    0.323
  462.220    3.273  162.345   78.812    0.406    0.301
  462.470    3.170  166.138   89.907    0.404    0.278
  462.720    3.071  170.248  100.006    0.418    0.257
  462.970    3.003  176.678  116.091    0.430    0.237
