~VERSION INFORMATION
 VERS.                 2.0:   CWLS LOG ASCII STANDARD -VERSION 2.0
 WRAP.                  NO:   ONE LINE PER DEPTH STEP
~WELL INFORMATION BLOCK
#MNEM.UNIT           DATA                    DESCRIPTION OF MNEMONIC
#---------    -------------------            -------------------------------
# Generated from Intellog Unique Number	CW_73_75/WELL/2742
WELL.         SUNCOR MITSUE 10-20            : Well_name    - WELL
LOC .         00/10-20-073-04W5/0            : Location     - LOCATION
UWI .         00/10-20-073-04W5/0            : Uwi          - UNIQUE WELL ID
ENTR.         JAYE                           : Entered      - ENTERED BY
SRVC.         SCHLUMBERGER                   : Scn          - SERVICE COMPANY
DATE.         28 JAN 81                      : Date         - LOG DATE
STRT.M        350                            : top_depth    - START DEPTH
STOP.M        565                            : bot_depth    - STOP DEPTH
STEP.M        0.25                           : increment    - STEP LENGTH
 NULL. -999.2500:NULL Value
~CURVE INFORMATION BLOCK
#MNEM UNIT       ERCB CURVE CODE    CURVE DESCRIPTION
#-----------   ------------------   ----------------------------------
DEPT.M        00 001 00 00         : DEPTH        - DEPTH
DPHI.V/V      00 890 00 00         : PHID         - DENSITY POROSITY (SANDSTONE)
NPHI.V/V      00 330 00 00         : PHIN         - NEUTRON POROSITY (SANDSTONE)
GR  .API      00 310 00 00         : GR           - GAMMA RAY
CALI.MM       00 280 01 00         : CAL          - CALIPER
ILD .OHMM     00 120 00 00         : RESD         - DEEP RESISTIVITY (DIL)
~PARAMETER INFORMATION
#MNEM.UNIT           DATA             DESCRIPTION OF MNEMONIC
#---------         -----------     ------------------------------
GL  .M        582.23               : gl           - GROUND LEVEL ELEVATION
EREF.M        586.56               : kb           - ELEVATION OF DEPTH REFERENCE
DATM.M        582.23               : datum        - DATUM ELEVATION
TDD .M        1628                 : tdd          - TOTAL DEPTH DRILLER
RUN .         ONE                  : Run          - RUN NUMBER
MUD .         GEL CHEM             : Mud_type     - MUD TYPE
MATR.         SANDSTONE            : Logunit      - NEUTRON MATRIX
TMAX.C        46.4                 : BHT          - MAXIMUM RECORDED TEMPERATURE
BHTD.M        1626.5               : BHTDEP       - MAXIMUM RECORDED TEMPERATURE
RMT .C        15                   : MDTP         - TEMPERATURE OF MUD
MUDD.KG/M     0                    : MWT          - MUD DENSITY
NEUT.         1                    : NEUTRON      - NEUTRON TYPE
RESI.         0                    : RESIST       - RESISTIVITY TYPE
RM  .OHMM     1.7                  : RM           - RESISTIVITY OF MUD
RMC .OHMM     0                    : RMC          - RESISTIVITY OF MUD CAKE
RMF .OHMM     1.28                 : RMF          - RESISTIVITY OF MUD FILTRATE
SUFT.C        0                    : SUFT         - SURFACE TEMPERATURE
~A  DEPTH     PHID     PHIN       GR      CAL     RESD
# ...
  459.500    0.199    0.415   82.242  270.172    4.857
  459.750    0.194    0.451   77.650  270.205    4.772
  460.000    0.184    0.437   73.619  269.411    4.704
  460.250    0.189    0.425   70.711  268.405    4.638
  460.500    0.198    0.419   72.353  266.473    4.556
  460.750    0.203    0.412   74.742  264.633    4.466
  461.000    0.215    0.407   73.578  262.899    4.386
  461.250    0.230    0.404   75.968  260.754    4.324
  461.500    0.238    0.409   79.918  258.195    4.412
  461.750    0.252    0.429   81.245  255.630    4.773
  462.000    0.277    0.464   76.157  251.201    5.424
  462.250    0.295    0.464   69.819  244.688    6.234
  462.500    0.305    0.443   64.170  236.939    7.207
  462.750    0.312    0.419   58.455  235.414    8.007
  463.000    0.320    0.404   52.619  234.823    8.355
  463.250    0.315    0.404   53.325  232.260    8.459
  463.500    0.318    0.423   56.962  230.323    8.421
  463.750    0.326    0.443   61.781  232.955    8.397
  464.000    0.329    0.432   57.376  240.257    8.311
  464.250    0.324    0.416   55.216  246.005    8.208
  464.500    0.316    0.408   54.115  250.094    8.094
  464.750    0.309    0.408   51.830  252.826    8.009
  465.000    0.300    0.400   50.792  254.422    7.897
  465.250    0.296    0.389   51.312  255.498    7.830
  465.500    0.300    0.404   54.761  256.574    7.720
  465.750    0.309    0.431   56.152  257.331    7.570
  466.000    0.319    0.439   55.798  258.512    7.463
  466.250    0.319    0.424   54.698  259.689    7.301
  466.500    0.313    0.406   51.851  260.969    7.131
  466.750    0.305    0.404   50.378  262.252    7.019
  467.000    0.309    0.393   51.894  263.426    6.932
  467.250    0.317    0.399   54.657  265.327    6.833
  467.500    0.322    0.409   55.551  267.442    6.649
  467.750    0.319    0.409   55.758  269.556    6.530
  468.000    0.323    0.400   56.340  271.671    6.487
  468.250    0.324    0.406   56.610  273.361    6.606
  468.500    0.321    0.433   55.571  275.581    6.700
  468.750    0.315    0.471   57.587  278.108    6.796
  469.000    0.329    0.468   60.598  280.424    6.829
  469.250    0.323    0.424   58.751  282.850    6.875
  469.500    0.312    0.432   55.592  285.900    6.907
  469.750    0.309    0.408   57.236  287.489    6.967
  470.000    0.306    0.409   57.752  288.772    7.014
  470.250    0.305    0.419   56.902  289.950    7.076
  470.500    0.315    0.409   55.487  291.853    7.095
  470.750    0.327    0.401   54.638  293.650    7.089
  471.000    0.338    0.390   53.724  296.285    7.094
  471.250    0.328    0.394   52.435  298.085    7.062
  471.500    0.316    0.402   52.270  299.781    7.042
  471.750    0.314    0.407   52.476  300.749    6.996
  472.000    0.318    0.419   52.935  301.202    6.949
  472.250    0.324    0.422   55.510  301.859    6.813
  472.500    0.328    0.415   58.335  303.455    6.616
  472.750    0.339    0.412   58.168  305.771    6.461
  473.000    0.334    0.421   57.132  309.544    6.311
  473.250    0.328    0.432   58.397  313.114    6.117
  473.500    0.320    0.445   52.248  314.808    5.929
  473.750    0.326    0.443   50.401  315.985    5.757
  474.000    0.339    0.458   52.168  318.204    5.612
  474.250    0.356    0.461   55.615  320.416    5.543
  474.500    0.369    0.454   59.437  323.050    5.486
  474.750    0.369    0.468   60.580  325.058    5.597
  475.000    0.360    0.482   59.979  327.069    5.710
  475.250    0.347    0.470   57.568  327.620    5.879
  475.500    0.334    0.469   56.032  327.140    6.044
  475.750    0.326    0.463   55.369  327.174    6.166
  476.000    0.331    0.453   55.575  327.523    6.290
  476.250    0.342    0.443   56.468  327.759    6.332
  476.500    0.348    0.464   58.046  328.007    6.350
  476.750    0.352    0.447   60.498  328.041    6.321
  477.000    0.350    0.445   60.019  328.283    6.278
  477.250    0.339    0.439   59.230  328.626    6.202
  477.500    0.331    0.425   60.936  328.764    6.034
  477.750    0.325    0.425   63.758  328.590    5.849
  478.000    0.333    0.459   62.658  327.173    5.778
  478.250    0.335    0.448   60.621  325.235    5.850
  478.500    0.335    0.446   58.465  323.194    5.967
  478.750    0.328    0.466   56.799  320.318    6.077
  479.000    0.326    0.450   52.147  316.928    6.163
  479.250    0.325    0.428   54.038  314.050    6.252
  479.500    0.320    0.404   58.359  310.768    6.140
  479.750    0.309    0.385   59.875  308.514    6.252
  480.000    0.303    0.395   59.088  305.324    6.330
  480.250    0.307    0.410   59.293  301.204    6.312
  480.500    0.317    0.404   60.810  297.604    6.212
  480.750    0.330    0.433   62.203  293.798    6.159
  481.000    0.338    0.460   62.410  290.199    6.061
  481.250    0.329    0.447   61.433  287.425    5.998
  481.500    0.315    0.419   61.580  283.515    5.959
  481.750    0.302    0.426   62.911  280.329    5.987
  482.000    0.305    0.444   62.805  276.834    6.028
  482.250    0.310    0.446   60.209  272.923    6.102
  482.500    0.302    0.431   60.170  269.738    6.237
  482.750    0.297    0.410   60.252  266.657    6.497
  483.000    0.318    0.434   56.655  264.297    6.793
  483.250    0.322    0.448   55.306  260.388    6.851
  483.500    0.322    0.439   60.312  256.790    6.716
  483.750    0.328    0.426   64.197  253.084    6.424
  484.000    0.332    0.411   61.226  250.001    6.075
  484.250    0.340    0.426   58.692  247.023    5.702
  484.500    0.355    0.437   60.210  243.841    5.361
  484.750    0.396    0.443   59.606  241.379    5.061
  485.000    0.425    0.519   58.505  238.402    4.832
  485.250    0.411    0.519   58.963  236.255    4.782
  485.500    0.373    0.499   61.103  235.564    4.869
  485.750    0.343    0.477   65.798  236.326    5.081
  486.000    0.324    0.459   69.931  237.399    5.623
  486.250    0.328    0.467   68.892  238.682    5.812
  486.500    0.324    0.441   68.353  241.310    5.373
  486.750    0.297    0.428   69.997  247.163    4.967
  487.000    0.269    0.434   72.635  251.767    4.724
  487.250    0.245    0.438   75.395  254.606    4.468
  487.500    0.237    0.437   74.046  257.759    4.314
  487.750    0.242    0.444   72.884  261.534    4.205
  488.000    0.242    0.440   74.961  263.538    4.146
  488.250    0.234    0.431   74.107  264.926    4.198
  488.500    0.237    0.426   70.577  265.273    4.274
  488.750    0.235    0.433   70.599  264.372    4.360
  489.000    0.244    0.451   74.419  262.745    4.567
  489.250    0.257    0.461   77.183  261.222    4.932
  489.500    0.268    0.462   73.279  259.700    5.205
  489.750    0.262    0.452   71.055  258.592    5.453
  490.000    0.257    0.436   69.145  258.106    5.574
  490.250    0.263    0.447   67.358  258.658    5.527
  490.500    0.263    0.443   66.568  259.629    5.448
  490.750    0.261    0.433   67.647  261.428    5.362
  491.000    0.262    0.433   70.725  262.609    5.277
  491.250    0.255    0.429   73.612  262.744    5.222
  491.500    0.246    0.429   76.374  262.469    5.198
  491.750    0.252    0.431   76.084  261.983    5.183
  492.000    0.265    0.426   71.741  263.163    5.149
  492.250    0.275    0.418   71.450  265.483    5.124
  492.500    0.245    0.406   74.403  267.076    5.081
  492.750    0.227    0.413   76.540  268.356    5.048
  493.000    0.233    0.421   76.251  266.210    5.015
  493.250    0.222    0.418   75.959  263.340    5.011
  493.500    0.219    0.421   78.287  264.926    5.015
  493.750    0.215    0.421   80.612  269.844    4.983
  494.000    0.197    0.414   79.949  271.648    4.959
  494.250    0.186    0.410   78.909  272.616    4.926
  494.500    0.196    0.403   81.549  272.962    4.866
  494.750    0.207    0.390   84.684  272.795    4.834
  495.000    0.217    0.403   87.137  272.510    4.821
  495.250    0.207    0.428   87.281  272.035    4.918
  495.500    0.209    0.408   82.504  272.170    5.084
  495.750    0.209    0.396   81.652  272.203    5.255
