~VERSION INFORMATION
 VERS.                 2.0:   CWLS LOG ASCII STANDARD -VERSION 2.0
 WRAP.                  NO:   ONE LINE PER DEPTH STEP
~WELL INFORMATION BLOCK
#MNEM.UNIT           DATA                    DESCRIPTION OF MNEMONIC
#---------    -------------------            -------------------------------
# Generated from Intellog Unique Number	CW_79_81/WELL/2472
WELL.         10-23-081-20W4                 : Well_name    - WELL
LOC .         00/10-23-081-20W4/0            : Location     - LOCATION
UWI .         00/10-23-081-20W4/0            : Uwi          - UNIQUE WELL ID
ENTR.         MAX                            : Entered      - ENTERED BY
SRVC.         SCHLUMBERGER                   : Scn          - SERVICE COMPANY
STRT.M        182.88                         : top_depth    - START DEPTH
STOP.M        405.13                         : bot_depth    - STOP DEPTH
STEP.M        0.25                           : increment    - STEP LENGTH
 NULL. -999.2500:NULL Value
~CURVE INFORMATION BLOCK
#MNEM UNIT       ERCB CURVE CODE    CURVE DESCRIPTION
#-----------   ------------------   ----------------------------------
DEPT.M        00 001 00 00         : DEPTH        - DEPTH
ILD .OHMM     00 120 00 00         : RESD         - DEEP RESISTIVITY (DIL)
NPHI.V/V      00 330 00 00         : PHIN         - NEUTRON POROSITY (SANDSTONE)
DPHI.V/V      00 890 00 00         : PHID         - DENSITY POROSITY (SANDSTONE)
GR  .API      00 310 00 00         : GR           - GAMMA RAY
CALI.MM       00 280 01 00         : CAL          - CALIPER
~PARAMETER INFORMATION
#MNEM.UNIT           DATA             DESCRIPTION OF MNEMONIC
#---------         -----------     ------------------------------
GL  .M        582.778              : gl           - GROUND LEVEL ELEVATION
EREF.M        586.13               : kb           - ELEVATION OF DEPTH REFERENCE
DATM.M        582.778              : datum        - DATUM ELEVATION
TDD .M        414.223              : tdd          - TOTAL DEPTH DRILLER
RUN .         ONE                  : Run          - RUN NUMBER
ENG .         BILL                 : Engineer     - RECORDING ENGINEER
WIT .         JIM                  : Witness      - WITNESSED BY
MUD .         GEL                  : Mud_type     - MUD TYPE
MATR.         SANDSTONE            : Logunit      - NEUTRON MATRIX
TMAX.C        25.5556              : BHT          - MAXIMUM RECORDED TEMPERATURE
BHTD.M        414.223              : BHTDEP       - MAXIMUM RECORDED TEMPERATURE
MATR.         1                    : LOGUNIT      - NEUTRON MATRIX
RMT .C        11.6667              : MDTP         - TEMPERATURE OF MUD
NEUT.         1                    : NEUTRON      - NEUTRON TYPE
RESI.         0                    : RESIST       - RESISTIVITY TYPE
RMC .OHMM     3.8                  : RMC          - RESISTIVITY OF MUD CAKE
RMF .OHMM     2.57                 : RMF          - RESISTIVITY OF MUD FILTRATE
SUFT.C        -20                  : SUFT         - SURFACE TEMPERATURE
~A  DEPTH     RESD     PHIN     PHID       GR      CAL
# ...
  292.380    5.661    0.300    0.149   63.189  166.380
  292.630    4.819    0.381    0.183   68.301  165.626
  292.880    4.116    0.451    0.259   74.803  164.581
  293.130    3.640    0.492    0.301   79.221  164.028
  293.380    3.362    0.511    0.302   79.473  164.358
  293.630    3.255    0.554    0.318   74.385  165.492
  293.880    3.351    0.572    0.315   71.994  165.116
  294.130    3.473    0.561    0.307   70.395  164.372
  294.380    3.549    0.550    0.310   69.491  163.912
  294.630    3.563    0.563    0.314   69.048  163.550
  294.880    3.538    0.586    0.313   68.893  163.290
  295.130    3.549    0.559    0.306   68.917  163.331
  295.380    3.612    0.536    0.299   68.937  163.370
  295.630    3.734    0.524    0.300   69.654  163.796
  295.880    3.740    0.514    0.300   70.888  164.219
  296.130    3.642    0.504    0.295   72.528  164.055
  296.380    3.494    0.493    0.287   74.402  163.500
  296.630    3.355    0.490    0.278   76.422  163.704
  296.880    3.289    0.515    0.273   77.166  164.556
  297.130    3.287    0.537    0.266   77.879  165.377
  297.380    3.285    0.549    0.261   79.983  165.899
  297.630    3.283    0.547    0.259   82.204  166.127
  297.880    3.289    0.539    0.259   83.903  166.260
  298.130    3.318    0.536    0.258   85.563  166.698
  298.380    3.315    0.523    0.257   87.999  166.726
  298.630    3.376    0.503    0.249   87.552  167.152
  298.880    3.390    0.514    0.248   85.200  167.283
  299.130    3.389    0.527    0.249   83.369  167.515
  299.380    3.394    0.527    0.250   83.156  168.041
  299.630    3.430    0.519    0.254   84.192  168.865
  299.880    3.461    0.510    0.254   83.491  168.896
  300.130    3.521    0.503    0.262   83.976  169.714
  300.380    3.604    0.515    0.266   82.548  174.059
  300.630    3.695    0.526    0.266   80.136  179.777
  300.880    3.802    0.533    0.268   77.609  185.789
  301.130    3.994    0.555    0.277   75.393  192.186
  301.380    4.189    0.566    0.278   73.485  192.626
  301.630    4.372    0.536    0.291   72.114  179.726
  301.880    4.579    0.514    0.291   70.397  172.409
  302.130    4.852    0.504    0.286   68.217  168.325
  302.380    5.230    0.500    0.282   65.692  165.812
  302.630    5.971    0.491    0.274   62.640  163.569
  302.880    7.489    0.500    0.269   60.006  161.971
  303.130    7.611    0.457    0.265   57.713  161.612
  303.380    6.193    0.391    0.221   58.542  161.545
  303.630    4.877    0.336    0.181   61.223  161.973
  303.880    4.112    0.311    0.159   65.120  162.696
  304.130    3.908    0.336    0.144   71.299  163.289
  304.380    3.971    0.408    0.194   76.629  164.141
  304.630    4.154    0.466    0.264   75.723  164.955
  304.880    4.405    0.486    0.265   74.295  165.777
  305.130    4.740    0.477    0.240   72.809  166.402
  305.380    5.223    0.456    0.218   71.440  166.826
  305.630    6.203    0.441    0.210   69.978  167.252
  305.880    7.271    0.417    0.209   69.517  167.291
  306.130    8.028    0.378    0.197   69.768  167.324
  306.380    8.425    0.355    0.183   70.889  167.356
  306.630    8.307    0.360    0.186   70.911  167.389
  306.880    7.649    0.379    0.202   69.948  167.428
  307.130    6.430    0.369    0.201   70.444  167.557
  307.380    5.701    0.329    0.185   71.666  167.987
  307.630    5.124    0.357    0.178   74.236  167.632
  307.880    4.705    0.412    0.193   75.585  167.272
  308.130    4.447    0.457    0.225   75.372  166.523
  308.380    4.322    0.479    0.257   74.755  165.484
  308.630    4.295    0.490    0.265   76.739  164.739
  308.880    4.326    0.496    0.258   78.446  164.767
  309.130    4.417    0.496    0.244   78.931  164.801
  309.380    4.486    0.495    0.252   80.282  164.837
  309.630    4.546    0.492    0.259   81.690  164.870
  309.880    4.599    0.491    0.257   82.230  164.999
  310.130    4.614    0.506    0.246   80.674  165.514
  310.380    4.548    0.515    0.251   79.730  165.957
  310.630    4.483    0.516    0.254   79.053  165.994
  310.880    4.395    0.511    0.249   80.810  166.323
  311.130    4.300    0.507    0.244   83.377  166.550
  311.380    4.213    0.503    0.240   85.884  166.680
  311.630    4.122    0.488    0.236   88.370  167.117
  311.880    3.991    0.486    0.232   89.114  167.156
  312.130    3.895    0.503    0.239   89.597  167.186
  312.380    3.799    0.502    0.237   89.559  167.224
  312.630    3.720    0.491    0.235   88.536  167.256
  312.880    3.664    0.474    0.235   87.050  167.479
  313.130    3.631    0.457    0.234   86.612  168.311
  313.380    3.629    0.471    0.236   86.631  168.346
  313.630    3.689    0.490    0.228   85.033  168.376
  313.880    3.726    0.496    0.235   82.741  168.117
  314.130    3.771    0.489    0.237   81.140  167.563
  314.380    3.816    0.476    0.230   80.983  166.908
  314.630    3.808    0.465    0.225   82.203  166.721
  314.880    3.773    0.441    0.227   81.257  167.576
  315.130    3.677    0.463    0.229   80.351  168.785
  315.380    3.557    0.478    0.233   79.101  169.405
  315.630    3.431    0.485    0.239   78.195  169.437
  315.880    3.313    0.480    0.245   78.096  168.688
  316.130    3.218    0.456    0.252   79.338  166.775
  316.380    3.216    0.443    0.252   80.808  166.806
  316.630    3.307    0.485    0.245   81.981  170.364
  316.880    3.466    0.532    0.249   81.249  175.689
  317.130    3.707    0.564    0.258   78.838  181.212
  317.380    4.041    0.570    0.266   75.327  184.286
  317.630    4.557    0.531    0.269   70.927  178.983
  317.880    5.152    0.468    0.251   67.327  167.993
  318.130    5.785    0.438    0.246   62.254  164.501
  318.380    6.282    0.382    0.182   57.008  163.651
  318.630    6.447    0.332    0.133   54.250  164.271
  318.880    6.226    0.311    0.119   55.078  165.186
  319.130    5.603    0.340    0.133   59.809  165.146
  319.380    4.907    0.382    0.232   63.688  164.776
  319.630    4.524    0.417    0.248   67.181  164.807
  319.880    4.219    0.451    0.264   68.937  164.842
  320.130    4.165    0.480    0.272   70.925  163.425
  320.380    4.291    0.498    0.274   72.268  161.283
  320.630    4.316    0.498    0.278   68.758  161.251
  320.880    4.473    0.490    0.282   66.339  160.874
  321.130    4.863    0.462    0.277   64.019  160.513
  321.380    5.590    0.422    0.250   59.936  160.452
  321.630    6.749    0.360    0.192   54.328  160.691
  321.880    8.593    0.277    0.111   49.188  161.128
  322.130   12.358    0.188    0.030   49.109  161.740
  322.380   15.674    0.209    0.046   53.289  162.618
  322.630   16.163    0.226    0.059   56.832  163.051
  322.880   14.089    0.246    0.073   59.672  163.189
  323.130   11.037    0.266    0.091   62.746  163.826
  323.380    8.485    0.290    0.115   66.582  165.060
  323.630    6.437    0.348    0.154   72.180  166.627
  323.880    5.134    0.436    0.211   76.605  168.328
  324.130    4.383    0.494    0.236   76.863  168.773
  324.380    3.979    0.494    0.248   75.892  168.607
  324.630    3.745    0.480    0.256   75.914  168.049
  324.880    3.600    0.483    0.263   78.104  167.498
  325.130    3.487    0.517    0.259   82.935  167.625
  325.380    3.415    0.526    0.252   84.672  168.080
  325.630    3.409    0.497    0.257   82.819  167.719
  325.880    3.426    0.482    0.253   81.142  167.063
  326.130    3.451    0.479    0.247   80.460  166.308
  326.380    3.484    0.481    0.243   81.011  165.555
  326.630    3.570    0.490    0.236   82.008  164.732
  326.880    3.726    0.499    0.233   79.831  164.351
  327.130    4.026    0.485    0.235   77.746  164.391
  327.380    4.242    0.471    0.237   78.826  163.838
  327.630    4.360    0.452    0.237   80.491  163.282
  327.880    4.398    0.441    0.233   81.452  163.221
  328.130    4.375    0.461    0.225   81.665  164.233
  328.380    4.271    0.463    0.224   81.450  165.107
  328.630    4.202    0.471    0.223   82.173  165.138
