~VERSION INFORMATION
 VERS.                 2.0:   CWLS LOG ASCII STANDARD -VERSION 2.0
 WRAP.                  NO:   ONE LINE PER DEPTH STEP
~WELL INFORMATION BLOCK
#MNEM.UNIT           DATA                    DESCRIPTION OF MNEMONIC
#---------    -------------------            -------------------------------
# Generated from Intellog Unique Number	CW_70_72/WELL/1059
NULL.         -999.25                        : NULL_VALUE
WELL.         G&W ET AL DECRENE 11-20        : Well_name    - WELL              
LOC .         11-20-071-02W5                 : Location     - LOCATION          
UWI .         00/11-20-071-02W5/0             : Uwi          - UNIQUE WELL ID    
ENTR.         JAYE                           : Entered      - ENTERED BY        
SRVC.         SCHLUMBERGER                   : Scn          - SERVICE COMPANY   
DATE.         8 FEB 89                       : Date         - LOG DATE          
STRT.M        410                            : top_depth    - START DEPTH       
STOP.M        640                            : bot_depth    - STOP DEPTH        
STEP.M        0.25                           : increment    - STEP LENGTH       
~CURVE INFORMATION BLOCK
#MNEM UNIT       ERCB CURVE CODE    CURVE DESCRIPTION
#-----------   ------------------   ----------------------------------
DEPT.M        00 001 00 00         : DEPTH        - DEPTH                       
DPHI.V/V      00 890 00 00         : PHID         - DENSITY POROSITY (SANDSTONE)
NPHI.V/V      00 330 00 00         : PHIN         - NEUTRON POROSITY (SANDSTONE)
GR  .API      00 310 00 00         : GR           - GAMMA RAY                   
CALI.MM       00 280 01 00         : CAL          - CALIPER                     
ILD .OHMM     00 120 00 00         : RESD         - DEEP RESISTIVITY (DIL)      
~PARAMETER INFORMATION       
#MNEM.UNIT           DATA             DESCRIPTION OF MNEMONIC
#---------         -----------     ------------------------------
GL  .M        595.7                : gl           - GROUND LEVEL ELEVATION      
EREF.M        598.7                : kb           - ELEVATION OF DEPTH REFERENCE
DATM.M        595.7                : datum        - DATUM ELEVATION             
TDD .M        648                  : tdd          - TOTAL DEPTH DRILLER         
RUN .         ONE                  : Run          - RUN NUMBER                  
ENG .         KNAPIK               : Engineer     - RECORDING ENGINEER          
WIT .         ANDREWS              : Witness      - WITNESSED BY                
BASE.         EDM                  : Branch       - HOME BASE OF LOGGING UNIT   
MUD .         GEL CHEM             : Mud_type     - MUD TYPE                    
MATR.         SANDSTONE            : Logunit      - NEUTRON MATRIX              
TMAX.C        36                   : BHT          - MAXIMUM RECORDED TEMPERATURE
BHTD.M        648                  : BHTDEP       - MAXIMUM RECORDED TEMPERATURE
RMT .C        12                   : MDTP         - TEMPERATURE OF MUD          
MUDD.KG/M     1130                 : MWT          - MUD DENSITY                 
NEUT.         1                    : NEUTRON      - NEUTRON TYPE                
RESI.         0                    : RESIST       - RESISTIVITY TYPE            
RM  .OHMM     4.89                 : RM           - RESISTIVITY OF MUD          
RMC .OHMM     2.42                 : RMC          - RESISTIVITY OF MUD CAKE     
RMF .OHMM     5.37                 : RMF          - RESISTIVITY OF MUD FILTRATE 
SUFT.C        0                    : SUFT         - SURFACE TEMPERATURE         
~A  DEPTH     PHID     PHIN       GR      CAL     RESD
# ...
  446.500    0.171    0.293   53.414  159.745    6.215
  446.750    0.253    0.329   56.248  158.716    4.638
  447.000    0.295    0.372   58.658  157.788    3.924
  447.250    0.296    0.390   61.008  157.772    3.302
  447.500    0.288    0.406   58.940  157.753    3.021
  447.750    0.284    0.412   55.962  157.633    2.815
  448.000    0.290    0.411   55.406  157.817    2.695
  448.250    0.300    0.403   56.363  157.796    2.614
  448.500    0.310    0.387   56.958  157.779    2.554
  448.750    0.315    0.371   56.463  157.660    2.527
  449.000    0.317    0.372   56.572  157.339    2.500
  449.250    0.314    0.387   57.227  157.120    2.483
  449.500    0.311    0.381   54.432  157.001    2.461
  449.750    0.314    0.380   55.751  156.680    2.466
  450.000    0.316    0.398   58.223  156.862    2.467
  450.250    0.312    0.418   61.722  156.945    2.445
  450.500    0.303    0.431   65.889  157.737    2.385
  450.750    0.298    0.465   70.417  159.836    2.342
  451.000    0.322    0.498   79.487  173.539    2.301
  451.250    0.316    0.510   85.288  169.886    2.268
  451.500    0.297    0.461   86.123  164.824    2.232
  451.750    0.272    0.438   79.454  160.869    2.189
  452.000    0.253    0.424   70.725  158.533    2.154
  452.250    0.258    0.421   63.270  156.293    2.119
  452.500    0.284    0.410   58.355  155.368    2.086
  452.750    0.307    0.390   60.584  155.348    2.071
  453.000    0.310    0.401   65.053  155.430    2.049
  453.250    0.316    0.423   61.652  155.414    2.039
  453.500    0.326    0.406   55.103  155.597    2.021
  453.750    0.327    0.379   59.631  155.778    2.011
  454.000    0.320    0.382   62.222  155.656    2.019
  454.250    0.311    0.409   61.425  155.537    2.034
  454.500    0.325    0.397   56.814  155.423    2.072
  454.750    0.333    0.383   61.585  155.202    2.111
  455.000    0.325    0.384   68.233  154.980    2.162
  455.250    0.300    0.434   71.430  155.058    2.202
  455.500    0.288    0.401   72.569  155.147    2.268
  455.750    0.299    0.390   75.403  155.131    2.336
  456.000    0.304    0.442   77.813  155.312    2.437
  456.250    0.293    0.452   66.059  154.787    2.514
  456.500    0.283    0.400   56.968  154.670    2.566
  456.750    0.294    0.416   57.442  154.953    2.590
  457.000    0.342    0.458   66.208  155.542    2.596
  457.250    0.368    0.438   71.403  156.127    2.582
  457.500    0.355    0.410   62.554  156.312    2.550
  457.750    0.309    0.420   51.102  156.494    2.542
  458.000    0.318    0.419   45.219  156.781    2.543
  458.250    0.316    0.403   47.993  157.065    2.571
  458.500    0.308    0.388   52.401  157.447    2.653
  458.750    0.299    0.400   56.444  157.330    2.762
  459.000    0.289    0.424   59.764  157.312    2.945
  459.250    0.281    0.407   61.024  157.289    3.129
  459.500    0.271    0.391   58.228  157.273    3.228
  459.750    0.270    0.373   61.365  157.460    3.336
  460.000    0.283    0.376   67.347  158.044    3.430
  460.250    0.287    0.376   71.513  158.936    3.539
  460.500    0.282    0.372   73.135  160.532    3.658
  460.750    0.265    0.367   72.580  165.052    3.781
  461.000    0.253    0.361   74.384  168.160    3.831
  461.250    0.237    0.375   76.856  169.152    3.790
  461.500    0.229    0.390   78.600  169.132    3.689
  461.750    0.236    0.405   73.141  167.300    3.558
  462.000    0.247    0.404   75.067  162.843    3.407
  462.250    0.252    0.407   72.998  160.502    3.192
  462.500    0.257    0.412   67.599  159.274    3.040
  462.750    0.262    0.411   64.138  158.952    2.943
  463.000    0.267    0.405   63.703  158.531    2.896
  463.250    0.278    0.390   65.993  158.514    2.913
  463.500    0.289    0.392   68.887  158.696    3.061
  463.750    0.275    0.386   71.964  158.677    3.353
  464.000    0.257    0.378   77.157  158.758    3.628
  464.250    0.256    0.404   81.505  158.840    3.917
  464.500    0.264    0.400   77.923  158.826    4.056
  464.750    0.268    0.402   72.403  159.107    4.080
  465.000    0.243    0.421   70.515  158.987    4.089
  465.250    0.210    0.417   70.867  159.070    4.068
  465.500    0.225    0.404   71.947  158.951    4.062
  465.750    0.246    0.397   76.233  158.528    4.115
  466.000    0.262    0.388   81.247  158.312    4.169
  466.250    0.256    0.403   84.565  158.292    4.247
  466.500    0.241    0.419   86.672  159.384    4.311
  466.750    0.217    0.411   88.115  161.684    4.359
  467.000    0.206    0.405   89.737  163.585    4.441
  467.250    0.211    0.407   90.695  165.585    4.574
  467.500    0.221    0.420   89.655  164.054    5.020
  467.750    0.251    0.463   81.592  159.999    5.530
  468.000    0.380    0.596   71.110  159.477    6.447
  468.250    0.567    0.580   57.116  158.853    7.583
  468.500    0.786    0.575   45.361  159.944    8.984
  468.750    0.860    0.748   37.419  162.447   10.665
  469.000    0.836    0.871   32.264  165.658   11.004
  469.250    0.548    0.856   25.534  169.472    9.567
  469.500    0.438    0.731   65.536  171.171    7.920
  469.750    0.288    0.340   77.389  172.058    6.151
  470.000    0.221    0.348   81.251  172.545    5.731
  470.250    0.233    0.356   83.177  172.728    5.468
  470.500    0.249    0.345   85.769  172.405    4.949
  470.750    0.254    0.349   89.814  171.682    4.438
  471.000    0.258    0.379   97.249  170.958    4.009
  471.250    0.259    0.439   95.240  169.223    3.681
  471.500    0.255    0.433   86.634  166.784    3.405
  471.750    0.254    0.404   77.118  162.429    3.116
  472.000    0.266    0.373   64.699  158.171    2.734
  472.250    0.301    0.360   58.634  156.440    2.429
  472.500    0.315    0.371   56.382  155.003    2.268
  472.750    0.324    0.381   53.103  154.580    2.219
  473.000    0.320    0.399   49.340  154.367    2.192
  473.250    0.319    0.389   49.994  154.142    2.169
  473.500    0.322    0.379   52.889  154.225    2.154
  473.750    0.327    0.366   56.268  154.308    2.155
  474.000    0.331    0.356   57.891  154.495    2.155
  474.250    0.335    0.371   58.545  154.576    2.152
  474.500    0.339    0.395   60.533  153.955    2.149
  474.750    0.346    0.408   60.521  152.725    2.157
  475.000    0.348    0.401   56.454  151.797    2.158
  475.250    0.346    0.399   57.836  151.579    2.135
  475.500    0.342    0.394   57.219  151.759    2.117
  475.750    0.338    0.401   55.089  151.845    2.110
  476.000    0.333    0.401   52.961  152.128    2.106
  476.250    0.332    0.388   51.132  152.311    2.115
  476.500    0.332    0.395   50.637  152.899    2.115
  476.750    0.334    0.408   51.232  153.788    2.135
  477.000    0.337    0.412   52.372  154.578    2.175
  477.250    0.341    0.405   52.784  155.869    2.244
  477.500    0.340    0.389   52.531  157.265    2.367
  477.750    0.308    0.363   51.248  158.356    2.533
  478.000    0.284    0.338   49.602  159.345    2.775
  478.250    0.264    0.349   49.834  159.630    3.074
  478.500    0.271    0.372   53.758  160.216    3.289
  478.750    0.277    0.338   53.989  160.299    3.443
  479.000    0.258    0.312   49.075  160.281    3.419
  479.250    0.236    0.274   46.097  160.162    3.163
  479.500    0.250    0.312   46.510  159.639    2.836
  479.750    0.308    0.357   49.042  158.914    2.507
  480.000    0.323    0.374   52.057  157.989    2.340
  480.250    0.331    0.397   52.409  156.053    2.233
  480.500    0.333    0.407   52.216  154.418    2.193
  480.750    0.333    0.404   52.749  153.996    2.150
  481.000    0.333    0.408   53.708  153.978    2.120
  481.250    0.334    0.411   55.634  153.859    2.082
  481.500    0.337    0.409   52.354  153.840    2.053
  481.750    0.340    0.406   50.830  153.926    2.031
  482.000    0.343    0.401   53.240  153.602    2.028
  482.250    0.341    0.389   54.380  153.282    2.018
  482.500    0.338    0.396   53.219  153.366    2.018
  482.750    0.340    0.403   52.965  155.264    2.019
