~VERSION INFORMATION
 VERS.                 2.0:   CWLS LOG ASCII STANDARD -VERSION 2.0
 WRAP.                  NO:   ONE LINE PER DEPTH STEP
~WELL INFORMATION BLOCK
#MNEM.UNIT           DATA                    DESCRIPTION OF MNEMONIC
#---------    -------------------            -------------------------------
# Generated from Intellog Unique Number	CS_77_79/WELL/961
WELL.         PCI PCEJ CHARD                 : Well_name    - WELL
LOC .         00/10-25-079-07W4/0            : Location     - LOCATION
UWI .         00/10-25-079-07W4/0            : Uwi          - UNIQUE WELL ID
ENTR.         JHS                            : Entered      - ENTERED BY
SRVC.         SCHLUMBERGER                   : Scn          - SERVICE COMPANY
STRT.M        125                            : top_depth    - START DEPTH
STOP.M        365                            : bot_depth    - STOP DEPTH
STEP.M        0.25                           : increment    - STEP LENGTH
 NULL. -999.2500:NULL Value
~CURVE INFORMATION BLOCK
#MNEM UNIT       ERCB CURVE CODE    CURVE DESCRIPTION
#-----------   ------------------   ----------------------------------
DEPT.M        00 001 00 00         : DEPTH        - DEPTH
DPHI.V/V      00 890 00 00         : PHID         - DENSITY POROSITY (LIMESTONE)
NPHI.V/V      00 330 00 00         : PHIN         - NEUTRON POROSITY (LIMESTONE)
GR  .API      00 310 00 00         : GR           - GAMMA RAY
ILD .OHMM     00 120 00 00         : RESD         - DEEP RESISTIVITY (DIL)
RHOB.KG/M3    00 350 00 00         : DENS         - BULK DENSITY
~PARAMETER INFORMATION
#MNEM.UNIT           DATA             DESCRIPTION OF MNEMONIC
#---------         -----------     ------------------------------
GL  .M        565.7                : gl           - GROUND LEVEL ELEVATION
EREF.M        569.4                : kb           - ELEVATION OF DEPTH REFERENCE
DATM.M        569.4                : datum        - DATUM ELEVATION
TDD .M        391                  : tdd          - TOTAL DEPTH DRILLER
RUN .         ONE                  : Run          - RUN NUMBER
ENG .         BILL                 : Engineer     - RECORDING ENGINEER
WIT .         JIM                  : Witness      - WITNESSED BY
MUD .         GEL                  : Mud_type     - MUD TYPE
MATR.         LIMESTONE            : Logunit      - NEUTRON MATRIX
TMAX.C        19                   : BHT          - MAXIMUM RECORDED TEMPERATURE
BHTD.M        391                  : BHTDEP       - MAXIMUM RECORDED TEMPERATURE
MATR.         1                    : LOGUNIT      - NEUTRON MATRIX
RMT .C        25                   : MDTP         - TEMPERATURE OF MUD
NEUT.         1                    : NEUTRON      - NEUTRON TYPE
RESI.         0                    : RESIST       - RESISTIVITY TYPE
RMC .OHMM     0.25                 : RMC          - RESISTIVITY OF MUD CAKE
RMF .OHMM     0.25                 : RMF          - RESISTIVITY OF MUD FILTRATE
SUFT.C        15                   : SUFT         - SURFACE TEMPERATURE
~A  DEPTH     PHID     PHIN       GR     RESD     DENS
# ...
  307.500    0.249    0.330   64.963   13.447 2283.570
  307.750    0.236    0.321   63.113   13.725 2307.270
  308.000    0.235    0.318   58.741   13.737 2307.400
  308.250    0.229    0.310   53.750   13.758 2318.250
  308.500    0.232    0.308   50.632   14.040 2314.110
  308.750    0.241    0.328   46.273   14.876 2297.120
  309.000    0.269    0.363   41.900   16.068 2250.140
  309.250    0.293    0.346   43.831   17.690 2209.590
  309.500    0.268    0.323   58.999   18.397 2252.570
  309.750    0.231    0.300   72.279   16.437 2314.810
  310.000    0.221    0.301   79.266   13.359 2332.090
  310.250    0.231    0.362   74.260   11.491 2315.090
  310.500    0.257    0.364   64.855   10.664 2270.270
  310.750    0.287    0.336   62.374   10.282 2219.010
  311.000    0.283    0.342   58.639   10.490 2225.590
  311.250    0.277    0.346   53.633   10.911 2236.420
  311.500    0.282    0.334   48.005   11.563 2228.010
  311.750    0.282    0.326   52.460   12.255 2228.160
  312.000    0.267    0.333   61.333   13.245 2253.980
  312.250    0.240    0.347   64.526   13.507 2299.080
  312.500    0.236    0.363   63.937   14.048 2305.670
  312.750    0.244    0.365   60.832   14.343 2292.950
  313.000    0.256    0.346   57.723   14.087 2271.670
  313.250    0.261    0.329   60.290   14.100 2263.260
  313.500    0.245    0.320   63.486   13.594 2291.220
  313.750    0.235    0.340   65.415   13.354 2308.530
  314.000    0.227    0.337   67.353   12.877 2321.480
  314.250    0.212    0.330   66.137   12.648 2347.330
  314.500    0.211    0.352   63.655   12.423 2349.610
  314.750    0.219    0.367   59.929   12.442 2334.740
  315.000    0.237    0.357   57.449   12.699 2304.910
  315.250    0.259    0.337   55.602   12.955 2266.500
  315.500    0.259    0.331   55.004   13.732 2266.640
  315.750    0.242    0.329   51.269   14.832 2296.760
  316.000    0.253    0.332   47.530   16.326 2277.640
  316.250    0.278    0.343   41.904   18.320 2234.930
  316.500    0.335    0.367   40.684   18.341 2136.570
  316.750    0.280    0.370   52.711   17.676 2230.930
  317.000    0.240    0.356   61.568   15.498 2299.600
  317.250    0.215    0.348   67.927   13.589 2342.580
  317.500    0.212    0.351   67.343   12.609 2347.040
  317.750    0.238    0.385   65.489   12.870 2302.170
  318.000    0.306    0.409   60.485   13.130 2186.670
  318.250    0.317    0.405   67.464   12.657 2167.540
  318.500    0.287    0.405   68.764   11.748 2219.080
  318.750    0.263    0.388   71.953   11.116 2259.910
  319.000    0.247    0.390   80.199   10.916 2287.880
  319.250    0.248    0.400   82.761   10.524 2285.880
  319.500    0.253    0.404   79.016   10.341 2277.470
  319.750    0.238    0.401   67.094   10.351 2303.330
  320.000    0.242    0.398   67.764    9.980 2297.030
  320.250    0.264    0.409   70.958    9.436 2258.610
  320.500    0.284    0.405   71.644    8.273 2224.470
  320.750    0.270    0.403   75.458    7.254 2248.190
  321.000    0.256    0.399   83.058    6.481 2271.870
  321.250    0.244    0.409   92.554    6.131 2293.430
  321.500    0.237    0.438   94.489    6.139 2304.290
  321.750    0.245    0.399   89.494    6.507 2291.560
  322.000    0.248    0.374   88.908    7.300 2285.320
  322.250    0.233    0.357   89.585    8.035 2311.150
  322.500    0.226    0.345   85.838    9.364 2324.100
  322.750    0.242    0.338   73.282   10.308 2296.410
  323.000    0.259    0.337   66.395   11.568 2266.560
  323.250    0.262    0.351   70.846   12.029 2262.440
  323.500    0.252    0.353   75.302   12.510 2279.720
  323.750    0.238    0.335   81.660   12.287 2303.400
  324.000    0.218    0.338   82.962   10.980 2337.820
  324.250    0.206    0.329   83.634    9.812 2357.210
  324.500    0.205    0.320   84.297   10.203 2359.540
  324.750    0.211    0.355   85.607   11.023 2348.940
  325.000    0.219    0.350   82.495   11.684 2336.210
  325.250    0.229    0.331   83.167   11.920 2319.240
  325.500    0.236    0.332   84.475   11.490 2306.540
  325.750    0.247    0.350   80.741   11.504 2287.400
  326.000    0.257    0.367   73.850   12.665 2270.410
  326.250    0.267    0.370   63.186   14.482 2253.400
  326.500    0.297    0.366   63.227   16.878 2202.140
  326.750    0.311    0.396   68.308   19.669 2178.730
  327.000    0.303    0.356   70.244   21.655 2191.700
  327.250    0.292    0.334   65.878   22.525 2211.150
  327.500    0.294    0.384   65.300   22.987 2206.980
  327.750    0.293    0.386   71.005   22.578 2209.260
  328.000    0.273    0.370   76.088   22.602 2243.670
  328.250    0.270    0.385   72.362   21.788 2248.100
  328.500    0.284    0.390   68.628   21.006 2224.670
  328.750    0.282    0.386   68.659   19.866 2226.980
  329.000    0.292    0.373   68.067   18.788 2209.980
  329.250    0.260    0.360   70.009   18.456 2265.780
  329.500    0.232    0.366   72.568   17.792 2313.040
  329.750    0.223    0.361   65.678   17.485 2328.180
  330.000    0.234    0.351   58.170   17.843 2309.050
  330.250    0.271    0.352   61.359   18.903 2247.070
  330.500    0.314    0.395   67.701   21.215 2172.270
  330.750    0.306    0.396   75.314   23.348 2187.390
  331.000    0.293    0.394   74.721   28.265 2208.960
  331.250    0.309    0.411   56.491   32.939 2181.250
  331.500    0.325    0.403   51.490   36.953 2153.540
  331.750    0.333    0.368   51.543   39.166 2140.830
  332.000    0.329    0.347   55.993   36.357 2147.430
  332.250    0.313    0.329   66.744   31.865 2175.380
  332.500    0.264    0.341   71.828   23.114 2259.060
  332.750    0.245    0.366   66.832   19.143 2291.310
  333.000    0.259    0.340   65.002   16.467 2267.920
  333.250    0.265    0.324   75.111   14.437 2257.330
  333.500    0.238    0.332   85.235   13.397 2302.450
  333.750    0.238    0.366   88.433   13.161 2302.600
  334.000    0.259    0.388   76.503   15.633 2266.320
  334.250    0.311    0.390   58.271   22.026 2178.660
  334.500    0.329    0.373   53.907   31.621 2146.670
  334.750    0.327    0.362   59.627   41.292 2151.090
  335.000    0.322    0.363   64.076   51.914 2159.810
  335.250    0.325    0.376   66.013   60.500 2153.530
  335.500    0.335    0.384   59.754   71.861 2136.520
  335.750    0.355    0.379   49.080   79.099 2102.380
  336.000    0.359    0.373   39.042   80.727 2096.120
  336.250    0.333    0.371   58.623   73.506 2141.260
  336.500    0.319    0.379   72.537   60.872 2164.910
  336.750    0.302    0.385   75.725   44.994 2192.900
  337.000    0.277    0.379   80.176   32.014 2235.880
  337.250    0.273    0.381   80.217   24.577 2242.430
  337.500    0.307    0.389   70.810   21.547 2184.750
  337.750    0.308    0.387   70.855   21.178 2182.780
  338.000    0.283    0.371   82.869   22.016 2225.760
  338.250    0.279    0.366   86.697   22.464 2232.300
  338.500    0.271    0.364   82.340   23.371 2247.410
  338.750    0.245    0.366   79.231   24.299 2290.400
  339.000    0.277    0.377   79.903   24.800 2236.990
  339.250    0.310    0.391   84.987   24.367 2179.310
  339.500    0.306    0.402   86.917   23.928 2185.900
  339.750    0.285    0.397   93.888   24.423 2222.430
  340.000    0.279    0.409   95.196   26.887 2233.300
  340.250    0.299    0.399   82.631   27.958 2199.140
  340.500    0.327    0.341   76.380   25.456 2150.040
  340.750    0.299    0.317   94.691   23.181 2199.430
  341.000    0.248    0.321  107.969   20.713 2285.230
  341.250    0.228    0.361  113.055   19.229 2319.630
  341.500    0.232    0.396   87.263   19.256 2313.340
  341.750    0.277    0.406   74.073   20.019 2236.390
  342.000    0.329    0.380   64.045   22.036 2146.610
  342.250    0.314    0.357   71.640   24.260 2172.420
  342.500    0.290    0.336   79.242   27.745 2213.280
  342.750    0.292    0.382   74.247   31.122 2211.260
  343.000    0.330    0.384   60.431   33.624 2145.000
  343.250    0.343    0.370   61.735   33.681 2123.770
  343.500    0.335    0.369   64.295   35.675 2136.730
  343.750    0.325    0.378   59.312   42.376 2154.030
