~VERSION INFORMATION
 VERS.                 2.0:   CWLS LOG ASCII STANDARD -VERSION 2.0
 WRAP.                  NO:   ONE LINE PER DEPTH STEP
~WELL INFORMATION BLOCK
#MNEM.UNIT           DATA                    DESCRIPTION OF MNEMONIC
#---------    -------------------            -------------------------------
# Generated from Intellog Unique Number	CW_82_90/WELL/992
WELL.         10-33-084-23W4                 : Well_name    - WELL
LOC .         00/10-33-084-23W4/0            : Location     - LOCATION
UWI .         00/10-33-084-23W4/0            : Uwi          - UNIQUE WELL ID
ENTR.         JAYE                           : Entered      - ENTERED BY
SRVC.         SCHLUMBERGER                   : Scn          - SERVICE COMPANY
DATE.         11 MAR 76                      : Date         - LOG DATE
STRT.M        182.88                         : top_depth    - START DEPTH
STOP.M        393.88                         : bot_depth    - STOP DEPTH
STEP.M        0.25                           : increment    - STEP LENGTH
 NULL. -999.2500:NULL Value
~CURVE INFORMATION BLOCK
#MNEM UNIT       ERCB CURVE CODE    CURVE DESCRIPTION
#-----------   ------------------   ----------------------------------
DEPT.M        00 001 00 00         : DEPTH        - DEPTH
CALI.MM       00 280 01 00         : CAL          - CALIPER
GR  .API      00 310 00 00         : GR           - GAMMA RAY
NPHI.V/V      00 330 00 00         : PHIN         - NEUTRON POROSITY (SANDSTONE)
DPHI.V/V      00 890 00 00         : PHID         - DENSITY POROSITY (SANDSTONE)
ILD .OHMM     00 120 00 00         : RESD         - DEEP RESISTIVITY (DIL)
~PARAMETER INFORMATION
#MNEM.UNIT           DATA             DESCRIPTION OF MNEMONIC
#---------         -----------     ------------------------------
GL  .M        573.329              : gl           - GROUND LEVEL ELEVATION
EREF.M        576.682              : kb           - ELEVATION OF DEPTH REFERENCE
DATM.M        573.329              : datum        - DATUM ELEVATION
TDD .M        404.774              : tdd          - TOTAL DEPTH DRILLER
RUN .         ONE                  : Run          - RUN NUMBER
BASE.         EDMONTON             : Branch       - HOME BASE OF LOGGING UNIT
MUD .         GEL CHEM             : Mud_type     - MUD TYPE
MATR.         SANDSTONE            : Logunit      - NEUTRON MATRIX
TMAX.C        21.6667              : BHT          - MAXIMUM RECORDED TEMPERATURE
BHTD.M        404.774              : BHTDEP       - MAXIMUM RECORDED TEMPERATURE
RMT .C        10                   : MDTP         - TEMPERATURE OF MUD
MUDD.KG/M     9200                 : MWT          - MUD DENSITY
NEUT.         1                    : NEUTRON      - NEUTRON TYPE
RESI.         0                    : RESIST       - RESISTIVITY TYPE
RM  .OHMM     1.9                  : RM           - RESISTIVITY OF MUD
RMC .OHMM     0                    : RMC          - RESISTIVITY OF MUD CAKE
RMF .OHMM     1.77                 : RMF          - RESISTIVITY OF MUD FILTRATE
SUFT.C        -17.7778             : SUFT         - SURFACE TEMPERATURE
~A  DEPTH      CAL       GR     PHIN     PHID     RESD
# ...
  328.880  150.340   92.170    0.473    0.169   14.882
  329.130  152.856   90.071    0.491    0.215   14.284
  329.380  153.240   85.331    0.483    0.199   14.167
  329.630  152.592   82.378    0.469    0.176   14.055
  329.880  149.594   85.907    0.460    0.158   13.962
  330.130  149.965   93.345    0.464    0.135   14.005
  330.380  152.595   94.359    0.482    0.209   14.092
  330.630  153.430   92.135    0.478    0.219   14.132
  330.880  153.459   88.385    0.461    0.205   13.715
  331.130  152.711   90.722    0.429    0.171   12.948
  331.380  151.740   95.510    0.442    0.159   12.448
  331.630  152.446  100.167    0.457    0.213   11.991
  331.880  153.275  100.319    0.483    0.207   11.851
  332.130  153.985   99.554    0.506    0.194   11.948
  332.380  154.136   90.576    0.489    0.178   12.431
  332.630  153.502   87.092    0.464    0.166   12.928
  332.880  151.505   88.636    0.439    0.107   13.571
  333.130  150.981   94.753    0.438    0.077   14.275
  333.380  151.258   97.151    0.458    0.156   14.688
  333.630  151.285   96.581    0.460    0.217   14.862
  333.880  150.546   94.820    0.452    0.208   14.341
  334.130  149.550   96.300    0.448    0.231   13.714
  334.380  150.387   98.043    0.452    0.225   12.994
  334.630  151.551   98.730    0.473    0.214   12.470
  334.880  152.380   98.550    0.475    0.201   12.145
  335.130  151.070   96.391    0.476    0.195   12.656
  335.380  150.992   91.986    0.463    0.149   13.408
  335.630  149.785   89.424    0.445    0.125   14.599
  335.880  147.795   85.481    0.435    0.123   15.956
  336.130  146.363   82.391    0.395    0.146   17.311
  336.380  146.395   80.366    0.369    0.117   18.103
  336.630  145.203   85.085    0.408    0.099   18.358
  336.880  143.999   93.911    0.429    0.149   18.011
  337.130  143.577   93.475    0.424    0.227   17.252
  337.380  144.072   92.437    0.416    0.213   16.286
  337.630  145.358   91.268    0.423    0.204   16.546
  337.880  145.946   91.422    0.433    0.216   16.988
  338.130  145.760   89.529    0.411    0.202   18.396
  338.380  145.920   86.309    0.378    0.176   19.490
  338.630  146.063   83.554    0.309    0.104   19.226
  338.880  146.666   87.547    0.391    0.040   18.052
  339.130  147.831   96.369    0.420    0.135   16.642
  339.380  148.433   96.127    0.453    0.180   16.002
  339.630  148.354   93.971    0.441    0.214   16.076
  339.880  148.511   90.951    0.415    0.206   17.188
  340.130  148.888   87.136    0.380    0.206   19.234
  340.380  149.043   80.942    0.334    0.198   21.963
  340.630  149.745   74.612    0.276    0.127   23.352
  340.880  149.789   69.076    0.244    0.040   21.927
  341.130  149.823   72.012    0.256   -0.007   19.846
  341.380  151.555   77.394    0.292    0.026   17.068
  341.630  153.397   89.197    0.424    0.152   12.891
  341.880  158.861   99.008    0.444    0.193   11.024
  342.130  160.128  109.751    0.464    0.199    9.639
  342.380  161.292  111.494    0.487    0.189    8.919
  342.630  162.118  110.061    0.497    0.181    8.544
  342.880  162.726  103.733    0.504    0.189    8.428
  343.130  162.981   95.686    0.515    0.189    8.592
  343.380  164.149   92.532    0.539    0.197    8.954
  343.630  163.515   88.261    0.546    0.147    9.245
  343.880  159.940   88.617    0.493    0.110    9.707
  344.130  149.050   89.692    0.446    0.078   10.058
  344.380  151.327  102.815    0.467    0.028   10.405
  344.630  157.455  106.213    0.491    0.126   10.304
  344.880  156.600  106.964    0.483    0.201   10.294
  345.130  155.840  105.863    0.481    0.205   10.988
  345.380  154.299  103.241    0.473    0.223   11.875
  345.630  153.437   98.963    0.456    0.221   12.931
  345.880  150.654   92.835    0.443    0.217   14.002
  346.130  148.322   87.102    0.442    0.214   14.227
  346.380  146.339   82.891    0.479    0.183   14.316
  346.630  145.478   82.586    0.408    0.136   14.416
  346.880  146.188   91.872    0.408   -0.004   14.451
  347.130  147.909   97.912    0.444    0.015   13.417
  347.380  150.100   99.525    0.492    0.105   12.759
  347.630  150.817  101.732    0.504    0.224   12.313
  347.880  149.728  102.284    0.472    0.211   12.348
  348.130  149.754   99.131    0.448    0.177   12.706
  348.380  150.354   99.030    0.434    0.160   12.907
  348.630  153.776  101.296    0.427    0.162   12.799
  348.880  155.056  104.891    0.433    0.209   12.063
  349.130  155.206  106.635    0.453    0.197   11.512
  349.380  153.555  101.764    0.478    0.188   10.969
  349.630  152.362  101.257    0.490    0.181   10.685
  349.880  153.068  102.213    0.493    0.194   10.577
  350.130  153.230  101.437    0.498    0.206   10.415
  350.380  153.251  102.187    0.491    0.207   10.312
  350.630  152.621  105.057    0.481    0.219   10.284
  350.880  152.537  105.348    0.473    0.216   10.351
  351.130  152.011  103.385    0.479    0.214   10.455
  351.380  150.021  101.090    0.489    0.207   10.522
  351.630  148.933   96.751    0.511    0.197   10.668
  351.880  148.404   97.501    0.468    0.090   10.856
  352.130  151.037  100.369    0.448    0.044   11.049
  352.380  155.134  109.322    0.460    0.076   11.060
  352.630  156.423  117.682    0.476    0.205   10.812
  352.880  157.696  118.567    0.466    0.199   10.530
  353.130  160.999  111.180    0.454    0.201   10.441
  353.380  164.532  105.777    0.461    0.191   10.842
  353.630  161.073  103.554    0.419    0.185   11.507
  353.880  152.654  103.513    0.423    0.174   12.461
  354.130  156.300  102.872    0.439    0.193   13.470
  354.380  155.209  103.225    0.447    0.216   14.142
  354.630  154.459  102.458    0.437    0.222   14.548
  354.880  153.260  102.014    0.429    0.211   14.993
  355.130  151.940   99.724    0.438    0.176   16.535
  355.380  149.390   93.990    0.448    0.125   20.578
  355.630  148.069   75.822    0.427    0.087   22.123
  355.880  144.386   77.101    0.270    0.023   21.742
  356.130  143.632   87.050    0.330    0.042   19.933
  356.380  141.753   92.696    0.361    0.131   17.236
  356.630  143.597   94.504    0.415    0.193   15.745
  356.880  145.330   97.115    0.432    0.198   14.948
  357.130  147.172   99.118    0.422    0.197   14.478
  357.380  145.520   98.479    0.423    0.230   14.414
  357.630  144.763   94.664    0.437    0.218   14.670
  357.880  145.702   89.330    0.438    0.211   15.006
  358.130  153.638   87.433    0.451    0.197   15.696
  358.380  153.109   85.346    0.450    0.165   16.445
  358.630  139.500   85.237    0.436    0.199   18.106
  358.880  136.498   84.663    0.434    0.199   21.015
  359.130  134.505   83.161    0.425    0.216   24.531
  359.380  134.538   79.547    0.399    0.193   29.810
  359.630  135.819   73.617    0.366    0.091   35.958
  359.880  137.658   69.933    0.299    0.026   45.831
  360.130  138.040   67.641    0.244    0.001   59.152
  360.380  138.523   67.532    0.233   -0.011   67.672
  360.630  139.577   68.747    0.242   -0.016   58.513
  360.880  140.747   70.026    0.248   -0.014   47.719
  361.130  141.461   72.432    0.258    0.001   35.193
  361.380  141.382   77.420    0.279    0.039   31.450
  361.630  140.858   79.227    0.389    0.119   29.584
  361.880  140.670   72.634    0.369    0.163   27.373
  362.130  142.404   66.440    0.339    0.134   26.466
  362.380  142.549   68.847    0.343    0.128   29.242
  362.630  145.181   69.992    0.404    0.193   31.897
  362.880  147.026   71.340    0.473    0.290   29.730
  363.130  142.436   76.194    0.333    0.196   25.428
  363.380  140.111   81.509    0.353    0.073   18.858
  363.630  140.370   89.737    0.421    0.063   16.246
  363.880  140.520   93.332    0.453    0.130   14.951
  364.130  140.453   88.461    0.450    0.245   14.219
  364.380  140.595   87.497    0.450    0.238   13.745
  364.630  139.285   87.054    0.453    0.235   13.660
  364.880  139.207   87.011    0.464    0.231   13.950
  365.130  140.148   84.583    0.464    0.200   14.643
