~VERSION INFORMATION
 VERS.                 2.0:   CWLS LOG ASCII STANDARD -VERSION 2.0
 WRAP.                  NO:   ONE LINE PER DEPTH STEP
~WELL INFORMATION BLOCK
#MNEM.UNIT           DATA                    DESCRIPTION OF MNEMONIC
#---------    -------------------            -------------------------------
# Generated from Intellog Unique Number	CW_70_72/WELL/1076
NULL.         -999.25                        : NULL_VALUE
WELL.         CABRE ET AK NUTSYE 16-27       : Well_name    - WELL              
LOC .         16-27-071-03W5                 : Location     - LOCATION          
UWI .         00/16-27-071-03W5/0            : Uwi          - UNIQUE WELL ID    
ENTR.         JAYE                           : Entered      - ENTERED BY        
SRVC.         COMPUTALOG                     : Scn          - SERVICE COMPANY   
DATE.         19 NOV 85                      : Date         - LOG DATE          
STRT.M        440                            : top_depth    - START DEPTH       
STOP.M        650                            : bot_depth    - STOP DEPTH        
STEP.M        0.25                           : increment    - STEP LENGTH       
~CURVE INFORMATION BLOCK
#MNEM UNIT       ERCB CURVE CODE    CURVE DESCRIPTION
#-----------   ------------------   ----------------------------------
DEPT.M        00 001 00 00         : DEPTH        - DEPTH                       
DPHI.V/V      00 890 00 00         : PHID         - DENSITY POROSITY (SANDSTONE)
NPHI.V/V      00 330 00 00         : PHIN         - NEUTRON POROSITY (SANDSTONE)
GR  .API      00 310 00 00         : GR           - GAMMA RAY                   
CALI.MM       00 280 01 00         : CAL          - CALIPER                     
ILD .OHMM     00 120 00 00         : RESD         - DEEP RESISTIVITY (DIL)      
~PARAMETER INFORMATION       
#MNEM.UNIT           DATA             DESCRIPTION OF MNEMONIC
#---------         -----------     ------------------------------
GL  .M        635.2                : gl           - GROUND LEVEL ELEVATION      
EREF.M        638.78               : kb           - ELEVATION OF DEPTH REFERENCE
DATM.M        635.2                : datum        - DATUM ELEVATION             
TDD .M        660                  : tdd          - TOTAL DEPTH DRILLER         
RUN .         ONE                  : Run          - RUN NUMBER                  
ENG .         AHLOY                : Engineer     - RECORDING ENGINEER          
WIT .         BLOTT                : Witness      - WITNESSED BY                
BASE.         EDMONTON             : Branch       - HOME BASE OF LOGGING UNIT   
MUD .         GEL CHEN             : Mud_type     - MUD TYPE                    
MATR.         SANDSTONE            : Logunit      - NEUTRON MATRIX              
TMAX.C        27                   : BHT          - MAXIMUM RECORDED TEMPERATURE
BHTD.M        659.1                : BHTDEP       - MAXIMUM RECORDED TEMPERATURE
RMT .C        16.7                 : MDTP         - TEMPERATURE OF MUD          
MUDD.KG/M     1140                 : MWT          - MUD DENSITY                 
NEUT.         1                    : NEUTRON      - NEUTRON TYPE                
RESI.         0                    : RESIST       - RESISTIVITY TYPE            
RM  .OHMM     3                    : RM           - RESISTIVITY OF MUD          
RMC .OHMM     3.7                  : RMC          - RESISTIVITY OF MUD CAKE     
RMF .OHMM     3.2                  : RMF          - RESISTIVITY OF MUD FILTRATE 
SUFT.C        0                    : SUFT         - SURFACE TEMPERATURE         
~A  DEPTH     PHID     PHIN       GR      CAL     RESD
# ...
  549.500    0.331    0.399   65.216  155.069    2.380
  549.750    0.329    0.421   67.954  155.936    2.411
  550.000    0.323    0.399   69.677  156.274    2.437
  550.250    0.316    0.384   70.640  157.035    2.473
  550.500    0.318    0.363   69.768  157.383    2.509
  550.750    0.314    0.356   68.389  157.297    2.541
  551.000    0.306    0.356   68.276  157.105    2.598
  551.250    0.294    0.366   70.316  156.923    2.656
  551.500    0.288    0.373   73.688  156.941    2.685
  551.750    0.283    0.377   77.438  156.864    2.668
  552.000    0.279    0.359   80.237  156.884    2.596
  552.250    0.270    0.328   80.441  156.484    2.521
  552.500    0.272    0.311   74.186  155.773    2.454
  552.750    0.287    0.324   68.817  155.054    2.456
  553.000    0.301    0.349   65.285  154.445    2.493
  553.250    0.310    0.369   64.097  154.046    2.683
  553.500    0.311    0.351   61.767  153.860    2.971
  553.750    0.244    0.317   62.858  154.513    3.444
  554.000    0.145    0.275   63.696  156.333    4.276
  554.250    0.114    0.235   60.732  159.837    5.749
  554.500    0.094    0.216   56.124  162.712    7.042
  554.750    0.076    0.203   53.225  162.733    7.508
  555.000    0.068    0.190   53.431  161.807    6.770
  555.250    0.067    0.183   55.406  160.246    5.499
  555.500    0.102    0.187   58.652  157.948    4.156
  555.750    0.184    0.243   60.627  156.599    3.382
  556.000    0.244    0.295   62.415  155.461    2.958
  556.250    0.282    0.338   63.252  154.749    2.548
  556.500    0.302    0.377   63.836  153.928    2.255
  556.750    0.321    0.389   64.610  153.109    2.178
  557.000    0.316    0.375   64.940  152.289    2.248
  557.250    0.297    0.373   65.776  151.465    2.596
  557.500    0.276    0.370   67.880  150.960    2.799
  557.750    0.248    0.357   71.250  150.771    2.911
  558.000    0.180    0.311   70.441  150.479    2.904
  558.250    0.172    0.293   63.745  150.607    2.842
  558.500    0.269    0.301   61.541  151.685    2.719
  558.750    0.290    0.338   62.694  154.348    2.547
  559.000    0.300    0.352   67.712  156.376    2.474
  559.250    0.305    0.364   72.538  152.704    2.444
  559.500    0.302    0.378   73.249  150.091    2.438
  559.750    0.296    0.395   72.629  150.429    2.455
  560.000    0.289    0.393   72.263  151.825    2.477
  560.250    0.284    0.399   72.658  153.748    2.523
  560.500    0.282    0.405   74.319  157.150    2.560
  560.750    0.281    0.404   76.170  159.177    2.627
  561.000    0.276    0.404   80.361  160.998    2.774
  561.250    0.266    0.393   75.056  161.862    3.108
  561.500    0.244    0.361   69.308  162.624    3.288
  561.750    0.202    0.334   61.977  161.910    3.318
  562.000    0.210    0.313   59.901  159.506    3.191
  562.250    0.272    0.300   65.424  155.729    3.047
  562.500    0.292    0.318   69.490  151.002    3.033
  562.750    0.283    0.342   72.734  148.390    3.137
  563.000    0.249    0.367   74.457  148.625    3.575
  563.250    0.207    0.330   69.469  150.020    4.636
  563.500    0.120    0.286   63.215  151.308    5.616
  563.750    0.064    0.253   56.389  152.808    6.032
  564.000    0.121    0.227   54.377  154.942    6.155
  564.250    0.160    0.243   59.709  155.811    4.749
  564.500    0.267    0.288   68.146  154.572    3.685
  564.750    0.283    0.330   75.443  153.222    3.236
  565.000    0.288    0.350   79.762  152.187    2.946
  565.250    0.293    0.368   81.233  150.842    2.835
  565.500    0.294    0.378   79.221  150.336    2.795
  565.750    0.290    0.377   80.057  150.041    2.820
  566.000    0.282    0.375   81.402  149.858    2.883
  566.250    0.270    0.371   82.113  149.879    2.960
  566.500    0.258    0.378   81.810  150.112    3.008
  566.750    0.248    0.387   80.113  150.240    3.059
  567.000    0.255    0.393   79.875  151.006    3.062
  567.250    0.259    0.399   83.563  151.659    3.066
  567.500    0.251    0.392   84.273  152.528    3.094
  567.750    0.244    0.384   82.386  153.603    3.176
  568.000    0.236    0.368   84.236  155.847    3.277
  568.250    0.226    0.354   87.417  158.190    3.441
  568.500    0.219    0.365   91.293  155.257    3.566
  568.750    0.211    0.372   93.587  153.275    3.674
  569.000    0.203    0.380   90.371  157.101    3.764
  569.250    0.195    0.379   87.156  161.029    3.818
  569.500    0.214    0.373   84.702  160.416    3.867
  569.750    0.222    0.383   84.082  155.796    3.887
  570.000    0.215    0.394   84.031  152.761    3.899
  570.250    0.208    0.403   84.111  153.627    3.889
  570.500    0.221    0.402   84.123  156.710    3.821
  570.750    0.220    0.385   83.948  156.205    3.746
  571.000    0.213    0.368   84.406  155.600    3.687
  571.250    0.209    0.362   85.305  155.198    3.755
  571.500    0.209    0.375   85.192  155.116    3.914
  571.750    0.206    0.380   84.258  155.353    4.133
  572.000    0.194    0.357   79.015  155.691    4.423
  572.250    0.177    0.329   69.911  155.930    4.609
  572.500    0.153    0.314   67.264  156.052    4.858
  572.750    0.193    0.303   69.938  156.396    5.102
  573.000    0.217    0.313   73.879  156.417    5.275
  573.250    0.232    0.314   77.313  156.016    5.519
  573.500    0.176    0.296   73.273  155.090    5.686
  573.750    0.116    0.275   64.548  154.800    5.693
  574.000    0.128    0.269   64.183  155.244    5.647
  574.250    0.181    0.286   68.819  156.852    5.537
  574.500    0.189    0.308   72.252  160.041    5.377
  574.750    0.181    0.316   72.519  161.541    5.028
  575.000    0.170    0.321   73.800  161.671    4.782
  575.250    0.173    0.337   81.224  161.586    4.386
  575.500    0.193    0.352   88.266  161.293    4.140
  575.750    0.208    0.368   88.281  161.000    3.976
  576.000    0.222    0.382   85.571  160.604    3.876
  576.250    0.213    0.388   86.978  160.202    3.794
  576.500    0.199    0.392   89.336  159.804    3.741
  576.750    0.205    0.393   92.389  159.934    3.710
  577.000    0.207    0.388   91.897  161.857    3.722
  577.250    0.204    0.381   89.947  159.873    3.769
  577.500    0.198    0.374   90.089  154.308    3.789
  577.750    0.192    0.384   93.267  153.799    3.816
  578.000    0.191    0.382   96.638  154.771    3.856
  578.250    0.196    0.376   97.856  157.224    3.921
  578.500    0.197    0.371   98.692  159.145    3.986
  578.750    0.195    0.367   99.782  160.438    4.036
  579.000    0.191    0.365  102.013  160.990    4.057
  579.250    0.188    0.366   96.834  161.329    4.071
  579.500    0.185    0.368   92.922  161.668    4.083
  579.750    0.175    0.373   95.723  161.800    4.104
  580.000    0.162    0.376   98.904  162.031    4.148
  580.250    0.150    0.375  101.323  162.057    4.153
  580.500    0.145    0.372  103.617  162.078    4.151
  580.750    0.153    0.370  102.365  161.891    4.148
  581.000    0.171    0.375   99.593  161.492    4.139
  581.250    0.181    0.385  100.112  160.671    4.127
  581.500    0.192    0.381  104.560  152.462    4.117
  581.750    0.202    0.367   99.001  150.162    4.123
  582.000    0.195    0.357   99.648  151.875    4.103
  582.250    0.186    0.371  100.169  154.115    4.085
  582.500    0.186    0.389   98.916  156.249    4.114
  582.750    0.199    0.400   96.524  158.488    4.206
  583.000    0.215    0.395   90.522  159.356    4.450
  583.250    0.214    0.372   84.204  159.272    4.533
  583.500    0.202    0.352   86.055  159.190    4.538
  583.750    0.190    0.345   91.324  159.425    4.535
  584.000    0.179    0.356   97.860  159.874    4.464
  584.250    0.172    0.370  103.447  160.107    4.377
  584.500    0.165    0.383  105.930  160.551    4.219
  584.750    0.154    0.385  101.640  160.575    4.439
  585.000    0.148    0.379   99.183  160.702    4.327
  585.250    0.157    0.376   99.957  161.042    4.317
  585.500    0.174    0.382  104.405  161.278    4.380
  585.750    0.184    0.387  104.164  161.408    4.445
