~Version Information
VERS.                2.00:
WRAP.                  NO:
~Well Information Block
#MNEM.UNIT       Data Type    Information
#---------    -------------   -------------------
FLD.   :FIELD
FLD.   :FIELD
FLD.   :FIELD
FLD.   :FIELD
STRT.M          1950.0000:
STOP.M          4060.0000:
STEP.M             0.8202:
NULL.           -999.2500:
COMP.  MUTUAL EXPLORATION FUNDS:COMPANY
WELL.  MUTES IOE SEAFORTH:WELL
FLD.   :FIELD
LOC.   15-20-095-20W4:LOCATION
CTRY.  CANADA:COUNTRY
PROV.  ALBERTA:PROVINCE
SRVC.  SCHLUMBERGER:SERVICE COMPANY
DATE.  01 MAR 69:LOG DATE
UWI.   00/15-20-095-20W4/0:UNIQUE WELL ID
~Curve Information Block
#MNEM.UNIT        API CODE    Curve Description
#---------    ------------    -----
DEPT.M                    :   DEPTH
CALI.in                   :   CALI
GR  .API                  :   GR
SNP .V/V                  :   SNP
~A  Depth           CALI          GR         SNP
# ...
2488.0512         8.9979     68.0518      0.2022
2488.8714         8.9777     67.3381      0.1895
2489.6916         8.9672     65.1655      0.1771
2490.5118         8.9686     60.5534      0.1701
2491.3320         8.9477     57.8298      0.1697
2492.1522         8.9394     54.4261      0.1639
2492.9724         8.9111     57.4432      0.1580
2493.7926         8.9027     61.1724      0.1513
2494.6128         8.8808     62.4358      0.1461
2495.4330         8.8721     61.9201      0.1451
2496.2532         8.8483     62.2385      0.1534
2497.0734         8.8019     64.8950      0.1538
2497.8936         8.7974     67.8625      0.1498
2498.7138         8.7715     71.6954      0.1536
2499.5340         8.7674     75.8506      0.1536
2500.3542         8.7665     78.6788      0.1604
2501.1744         8.7695     78.3928      0.1561
2501.9946         8.7728     74.3811      0.1612
2502.8148         8.7414     69.9195      0.1622
2503.6350         8.7408     65.3351      0.1558
2504.4552         8.7428     65.8551      0.1477
2505.2754         8.7461     65.9135      0.1414
2506.0956         8.7496     62.9414      0.1477
2506.9158         8.7239     59.8455      0.1500
2507.7360         8.7173     57.4251      0.1491
2508.5562         8.6839     58.2368      0.1433
2509.3764         8.5770     59.2448      0.1382
2510.1966         8.5395     58.8531      0.1324
2511.0168         8.4935     58.8468      0.1288
2511.8370         8.4904     58.5089      0.1261
2512.6572         8.4931     57.0335      0.1310
2513.4774         8.5324     54.4547      0.1245
2514.2976         8.5401     50.4358      0.1170
2515.1178         8.5440     46.2469      0.1129
2515.9380         8.5775     42.1267      0.1073
2516.7582         8.5889     38.9942      0.0964
2517.5784         8.5950     38.8125      0.0868
2518.3986         8.6290     40.0975      0.0782
2519.2188         8.6421     40.8778      0.0737
2520.0390         8.6462     40.1496      0.0804
2520.8592         8.6499     38.9925      0.0888
2521.6794         8.6843     37.4436      0.0872
2522.4996         8.6969     35.8778      0.0871
2523.3198         8.7009     34.3115      0.0914
2524.1400         8.7045     32.7449      0.0895
2524.9602         8.7080     31.8950      0.0838
2525.7804         8.7115     31.1135      0.0804
2526.6006         8.7150     32.9310      0.0757
2527.4208         8.7185     35.8330      0.0754
2528.2410         8.7487     36.3882      0.0746
2529.0612         8.7659     36.4415      0.0808
2529.8814         8.7696     35.3060      0.0848
2530.7016         8.7731     35.2942      0.0863
2531.5218         8.7766     35.7235      0.0887
2532.3420         8.7801     38.7542      0.0902
2533.1622         8.7836     42.1175      0.0933
2533.9824         8.7598     45.9221      0.1073
2534.8026         8.7556     47.4946      0.1156
2535.6228         8.7545     45.1778      0.1209
2536.4430         8.7571     44.3945      0.1248
2537.2632         8.7605     43.4423      0.1210
2538.0834         8.7639     40.9402      0.1154
2538.9036         8.7674     40.9405      0.1103
2539.7238         8.7709     40.9652      0.1060
2540.5440         8.7744     39.9585      0.1088
2541.3642         8.7779     38.4741      0.1042
2542.1844         8.7573     36.9205      0.1055
2543.0046         8.7469     35.3561      0.1042
2543.8248         8.7247     36.4565      0.1014
2544.6450         8.7159     37.7062      0.1003
2545.4652         8.7156     39.3402      0.0984
2546.2854         8.7178     41.4045      0.0967
2547.1056         8.6926     43.9126      0.0977
2547.9258         8.6856     46.8729      0.1036
2548.7460         8.7167     46.6412      0.1090
2549.5662         8.7262     47.4550      0.1090
2550.3864         8.7329     48.7212      0.1102
2551.2066         8.7672     49.7504      0.1152
2552.0268         8.7793     50.6435      0.1137
2552.8470         8.7846     50.1713      0.1175
2553.6672         8.7890     49.1276      0.1183
2554.4874         8.7929     46.1191      0.1176
2555.3076         8.7966     46.9061      0.1182
2556.1278         8.8301     46.5391      0.1168
2556.9480         8.8433     44.5883      0.1165
2557.7682         8.8475     45.3810      0.1164
2558.5884         8.8512     45.4229      0.1150
2559.4086         8.8547     45.4578      0.1160
2560.2288         8.8582     46.4860      0.1188
2561.0490         8.8997     47.0405      0.1212
2561.8692         8.9052     46.5032      0.1196
2562.6894         8.9093     47.4460      0.1172
2563.5096         8.9128     49.3714      0.1168
2564.3298         8.9427     50.3904      0.1146
2565.1500         8.9599     50.5597      0.1114
2565.9702         8.9904     49.9099      0.1203
2566.7904         9.0051     47.1285      0.1264
2567.6106         9.0116     47.0478      0.1254
2568.4308         9.0421     47.7608      0.1245
2569.2510         9.0534     47.8936      0.1263
2570.0712         9.0616     50.1059      0.1252
2570.8914         9.0658     54.1919      0.1257
2571.7116         9.0695     53.3689      0.1297
2572.5318         9.0731     51.8580      0.1280
2573.3520         9.0767     50.8829      0.1287
2574.1722         9.0802     50.2259      0.1321
2574.9924         9.0561     49.9063      0.1299
2575.8126         9.0507     49.8267      0.1281
2576.6328         9.0508     49.1171      0.1271
2577.4530         9.0202     48.7127      0.1269
2578.2732         8.9909     50.9777      0.1268
2579.0934         8.9840     53.5199      0.1253
2579.9136         8.9847     55.6659      0.1279
2580.7338         8.9865     55.9825      0.1275
2581.5540         8.9898     55.8029      0.1294
2582.3742         8.9932     56.1242      0.1317
2583.1944         8.9967     56.2139      0.1368
2584.0146         9.0002     55.6012      0.1416
2584.8348         9.0249     55.1837      0.1495
2585.6550         9.0401     55.4632      0.1529
2586.4752         9.0491     54.8825      0.1521
2587.2954         9.0539     54.1447      0.1464
2588.1156         9.0580     53.0548      0.1405
2588.9358         9.0617     53.7289      0.1353
2589.7560         9.0653     54.0123      0.1295
2590.5762         9.0688     53.7593      0.1305
2591.3964         9.0723     55.1007      0.1312
2592.2166         9.1009     56.7431      0.1356
2593.0368         9.1158     56.6651      0.1367
2593.8570         9.1223     55.9922      0.1360
2594.6772         9.1266     55.5757      0.1388
2595.4974         9.1303     57.3154      0.1441
2596.3176         9.1339     58.2890      0.1438
2597.1378         9.1374     57.0117      0.1466
2597.9580         9.1409     55.8263      0.1483
2598.7782         9.1444     54.6523      0.1499
2599.5984         9.1479     56.6114      0.1535
2600.4186         9.1514     58.7785      0.1525
2601.2388         9.1549     61.3043      0.1494
2602.0590         9.1584     62.2679      0.1505
2602.8792         9.1619     61.9600      0.1468
2603.6994         9.1653     59.7111      0.1465
2604.5196         9.1688     58.4641      0.1494
2605.3398         9.1723     58.0236      0.1465
2606.1600         9.1758     57.6466      0.1447
2606.9802         9.1793     57.6550      0.1445
2607.8004         9.1828     57.6818      0.1483
2608.6206         9.1863     56.5932      0.1484
2609.4408         9.1898     56.5389      0.1465
2610.2610         9.1933     56.9467      0.1459
2611.0812         9.1968     56.6267      0.1466
2611.9014         9.2003     56.2586      0.1433
2612.7216         9.2038     55.5115      0.1456
2613.5418         9.2073     52.9212      0.1456
2614.3620         9.2108     54.5848      0.1442
2615.1822         9.2143     55.8919      0.1439
2616.0024         9.2178     57.5733      0.1405
2616.8226         9.2213     59.2756      0.1357
2617.6428         9.2247     61.3188      0.1356
2618.4630         9.2282     63.4335      0.1538
2619.2832         9.2317     66.2879      0.1689
2620.1034         9.2352     69.6505      0.1956
2620.9236         9.2387     72.6856      0.2080
2621.7438         9.2422     73.6760      0.2110
