~VERSION INFORMATION
 VERS.                 2.0:   CWLS LOG ASCII STANDARD -VERSION 2.0
 WRAP.                  NO:   ONE LINE PER DEPTH STEP
~WELL INFORMATION BLOCK
#MNEM.UNIT           DATA                    DESCRIPTION OF MNEMONIC
#---------    -------------------            -------------------------------
# Generated from Intellog Unique Number	CS_77_79/WELL/3304
WELL.         NUMAC OIL & GAS LTD.           : Well_name    - WELL
LOC .         00/12-23-079-14W4/0            : Location     - LOCATION
UWI .         00/12-23-079-14W4/0            : Uwi          - UNIQUE WELL ID
ENTR.         JOETTE                         : Entered      - ENTERED BY
SRVC.         SCHLUMBERGER                   : Scn          - SERVICE COMPANY
DATE.         08/24/92                       : Date         - LOG DATE
STRT.M        275                            : top_depth    - START DEPTH
STOP.M        500                            : bot_depth    - STOP DEPTH
STEP.M        0.25                           : increment    - STEP LENGTH
 NULL. -999.2500:NULL Value
~CURVE INFORMATION BLOCK
#MNEM UNIT       ERCB CURVE CODE    CURVE DESCRIPTION
#-----------   ------------------   ----------------------------------
DEPT.M        00 001 00 00         : DEPTH        - DEPTH
NPHI.V/V      00 330 00 00         : PHIN         - NEUTRON POROSITY (SANDSTONE)
DPHI.V/V      00 890 00 00         : PHID         - DENSITY POROSITY (SANDSTONE)
ILD .OHMM     00 120 00 00         : RESD         - DEEP RESISTIVITY (DIL)
GR  .API      00 310 00 00         : GR           - GAMMA RAY
~PARAMETER INFORMATION
#MNEM.UNIT           DATA             DESCRIPTION OF MNEMONIC
#---------         -----------     ------------------------------
GL  .M        695.8                : gl           - GROUND LEVEL ELEVATION
EREF.M        699.2                : kb           - ELEVATION OF DEPTH REFERENCE
DATM.M        699.2                : datum        - DATUM ELEVATION
TDD .M        512                  : tdd          - TOTAL DEPTH DRILLER
RUN .         ONE                  : Run          - RUN NUMBER
ENG .         BILL                 : Engineer     - RECORDING ENGINEER
WIT .         JIM                  : Witness      - WITNESSED BY
MUD .         GEL                  : Mud_type     - MUD TYPE
MATR.         SANDSTONE            : Logunit      - NEUTRON MATRIX
TMAX.C        12                   : BHT          - MAXIMUM RECORDED TEMPERATURE
BHTD.M        512                  : BHTDEP       - MAXIMUM RECORDED TEMPERATURE
RMT .C        12                   : MDTP         - TEMPERATURE OF MUD
MUDD.KG/M     1080                 : MWT          - MUD DENSITY
NEUT.         1                    : NEUTRON      - NEUTRON TYPE
RESI.         0                    : RESIST       - RESISTIVITY TYPE
RM  .OHMM     2.3                  : RM           - RESISTIVITY OF MUD
RMC .OHMM     2.3                  : RMC          - RESISTIVITY OF MUD CAKE
RMF .OHMM     4                    : RMF          - RESISTIVITY OF MUD FILTRATE
SUFT.C        4                    : SUFT         - SURFACE TEMPERATURE
~A  DEPTH     PHIN     PHID     RESD       GR
# ...
  405.500    0.480    0.241    6.024   81.866
  405.750    0.515    0.226    5.803   84.282
  406.000    0.544    0.217    5.589   84.276
  406.250    0.563    0.289    5.383   83.060
  406.500    0.527    0.304    5.381   82.449
  406.750    0.496    0.315    5.378   83.654
  407.000    0.470    0.242    5.375   82.437
  407.250    0.464    0.229    5.575   77.588
  407.500    0.452    0.225    6.000   76.977
  407.750    0.447    0.205    6.457   70.917
  408.000    0.458    0.167    6.823   70.912
  408.250    0.478    0.248    7.342   75.750
  408.500    0.504    0.245    7.476   80.588
  408.750    0.511    0.237    7.473   83.002
  409.000    0.511    0.230    7.331   82.997
  409.250    0.507    0.220    7.329   86.020
  409.500    0.513    0.207    6.930   88.436
  409.750    0.507    0.197    6.675   87.825
  410.000    0.513    0.201    6.195   90.242
  410.250    0.522    0.212    6.080   92.658
  410.500    0.538    0.219    5.749   92.652
  410.750    0.553    0.216    5.641   89.620
  411.000    0.563    0.213    5.638   87.798
  411.250    0.557    0.213    5.739   90.214
  411.500    0.526    0.212    5.844   89.603
  411.750    0.515    0.210    5.950   87.782
  412.000    0.492    0.214    6.172   87.775
  412.250    0.480    0.222    6.521   90.796
  412.500    0.450    0.208    7.017   90.791
  412.750    0.439    0.198    7.552   87.152
  413.000    0.437    0.204    8.128   86.541
  413.250    0.426    0.176    8.588   86.535
  413.500    0.405    0.153    9.243   88.346
  413.750    0.404    0.177    9.407   90.762
  414.000    0.413    0.183    9.406   90.150
  414.250    0.433    0.193    9.060   88.936
  414.500    0.462    0.189    8.567   85.902
  414.750    0.469    0.184    7.805   84.082
  415.000    0.455    0.234    7.518   79.232
  415.250    0.442    0.259    7.378   73.779
  415.500    0.405    0.254    7.374   71.352
  415.750    0.402    0.213    7.509   67.712
  416.000    0.404    0.064    8.082   63.470
  416.250    0.352    0.020    9.024   58.620
  416.500    0.455    0.059    9.713   59.825
  416.750    0.462    0.225   10.648   66.480
  417.000    0.469    0.234   10.641   73.134
  417.250    0.473    0.241   10.442   74.338
  417.500    0.474    0.248   10.442   71.307
  417.750    0.473    0.257    8.996   70.090
  418.000    0.476    0.269    8.048   70.690
  418.250    0.484    0.287    7.896   69.474
  418.500    0.486    0.285    7.750   65.230
  418.750    0.480    0.277    7.750   70.672
  419.000    0.468    0.270    7.322   72.482
  419.250    0.468    0.262    7.187   72.479
  419.500    0.460    0.256    7.318   69.445
  419.750    0.414    0.198    7.730   63.992
  420.000    0.234    0.014    8.475   59.749
  420.250    0.207   -0.001    9.292   57.926
  420.500    0.199    0.001   10.768   58.527
  420.750    0.210    0.022   12.948   60.941
  421.000    0.234    0.130   19.081   62.754
  421.250    0.287    0.209   21.706   66.380
  421.500    0.342    0.239   15.270   66.978
  421.750    0.454    0.256   13.164   67.580
  422.000    0.464    0.263    9.789   69.389
  422.250    0.473    0.264    8.283   71.805
  422.500    0.450    0.259    7.273   74.223
  422.750    0.404    0.252    7.271   73.612
  423.000    0.389    0.235    7.970   71.790
  423.250    0.394    0.104    8.901   68.151
  423.500    0.365    0.023   10.508   63.907
  423.750    0.254   -0.011   15.770   59.665
  424.000    0.202   -0.028   20.805   52.395
  424.250    0.183   -0.031   22.806   46.941
  424.500    0.171   -0.019   31.215   44.513
  424.750    0.159    0.041   34.856   47.535
  425.000    0.176    0.270   37.522   54.795
  425.250    0.200    0.039   38.199   60.843
  425.500    0.238    0.111   25.897   67.498
  425.750    0.467    0.246   23.167   67.491
  426.000    0.469    0.267   15.418   68.696
  426.250    0.471    0.268   10.648   69.296
  426.500    0.471    0.272    8.369   68.685
  426.750    0.470    0.269    7.082   67.469
  427.000    0.469    0.262    6.950   67.463
  427.250    0.464    0.252    6.946   66.851
  427.500    0.470    0.208    6.941   65.636
  427.750    0.473    0.232    6.938   68.658
  428.000    0.471    0.260    6.935   70.469
  428.250    0.467    0.263    6.930   69.858
  428.500    0.463    0.262    6.929   68.034
  428.750    0.471    0.234    7.055   65.607
  429.000    0.476    0.209    7.181   64.998
  429.250    0.471    0.225    7.179   63.782
  429.500    0.469    0.248    7.174   63.776
  429.750    0.464    0.259    7.172   66.192
  430.000    0.471    0.262    7.036   70.423
  430.250    0.480    0.260    7.033   69.812
  430.500    0.477    0.262    7.031   68.596
  430.750    0.470    0.263    6.898   70.407
  431.000    0.466    0.267    6.767   69.191
  431.250    0.484    0.265    6.766   69.791
  431.500    0.481    0.260    6.637   71.601
  431.750    0.474    0.266    6.635   70.385
  432.000    0.476    0.269    6.631   68.562
  432.250    0.481    0.254    6.628   66.739
  432.500    0.480    0.226    6.625   66.736
  432.750    0.474    0.214    6.622   67.336
  433.000    0.468    0.248    6.619   70.358
  433.250    0.463    0.249    6.615   73.983
  433.500    0.454    0.242    6.611   75.189
  433.750    0.453    0.237    6.487   73.972
  434.000    0.495    0.291    6.248   73.362
  434.250    0.501    0.325    6.019   75.172
  434.500    0.500    0.367    5.692   78.193
  434.750    0.494    0.251    5.382   80.006
  435.000    0.492    0.238    5.185   84.844
  435.250    0.492    0.226    5.087   89.075
  435.500    0.488    0.214    4.991   90.281
  435.750    0.481    0.207    5.274   90.276
  436.000    0.470    0.200    5.782   88.453
  436.250    0.465    0.209    6.108   84.210
  436.500    0.466    0.194    6.822   76.334
  436.750    0.428    0.138    7.759   68.458
  437.000    0.399    0.093    8.199   69.663
  437.250    0.393    0.049    8.986   75.105
  437.500    0.413    0.073    8.984   77.522
  437.750    0.444    0.172    8.813   75.094
  438.000    0.459    0.166    8.491   75.696
  438.250    0.459    0.179    8.178   79.321
  438.500    0.462    0.185    8.025   78.710
  438.750    0.458    0.184    7.874   78.705
  439.000    0.448    0.182    7.869   79.910
  439.250    0.448    0.177    7.866   79.905
  439.500    0.457    0.172    7.861   79.295
  439.750    0.471    0.182    7.856   80.501
  440.000    0.485    0.177    7.855   82.917
  440.250    0.490    0.174    7.996   84.728
  440.500    0.448    0.182    8.143   82.301
  440.750    0.421    0.182    8.288   81.083
  441.000    0.428    0.178    8.441   83.499
  441.250    0.447    0.174    8.755   82.888
  441.500    0.438    0.168    9.080   81.669
  441.750    0.415    0.159    9.418   80.456
  442.000    0.410    0.149    9.589   78.634
  442.250    0.398    0.121    9.581   77.416
  442.500    0.404    0.135   10.124   78.623
  442.750    0.415    0.158   10.309   82.250
  443.000    0.415    0.196   10.496   85.877
  443.250    0.394    0.223   10.492   90.108
  443.500    0.399    0.241    9.737   88.288
  443.750    0.440    0.258    9.380   86.466
  444.000    0.443    0.277    8.870   88.277
  444.250    0.459    0.278    8.234   87.666
  444.500    0.453    0.253    7.365   84.632
  444.750    0.461    0.229    6.712   85.233
  445.000    0.511    0.224    6.004   87.041
  445.250    0.560    0.224    5.371   87.644
  445.500    0.620    0.220    4.463   80.374
  445.750    0.620    0.311    2.862   73.102
  446.000    0.614    0.288    2.706   69.464
  446.250    0.606    0.294    2.466   67.037
  446.500    0.540    0.288    2.332   64.002
  446.750    0.527    0.281    2.463   69.447
  447.000    0.539    0.268    2.701   71.257
  447.250    0.542    0.220    3.697   73.067
  447.500    0.495    0.208    4.129   76.088
  447.750    0.481    0.201    4.784   77.296
  448.000    0.454    0.184    5.544   77.290
  448.250    0.444    0.178    6.191   73.652
  448.500    0.423    0.165    6.914   71.225
  448.750    0.410    0.153    7.441   68.798
