~VERSION INFORMATION
 VERS.                 2.0:   CWLS LOG ASCII STANDARD -VERSION 2.0
 WRAP.                  NO:   ONE LINE PER DEPTH STEP
~WELL INFORMATION BLOCK
#MNEM.UNIT           DATA                    DESCRIPTION OF MNEMONIC
#---------    -------------------            -------------------------------
# Generated from Intellog Unique Number	CS_73_76/WELL/813
WELL.         PEX PHILLIPS AEC WIAB          : Well_name    - WELL
LOC .         00/10-11-073-08W4/0            : Location     - LOCATION
UWI .         00/10-11-073-08W4/0            : Uwi          - UNIQUE WELL ID
ENTR.         SP                             : Entered      - ENTERED BY
SRVC.         SCHLUMBERGER                   : Scn          - SERVICE COMPANY
STRT.M        335                            : top_depth    - START DEPTH
STOP.M        560                            : bot_depth    - STOP DEPTH
STEP.M        0.25                           : increment    - STEP LENGTH
 NULL. -999.2500:NULL Value
~CURVE INFORMATION BLOCK
#MNEM UNIT       ERCB CURVE CODE    CURVE DESCRIPTION
#-----------   ------------------   ----------------------------------
DEPT.M        00 001 00 00         : DEPTH        - DEPTH
GR  .API      00 310 00 00         : GR           - GAMMA RAY
NPHI.V/V      00 330 00 00         : PHIN         - NEUTRON POROSITY (LIMESTONE)
DPHI.V/V      00 890 00 00         : PHID         - DENSITY POROSITY (LIMESTONE)
ILD .OHMM     00 120 00 00         : RESD         - DEEP RESISTIVITY (DIL)
~PARAMETER INFORMATION
#MNEM.UNIT           DATA             DESCRIPTION OF MNEMONIC
#---------         -----------     ------------------------------
GL  .M        702.8                : gl           - GROUND LEVEL ELEVATION
EREF.M        706.3                : kb           - ELEVATION OF DEPTH REFERENCE
DATM.M        702.3                : datum        - DATUM ELEVATION
TDD .M        570                  : tdd          - TOTAL DEPTH DRILLER
RUN .         ONE                  : Run          - RUN NUMBER
ENG .         BILL                 : Engineer     - RECORDING ENGINEER
WIT .         JIM                  : Witness      - WITNESSED BY
MUD .         GEL                  : Mud_type     - MUD TYPE
MATR.         LIMESTONE            : Logunit      - NEUTRON MATRIX
TMAX.C        24                   : BHT          - MAXIMUM RECORDED TEMPERATURE
BHTD.M        570                  : BHTDEP       - MAXIMUM RECORDED TEMPERATURE
MATR.         1                    : LOGUNIT      - NEUTRON MATRIX
RMT .C        25                   : MDTP         - TEMPERATURE OF MUD
NEUT.         1                    : NEUTRON      - NEUTRON TYPE
RESI.         0                    : RESIST       - RESISTIVITY TYPE
RMC .OHMM     0.25                 : RMC          - RESISTIVITY OF MUD CAKE
RMF .OHMM     0.25                 : RMF          - RESISTIVITY OF MUD FILTRATE
SUFT.C        15                   : SUFT         - SURFACE TEMPERATURE
~A  DEPTH       GR     PHIN     PHID     RESD
# ...
  378.500  109.057    0.465    0.215    7.041
  378.750  104.200    0.473    0.211    6.909
  379.000   94.486    0.485    0.207    7.038
  379.250   90.237    0.496    0.204    7.305
  379.500   89.632    0.477    0.215    8.021
  379.750   89.634    0.494    0.231    9.142
  380.000   93.280    0.507    0.237   10.037
  380.250   96.926    0.479    0.236   10.418
  380.500   98.142    0.463    0.245   11.018
  380.750   98.144    0.455    0.256   11.652
  381.000   94.502    0.445    0.251   12.094
  381.250   89.038    0.429    0.243   12.092
  381.500   92.077    0.414    0.238   12.317
  381.750   93.901    0.405    0.233   12.548
  382.000   90.259    0.412    0.234   12.546
  382.250   86.010    0.408    0.265   12.781
  382.500   88.441    0.411    0.278   12.778
  382.750   89.050    0.435    0.264   13.018
  383.000   81.766    0.449    0.248   13.260
  383.250   78.124    0.450    0.238   13.509
  383.500   75.696    0.447    0.251   13.762
  383.750   79.950    0.433    0.262   13.760
  384.000   83.595    0.418    0.261   13.502
  384.250   84.812    0.431    0.229   12.525
  384.500   84.814    0.455    0.217   11.619
  384.750   89.675    0.472    0.228   11.191
  385.000   90.891    0.482    0.234   10.577
  385.250   87.857    0.478    0.236    9.813
  385.500   89.073    0.477    0.240    8.605
  385.750   96.363    0.473    0.227    8.135
  386.000   99.401    0.469    0.215    7.406
  386.250   99.403    0.466    0.207    6.618
  386.500   94.547    0.474    0.209    6.026
  386.750   89.690    0.482    0.215    7.130
  387.000   85.441    0.485    0.233    7.976
  387.250   86.658    0.434    0.250    9.797
  387.500   86.660    0.411    0.251   10.558
  387.750   85.448    0.417    0.240   11.591
  388.000   84.843    0.441    0.235   12.032
  388.250   84.844    0.451    0.254   12.724
  388.500   85.453    0.464    0.270   13.206
  388.750   83.026    0.471    0.264   13.454
  389.000   77.563    0.469    0.257   13.451
  389.250   77.565    0.466    0.228   13.198
  389.500   76.960    0.458    0.200   12.952
  389.750   76.354    0.445    0.208   12.473
  390.000   80.000    0.442    0.232   12.013
  390.250   81.824    0.448    0.245   11.570
  390.500   82.433    0.473    0.231   10.936
  390.750   83.043    0.489    0.218   10.337
  391.000   84.867    0.493    0.210    9.589
  391.250   88.512    0.461    0.208    9.235
  391.500   90.943    0.437    0.212    8.729
  391.750   90.338    0.426    0.205    8.728
  392.000   87.304    0.431    0.226    9.230
  392.250   85.484    0.431    0.249    9.581
  392.500   83.664    0.424    0.256   10.717
  392.750   81.237    0.429    0.259   12.214
  393.000   78.810    0.435    0.254   12.679
  393.250   78.204    0.435    0.249   13.409
  393.500   77.600    0.428    0.256   13.917
  393.750   76.388    0.417    0.283   13.916
  394.000   76.389    0.399    0.294   13.655
  394.250   78.213    0.391    0.255   12.667
  394.500   84.894    0.384    0.218   12.200
  394.750   90.970    0.397    0.216   11.531
  395.000   89.757    0.419    0.254   11.105
  395.250   84.294    0.436    0.284   11.102
  395.500   78.830    0.463    0.306   11.524
  395.750   73.367    0.464    0.286   11.741
  396.000   70.332    0.437    0.278   11.960
  396.250   71.548    0.440    0.284   11.736
  396.500   70.336    0.434    0.290   11.516
  396.750   70.338    0.437    0.290   11.090
  397.000   73.377    0.445    0.281   10.883
  397.250   72.771    0.453    0.272   10.881
  397.500   70.344    0.452    0.262   11.085
  397.750   67.309    0.435    0.257   11.505
  398.000   69.133    0.426    0.263   11.290
  398.250   66.707    0.424    0.279   10.088
  398.500   66.101    0.425    0.270    7.908
  398.750   72.783    0.430    0.256    5.971
  399.000   95.255    0.443    0.235    4.183
  399.250   98.901    0.459    0.240    3.669
  399.500   99.510    0.467    0.243    3.533
  399.750  102.548    0.480    0.240    3.467
  400.000  102.550    0.513    0.234    3.466
  400.250   98.909    0.549    0.232    3.401
  400.500   96.482    0.513    0.234    3.401
  400.750   94.662    0.491    0.236    3.400
  401.000   96.486    0.522    0.245    3.463
  401.250   95.273    0.550    0.261    3.528
  401.500   88.595    0.572    0.292    3.802
  401.750   78.880    0.543    0.327    4.940
  402.000   60.663    0.527    0.370    7.318
  402.250   53.378    0.486    0.359   10.248
  402.500   52.773    0.412    0.347   13.070
  402.750   53.990    0.408    0.344   14.897
  403.000   52.171    0.416    0.343   14.893
  403.250   52.779    0.413    0.337   14.615
  403.500   53.996    0.387    0.334   14.340
  403.750   53.998    0.392    0.329   14.072
  404.000   54.607    0.396    0.323   14.070
  404.250   54.610    0.404    0.325   14.333
  404.500   54.611    0.407    0.332   14.601
  404.750   54.006    0.403    0.338   14.873
  405.000   52.793    0.413    0.347   15.152
  405.250   51.581    0.431    0.353   15.436
  405.500   49.761    0.436    0.349   15.724
  405.750   48.548    0.424    0.342   15.722
  406.000   48.550    0.397    0.340   16.015
  406.250   54.019    0.411    0.342   15.715
  406.500   52.806    0.431    0.342   15.136
  406.750   49.164    0.442    0.337   14.577
  407.000   47.951    0.437    0.342   14.572
  407.250   51.597    0.435    0.353   14.570
  407.500   54.635    0.421    0.354   14.843
  407.750   57.673    0.409    0.349   14.840
  408.000   55.247    0.418    0.350   14.837
  408.250   52.820    0.446    0.342   14.834
  408.500   52.214    0.457    0.337   15.112
  408.750   52.217    0.438    0.334   15.109
  409.000   52.219    0.433    0.348   15.107
  409.250   52.220    0.435    0.351   15.104
  409.500   56.473    0.432    0.345   15.102
  409.750   58.904    0.431    0.342   14.819
  410.000   59.514    0.432    0.348   14.816
  410.250   59.516    0.437    0.353   14.814
  410.500   58.910    0.452    0.348   14.811
  410.750   58.305    0.447    0.338   14.807
  411.000   60.129    0.433    0.332   14.805
  411.250   63.168    0.437    0.332   14.802
  411.500   66.814    0.442    0.345   14.800
  411.750   67.422    0.440    0.351   14.795
  412.000   64.996    0.443    0.346   14.793
  412.250   60.747    0.452    0.340   14.791
  412.500   56.498    0.441    0.338   14.788
  412.750   55.285    0.429    0.337   14.786
  413.000   56.502    0.430    0.334   14.782
  413.250   57.111    0.420    0.333   14.780
  413.500   58.327    0.420    0.337   14.777
  413.750   58.330    0.435    0.342   14.775
  414.000   57.118    0.426    0.344   14.497
  414.250   56.512    0.415    0.343   14.495
  414.500   56.514    0.421    0.335   14.492
  414.750   56.516    0.426    0.329   14.490
  415.000   56.518    0.436    0.329   14.486
  415.250   57.127    0.448    0.324   14.483
  415.500   58.951    0.458    0.323   14.481
  415.750   59.560    0.473    0.329   14.211
  416.000   56.526    0.466    0.307   11.564
  416.250   61.993    0.410    0.272   10.142
  416.500   68.676    0.457    0.264    9.408
  416.750   69.285    0.476    0.317   10.138
  417.000   61.392    0.493    0.343   10.722
  417.250   60.787    0.469    0.348   11.993
  417.500   62.004    0.454    0.344   12.449
  417.750   66.257    0.444    0.350   11.549
  418.000   70.510    0.433    0.353    9.756
  418.250   72.941    0.471    0.354    8.398
  418.500   72.336    0.498    0.340    7.938
  418.750   72.945    0.477    0.333    7.645
  419.000   72.339    0.497    0.329    7.501
  419.250   65.661    0.523    0.338    7.361
  419.500   63.841    0.437    0.338    6.829
  419.750   79.026    0.447    0.317    5.878
  420.000   86.923    0.475    0.304    5.155
  420.250   95.427    0.509    0.281    4.195
  420.500   96.644    0.535    0.268    3.544
  420.750   97.253    0.532    0.258    3.167
  421.000   97.862    0.528    0.240    2.675
  421.250   97.257    0.530    0.230    2.391
  421.500   95.437    0.525    0.236    2.625
  421.750   92.403    0.518    0.256    3.224
