~VERSION INFORMATION
 VERS.                 2.0:   CWLS LOG ASCII STANDARD -VERSION 2.0
 WRAP.                  NO:   ONE LINE PER DEPTH STEP
~WELL INFORMATION BLOCK
#MNEM.UNIT           DATA                    DESCRIPTION OF MNEMONIC
#---------    -------------------            -------------------------------
# Generated from Intellog Unique Number	CS_77_79/WELL/974
WELL.         AMOCO B-3 LEISMER              : Well_name    - WELL
LOC .         00/10-27-078-09W4/0            : Location     - LOCATION
UWI .         00/10-27-078-09W4/0            : Uwi          - UNIQUE WELL ID
ENTR.         JHS                            : Entered      - ENTERED BY
SRVC.         SCHLUMBERGER                   : Scn          - SERVICE COMPANY
STRT.M        192.024                        : top_depth    - START DEPTH
STOP.M        420.274                        : bot_depth    - STOP DEPTH
STEP.M        0.25                           : increment    - STEP LENGTH
 NULL. -999.2500:NULL Value
~CURVE INFORMATION BLOCK
#MNEM UNIT       ERCB CURVE CODE    CURVE DESCRIPTION
#-----------   ------------------   ----------------------------------
DEPT.M        00 001 00 00         : DEPTH        - DEPTH
GR  .API      00 310 00 00         : GR           - GAMMA RAY
DPHI.V/V      00 890 00 00         : PHID         - DENSITY POROSITY (SANDSTONE)
NPHI.V/V      00 330 00 00         : PHIN         - NEUTRON POROSITY (SANDSTONE)
ILD .OHMM     00 120 00 00         : RESD         - DEEP RESISTIVITY (DIL)
~PARAMETER INFORMATION
#MNEM.UNIT           DATA             DESCRIPTION OF MNEMONIC
#---------         -----------     ------------------------------
GL  .M        625.693              : gl           - GROUND LEVEL ELEVATION
EREF.M        629.26               : kb           - ELEVATION OF DEPTH REFERENCE
DATM.M        629.26               : datum        - DATUM ELEVATION
TDD .M        419.1                : tdd          - TOTAL DEPTH DRILLER
RUN .         ONE                  : Run          - RUN NUMBER
ENG .         BILL                 : Engineer     - RECORDING ENGINEER
WIT .         JIM                  : Witness      - WITNESSED BY
MUD .         GEL                  : Mud_type     - MUD TYPE
MATR.         SANDSTONE            : Logunit      - NEUTRON MATRIX
TMAX.C        60                   : BHT          - MAXIMUM RECORDED TEMPERATURE
BHTD.M        419.1                : BHTDEP       - MAXIMUM RECORDED TEMPERATURE
MATR.         1                    : LOGUNIT      - NEUTRON MATRIX
RMT .C        25                   : MDTP         - TEMPERATURE OF MUD
NEUT.         1                    : NEUTRON      - NEUTRON TYPE
RESI.         0                    : RESIST       - RESISTIVITY TYPE
RMC .OHMM     0.25                 : RMC          - RESISTIVITY OF MUD CAKE
RMF .OHMM     0.25                 : RMF          - RESISTIVITY OF MUD FILTRATE
SUFT.C        15                   : SUFT         - SURFACE TEMPERATURE
~A  DEPTH       GR     PHID     PHIN     RESD
# ...
  235.524  118.946    0.204    0.464    4.690
  235.774  114.671    0.218    0.437    5.099
  236.024  118.342    0.233    0.446    5.726
  236.274  120.126    0.238    0.461    6.937
  236.524  116.721    0.243    0.437    8.375
  236.774  107.640    0.271    0.422   10.057
  237.024  105.360    0.292    0.428   12.112
  237.274  104.552    0.281    0.442   13.822
  237.524  105.925    0.301    0.438   14.168
  237.774  104.110    0.319    0.424   13.432
  238.024   96.815    0.263    0.411   11.091
  238.274   96.762    0.248    0.426   10.113
  238.524   99.885    0.247    0.442    9.741
  238.774  101.059    0.252    0.437    9.888
  239.024   96.797    0.252    0.418   10.345
  239.274   93.615    0.248    0.422   11.318
  239.524   89.612    0.254    0.415   12.242
  239.774   85.527    0.267    0.404   12.967
  240.024   84.001    0.272    0.417   13.100
  240.274   81.361    0.276    0.423   12.967
  240.524   77.091    0.263    0.415   12.526
  240.774   73.293    0.275    0.412   11.936
  241.024   70.462    0.286    0.431   11.705
  241.274   75.480    0.278    0.417   11.479
  241.524   79.955    0.250    0.398   11.256
  241.774   81.159    0.252    0.398   11.585
  242.024   77.304    0.263    0.409   11.934
  242.274   76.844    0.248    0.419   11.942
  242.524   83.948    0.230    0.442   11.615
  242.774   86.543    0.240    0.446   11.280
  243.024   86.398    0.225    0.437   10.495
  243.274   91.371    0.239    0.429   10.124
  243.524   99.658    0.219    0.430    9.555
  243.774  102.826    0.234    0.427    8.626
  244.024  104.198    0.232    0.420    7.991
  244.274  107.301    0.223    0.418    7.270
  244.524  106.248    0.208    0.421    6.919
  244.774  102.839    0.206    0.429    7.100
  245.024   99.725    0.219    0.450    7.642
  245.274   93.119    0.242    0.478    8.569
  245.524   85.868    0.257    0.464    9.374
  245.774   81.315    0.273    0.422   10.296
  246.024   85.966    0.277    0.402   10.605
  246.274   98.666    0.244    0.402   10.284
  246.524  100.082    0.230    0.414    9.411
  246.774   99.163    0.224    0.429    8.473
  247.024  102.621    0.213    0.439    7.513
  247.274  112.945    0.197    0.446    7.034
  247.524  119.358    0.188    0.465    7.093
  247.774  120.295    0.199    0.461    7.426
  248.024  110.975    0.229    0.466    7.710
  248.274  108.466    0.255    0.474    8.388
  248.524  100.180    0.259    0.469    9.035
  248.774   92.397    0.266    0.448    9.637
  249.024   89.838    0.279    0.450   10.255
  249.274   89.817    0.264    0.457   10.264
  249.524   90.684    0.237    0.461   10.012
  249.774   97.927    0.217    0.454    9.552
  250.024  103.414    0.218    0.443    8.855
  250.274  100.151    0.268    0.446    9.067
  250.524   93.573    0.283    0.439    9.482
  250.774   88.108    0.290    0.420   10.057
  251.024   92.918    0.281    0.415   10.676
  251.274   95.501    0.281    0.420   10.832
  251.524   95.523    0.271    0.435   10.685
  251.774   98.611    0.273    0.461   10.227
  252.024  104.645    0.257    0.463    9.541
  252.274  110.598    0.234    0.446    9.308
  252.524  116.605    0.231    0.439    9.499
  252.774  119.841    0.228    0.421   10.208
  253.024  109.412    0.210    0.399   10.861
  253.274   81.747    0.280    0.395   10.663
  253.524   76.747    0.287    0.406    9.458
  253.774   94.671    0.261    0.457    7.244
  254.024  100.710    0.257    0.478    5.586
  254.274   96.928    0.254    0.493    4.583
  254.524   90.254    0.253    0.518    4.262
  254.774   84.615    0.262    0.509    4.263
  255.024   81.155    0.270    0.485    4.399
  255.274   80.993    0.291    0.481    4.774
  255.524   81.314    0.312    0.496    5.406
  255.774   84.465    0.337    0.509    6.914
  256.024   89.358    0.317    0.500    9.910
  256.274   97.925    0.254    0.448   13.259
  256.524  110.691    0.269    0.424   17.340
  256.774  127.113    0.280    0.436   20.814
  257.024  145.383    0.271    0.466   23.952
  257.274  155.010    0.263    0.489   25.593
  257.524  151.865    0.272    0.509   27.230
  257.774  144.198    0.261    0.484   27.929
  258.024  137.604    0.244    0.481   28.483
  258.274  120.379    0.260    0.482   28.847
  258.524   87.767    0.276    0.459   28.974
  258.774   70.293    0.265    0.448   29.005
  259.024   63.334    0.284    0.429   28.413
  259.274   54.438    0.318    0.418   28.423
  259.524   56.993    0.312    0.423   28.960
  259.774   65.483    0.326    0.435   29.288
  260.024   64.478    0.304    0.434   29.597
  260.274   61.082    0.314    0.419   30.117
  260.524   57.049    0.306    0.412   30.338
  260.774   56.278    0.297    0.412   30.626
  261.024   56.843    0.309    0.413   31.093
  261.274   55.810    0.316    0.417   31.212
  261.524   55.134    0.310    0.427   31.220
  261.774   54.765    0.306    0.413   31.835
  262.024   57.588    0.298    0.416   31.760
  262.274   62.912    0.308    0.430   32.365
  262.524   63.062    0.317    0.458   32.377
  262.774   61.160    0.302    0.438   32.413
  263.024   61.791    0.290    0.435   31.836
  263.274   62.747    0.297    0.433   31.504
  263.524   64.469    0.318    0.425   31.219
  263.774   65.068    0.313    0.427   30.731
  264.024   63.459    0.300    0.443   30.877
  264.274   61.861    0.298    0.436   31.200
  264.524   61.796    0.308    0.423   32.247
  264.774   62.244    0.307    0.417   32.333
  265.024   64.970    0.300    0.417   32.368
  265.274   67.351    0.300    0.438   30.368
  265.524   64.367    0.305    0.453   29.189
  265.774   61.447    0.302    0.439   28.390
  266.024   61.864    0.311    0.436   28.700
  266.274   60.564    0.302    0.440   28.983
  266.524   58.081    0.316    0.405   29.935
  266.774   57.971    0.318    0.403   30.899
  267.024   59.687    0.322    0.432   31.147
  267.274   60.121    0.325    0.427   31.221
  267.524   64.221    0.311    0.420   30.614
  267.774   66.901    0.275    0.428   29.438
  268.024   62.060    0.296    0.440   29.099
  268.274   58.243    0.325    0.423   28.937
  268.524   59.066    0.326    0.429   28.894
  268.774   59.376    0.322    0.437   29.557
  269.024   60.320    0.317    0.421   28.881
  269.274   60.909    0.328    0.409   28.426
  269.524   60.269    0.334    0.414   28.486
  269.774   60.400    0.315    0.425   27.249
  270.024   61.481    0.310    0.429   27.336
  270.274   61.328    0.318    0.406   27.321
  270.524   59.507    0.313    0.408   27.312
  270.774   53.999    0.313    0.418   27.706
  271.024   53.284    0.322    0.426   27.853
  271.274   57.369    0.337    0.417   27.313
  271.524   62.274    0.330    0.421   27.376
  271.774   66.689    0.318    0.444   26.756
  272.024   63.725    0.333    0.452   26.806
  272.274   58.240    0.324    0.440   26.815
  272.524   56.810    0.309    0.428   26.879
  272.774   57.127    0.307    0.423   27.327
  273.024   62.649    0.313    0.426   27.542
  273.274   62.817    0.299    0.427   27.788
  273.524   59.060    0.323    0.423   28.223
  273.774   53.148    0.328    0.427   28.313
  274.024   52.639    0.332    0.437   28.325
  274.274   51.627    0.344    0.445   28.305
  274.524   49.698    0.337    0.443   28.150
  274.774   49.607    0.336    0.444   27.813
  275.024   52.335    0.346    0.447   26.374
  275.274   55.832    0.349    0.440   26.236
  275.524   55.167    0.344    0.430   24.600
  275.774   57.035    0.350    0.425   22.041
  276.024   58.806    0.335    0.432   19.330
  276.274   58.284    0.327    0.453   19.154
  276.524   58.166    0.311    0.479   19.272
  276.774   58.862    0.352    0.479   19.895
  277.024   60.614    0.360    0.460   20.740
  277.274   62.708    0.314    0.458   22.636
  277.524   59.440    0.278    0.463   25.797
  277.774   54.394    0.019    0.396   30.536
  278.024   50.350    0.001    0.154   42.083
  278.274   48.587   -0.000    0.116   62.002
  278.524   47.610   -0.002    0.117   76.698
  278.774   46.631    0.027    0.130   85.574
