~VERSION INFORMATION
 VERS.                 2.0:   CWLS LOG ASCII STANDARD -VERSION 2.0
 WRAP.                  NO:   ONE LINE PER DEPTH STEP
~WELL INFORMATION BLOCK
#MNEM.UNIT           DATA                    DESCRIPTION OF MNEMONIC
#---------    -------------------            -------------------------------
# Generated from Intellog Unique Number	CC_84_87/WELL/2549
WELL.         HOMESTEAD ET AL WATCHUSK       : Well_name    - WELL
LOC .         00/10-16-084-03W4/0            : Location     - LOCATION
UWI .         00/10-16-084-03W400            : Uwi          - UNIQUE WELL ID
ENTR.         JHS                            : Entered      - ENTERED BY
SRVC.         SCHLUMBERGER                   : Scn          - SERVICE COMPANY
STRT.M        86.563                         : top_depth    - START DEPTH
STOP.M        298.563                        : bot_depth    - STOP DEPTH
STEP.M        0.25                           : increment    - STEP LENGTH
 NULL. -999.2500:NULL Value
~CURVE INFORMATION BLOCK
#MNEM UNIT       ERCB CURVE CODE    CURVE DESCRIPTION
#-----------   ------------------   ----------------------------------
DEPT.M        00 001 00 00         : DEPTH        - DEPTH
ILD .OHMM     00 120 00 00         : RESD         - DEEP RESISTIVITY (DIL)
GR  .API      00 310 00 00         : GR           - GAMMA RAY
DPHI.V/V      00 890 00 00         : PHID         - DENSITY POROSITY (SANDSTONE)
NPHI.V/V      00 330 00 00         : PHIN         - NEUTRON POROSITY (SANDSTONE)
~PARAMETER INFORMATION
#MNEM.UNIT           DATA             DESCRIPTION OF MNEMONIC
#---------         -----------     ------------------------------
GL  .M        454.457              : gl           - GROUND LEVEL ELEVATION
EREF.M        458.114              : kb           - ELEVATION OF DEPTH REFERENCE
DATM.M        458.114              : datum        - DATUM ELEVATION
TDD .M        312.42               : tdd          - TOTAL DEPTH DRILLER
RUN .         ONE                  : Run          - RUN NUMBER
ENG .         BILL                 : Engineer     - RECORDING ENGINEER
WIT .         JIM                  : Witness      - WITNESSED BY
MUD .         GEL                  : Mud_type     - MUD TYPE
MATR.         SANDSTONE            : Logunit      - NEUTRON MATRIX
TMAX.C        19.4444              : BHT          - MAXIMUM RECORDED TEMPERATURE
BHTD.M        312.42               : BHTDEP       - MAXIMUM RECORDED TEMPERATURE
MATR.         1                    : LOGUNIT      - NEUTRON MATRIX
RMT .C        25                   : MDTP         - TEMPERATURE OF MUD
NEUT.         1                    : NEUTRON      - NEUTRON TYPE
RESI.         0                    : RESIST       - RESISTIVITY TYPE
RMC .OHMM     0.25                 : RMC          - RESISTIVITY OF MUD CAKE
RMF .OHMM     0.25                 : RMF          - RESISTIVITY OF MUD FILTRATE
SUFT.C        15                   : SUFT         - SURFACE TEMPERATURE
~A  DEPTH     RESD       GR     PHID     PHIN
# ...
  173.563    6.378   74.876    0.309    0.479
  173.813    6.390   75.710    0.312    0.482
  174.063    6.322   77.211    0.304    0.489
  174.313    6.172   79.382    0.277    0.475
  174.563    5.963   83.061    0.241    0.479
  174.813    5.829   86.910    0.227    0.524
  175.063    5.843   88.641    0.250    0.543
  175.313    5.755   87.224    0.276    0.520
  175.563    5.733   86.223    0.268    0.493
  175.813    5.753   86.780    0.274    0.499
  176.063    5.739   87.977    0.282    0.486
  176.313    5.769   88.811    0.274    0.456
  176.563    5.861   88.724    0.279    0.483
  176.813    5.780   88.106    0.255    0.490
  177.063    5.735   88.832    0.271    0.474
  177.313    5.856   87.395    0.301    0.466
  177.563    6.063   85.358    0.306    0.472
  177.813    6.236   86.074    0.290    0.470
  178.063    6.325   87.609    0.277    0.453
  178.313    6.073   88.716    0.285    0.452
  178.563    4.661   88.674    0.287    0.463
  178.813    3.355   87.240    0.287    0.507
  179.063    2.743   86.408    0.299    0.560
  179.313    2.348   86.334    0.320    0.580
  179.563    2.088   84.719    0.334    0.577
  179.813    1.956   83.574    0.334    0.591
  180.063    1.929   83.625    0.322    0.608
  180.313    1.988   80.474    0.314    0.615
  180.563    2.108   78.025    0.302    0.615
  180.813    2.297   80.691    0.294    0.610
  181.063    2.559   83.598    0.305    0.599
  181.313    2.810   84.611    0.289    0.595
  181.563    3.056   85.872    0.283    0.584
  181.813    3.445   85.246    0.291    0.558
  182.063    3.810   84.061    0.305    0.537
  182.313    4.016   85.226    0.306    0.532
  182.563    4.278   87.255    0.280    0.533
  182.813    4.571   88.331    0.284    0.540
  183.063    4.624   88.723    0.283    0.514
  183.313    4.615   87.527    0.271    0.479
  183.563    4.581   86.670    0.292    0.482
  183.813    4.406   86.503    0.340    0.520
  184.063    4.066   84.959    0.366    0.557
  184.313    3.530   86.498    0.392    0.591
  184.563    3.358   91.490    0.395    0.590
  184.813    3.466   91.994    0.362    0.571
  185.063    3.524   86.942    0.320    0.544
  185.313    3.433   83.704    0.294    0.514
  185.563    3.278   86.212    0.276    0.501
  185.813    3.132   90.526    0.267    0.518
  186.063    3.015   96.043    0.279    0.549
  186.313    3.013   97.898    0.284    0.547
  186.563    3.072   94.804    0.274    0.533
  186.813    3.126   91.135    0.260    0.538
  187.063    3.229   90.471    0.243    0.530
  187.313    3.292   92.249    0.229    0.520
  187.563    3.224   95.599    0.237    0.511
  187.813    3.108   96.425    0.258    0.522
  188.063    3.051   95.868    0.262    0.547
  188.313    3.076   96.653    0.252    0.551
  188.563    3.124   97.100    0.257    0.538
  188.813    3.116   96.678    0.253    0.558
  189.063    3.236   95.614    0.264    0.560
  189.313    3.386   93.086    0.270    0.559
  189.563    3.596   94.698    0.268    0.550
  189.813    3.871   98.371    0.267    0.523
  190.063    4.044   94.811    0.265    0.512
  190.313    4.242   93.587    0.275    0.512
  190.563    4.349   93.746    0.264    0.508
  190.813    4.349   93.079    0.240    0.513
  191.063    4.396   90.670    0.235    0.521
  191.313    4.560   86.992    0.244    0.524
  191.563    4.696   84.171    0.244    0.517
  191.813    4.699   83.617    0.251    0.475
  192.063    4.715   83.038    0.236    0.477
  192.313    4.617   80.952    0.257    0.483
  192.563    4.315   77.126    0.282    0.453
  192.813    3.920   70.797    0.268    0.416
  193.063    3.586   62.245    0.262    0.408
  193.313    3.370   55.905    0.274    0.409
  193.563    3.212   53.125    0.277    0.404
  193.813    3.095   49.879    0.287    0.391
  194.063    3.028   46.116    0.281    0.384
  194.313    2.986   45.107    0.269    0.383
  194.563    2.943   46.229    0.292    0.380
  194.813    2.943   44.764    0.281    0.377
  195.063    2.949   39.061    0.275    0.345
  195.313    2.941   37.277    0.279    0.318
  195.563    2.969   40.666    0.281    0.330
  195.813    3.004   45.697    0.292    0.360
  196.063    2.953   54.012    0.311    0.374
  196.313    2.944   63.924    0.302    0.387
  196.563    3.030   63.310    0.272    0.398
  196.813    3.095   66.499    0.261    0.419
  197.063    3.162   69.997    0.279    0.424
  197.313    3.256   66.117    0.302    0.402
  197.563    3.305   66.623    0.306    0.389
  197.813    3.454   69.582    0.296    0.393
  198.063    3.659   78.057    0.280    0.390
  198.313    3.935   87.103    0.246    0.394
  198.563    4.238   90.148    0.214    0.405
  198.813    4.608   87.396    0.211    0.407
  199.063    5.135   84.566    0.223    0.394
  199.313    5.564   86.027    0.218    0.384
  199.563    5.843   92.079    0.208    0.410
  199.813    6.134   97.478    0.209    0.443
  200.063    6.340   97.595    0.213    0.460
  200.313    6.250   94.101    0.215    0.475
  200.563    5.856   92.381    0.234    0.502
  200.813    5.327   93.294    0.277    0.527
  201.063    5.152   94.846    0.300    0.570
  201.313    5.183   98.556    0.307    0.589
  201.563    5.362  101.214    0.298    0.559
  201.813    5.740  100.704    0.276    0.501
  202.063    6.202  101.383    0.257    0.454
  202.313    6.733  103.048    0.228    0.442
  202.563    6.849  102.783    0.226    0.439
  202.813    6.744  102.721    0.225    0.442
  203.063    6.649   97.479    0.224    0.449
  203.313    6.552   93.158    0.232    0.456
  203.563    6.457  102.043    0.230    0.459
  203.813    6.357  102.508    0.240    0.452
  204.063    6.336  101.918    0.246    0.443
  204.313    6.369  104.386    0.231    0.447
  204.563    6.301  104.240    0.222    0.451
  204.813    6.080  102.149    0.225    0.447
  205.063    5.807  100.974    0.217    0.455
  205.313    5.479   88.624    0.231    0.469
  205.563    5.079   80.212    0.272    0.472
  205.813    4.780   78.067    0.290    0.444
  206.063    4.621   77.735    0.296    0.427
  206.313    4.480   77.849    0.299    0.436
  206.563    4.353   76.639    0.273    0.429
  206.813    4.355   71.543    0.278    0.436
  207.063    4.337   70.002    0.290    0.419
  207.313    4.468   74.944    0.279    0.391
  207.563    4.674   81.115    0.262    0.378
  207.813    4.811   83.374    0.253    0.381
  208.063    4.961   83.257    0.238    0.395
  208.313    5.035   84.293    0.241    0.404
  208.563    5.181   84.501    0.260    0.406
  208.813    5.315   84.697    0.258    0.407
  209.063    5.355   83.767    0.258    0.410
  209.313    5.351   81.996    0.272    0.419
  209.563    5.355   82.739    0.263    0.429
  209.813    5.356   84.455    0.258    0.418
  210.063    5.369   88.740    0.254    0.421
  210.313    5.320   89.816    0.250    0.433
  210.563    5.241   91.476    0.239    0.437
  210.813    5.151   97.621    0.217    0.438
  211.063    4.995  101.856    0.203    0.462
  211.313    4.861  104.230    0.221    0.506
  211.563    4.587  103.188    0.231    0.525
  211.813    4.404  104.601    0.250    0.526
  212.063    4.230  105.898    0.261    0.536
  212.313    3.996  104.137    0.252    0.553
  212.563    3.954  104.921    0.257    0.563
  212.813    3.939  106.129    0.255    0.577
  213.063    4.133  105.260    0.249    0.581
  213.313    4.454  105.392    0.226    0.565
  213.563    4.821  106.393    0.200    0.539
  213.813    5.178  106.038    0.197    0.515
  214.063    5.409  105.009    0.203    0.498
  214.313    5.580  103.574    0.205    0.503
  214.563    5.746  101.953    0.201    0.507
  214.813    5.950  101.124    0.205    0.505
  215.063    6.069  100.657    0.214    0.502
  215.313    6.041  101.289    0.219    0.495
  215.563    5.945  103.298    0.216    0.482
  215.813    5.753  101.366    0.199    0.469
  216.063    5.797  100.806    0.206    0.457
  216.313    5.867  103.189    0.213    0.459
  216.563    5.838  104.678    0.212    0.476
  216.813    5.868  101.877    0.207    0.483
