~VERSION INFORMATION
 VERS.                 2.0:   CWLS LOG ASCII STANDARD -VERSION 2.0
 WRAP.                  NO:   ONE LINE PER DEPTH STEP
~WELL INFORMATION BLOCK
#MNEM.UNIT           DATA                    DESCRIPTION OF MNEMONIC
#---------    -------------------            -------------------------------
# Generated from Intellog Unique Number	CW_70_72/WELL/1059
NULL.         -999.25                        : NULL_VALUE
WELL.         G&W ET AL DECRENE 11-20        : Well_name    - WELL              
LOC .         11-20-071-02W5                 : Location     - LOCATION          
UWI .         00/11-20-071-02W5/0             : Uwi          - UNIQUE WELL ID    
ENTR.         JAYE                           : Entered      - ENTERED BY        
SRVC.         SCHLUMBERGER                   : Scn          - SERVICE COMPANY   
DATE.         8 FEB 89                       : Date         - LOG DATE          
STRT.M        410                            : top_depth    - START DEPTH       
STOP.M        640                            : bot_depth    - STOP DEPTH        
STEP.M        0.25                           : increment    - STEP LENGTH       
~CURVE INFORMATION BLOCK
#MNEM UNIT       ERCB CURVE CODE    CURVE DESCRIPTION
#-----------   ------------------   ----------------------------------
DEPT.M        00 001 00 00         : DEPTH        - DEPTH                       
DPHI.V/V      00 890 00 00         : PHID         - DENSITY POROSITY (SANDSTONE)
NPHI.V/V      00 330 00 00         : PHIN         - NEUTRON POROSITY (SANDSTONE)
GR  .API      00 310 00 00         : GR           - GAMMA RAY                   
CALI.MM       00 280 01 00         : CAL          - CALIPER                     
ILD .OHMM     00 120 00 00         : RESD         - DEEP RESISTIVITY (DIL)      
~PARAMETER INFORMATION       
#MNEM.UNIT           DATA             DESCRIPTION OF MNEMONIC
#---------         -----------     ------------------------------
GL  .M        595.7                : gl           - GROUND LEVEL ELEVATION      
EREF.M        598.7                : kb           - ELEVATION OF DEPTH REFERENCE
DATM.M        595.7                : datum        - DATUM ELEVATION             
TDD .M        648                  : tdd          - TOTAL DEPTH DRILLER         
RUN .         ONE                  : Run          - RUN NUMBER                  
ENG .         KNAPIK               : Engineer     - RECORDING ENGINEER          
WIT .         ANDREWS              : Witness      - WITNESSED BY                
BASE.         EDM                  : Branch       - HOME BASE OF LOGGING UNIT   
MUD .         GEL CHEM             : Mud_type     - MUD TYPE                    
MATR.         SANDSTONE            : Logunit      - NEUTRON MATRIX              
TMAX.C        36                   : BHT          - MAXIMUM RECORDED TEMPERATURE
BHTD.M        648                  : BHTDEP       - MAXIMUM RECORDED TEMPERATURE
RMT .C        12                   : MDTP         - TEMPERATURE OF MUD          
MUDD.KG/M     1130                 : MWT          - MUD DENSITY                 
NEUT.         1                    : NEUTRON      - NEUTRON TYPE                
RESI.         0                    : RESIST       - RESISTIVITY TYPE            
RM  .OHMM     4.89                 : RM           - RESISTIVITY OF MUD          
RMC .OHMM     2.42                 : RMC          - RESISTIVITY OF MUD CAKE     
RMF .OHMM     5.37                 : RMF          - RESISTIVITY OF MUD FILTRATE 
SUFT.C        0                    : SUFT         - SURFACE TEMPERATURE         
~A  DEPTH     PHID     PHIN       GR      CAL     RESD
  410.000    0.204    0.462   98.911  184.120    2.476
  410.250    0.200    0.457  101.623  185.110    2.481
  410.500    0.197    0.476  105.062  183.881    2.478
  410.750    0.198    0.475  106.867  181.946    2.487
  411.000    0.203    0.459  107.341  179.202    2.497
  411.250    0.204    0.469  107.149  177.875    2.489
  411.500    0.195    0.489  104.777  176.945    2.467
  411.750    0.185    0.498  101.858  177.832    2.450
  412.000    0.192    0.503  101.062  178.522    2.469
  412.250    0.210    0.510  105.894  178.910    2.519
  412.500    0.216    0.499  110.725  179.191    2.590
  412.750    0.213    0.469  106.659  178.872    2.712
  413.000    0.209    0.444  101.684  177.745    2.777
  413.250    0.204    0.474   98.222  174.999    2.699
  413.500    0.211    0.498   96.698  173.168    2.598
  413.750    0.229    0.542   91.056  170.828    2.479
  414.000    0.240    0.481   84.933  166.876    2.356
  414.250    0.252    0.424   71.362  161.510    2.366
  414.500    0.258    0.405   60.758  156.950    2.459
  414.750    0.258    0.393   53.543  154.512    2.579
  415.000    0.268    0.380   52.322  152.881    2.680
  415.250    0.281    0.375   58.182  152.353    2.760
  415.500    0.297    0.389   61.561  151.834    2.807
  415.750    0.301    0.404   62.519  151.413    2.849
  416.000    0.298    0.419   60.752  151.087    2.907
  416.250    0.282    0.421   63.283  151.074    3.022
  416.500    0.262    0.399   65.936  151.358    3.396
  416.750    0.225    0.392   64.775  151.336    3.762
  417.000    0.167    0.390   60.103  151.421    3.903
  417.250    0.056    0.390   57.005  151.806    3.840
  417.500    0.095    0.405   60.202  152.192    3.677
  417.750    0.147    0.416   68.484  152.170    3.508
  418.000    0.184    0.427   75.858  152.558    3.335
  418.250    0.199    0.416   71.004  153.547    3.288
  418.500    0.209    0.414   70.751  154.742    3.289
  418.750    0.224    0.451   82.543  160.676    3.219
  419.000    0.231    0.470   91.674  169.839    3.150
  419.250    0.196    0.477   91.419  173.352    3.169
  419.500    0.184    0.435   88.624  169.699    3.275
  419.750    0.191    0.396   92.427  165.242    3.404
  420.000    0.199    0.377   99.801  161.086    3.609
  420.250    0.213    0.371   99.729  158.547    3.744
  420.500    0.237    0.393   88.761  155.907    3.665
  420.750    0.270    0.386   78.037  153.769    3.408
  421.000    0.299    0.380   66.343  152.338    3.147
  421.250    0.300    0.379   61.853  152.118    2.827
  421.500    0.300    0.394   65.231  153.006    2.568
  421.750    0.303    0.406   63.647  154.704    2.495
  422.000    0.283    0.395   82.825  157.915    2.533
  422.250    0.248    0.415   99.278  164.151    2.705
  422.500    0.222    0.450  100.054  174.121    2.868
  422.750    0.183    0.436   92.476  175.011    3.183
  423.000    0.183    0.444   83.870  165.104    3.636
  423.250    0.158    0.430   84.404  160.344    4.028
  423.500    0.208    0.422   83.303  157.701    4.240
  423.750    0.239    0.417   79.358  156.272    4.296
  424.000    0.249    0.416   77.652  155.649    4.320
  424.250    0.250    0.414   79.577  156.436    4.330
  424.500    0.239    0.406   82.834  159.544    4.331
  424.750    0.222    0.424   89.059  161.344    4.301
  425.000    0.210    0.419   89.470  164.147    4.194
  425.250    0.209    0.395   87.038  165.647    4.075
  425.500    0.211    0.376   84.122  167.846    3.902
  425.750    0.211    0.377   79.511  167.527    3.669
  426.000    0.209    0.373   76.413  162.763    3.437
  426.250    0.203    0.372   96.800  162.042    3.256
  426.500    0.192    0.391  105.445  163.335    3.089
  426.750    0.178    0.405  113.243  168.965    2.974
  427.000    0.173    0.454  120.982  174.192    2.869
  427.250    0.185    0.478  116.915  176.093    2.828
  427.500    0.220    0.460  105.947  170.021    2.871
  427.750    0.282    0.403   81.905  157.894    2.914
  428.000    0.291    0.374   73.117  153.537    2.974
  428.250    0.280    0.367   75.345  153.420    3.079
  428.500    0.267    0.335   70.612  156.123    3.200
  428.750    0.259    0.335   69.693  157.318    3.296
  429.000    0.263    0.349   77.370  157.804    3.395
  429.250    0.267    0.365   88.497  159.701    3.471
  429.500    0.250    0.383  103.438  166.444    3.529
  429.750    0.214    0.378  102.156  169.550    3.550
  430.000    0.176    0.349   94.938  165.900    3.525
  430.250    0.202    0.355   89.845  161.947    3.388
  430.500    0.217    0.392   97.824  160.013    3.220
  430.750    0.201    0.409   95.452  158.482    2.990
  431.000    0.203    0.394   83.941  156.748    2.775
  431.250    0.238    0.346   67.465  155.216    2.567
  431.500    0.273    0.329   54.681  155.198    2.481
  431.750    0.268    0.349   68.108  156.589    2.532
  432.000    0.243    0.355   73.425  159.701    2.694
  432.250    0.220    0.348   79.043  161.194    2.915
  432.500    0.223    0.339   87.688  160.472    3.136
  432.750    0.233    0.347   90.703  159.546    3.313
  433.000    0.227    0.361   94.384  159.422    3.558
  433.250    0.217    0.377   98.308  160.415    3.835
  433.500    0.211    0.405  103.382  163.727    4.088
  433.750    0.200    0.396  104.520  169.662    4.234
  434.000    0.181    0.379   99.485  172.364    4.151
  434.250    0.161    0.347   95.541  172.347    3.812
  434.500    0.174    0.394  102.188  172.230    3.190
  434.750    0.199    0.472  110.289  172.515    2.655
  435.000    0.187    0.507  104.588  172.191    2.300
  435.250    0.141    0.493  104.456  172.171    2.267
  435.500    0.147    0.489  114.978  172.861    2.306
  435.750    0.198    0.478  113.815  173.349    2.401
  436.000    0.247    0.458  109.143  172.522    2.564
  436.250    0.234    0.467  103.020  168.064    2.684
  436.500    0.235    0.441   89.388  163.104    2.730
  436.750    0.257    0.411   74.183  158.141    2.720
  437.000    0.322    0.381   53.168  154.088    2.692
  437.250    0.328    0.371   50.250  151.446    2.654
  437.500    0.310    0.368   50.904  153.142    2.655
  437.750    0.301    0.387   54.768  155.342    2.694
  438.000    0.310    0.410   61.294  156.332    2.755
  438.250    0.303    0.393   66.004  155.606    2.827
  438.500    0.281    0.364   72.593  154.986    2.859
  438.750    0.250    0.374   85.899  155.270    2.854
  439.000    0.207    0.454   97.692  158.481    2.845
  439.250    0.177    0.477  105.369  168.550    2.856
  439.500    0.204    0.472  108.929  172.567    2.894
  439.750    0.240    0.445   99.475  167.606    2.986
  440.000    0.241    0.422   85.359  161.029    3.086
  440.250    0.245    0.411   78.023  156.268    3.167
  440.500    0.264    0.402   72.080  154.835    3.226
  440.750    0.275    0.392   71.283  154.415    3.298
  441.000    0.271    0.382   73.330  154.297    3.422
  441.250    0.264    0.392   75.861  154.779    3.735
  441.500    0.251    0.421   75.971  154.563    4.378
  441.750    0.232    0.408   68.515  154.848    5.331
  442.000    0.188    0.368   55.550  155.434    6.982
  442.250    0.021    0.147   47.791  156.425    9.244
  442.500   -0.042    0.130   38.578  158.524   15.792
  442.750   -0.062    0.123   37.172  158.607   27.276
  443.000   -0.050    0.113   37.649  158.590   37.522
  443.250   -0.040    0.103   40.180  157.663   28.358
  443.500   -0.008    0.109   41.802  156.028   19.890
  443.750    0.013    0.133   42.215  154.196   12.713
  444.000    0.054    0.168   45.050  152.964    9.802
  444.250    0.252    0.370   52.243  152.342    7.040
  444.500    0.299    0.393   54.652  152.728    1.000
  444.750    0.313    0.397   54.458  154.725    1.000
  445.000    0.315    0.344   52.996  156.627    6.458
  445.250    0.276    0.296   51.412  159.028    7.735
  445.500    0.244    0.258   49.402  160.220   12.398
  445.750    0.215    0.228   48.120  161.009   12.223
  446.000    0.150    0.226   48.472  161.092   10.883
  446.250    0.132    0.241   51.365  160.369    8.943
