~VERSION INFORMATION
 VERS.                 2.0:   CWLS LOG ASCII STANDARD -VERSION 2.0
 WRAP.                  NO:   ONE LINE PER DEPTH STEP
~WELL INFORMATION BLOCK
#MNEM.UNIT           DATA                    DESCRIPTION OF MNEMONIC
#---------    -------------------            -------------------------------
# Generated from Intellog Unique Number	CW_70_72/WELL/1076
NULL.         -999.25                        : NULL_VALUE
WELL.         CABRE ET AK NUTSYE 16-27       : Well_name    - WELL              
LOC .         16-27-071-03W5                 : Location     - LOCATION          
UWI .         00/16-27-071-03W5/0            : Uwi          - UNIQUE WELL ID    
ENTR.         JAYE                           : Entered      - ENTERED BY        
SRVC.         COMPUTALOG                     : Scn          - SERVICE COMPANY   
DATE.         19 NOV 85                      : Date         - LOG DATE          
STRT.M        440                            : top_depth    - START DEPTH       
STOP.M        650                            : bot_depth    - STOP DEPTH        
STEP.M        0.25                           : increment    - STEP LENGTH       
~CURVE INFORMATION BLOCK
#MNEM UNIT       ERCB CURVE CODE    CURVE DESCRIPTION
#-----------   ------------------   ----------------------------------
DEPT.M        00 001 00 00         : DEPTH        - DEPTH                       
DPHI.V/V      00 890 00 00         : PHID         - DENSITY POROSITY (SANDSTONE)
NPHI.V/V      00 330 00 00         : PHIN         - NEUTRON POROSITY (SANDSTONE)
GR  .API      00 310 00 00         : GR           - GAMMA RAY                   
CALI.MM       00 280 01 00         : CAL          - CALIPER                     
ILD .OHMM     00 120 00 00         : RESD         - DEEP RESISTIVITY (DIL)      
~PARAMETER INFORMATION       
#MNEM.UNIT           DATA             DESCRIPTION OF MNEMONIC
#---------         -----------     ------------------------------
GL  .M        635.2                : gl           - GROUND LEVEL ELEVATION      
EREF.M        638.78               : kb           - ELEVATION OF DEPTH REFERENCE
DATM.M        635.2                : datum        - DATUM ELEVATION             
TDD .M        660                  : tdd          - TOTAL DEPTH DRILLER         
RUN .         ONE                  : Run          - RUN NUMBER                  
ENG .         AHLOY                : Engineer     - RECORDING ENGINEER          
WIT .         BLOTT                : Witness      - WITNESSED BY                
BASE.         EDMONTON             : Branch       - HOME BASE OF LOGGING UNIT   
MUD .         GEL CHEN             : Mud_type     - MUD TYPE                    
MATR.         SANDSTONE            : Logunit      - NEUTRON MATRIX              
TMAX.C        27                   : BHT          - MAXIMUM RECORDED TEMPERATURE
BHTD.M        659.1                : BHTDEP       - MAXIMUM RECORDED TEMPERATURE
RMT .C        16.7                 : MDTP         - TEMPERATURE OF MUD          
MUDD.KG/M     1140                 : MWT          - MUD DENSITY                 
NEUT.         1                    : NEUTRON      - NEUTRON TYPE                
RESI.         0                    : RESIST       - RESISTIVITY TYPE            
RM  .OHMM     3                    : RM           - RESISTIVITY OF MUD          
RMC .OHMM     3.7                  : RMC          - RESISTIVITY OF MUD CAKE     
RMF .OHMM     3.2                  : RMF          - RESISTIVITY OF MUD FILTRATE 
SUFT.C        0                    : SUFT         - SURFACE TEMPERATURE         
~A  DEPTH     PHID     PHIN       GR      CAL     RESD
# ...
  622.500    0.144    0.368   95.078  162.620    4.838
  622.750    0.145    0.366   96.041  162.014    5.004
  623.000    0.142    0.360   96.119  162.034    5.224
  623.250    0.127    0.352   94.868  162.170    5.516
  623.500    0.095    0.334   90.576  161.873    5.793
  623.750    0.099    0.318   84.004  162.001    5.991
  624.000    0.114    0.329   83.891  162.233    6.056
  624.250    0.125    0.350   88.780  162.683    6.064
  624.500    0.133    0.344   92.152  162.598    6.072
  624.750    0.129    0.344   92.418  162.410    5.998
  625.000    0.122    0.353   91.294  162.123    5.915
  625.250    0.131    0.354   91.054  161.831    5.934
  625.500    0.142    0.352   92.143  161.529    5.885
  625.750    0.135    0.349   94.500  161.236    5.893
  626.000    0.130    0.345   92.994  161.055    5.889
  626.250    0.135    0.336   93.959  160.968    5.977
  626.500    0.138    0.329   96.252  160.781    6.064
  626.750    0.139    0.326   93.734  160.592    6.140
  627.000    0.141    0.330   88.364  157.025    6.184
  627.250    0.148    0.325   91.862  158.004    6.157
  627.500    0.149    0.321   96.055  159.817    6.129
  627.750    0.139    0.330   98.918  161.213    6.125
  628.000    0.113    0.339  100.009  162.079    6.098
  628.250    0.091    0.321   98.693  163.159    5.991
  628.500    0.085    0.306   91.425  164.025    5.762
  628.750    0.104    0.300   93.275  164.260    5.267
  629.000    0.122    0.322   99.370  164.392    4.660
  629.250    0.134    0.348  108.438  164.307    4.076
  629.500    0.139    0.367  114.405  164.118    3.539
  629.750    0.138    0.392  111.885  163.616    3.055
  630.000    0.139    0.415  104.617  160.788    2.587
  630.250    0.153    0.432  100.452  155.114    2.142
  630.500    0.177    0.451   98.566  157.037    1.852
  630.750    0.217    0.436   97.883  161.388    1.748
  631.000    0.207    0.417  100.367  164.997    1.734
  631.250    0.202    0.416  102.408  164.601    1.828
  631.500    0.201    0.434  102.738  162.830    1.916
  631.750    0.201    0.454  104.081  162.538    1.958
  632.000    0.201    0.456  108.591  162.457    1.987
  632.250    0.192    0.414  113.608  162.266    2.020
  632.500    0.158    0.402  110.456  162.608    2.093
  632.750    0.136    0.396  104.074  162.734    2.292
  633.000    0.122    0.388  103.835  162.654    2.813
  633.250    0.116    0.369  103.279  162.151    3.782
  633.500    0.114    0.354   99.748  161.326    4.642
  633.750    0.119    0.342   97.989  160.610    4.958
  634.000    0.127    0.345   99.016  159.582    4.965
  634.250    0.133    0.353  104.032  159.286    4.942
  634.500    0.128    0.366  108.162  159.313    4.893
  634.750    0.122    0.368  109.443  159.755    4.899
  635.000    0.113    0.362  106.606  160.307    5.193
  635.250    0.093    0.332  104.278  160.332    5.633
  635.500    0.064    0.312  104.039  159.929    5.936
  635.750    0.040    0.306   95.062  160.166    6.082
  636.000    0.065    0.315   91.276  160.506    5.828
  636.250    0.096    0.336   98.825  161.798    5.388
  636.500    0.130    0.352  107.324  163.084    4.906
  636.750    0.110    0.364  107.971  163.003    4.674
  637.000    0.061    0.351   96.778  162.921    4.575
  637.250    0.046    0.331   87.862  161.783    4.606
  637.500    0.066    0.319   98.769  160.962    4.737
  637.750    0.091    0.330  106.444  160.034    4.636
  638.000    0.110    0.345  113.297  160.796    4.269
  638.250    0.132    0.359  110.336  161.559    3.954
  638.500    0.117    0.367  106.043  161.903    4.215
  638.750    0.122    0.352  100.170  162.349    5.085
  639.000    0.119    0.336   97.016  162.579    5.750
  639.250    0.109    0.313   97.727  163.028    6.654
  639.500    0.104    0.310  101.224  163.049    7.120
  639.750    0.107    0.320  103.390  162.231    6.916
  640.000    0.106    0.329  105.622  161.194    6.528
  640.250    0.107    0.338  107.281  160.585    6.340
  640.500    0.114    0.345  108.626  160.925    6.253
  640.750    0.125    0.352  110.412  160.633    6.272
  641.000    0.143    0.337   98.015  160.338    6.364
  641.250    0.188    0.273   82.957  156.248    6.544
  641.500    0.299    0.249   49.789  152.364    6.794
  641.750    0.310    0.228   45.056  151.227    7.094
  642.000    0.305    0.215   44.815  151.568    7.364
  642.250    0.282    0.226   45.715  152.646    7.806
  642.500    0.265    0.244   46.679  153.834    8.306
  642.750    0.254    0.263   42.261  154.803    9.026
  643.000    0.242    0.281   42.910  155.567    9.827
  643.250    0.238    0.298   48.368  155.799   10.517
  643.500    0.235    0.302   52.436  156.249   10.232
  643.750    0.229    0.299   54.413  156.794    8.700
  644.000    0.222    0.291   57.719  157.558    8.026
  644.250    0.217    0.287   62.294  157.791    7.321
  644.500    0.213    0.293   62.497  157.182    6.731
  644.750    0.207    0.295   62.195  154.040    6.751
  645.000    0.193    0.289   61.891  149.630    6.903
  645.250    0.156    0.271   62.664  146.804    7.153
  645.500    0.067    0.236   60.336  148.093    7.410
  645.750    0.020    0.204   54.967  151.916    8.206
  646.000    0.011    0.178   50.421  154.789    9.957
  646.250    0.042    0.164   46.575  158.403   12.220
  646.500    0.051    0.159   46.145  161.698   14.576
  646.750    0.044    0.151   43.816  163.620   16.327
  647.000    0.038    0.141   36.040  163.958   19.623
  647.250    0.051    0.134   37.132  163.245   22.964
  647.500    0.059    0.135   38.791  161.895   23.613
  647.750    0.051    0.138   39.691  161.706   23.197
  648.000    0.048    0.149   40.718  161.944   21.484
  648.250    0.054    0.161   45.355  161.968   18.832
  648.500    0.060    0.170   48.029  161.989   17.113
  648.750    0.061    0.177   49.185  161.800   16.182
  649.000    0.062    0.181   51.540  161.086   15.305
  649.250    0.062    0.183   53.961  160.791   14.555
  649.500    0.061    0.188   54.987  160.498   13.766
  649.750    0.060    0.192   55.572  160.205   13.046
  650.000    0.060    0.198   55.713  158.961   12.552
