~VERSION INFORMATION
 VERS.                 2.0:   CWLS LOG ASCII STANDARD -VERSION 2.0
 WRAP.                  NO:   ONE LINE PER DEPTH STEP
~WELL INFORMATION BLOCK
#MNEM.UNIT           DATA                    DESCRIPTION OF MNEMONIC
#---------    -------------------            -------------------------------
# Generated from Intellog Unique Number	CW_73_75/WELL/927
WELL.         MANNVILLE ALGAS MARTENH 10-18  : Well_name    - WELL
LOC .         00/10-18-074-24W4/0            : Location     - LOCATION
UWI .         00/10-18-074-24W4/0            : Uwi          - UNIQUE WELL ID
ENTR.         JAYE                           : Entered      - ENTERED BY
SRVC.         SCHLUMBERGER                   : Scn          - SERVICE COMPANY
DATE.         7 DEC 80                       : Date         - LOG DATE
STRT.M        415                            : top_depth    - START DEPTH
STOP.M        645                            : bot_depth    - STOP DEPTH
STEP.M        0.25                           : increment    - STEP LENGTH
 NULL. -999.2500:NULL Value
~CURVE INFORMATION BLOCK
#MNEM UNIT       ERCB CURVE CODE    CURVE DESCRIPTION
#-----------   ------------------   ----------------------------------
DEPT.M        00 001 00 00         : DEPTH        - DEPTH
ILD .OHMM     00 120 00 00         : RESD         - DEEP RESISTIVITY (DIL)
NPHI.V/V      00 330 00 00         : PHIN         - NEUTRON POROSITY (SANDSTONE)
DPHI.V/V      00 890 00 00         : PHID         - DENSITY POROSITY (SANDSTONE)
CALI.MM       00 280 01 00         : CAL          - CALIPER
GR  .API      00 310 00 00         : GR           - GAMMA RAY
~PARAMETER INFORMATION
#MNEM.UNIT           DATA             DESCRIPTION OF MNEMONIC
#---------         -----------     ------------------------------
GL  .M        686.4                : gl           - GROUND LEVEL ELEVATION
EREF.M        689.5                : kb           - ELEVATION OF DEPTH REFERENCE
DATM.M        686.4                : datum        - DATUM ELEVATION
TDD .M        644                  : tdd          - TOTAL DEPTH DRILLER
RUN .         ONE                  : Run          - RUN NUMBER
BASE.         EDM                  : Branch       - HOME BASE OF LOGGING UNIT
MUD .         GEL CHEM             : Mud_type     - MUD TYPE
MATR.         SANDSTONE            : Logunit      - NEUTRON MATRIX
TMAX.C        33.3                 : BHT          - MAXIMUM RECORDED TEMPERATURE
BHTD.M        645.2                : BHTDEP       - MAXIMUM RECORDED TEMPERATURE
RMT .C        12.8                 : MDTP         - TEMPERATURE OF MUD
MUDD.KG/M     1190                 : MWT          - MUD DENSITY
NEUT.         1                    : NEUTRON      - NEUTRON TYPE
RESI.         0                    : RESIST       - RESISTIVITY TYPE
RM  .OHMM     3.2                  : RM           - RESISTIVITY OF MUD
RMC .OHMM     0                    : RMC          - RESISTIVITY OF MUD CAKE
RMF .OHMM     2.13                 : RMF          - RESISTIVITY OF MUD FILTRATE
SUFT.C        0                    : SUFT         - SURFACE TEMPERATURE
~A  DEPTH     RESD     PHIN     PHID      CAL       GR
  415.000    2.908    0.490    0.223  169.104  118.482
  415.250    2.859    0.468    0.218  165.795  115.871
  415.500    2.775    0.450    0.208  165.926  113.197
  415.750    2.653    0.472    0.205  169.500  111.150
  416.000    2.560    0.477    0.219  172.861  112.416
  416.250    2.503    0.487    0.225  175.808  112.995
  416.500    2.466    0.500    0.223  177.294  108.445
  416.750    2.452    0.509    0.217  177.425  107.586
  417.000    2.470    0.512    0.215  174.222  113.234
  417.250    2.484    0.485    0.218  169.872  118.255
  417.500    2.512    0.479    0.209  165.204  122.210
  417.750    2.550    0.505    0.200  164.607  122.666
  418.000    2.579    0.512    0.195  165.363  118.803
  418.250    2.588    0.503    0.203  166.851  116.131
  418.500    2.588    0.481    0.212  167.503  116.145
  418.750    2.588    0.472    0.206  165.760  113.785
  419.000    2.593    0.474    0.207  163.178  113.801
  419.250    2.583    0.498    0.235  160.079  112.505
  419.500    2.549    0.508    0.235  157.602  104.200
  419.750    2.428    0.502    0.209  158.779   96.522
  420.000    2.309    0.476    0.168  162.556   90.782
  420.250    2.236    0.465    0.186  168.319   95.804
  420.500    2.219    0.515    0.228  174.601  100.387
  420.750    2.308    0.539    0.275  165.247   94.084
  421.000    2.530    0.559    0.302  158.290   70.205
  421.250    2.917    0.468    0.306  152.997   62.714
  421.500    3.518    0.422    0.309  151.254   64.045
  421.750    4.872    0.415    0.296  152.012   69.503
  422.000    5.887    0.408    0.276  152.874   77.401
  422.250    5.524    0.395    0.251  153.626   83.673
  422.500    4.746    0.389    0.222  154.595   88.131
  422.750    4.298    0.392    0.205  155.245   85.582
  423.000    4.116    0.400    0.239  154.856   79.218
  423.250    4.063    0.411    0.275  153.532   72.416
  423.500    4.257    0.437    0.295  153.137   66.990
  423.750    4.817    0.472    0.300  152.748   63.941
  424.000    5.430    0.433    0.205  153.088   64.958
  424.250    5.853    0.358    0.139  153.637   71.293
  424.500    5.853    0.374    0.167  155.018   82.506
  424.750    5.471    0.415    0.220  157.027   95.910
  425.000    4.790    0.434    0.224  158.409  106.623
  425.250    4.100    0.437    0.223  158.440  119.400
  425.500    3.490    0.447    0.226  157.527  125.235
  425.750    3.293    0.491    0.235  155.680  120.310
  426.000    3.464    0.476    0.219  154.246  108.002
  426.250    3.847    0.417    0.221  153.333   96.509
  426.500    4.369    0.403    0.237  153.359   91.895
  426.750    4.639    0.403    0.269  153.908   90.222
  427.000    4.762    0.405    0.268  155.188   87.863
  427.250    4.825    0.419    0.259  155.841   81.310
  427.500    4.888    0.423    0.263  155.240   79.511
  427.750    5.018    0.397    0.270  153.916   82.405
  428.000    5.113    0.375    0.265  153.314   81.547
  428.250    5.229    0.370    0.247  152.820   81.563
  428.500    5.288    0.379    0.233  152.638   84.707
  428.750    5.288    0.383    0.216  152.356   92.855
  429.000    5.199    0.392    0.203  152.382  109.136
  429.250    5.046    0.436    0.212  151.781  108.590
  429.500    4.824    0.459    0.230  153.895  103.039
  429.750    4.560    0.430    0.227  157.779  104.056
  430.000    4.492    0.397    0.201  162.602  102.759
  430.250    4.620    0.415    0.221  163.777   95.519
  430.500    5.017    0.426    0.252  155.045   86.776
  430.750    5.458    0.420    0.280  150.798   73.593
  431.000    5.915    0.412    0.303  149.471   66.604
  431.250    6.545    0.404    0.290  148.977   63.304
  431.500    6.936    0.395    0.275  149.217   61.131
  431.750    6.631    0.410    0.263  149.552   62.838
  432.000    6.233    0.424    0.249  149.892   70.235
  432.250    5.816    0.438    0.249  150.442   80.885
  432.500    5.437    0.424    0.263  151.204   89.346
  432.750    5.178    0.401    0.252  152.168   95.807
  433.000    4.978    0.422    0.238  153.235   96.823
  433.250    4.868    0.441    0.218  154.307   91.085
  433.500    4.777    0.445    0.238  154.228   83.470
  433.750    4.822    0.431    0.265  153.315   76.981
  434.000    4.877    0.427    0.283  152.194   72.117
  434.250    5.006    0.421    0.287  150.975   71.571
  434.500    5.129    0.413    0.294  149.955   74.839
  434.750    5.177    0.400    0.289  149.774   75.981
  435.000    5.177    0.388    0.271  150.427   80.126
  435.250    5.139    0.392    0.247  153.270   97.908
  435.500    5.110    0.406    0.236  155.592  102.180
  435.750    5.071    0.408    0.226  156.347  102.760
  436.000    5.090    0.392    0.231  154.602  104.088
  436.250    5.109    0.379    0.236  152.438   96.535
  436.500    5.138    0.392    0.241  150.693   87.543
  436.750    5.245    0.389    0.249  149.782   80.303
  437.000    5.610    0.374    0.258  149.497   73.940
  437.250    6.149    0.372    0.260  149.739   68.575
  437.500    7.077    0.379    0.274  150.178   62.776
  437.750    7.713    0.377    0.287  150.413   57.160
  438.000    7.992    0.367    0.299  150.754   52.361
  438.250    7.800    0.356    0.310  150.991   52.314
  438.500    6.893    0.363    0.311  151.121   54.959
  438.750    5.813    0.382    0.301  151.565   63.043
  439.000    5.176    0.407    0.299  151.908   72.755
  439.250    4.678    0.415    0.299  151.931   64.452
  439.500    4.414    0.392    0.292  151.858   59.339
  439.750    4.180    0.372    0.282  151.678   55.539
  440.000    4.012    0.350    0.271  151.705   57.119
  440.250    3.850    0.334    0.262  152.041   75.902
  440.500    3.743    0.339    0.253  152.696   91.246
  440.750    3.743    0.382    0.245  153.451   95.703
  441.000    3.915    0.374    0.244  153.790  100.724
  441.250    4.095    0.357    0.242  153.817  104.369
  441.500    4.235    0.362    0.231  153.744  109.389
  441.750    4.291    0.374    0.228  153.771  105.153
  442.000    4.291    0.394    0.245  154.111   98.099
  442.250    4.011    0.413    0.265  154.240   89.858
  442.500    3.605    0.411    0.268  154.895  107.765
  442.750    3.258    0.420    0.244  156.483  121.357
  443.000    2.983    0.458    0.193  158.698  128.691
  443.250    2.758    0.521    0.142  159.667  121.265
  443.500    2.651    0.497    0.113  160.006  122.281
  443.750    2.549    0.473    0.126  161.283  124.049
  444.000    2.516    0.489    0.131  164.125  122.752
  444.250    2.573    0.536    0.172  174.682  120.767
  444.500    2.622    0.532    0.220  174.918  124.411
  444.750    2.722    0.508    0.221  173.490  130.933
  445.000    2.804    0.492    0.217  172.682  135.891
  445.250    2.928    0.504    0.233  171.981  139.913
  445.500    3.011    0.488    0.237  171.694  142.116
  445.750    3.143    0.470    0.227  171.617  130.561
  446.000    3.369    0.447    0.228  171.434  123.883
  446.250    3.776    0.421    0.235  171.460  122.086
  446.500    4.047    0.405    0.221  171.488  125.292
  446.750    4.070    0.420    0.213  171.621  129.687
  447.000    4.077    0.451    0.213  171.647  134.895
  447.250    4.170    0.479    0.221  169.378  113.893
  447.500    4.265    0.476    0.251  160.439   94.392
  447.750    4.289    0.415    0.282  154.212   84.900
  448.000    4.289    0.398    0.300  151.110   89.107
  448.250    4.256    0.416    0.293  151.139   93.440
  448.500    4.264    0.433    0.281  151.999   94.083
  448.750    4.240    0.444    0.265  152.548   93.786
  449.000    4.193    0.417    0.263  153.101   94.553
  449.250    4.107    0.394    0.268  153.438   98.074
  449.500    4.008    0.381    0.249  154.615  101.466
  449.750    3.949    0.403    0.228  156.201  106.925
  450.000    3.854    0.435    0.219  159.460  110.694
  450.250    3.740    0.457    0.237  161.783  110.336
  450.500    3.650    0.462    0.234  160.767  110.477
  450.750    3.562    0.464    0.230  157.352  106.051
  451.000    3.483    0.452    0.235  153.836   99.812
  451.250    3.437    0.446    0.257  151.883  101.393
