~VERSION INFORMATION
 VERS.                 2.0:   CWLS LOG ASCII STANDARD -VERSION 2.0
 WRAP.                  NO:   ONE LINE PER DEPTH STEP
~WELL INFORMATION BLOCK
#MNEM.UNIT           DATA                    DESCRIPTION OF MNEMONIC
#---------    -------------------            -------------------------------
# Generated from Intellog Unique Number	CS_73_76/WELL/3250
WELL.         CANADIAN SUPERIOR OIL          : Well_name    - WELL
LOC .         00/10-30-076-14W4/0            : Location     - LOCATION
UWI .         00/10-30-076-14W4/0            : Uwi          - UNIQUE WELL ID
ENTR.         SP                             : Entered      - ENTERED BY
SRVC.         SCHLUMBERGER                   : Scn          - SERVICE COMPANY
STRT.M        298.704                        : top_depth    - START DEPTH
STOP.M        526.954                        : bot_depth    - STOP DEPTH
STEP.M        0.25                           : increment    - STEP LENGTH
 NULL. -999.2500:NULL Value
~CURVE INFORMATION BLOCK
#MNEM UNIT       ERCB CURVE CODE    CURVE DESCRIPTION
#-----------   ------------------   ----------------------------------
DEPT.M        00 001 00 00         : DEPTH        - DEPTH
GR  .API      00 310 00 00         : GR           - GAMMA RAY
DPHI.V/V      00 890 00 00         : PHID         - DENSITY POROSITY (SANDSTONE)
NPHI.V/V      00 330 00 00         : PHIN         - NEUTRON POROSITY (SANDSTONE)
ILD .OHMM     00 120 00 00         : RESD         - DEEP RESISTIVITY (DIL)
~PARAMETER INFORMATION
#MNEM.UNIT           DATA             DESCRIPTION OF MNEMONIC
#---------         -----------     ------------------------------
GL  .M        681.076              : gl           - GROUND LEVEL ELEVATION
EREF.M        682.752              : kb           - ELEVATION OF DEPTH REFERENCE
DATM.M        681.076              : datum        - DATUM ELEVATION
TDD .M        549.25               : tdd          - TOTAL DEPTH DRILLER
RUN .         ONE                  : Run          - RUN NUMBER
ENG .         BILL                 : Engineer     - RECORDING ENGINEER
WIT .         JIM                  : Witness      - WITNESSED BY
MUD .         GEL                  : Mud_type     - MUD TYPE
MATR.         SANDSTONE            : Logunit      - NEUTRON MATRIX
TMAX.C        24.4444              : BHT          - MAXIMUM RECORDED TEMPERATURE
BHTD.M        549.25               : BHTDEP       - MAXIMUM RECORDED TEMPERATURE
MATR.         1                    : LOGUNIT      - NEUTRON MATRIX
RMT .C        25                   : MDTP         - TEMPERATURE OF MUD
NEUT.         1                    : NEUTRON      - NEUTRON TYPE
RESI.         0                    : RESIST       - RESISTIVITY TYPE
RMC .OHMM     0.25                 : RMC          - RESISTIVITY OF MUD CAKE
RMF .OHMM     0.25                 : RMF          - RESISTIVITY OF MUD FILTRATE
SUFT.C        15                   : SUFT         - SURFACE TEMPERATURE
~A  DEPTH       GR     PHID     PHIN     RESD
# ...
  472.704   87.368    0.299    0.590    2.063
  472.954   87.066    0.306    0.605    1.963
  473.204   88.020    0.302    0.587    1.951
  473.454   89.902    0.285    0.576    1.970
  473.704   92.549    0.271    0.561    2.033
  473.954   94.418    0.262    0.555    2.127
  474.204   95.952    0.264    0.565    2.281
  474.454   93.504    0.258    0.567    2.447
  474.704   90.478    0.243    0.560    2.773
  474.954   89.073    0.225    0.518    3.009
  475.204   89.859    0.209    0.464    3.571
  475.454   90.489    0.208    0.462    4.586
  475.704   87.865    0.211    0.473    5.313
  475.954   84.318    0.178    0.480    5.574
  476.204   81.308    0.158    0.476    5.573
  476.454   81.388    0.140    0.481    5.577
  476.704   84.794    0.156    0.469    5.481
  476.954   85.091    0.191    0.470    5.210
  477.204   83.998    0.201    0.455    5.071
  477.454   85.455    0.232    0.459    5.164
  477.704   85.451    0.222    0.460    5.381
  477.954   84.495    0.205    0.472    5.474
  478.204   82.167    0.182    0.476    5.724
  478.454   84.133    0.162    0.460    6.247
  478.704   82.337    0.151    0.444    6.984
  478.954   79.173    0.153    0.458    7.811
  479.204   72.540    0.181    0.464    8.134
  479.454   67.589    0.160    0.434    8.664
  479.704   67.338    0.131    0.325    8.937
  479.954   75.174    0.086    0.289    8.944
  480.204   81.520    0.108    0.308    8.839
  480.454   84.797    0.149    0.348    8.425
  480.704   83.094    0.164    0.376    8.041
  480.954   79.666    0.194    0.378    7.687
  481.204   79.474    0.182    0.367    7.429
  481.454   86.346    0.142    0.360    7.211
  481.704   92.022    0.150    0.375    7.355
  481.954   96.762    0.183    0.397    7.107
  482.204   95.976    0.195    0.422    6.817
  482.454   92.525    0.190    0.431    6.818
  482.704   89.893    0.176    0.443    6.809
  482.954   85.368    0.184    0.449    6.940
  483.204   83.926    0.163    0.438    6.948
  483.454   85.576    0.138    0.420    6.765
  483.704   87.014    0.157    0.430    6.362
  483.954   87.177    0.178    0.439    6.046
  484.204   89.631    0.190    0.451    5.745
  484.454   91.552    0.206    0.462    5.747
  484.704   92.209    0.193    0.464    5.928
  484.954   87.443    0.185    0.460    6.111
  485.204   83.849    0.170    0.450    6.693
  485.454   79.187    0.161    0.441    7.256
  485.704   75.078    0.141    0.417    7.892
  485.954   73.967    0.133    0.388    8.948
  486.204   74.662    0.154    0.393   10.152
  486.454   72.903    0.179    0.422   11.328
  486.704   67.232    0.202    0.437   12.405
  486.954   63.332    0.229    0.426   13.514
  487.204   68.022    0.251    0.412   13.478
  487.454   77.008    0.268    0.403   13.121
  487.704   87.424    0.278    0.411   12.469
  487.954   89.581    0.252    0.419   12.085
  488.204   87.679    0.241    0.420   11.896
  488.454   85.727    0.233    0.415   11.623
  488.704   91.818    0.245    0.407   11.466
  488.954   94.442    0.241    0.404   11.412
  489.204   91.679    0.255    0.409   11.219
  489.454   92.354    0.251    0.416   10.146
  489.704   97.010    0.227    0.408    9.639
  489.954  101.343    0.212    0.402    8.719
  490.204  106.336    0.200    0.397    8.532
  490.454  109.043    0.190    0.412    7.990
  490.704  111.019    0.187    0.430    7.514
  490.954  109.442    0.187    0.441    7.366
  491.204  107.434    0.192    0.441    7.609
  491.454  103.179    0.197    0.429    8.064
  491.704  101.247    0.209    0.426    8.670
  491.954   98.021    0.207    0.421    9.140
  492.204   91.590    0.208    0.417    9.609
  492.454   87.987    0.218    0.412    9.890
  492.704   82.777    0.243    0.398   10.192
  492.954   79.457    0.225    0.388   10.506
  493.204   76.741    0.206    0.372   10.841
  493.454   75.212    0.191    0.360   10.808
  493.704   77.793    0.183    0.372   10.690
  493.954   80.487    0.203    0.379   10.571
  494.204   83.521    0.216    0.376   10.378
  494.454   85.777    0.216    0.376   10.329
  494.704   87.264    0.198    0.379   10.008
  494.954   86.362    0.200    0.391    9.689
  495.204   86.327    0.208    0.407    9.614
  495.454   88.356    0.213    0.388    9.307
  495.704   89.633    0.187    0.371    8.931
  495.954   91.508    0.174    0.385    8.640
  496.204   92.964    0.158    0.395    8.503
  496.454   90.810    0.152    0.415    8.236
  496.704   85.162    0.173    0.420    8.183
  496.954   84.297    0.201    0.404    8.050
  497.204   83.478    0.209    0.383    8.044
  497.454   84.232    0.193    0.391    7.874
  497.704   86.260    0.187    0.398    7.786
  497.954   87.473    0.194    0.387    7.594
  498.204   89.481    0.202    0.382    7.453
  498.454   90.767    0.179    0.384    7.380
  498.704   92.569    0.170    0.394    7.183
  498.954   94.712    0.156    0.397    7.057
  499.204   96.190    0.142    0.388    6.976
  499.454   96.055    0.131    0.393    6.902
  499.704   98.218    0.140    0.403    6.802
  499.954   99.246    0.170    0.410    6.671
  500.204   99.443    0.190    0.417    6.541
  500.454   98.884    0.171    0.418    6.551
  500.704   98.950    0.149    0.412    6.550
  500.954  101.981    0.136    0.409    6.549
  501.204  103.469    0.163    0.409    6.549
  501.454  104.427    0.175    0.423    6.548
  501.704  105.402    0.181    0.418    6.548
  501.954  105.042    0.161    0.416    6.562
  502.204  103.893    0.174    0.427    6.424
  502.454  102.515    0.188    0.440    6.317
  502.704  100.083    0.159    0.446    6.212
  502.954   96.337    0.152    0.449    6.553
  503.204   97.492    0.163    0.414    6.320
  503.454  100.129    0.173    0.419    6.189
  503.704  101.981    0.183    0.428    6.070
  503.954  101.438    0.182    0.435    6.078
  504.204  100.247    0.154    0.437    6.074
  504.454   98.849    0.150    0.432    6.074
  504.704   99.407    0.132    0.424    5.955
  504.954  100.137    0.120    0.413    5.935
  505.204  101.732    0.120    0.392    5.861
  505.454  102.139    0.141    0.403    5.740
  505.704  101.641    0.156    0.418    5.733
  505.954  101.738    0.165    0.417    5.646
  506.204  101.007    0.168    0.412    5.651
  506.454  101.023    0.161    0.411    5.658
  506.704   98.959    0.153    0.420    5.837
  506.954   97.794    0.134    0.428    6.014
  507.204   97.506    0.121    0.435    6.196
  507.454  101.536    0.108    0.415    6.380
  507.704  106.624    0.116    0.420    6.539
  507.954  108.090    0.136    0.423    6.654
  508.204  110.254    0.146    0.421    6.867
  508.454  108.911    0.162    0.419    6.900
  508.704  106.350    0.173    0.414    6.903
  508.954  105.591    0.159    0.411    6.907
  509.204  105.631    0.135    0.409    6.924
  509.454  106.815    0.139    0.407    7.027
  509.704  104.259    0.164    0.408    7.224
  509.954  102.360    0.153    0.415    7.437
  510.204  100.467    0.152    0.420    7.779
  510.454   98.071    0.152    0.428    8.071
  510.704   94.530    0.153    0.443    8.761
  510.954   88.404    0.175    0.449    9.437
  511.204   80.931    0.197    0.419    9.859
  511.454   73.695    0.216    0.383   10.302
  511.704   74.654    0.234    0.362   10.629
  511.954   80.537    0.234    0.369   10.677
  512.204   80.556    0.198    0.399   10.870
  512.454   76.361    0.161    0.410   10.904
  512.704   73.823    0.188    0.403   10.683
  512.954   70.687    0.207    0.401   10.530
  513.204   71.257    0.215    0.408   10.441
  513.454   71.554    0.228    0.413   10.118
  513.704   74.519    0.212    0.415   10.021
  513.954   77.149    0.224    0.396    9.519
  514.204   78.095    0.214    0.383    9.074
  514.454   76.789    0.194    0.370    8.589
  514.704   76.920    0.180    0.361    8.128
  514.954   78.527    0.205    0.350    7.072
  515.204   78.995    0.176    0.351    6.139
  515.454   76.167    0.172    0.361    5.587
  515.704   70.125    0.187    0.361    5.185
  515.954   64.674    0.225    0.384    4.906
