~VERSION INFORMATION
 VERS.                 2.0:   CWLS LOG ASCII STANDARD -VERSION 2.0
 WRAP.                  NO:   ONE LINE PER DEPTH STEP
~WELL INFORMATION BLOCK
#MNEM.UNIT           DATA                    DESCRIPTION OF MNEMONIC
#---------    -------------------            -------------------------------
# Generated from Intellog Unique Number	CW_70_72/WELL/3029
NULL.         -999.25                        : NULL_VALUE
WELL.         CHIEFCO ET AL DANCING 11-12    : Well_name    - WELL              
LOC .         11-12-070-27W4                 : Location     - LOCATION          
UWI .         00/11-12-070-27W4/0            : Uwi          - UNIQUE WELL ID    
ENTR.         JAYE                           : Entered      - ENTERED BY        
SRVC.         SCHLUMBERGER                   : Scn          - SERVICE COMPANY   
DATE.         5 OCT 76                       : Date         - LOG DATE          
STRT.M        469.392                        : top_depth    - START DEPTH       
STOP.M        719.392                        : bot_depth    - STOP DEPTH        
STEP.M        0.25                           : increment    - STEP LENGTH       
~CURVE INFORMATION BLOCK
#MNEM UNIT       ERCB CURVE CODE    CURVE DESCRIPTION
#-----------   ------------------   ----------------------------------
DEPT.M        00 001 00 00         : DEPTH        - DEPTH                       
ILD .OHMM     00 120 00 00         : RESD         - DEEP RESISTIVITY (DIL)      
CALI.MM       00 280 01 00         : CAL          - CALIPER                     
GR  .API      00 310 00 00         : GR           - GAMMA RAY                   
NPHI.V/V      00 330 00 00         : PHIN         - NEUTRON POROSITY (SANDSTONE)
DPHI.V/V      00 890 00 00         : PHID         - DENSITY POROSITY (SANDSTONE)
~PARAMETER INFORMATION       
#MNEM.UNIT           DATA             DESCRIPTION OF MNEMONIC
#---------         -----------     ------------------------------
GL  .M        636.422              : gl           - GROUND LEVEL ELEVATION      
EREF.M        639.166              : kb           - ELEVATION OF DEPTH REFERENCE
DATM.M        636.422              : datum        - DATUM ELEVATION             
TDD .M        733.654              : tdd          - TOTAL DEPTH DRILLER         
RUN .         ONE                  : Run          - RUN NUMBER                  
ENG .         PAQUIN               : Engineer     - RECORDING ENGINEER          
WIT .         ERICKSON             : Witness      - WITNESSED BY                
BASE.         EDM                  : Branch       - HOME BASE OF LOGGING UNIT   
MUD .         GEL                  : Mud_type     - MUD TYPE                    
MATR.         SANDSTONE            : Logunit      - NEUTRON MATRIX              
TMAX.C        -17.7778             : BHT          - MAXIMUM RECORDED TEMPERATURE
BHTD.M        733.958              : BHTDEP       - MAXIMUM RECORDED TEMPERATURE
RMT .C        10.5556              : MDTP         - TEMPERATURE OF MUD          
MUDD.KG/M     1140                 : MWT          - MUD DENSITY                 
NEUT.         1                    : NEUTRON      - NEUTRON TYPE                
RESI.         0                    : RESIST       - RESISTIVITY TYPE            
RM  .OHMM     4.35                 : RM           - RESISTIVITY OF MUD          
RMC .OHMM     0.25                 : RMC          - RESISTIVITY OF MUD CAKE     
RMF .OHMM     3.86                 : RMF          - RESISTIVITY OF MUD FILTRATE 
SUFT.C        -17.7778             : SUFT         - SURFACE TEMPERATURE         
~A  DEPTH     RESD      CAL       GR     PHIN     PHID
# ...
  615.392    2.269  150.000   59.004    0.409    0.237
  615.642    2.133  150.091   59.965    0.394    0.201
  615.892    2.038  150.392   59.837    0.398    0.241
  616.142    1.965  150.685   56.439    0.415    0.254
  616.392    1.899  150.777   55.098    0.427    0.264
  616.642    1.920  150.663   55.697    0.418    0.246
  616.892    1.980  151.060   56.781    0.413    0.265
  617.142    2.446  151.561   56.773    0.409    0.275
  617.392    3.208  151.753   53.859    0.399    0.241
  617.642    3.877  153.792   50.037    0.365    0.194
  617.892    4.333  154.192   47.124    0.341    0.121
  618.142    4.429  154.895   44.512    0.313    0.050
  618.392    3.957  155.088   45.835    0.262    0.021
  618.642    3.433  154.974   49.281    0.188    0.058
  618.892    2.878  154.757   52.302    0.252    0.128
  619.142    2.425  154.128   55.807    0.348    0.188
  619.392    2.158  153.808   58.889    0.396    0.205
  619.642    1.964  153.592   57.791    0.416    0.225
  619.892    1.911  153.374   56.452    0.428    0.244
  620.142    2.067  152.951   54.627    0.432    0.260
  620.392    2.624  152.633   52.984    0.423    0.276
  620.642    3.505  152.619   51.464    0.406    0.227
  620.892    3.867  152.915   47.945    0.323    0.198
  621.142    3.867  152.802   46.909    0.268    0.144
  621.392    3.649  152.479   50.111    0.274    0.116
  621.642    3.331  152.263   50.891    0.339    0.124
  621.892    2.949  152.252   51.911    0.377    0.195
  622.142    2.481  152.136   53.662    0.395    0.230
  622.392    2.046  151.919   57.530    0.420    0.264
  622.642    1.899  151.806   60.793    0.430    0.265
  622.892    1.828  151.383   61.149    0.430    0.261
  623.142    1.831  151.061   58.780    0.434    0.257
  623.392    1.892  150.846   60.045    0.433    0.228
  623.642    2.035  150.730   62.157    0.420    0.246
  623.892    2.115  150.923   63.057    0.416    0.244
  624.142    2.258  150.706   63.475    0.436    0.226
  624.392    2.363  150.796   64.255    0.443    0.232
  624.642    2.403  150.989   65.640    0.434    0.238
  624.892    2.403  151.182   67.511    0.433    0.245
  625.142    2.360  151.272   69.078    0.438    0.248
  625.392    2.305  151.260   67.980    0.437    0.244
  625.642    2.135  151.452   60.828    0.451    0.235
  625.892    2.055  151.339   56.521    0.456    0.245
  626.142    2.004  151.325   58.996    0.440    0.258
  626.392    1.946  151.211   61.230    0.420    0.276
  626.642    1.929  150.891   64.007    0.420    0.281
  626.892    1.947  150.880   63.819    0.434    0.245
  627.142    2.015  150.867   61.873    0.451    0.255
  627.392    2.083  151.060   61.564    0.437    0.263
  627.642    2.129  151.251   62.344    0.432    0.264
  627.892    2.117  151.548   62.215    0.436    0.244
  628.142    2.083  151.845   64.450    0.443    0.248
  628.392    2.031  152.241   65.411    0.451    0.239
  628.642    2.049  152.332   63.344    0.451    0.245
  628.892    2.129  152.319   64.912    0.441    0.256
  629.142    2.253  152.614   66.358    0.435    0.268
  629.392    2.406  153.218   67.319    0.431    0.257
  629.642    2.518  153.924   67.736    0.427    0.228
  629.892    2.519  154.013   68.516    0.444    0.229
  630.142    2.464  154.002   69.478    0.458    0.242
  630.392    2.394  153.782   70.500    0.452    0.236
  630.642    2.359  153.261   71.159    0.442    0.234
  630.892    2.292  152.530   69.638    0.437    0.228
  631.142    2.321  152.209   67.390    0.434    0.214
  631.392    2.474  152.096   66.111    0.432    0.235
  631.642    2.691  151.980   65.923    0.424    0.235
  631.892    2.878  151.866   66.641    0.424    0.209
  632.142    3.007  152.161   66.452    0.430    0.181
  632.392    3.124  152.967   66.506    0.408    0.172
  632.642    3.159  153.777   67.771    0.393    0.186
  632.892    3.194  154.892   69.580    0.388    0.197
  633.142    3.218  155.599   69.816    0.387    0.189
  633.392    3.241  155.997   69.930    0.386    0.154
  633.642    3.301  156.393   70.044    0.381    0.159
  633.892    3.368  156.382   70.157    0.382    0.166
  634.142    3.474  155.959   71.542    0.395    0.168
  634.392    3.690  155.742   74.624    0.394    0.163
  634.642    3.983  155.525   78.007    0.384    0.148
  634.892    4.253  155.511   82.543    0.367    0.129
  635.142    4.600  156.732   86.714    0.359    0.135
  635.392    4.876  158.873   91.067    0.359    0.130
  635.642    5.095  159.988   94.269    0.358    0.130
  635.892    5.207  160.693   89.902    0.350    0.120
  636.142    5.031  161.195   85.474    0.351    0.122
  636.392    4.712  161.388   83.407    0.383    0.136
  636.642    4.627  161.478   81.765    0.397    0.137
  636.892    4.977  161.670   80.001    0.396    0.127
  637.142    5.060  161.451   75.816    0.392    0.115
  637.392    4.862  161.234   66.301    0.363    0.079
  637.642    4.595  161.018   64.356    0.344    0.060
  637.892    4.343  160.595   72.343    0.342    0.073
  638.142    4.016  160.481   81.480    0.373    0.105
  638.392    3.859  159.235   85.953    0.392    0.135
  638.642    4.189  158.611   85.280    0.388    0.147
  638.892    5.146  158.907   82.729    0.378    0.149
  639.142    5.975  160.841   77.332    0.366    0.103
  639.392    6.963  162.366   70.119    0.352    0.064
  639.642    8.085  162.969   64.359    0.332    0.043
  639.892    8.840  163.267   63.020    0.318    0.040
  640.142    7.532  163.561   66.585    0.308    0.049
  640.392    6.188  163.755   73.481    0.312    0.069
  640.642    5.320  163.536   82.437    0.362    0.134
  640.892    4.550  163.320   89.031    0.386    0.156
  641.142    4.169  162.796   91.747    0.398    0.157
  641.392    3.984  162.373   91.074    0.398    0.146
  641.642    3.884  161.745   92.097    0.396    0.155
  641.892    3.898  161.527   92.816    0.391    0.155
  642.142    3.942  161.414   93.293    0.389    0.144
  642.392    3.971  160.991   93.771    0.398    0.130
  642.642    3.993  160.875   94.551    0.410    0.127
  642.892    4.008  160.864   92.788    0.412    0.128
  643.142    4.023  160.237   93.931    0.408    0.121
  643.392    4.030  159.607   92.773    0.403    0.130
  643.642    4.030  159.085   91.010    0.396    0.149
  643.892    4.031  158.457   88.459    0.390    0.141
  644.142    4.053  157.313   85.544    0.387    0.141
  644.392    4.204  156.894   84.266    0.390    0.146
  644.642    4.376  156.880   83.229    0.376    0.139
  644.892    4.481  158.305   82.859    0.372    0.132
  645.142    4.441  159.215   82.368    0.373    0.123
  645.392    4.251  158.589   85.085    0.361    0.111
  645.642    4.085  156.833   88.288    0.353    0.104
  645.892    3.932  159.590   94.093    0.370    0.130
  646.142    3.975  159.986   96.872    0.374    0.130
  646.392    4.041  159.565   94.624    0.373    0.137
  646.642    4.108  159.244   90.922    0.379    0.145
  646.892    4.245  158.923   88.797    0.375    0.128
  647.142    4.443  158.808   90.727    0.365    0.077
  647.392    4.668  159.106   93.505    0.355    0.097
  647.642    4.711  159.399   96.950    0.357    0.112
  647.892    4.584  159.697   97.730    0.363    0.110
  648.142    4.485  160.608   98.448    0.358    0.090
  648.392    4.389  161.312  102.075    0.361    0.090
  648.642    4.279  161.917  107.336    0.391    0.118
  648.892    4.358  162.210  106.724    0.405    0.117
  649.142    4.479  162.198  101.267    0.384    0.108
  649.392    4.653  162.185   95.628    0.371    0.124
  649.642    4.679  161.250   89.685    0.356    0.126
  649.892    4.272  160.931   87.014    0.357    0.122
  650.142    3.542  160.818   87.794    0.373    0.122
  650.392    2.873  160.497   91.299    0.390    0.137
  650.642    2.435  160.690   93.412    0.407    0.146
  650.892    2.132  164.678   95.282    0.494    0.148
  651.142    1.922  171.228   96.667    0.515    0.166
  651.392    1.850  171.626   98.840    0.519    0.193
  651.642    1.908  170.587  100.226    0.528    0.176
