~VERSION INFORMATION
 VERS.                 2.0:   CWLS LOG ASCII STANDARD -VERSION 2.0
 WRAP.                  NO:   ONE LINE PER DEPTH STEP
~WELL INFORMATION BLOCK
#MNEM.UNIT           DATA                    DESCRIPTION OF MNEMONIC
#---------    -------------------            -------------------------------
# Generated from Intellog Unique Number	CS_67_68/WELL/2402
WELL.         MERLAND TWEEDIE                : Well_name    - WELL
LOC .         00/11-27-068-11W4/0            : Location     - LOCATION
UWI .         00/11-27-068-11W4/0            : Uwi          - UNIQUE WELL ID
ENTR.         TIM                            : Entered      - ENTERED BY
SRVC.         SCHLUMBERGER                   : Scn          - SERVICE COMPANY
STRT.M        300                            : top_depth    - START DEPTH
STOP.M        505                            : bot_depth    - STOP DEPTH
STEP.M        0.25                           : increment    - STEP LENGTH
 NULL. -999.2500:NULL Value
~CURVE INFORMATION BLOCK
#MNEM UNIT       ERCB CURVE CODE    CURVE DESCRIPTION
#-----------   ------------------   ----------------------------------
DEPT.M        00 001 00 00         : DEPTH        - DEPTH
DPHI.V/V      00 890 00 00         : PHID         - DENSITY POROSITY (SANDSTONE)
NPHI.V/V      00 330 00 00         : PHIN         - NEUTRON POROSITY (SANDSTONE)
CALI.MM       00 280 01 00         : CAL          - CALIPER
GR  .API      00 310 00 00         : GR           - GAMMA RAY
ILD .OHMM     00 120 00 00         : RESD         - DEEP RESISTIVITY (DIL)
~PARAMETER INFORMATION
#MNEM.UNIT           DATA             DESCRIPTION OF MNEMONIC
#---------         -----------     ------------------------------
GL  .M        615.5                : gl           - GROUND LEVEL ELEVATION
EREF.M        619                  : kb           - ELEVATION OF DEPTH REFERENCE
DATM.M        619                  : datum        - DATUM ELEVATION
TDD .M        516                  : tdd          - TOTAL DEPTH DRILLER
RUN .         ONE                  : Run          - RUN NUMBER
ENG .         BILL                 : Engineer     - RECORDING ENGINEER
WIT .         JIM                  : Witness      - WITNESSED BY
MUD .         GEL                  : Mud_type     - MUD TYPE
MATR.         SANDSTONE            : Logunit      - NEUTRON MATRIX
TMAX.C        22                   : BHT          - MAXIMUM RECORDED TEMPERATURE
BHTD.M        516                  : BHTDEP       - MAXIMUM RECORDED TEMPERATURE
MATR.         1                    : LOGUNIT      - NEUTRON MATRIX
RMT .C        22                   : MDTP         - TEMPERATURE OF MUD
NEUT.         1                    : NEUTRON      - NEUTRON TYPE
RESI.         0                    : RESIST       - RESISTIVITY TYPE
RMC .OHMM     4                    : RMC          - RESISTIVITY OF MUD CAKE
RMF .OHMM     4                    : RMF          - RESISTIVITY OF MUD FILTRATE
SUFT.C        5                    : SUFT         - SURFACE TEMPERATURE
~A  DEPTH     PHID     PHIN      CAL       GR     RESD
# ...
  409.500    0.275    0.481  186.907  100.776    2.247
  409.750    0.258    0.491  188.974  100.267    2.332
  410.000    0.250    0.502  190.069   99.758    2.562
  410.250    0.243    0.507  176.618   99.850    2.814
  410.500    0.231    0.502  173.826  100.471    3.033
  410.750    0.223    0.494  177.837  100.582    3.207
  411.000    0.230    0.479  180.846   97.704    3.393
  411.250    0.237    0.484  184.887   93.696    3.521
  411.500    0.253    0.481  176.234   90.873    3.520
  411.750    0.239    0.467  170.526   92.114    3.519
  412.000    0.217    0.442  166.794   93.956    3.452
  412.250    0.208    0.433  165.914   95.761    3.386
  412.500    0.240    0.462  164.125   92.919    3.321
  412.750    0.264    0.467  164.280   88.893    3.320
  413.000    0.274    0.465  164.342   83.136    3.196
  413.250    0.287    0.458  164.496   82.646    3.135
  413.500    0.287    0.453  163.679   86.219    3.017
  413.750    0.277    0.446  163.741   88.625    2.904
  414.000    0.265    0.431  162.892   89.884    2.849
  414.250    0.256    0.438  163.016   86.460    2.743
  414.500    0.243    0.448  162.199   81.268    2.690
  414.750    0.250    0.451  162.291   78.408    2.590
  415.000    0.279    0.445  162.477   73.253    2.493
  415.250    0.303    0.430  162.570   70.411    2.445
  415.500    0.311    0.425  162.724   69.884    2.354
  415.750    0.319    0.422  162.817   70.541    2.309
  416.000    0.329    0.417  162.971   71.198    2.265
  416.250    0.332    0.410  163.095   69.523    2.264
  416.500    0.330    0.407  163.219   67.848    2.263
  416.750    0.326    0.409  163.311   69.088    2.305
  417.000    0.327    0.414  164.438   69.746    2.393
  417.250    0.333    0.425  166.474   66.904    2.531
  417.500    0.339    0.434  168.572   66.979    2.627
  417.750    0.344    0.429  170.609   71.755    2.831
  418.000    0.340    0.422  171.704   74.726    2.939
  418.250    0.330    0.416  171.920   79.465    3.228
  418.500    0.307    0.413  171.982   84.805    3.414
  418.750    0.298    0.421  172.106   84.898    3.681
  419.000    0.272    0.427  171.289   83.204    4.120
  419.250    0.254    0.428  170.440   81.566    4.610
  419.500    0.235    0.426  169.561   81.603    4.969
  419.750    0.219    0.422  169.685   82.261    5.355
  420.000    0.206    0.415  168.868   79.419    5.560
  420.250    0.195    0.410  168.960   77.161    5.992
  420.500    0.183    0.389  170.087   76.671    6.220
  420.750    0.166    0.376  170.210   77.347    6.456
  421.000    0.122    0.357  170.334   77.985    6.453
  421.250    0.106    0.325  169.486   79.207    6.213
  421.500    0.123    0.323  168.668   80.466    5.759
  421.750    0.150    0.352  166.817   81.706    5.141
  422.000    0.175    0.366  166.910   82.947    4.589
  422.250    0.188    0.379  166.062   84.187    4.418
  422.500    0.201    0.401  166.186   83.697    4.095
  422.750    0.211    0.422  166.309   83.771    4.017
  423.000    0.228    0.402  165.523   84.410    3.941
  423.250    0.239    0.407  164.705   85.067    4.014
  423.500    0.229    0.418  163.795   86.307    4.326
  423.750    0.208    0.424  162.947   88.714    4.576
  424.000    0.196    0.420  163.102   90.537    4.750
  424.250    0.189    0.401  162.254   87.715    4.748
  424.500    0.192    0.386  164.321   85.456    4.657
  424.750    0.197    0.394  165.416   86.132    4.568
  425.000    0.201    0.405  166.481   87.335    4.482
  425.250    0.202    0.418  167.576   90.927    4.234
  425.500    0.205    0.430  168.703   92.750    3.999
  425.750    0.216    0.436  169.829   94.574    3.849
  426.000    0.236    0.432  169.891   96.397    3.636
  426.250    0.236    0.427  171.048   95.888    3.567
  426.500    0.234    0.426  171.141   93.630    3.566
  426.750    0.232    0.427  172.267   91.992    3.631
  427.000    0.225    0.434  172.391   91.465    3.699
  427.250    0.223    0.436  172.514   91.520    3.768
  427.500    0.221    0.431  169.753   91.613    3.839
  427.750    0.225    0.423  169.815   92.270    3.910
  428.000    0.227    0.429  168.998   91.743    4.058
  428.250    0.228    0.437  169.091   90.651    4.134
  428.500    0.227    0.450  169.245   91.364    4.211
  428.750    0.224    0.456  170.371   92.567    4.208
  429.000    0.224    0.453  170.433   94.390    4.129
  429.250    0.226    0.446  172.531   96.797    3.900
  429.500    0.220    0.441  172.624   98.620    3.684
  429.750    0.216    0.439  173.781   99.278    3.415
  430.000    0.215    0.437  173.905   99.953    3.165
  430.250    0.218    0.432  173.998   98.278    3.048
  430.500    0.223    0.428  176.065  100.120    2.720
  430.750    0.233    0.439  177.191  102.527    2.570
  431.000    0.243    0.459  178.287  104.332    2.428
  431.250    0.246    0.496  178.410  106.738    2.250
  431.500    0.252    0.540  178.565  106.229    2.208
  431.750    0.253    0.509  178.658  105.137    2.085
  432.000    0.232    0.501  178.812  105.795    2.007
  432.250    0.217    0.505  177.902  108.201    1.933
  432.500    0.220    0.516  176.082  111.209    1.860
  432.750    0.227    0.524  172.349  110.700    1.757
  433.000    0.237    0.537  169.558  109.025    1.723
  433.250    0.247    0.546  169.712  105.619    1.723
  433.500    0.256    0.547  170.777  103.361    1.722
  433.750    0.259    0.548  172.875  102.269    1.788
  434.000    0.253    0.541  174.942  101.760    1.821
  434.250    0.238    0.526  174.094  101.834    1.926
  434.500    0.227    0.513  172.274  103.075    2.076
  434.750    0.217    0.490  173.369  103.732    2.323
  435.000    0.214    0.481  174.434  103.806    2.601
  435.250    0.227    0.475  175.529  102.131    2.911
  435.500    0.247    0.467  177.627   99.854    3.447
  435.750    0.263    0.460  177.720   98.179    3.932
  436.000    0.283    0.451  173.016   97.106    4.319
  436.250    0.236    0.442  168.249   95.412    5.019
  436.500    0.188    0.427  164.485   91.405    5.210
  436.750    0.125    0.415  161.724   85.629    5.109
  437.000    0.082    0.401  161.879   81.640    5.013
  437.250    0.071    0.360  162.944   86.379    4.825
  437.500    0.121    0.385  163.036   89.369    4.558
  437.750    0.147    0.402  165.165   89.443    4.225
  438.000    0.162    0.412  165.258   88.953    4.068
  438.250    0.184    0.424  165.351   88.444    4.066
  438.500    0.204    0.424  165.505   87.935    4.220
  438.750    0.202    0.411  164.657   88.028    4.634
  439.000    0.195    0.402  164.781   88.065    4.811
  439.250    0.190    0.395  164.904   86.991    5.284
  439.500    0.168    0.397  164.056   84.733    5.485
  439.750    0.121    0.389  164.211   80.707    6.256
  440.000    0.080    0.374  165.306   70.850    6.872
  440.250    0.005    0.354  165.430   59.845    7.691
  440.500   -0.002    0.317  165.553   63.418    7.544
  440.750    0.031    0.250  165.677   75.756    6.862
  441.000    0.077    0.238  164.829   82.263    6.243
  441.250    0.113    0.293  163.981   87.603    5.469
  441.500    0.149    0.337  163.163   90.010    4.975
  441.750    0.170    0.368  163.225   91.250    4.790
  442.000    0.181    0.395  163.349   91.324    4.525
  442.250    0.151    0.412  164.475   90.232    4.194
  442.500    0.160    0.419  164.630   90.306    4.037
  442.750    0.171    0.415  164.753   92.130    3.960
  443.000    0.174    0.401  165.818   93.370    3.959
  443.250    0.180    0.407  165.941   94.028    3.957
  443.500    0.187    0.410  166.096   95.286    3.955
  443.750    0.197    0.403  166.189   98.276    3.954
  444.000    0.186    0.397  166.343  100.683    4.027
  444.250    0.167    0.410  166.436  101.340    4.101
  444.500    0.198    0.416  165.618   99.646    4.179
  444.750    0.207    0.411  164.770   96.222    4.337
  445.000    0.221    0.408  164.925   92.214    4.417
  445.250    0.224    0.411  165.018   90.539    4.499
  445.500    0.213    0.416  166.082   90.049    4.583
  445.750    0.196    0.408  166.237   95.935    4.582
