~VERSION INFORMATION
 VERS.                 2.0:   CWLS LOG ASCII STANDARD -VERSION 2.0
 WRAP.                  NO:   ONE LINE PER DEPTH STEP
~WELL INFORMATION BLOCK
#MNEM.UNIT           DATA                    DESCRIPTION OF MNEMONIC
#---------    -------------------            -------------------------------
# Generated from Intellog Unique Number	CS_71_72/WELL/2058
WELL.         MIC MAC LAC LA BICHE           : Well_name    - WELL
LOC .         00/10-21-071-14W4/0            : Location     - LOCATION
UWI .         00/10-21-071-14W4/0            : Uwi          - UNIQUE WELL ID
ENTR.         T                              : Entered      - ENTERED BY
SRVC.         SCHLUMBERGER                   : Scn          - SERVICE COMPANY
STRT.M        344.424                        : top_depth    - START DEPTH
STOP.M        548.674                        : bot_depth    - STOP DEPTH
STEP.M        0.25                           : increment    - STEP LENGTH
 NULL. -999.2500:NULL Value
~CURVE INFORMATION BLOCK
#MNEM UNIT       ERCB CURVE CODE    CURVE DESCRIPTION
#-----------   ------------------   ----------------------------------
DEPT.M        00 001 00 00         : DEPTH        - DEPTH
ILD .OHMM     00 120 00 00         : RESD         - DEEP RESISTIVITY (DIL)
GR  .API      00 310 00 00         : GR           - GAMMA RAY
DELT.US/F     00 520 00 00         : DELT         - SONIC TRAVEL TIME
~PARAMETER INFORMATION
#MNEM.UNIT           DATA             DESCRIPTION OF MNEMONIC
#---------         -----------     ------------------------------
GL  .M        654.832              : gl           - GROUND LEVEL ELEVATION
EREF.M        658.002              : kb           - ELEVATION OF DEPTH REFERENCE
DATM.M        658.002              : datum        - DATUM ELEVATION
TDD .M        573.024              : tdd          - TOTAL DEPTH DRILLER
RUN .         ONE                  : Run          - RUN NUMBER
ENG .         BILL                 : Engineer     - RECORDING ENGINEER
WIT .         JIM                  : Witness      - WITNESSED BY
MUD .         GEL                  : Mud_type     - MUD TYPE
MATR.         SANDSTONE            : Logunit      - NEUTRON MATRIX
TMAX.C        25.5556              : BHT          - MAXIMUM RECORDED TEMPERATURE
BHTD.M        573.024              : BHTDEP       - MAXIMUM RECORDED TEMPERATURE
RMT .C        25                   : MDTP         - TEMPERATURE OF MUD
MUDD.KG/M     9841.66              : MWT          - MUD DENSITY
NEUT.         1                    : NEUTRON      - NEUTRON TYPE
RESI.         0                    : RESIST       - RESISTIVITY TYPE
RM  .OHMM     3.4                  : RM           - RESISTIVITY OF MUD
RMC .OHMM     2.45                 : RMC          - RESISTIVITY OF MUD CAKE
RMF .OHMM     3.3                  : RMF          - RESISTIVITY OF MUD FILTRATE
SUFT.C        4                    : SUFT         - SURFACE TEMPERATURE
~A  DEPTH     RESD       GR     DELT
  344.424    4.380   77.274  384.208
  344.674    4.469   84.343  384.137
  344.924    4.478   90.422  420.272
  345.174    4.482   89.469  445.666
  345.424    4.573   87.012  448.294
  345.674    4.663   86.047  444.872
  345.924    4.752   82.086  389.144
  346.174    5.088   78.112  395.774
  346.424    5.592   70.641  407.784
  346.674    5.927   65.677  464.040
  346.924    6.347   61.716  465.962
  347.174    6.768   58.745  418.963
  347.424    6.693   56.790  416.882
  347.674    6.370   54.834  414.801
  347.924    6.212   56.889  409.369
  348.174    6.136   59.446  404.607
  348.424    6.144   62.517  398.487
  348.674    6.066   64.071  393.055
  348.924    5.828   63.632  393.654
  349.174    5.589   62.691  400.955
  349.424    5.510   62.215  407.603
  349.674    5.436   63.267  402.841
  349.924    5.445   66.326  399.401
  350.174    5.449   69.396  401.341
  350.424    5.621   71.940  399.930
  350.674    5.796   77.004  399.189
  350.924    5.802   83.597  406.507
  351.174    5.891   85.138  397.707
  351.424    5.897   87.695  403.015
  351.674    5.826   92.269  394.214
  351.924    5.832   93.811  394.813
  352.174    5.835   93.861  426.275
  352.424    5.679   81.865  438.936
  352.674    5.602   71.888  400.650
  352.924    5.447   62.424  436.114
  353.174    5.288   56.934  450.804
  353.424    5.130   50.967  459.445
  353.674    4.973   61.044  468.086
  353.924    4.814   64.127  474.734
  354.174    4.736   63.175  465.263
  354.424    4.745   63.726  449.109
  354.674    5.000   65.769  408.794
  354.924    5.337   68.338  400.681
  355.174    5.673   67.886  390.540
  355.424    5.927   64.414  381.758
  355.674    6.184   61.443  366.926
  355.924    6.273   70.029  382.956
  356.174    6.280   71.595  391.597
  356.424    6.207   71.645  384.825
  356.674    6.130   68.687  380.733
  356.924    6.052   65.215  384.013
  357.174    5.812   61.742  399.373
  357.424    5.408   55.776  424.785
  357.674    5.167   59.335  428.065
  357.924    4.929   67.419  417.254
  358.174    4.851   73.486  409.811
  358.424    4.778   79.565  397.678
  358.674    4.783   82.610  390.888
  358.924    5.120   87.699  396.866
  359.174    5.375   90.243  398.135
  359.424    5.380   92.299  404.766
  359.674    5.470   94.354  410.726
  359.924    5.477   95.920  415.346
  360.174    5.484   96.973  416.616
  360.424    5.493   97.023  417.233
  360.674    5.337   96.571  421.165
  360.924    5.258   95.105  419.083
  361.174    5.100   93.650  420.371
  361.424    4.859   93.211  415.609
  361.674    4.541   93.249  430.951
  361.924    4.461   93.298  441.620
  362.174    4.303   93.862  447.581
  362.424    4.146   94.902  453.541
  362.674    3.988   99.477  458.831
  362.924    3.915  103.024  464.792
  363.174    3.836  107.110  466.749
  363.424    3.927  103.136  466.008
  363.674    4.098   93.146  463.891
  363.924    4.270   87.681  461.157
  364.174    4.607   81.200  431.582
  364.424    5.028   79.245  425.480
  364.674    5.366   77.790  397.245
  364.924    5.870   73.829  369.681
  365.174    6.207   70.370  365.589
  365.424    6.377   70.921  378.921
  365.674    6.549   72.989  384.211
  365.924    6.558   74.029  389.519
  366.174    6.485   76.097  396.149
  366.424    6.488   78.653  400.770
  366.674    6.414   81.198  408.070
  366.924    6.176   84.757  419.409
  367.174    5.768   89.344  429.391
  367.424    5.526   91.888  438.049
  367.674    5.040   95.448  449.371
  367.924    4.797   99.007  450.640
  368.174    4.557   98.556  445.878
  368.424    4.566   92.088  437.096
  368.674    4.654   90.634  391.419
  368.924    4.743   93.692  394.029
  369.174    4.998   97.765  407.379
  369.424    5.172   94.794  413.991
  369.674    5.342   90.332  402.528
  369.924    5.600   86.897  384.363
  370.174    5.688   87.924  378.226
  370.424    5.859   88.977  381.541
  370.674    6.032   88.024  393.533
  370.924    6.122   85.555  399.475
  371.174    6.129   81.606  399.404
  371.424    6.052   79.136  398.663
  371.674    5.976   76.680  396.564
  371.924    5.820   73.220  393.830
  372.174    5.745   76.290  392.437
  372.424    5.836   79.336  390.338
  372.674    5.841   84.901  390.937
  372.924    6.014   90.980  395.575
  373.174    6.101   93.035  399.525
  373.424    6.110   90.578  394.093
  373.674    6.116   87.620  394.692
  373.924    6.126   84.147  398.642
  374.174    6.049   81.703  401.269
  374.424    6.054   84.247  405.889
  374.674    6.063   86.315  407.829
  374.924    6.068   86.365  407.088
  375.174    6.160   86.415  411.038
  375.424    6.165   87.981  416.310
  375.674    6.176   88.031  418.938
  375.924    6.099   87.579  418.867
  376.174    6.023   87.642  402.695
  376.424    6.028   88.669  408.003
  376.674    5.953   91.728  413.293
  376.924    5.881   95.287  420.593
  377.174    5.802   98.847  420.522
  377.424    5.644   99.398  407.031
  377.674    5.321   96.941  409.658
  377.924    4.917   93.493  414.278
  378.174    4.759   91.525  418.228
  378.424    4.765   88.567  420.803
  378.674    4.937   85.095  421.419
  378.924    4.946   81.635  421.384
  379.174    4.868   82.713  419.937
  379.424    4.793   83.239  419.214
  379.674    4.882   84.291  413.782
  379.924    5.385   80.832  396.940
  380.174    6.052   75.366  396.869
  380.424    6.391   67.896  400.836
  380.674    6.316   64.925  406.127
  380.924    6.077   70.502  407.361
  381.174    5.915   77.070  407.307
  381.424    5.675   78.135  407.254
  381.674    5.601   75.665  403.833
  381.924    5.689   70.702  393.709
  382.174    5.944   66.728  388.242
  382.424    7.273   60.774  390.181
  382.674    8.518   55.797  388.788
  382.924   12.490   52.852  366.602
  383.174   12.250   59.407  316.235
  383.424   11.347   61.462  328.897
  383.674   10.115   62.515  354.979
  383.924    9.131   64.069  373.690
  384.174    8.230   65.635  403.106
  384.424    7.579   67.691  403.723
  384.674    7.173   69.746  404.322
  384.924    6.850   71.814  404.921
  385.174    6.610   74.371  406.190
  385.424    6.371   76.426  408.800
  385.674    6.294   77.478  410.739
  385.924    6.217   77.528  412.009
  386.174    6.143   77.064  413.278
  386.424    6.066   79.132  415.235
  386.674    6.071   81.188  418.515
  386.924    5.997   81.739  424.476
  387.174    5.920   81.776  436.467
  387.424    5.846   80.823  434.386
  387.674    5.852   78.868  420.242
  387.924    5.778   80.422  424.192
  388.174    5.703   82.978  437.542
  388.424    5.708   85.034  436.783
  388.674    5.636   85.096  422.639
  388.924    5.641   85.146  413.186
  389.174    5.647   84.180  409.076
  389.424    5.654   79.217  400.276
  389.674    5.663   75.255  405.584
  389.924    5.836   73.801  410.222
  390.174    6.009   74.352  415.512
  390.424    6.014   75.919  422.125
  390.674    6.025   76.971  424.752
  390.924    5.946   78.037  417.980
  391.174    5.870   78.563  413.200
  391.424    5.384   79.628  413.817
  391.674    5.222   80.693  415.739
  391.924    4.983   80.730  415.668
  392.174    4.906   80.266  413.586
  392.424    4.998   78.812  411.505
  392.674    5.335   77.859  410.094
  392.924    5.756   77.408  407.342
  393.174    6.094   78.962  405.931
  393.424    6.348   81.518  406.548
  393.674    6.603   82.571  407.147
  393.924    6.691   77.118  409.722
  394.174    6.945   73.145  410.356
  394.424    7.037   72.204  407.605
  394.674    7.042   75.250  398.804
  394.924    7.051   79.311  393.354
  395.174    7.056   81.880  394.606
  395.424    7.063   81.416  395.911
  395.674    7.070   78.470  400.531
  395.924    7.077   77.003  403.158
  396.174    7.085   77.555  397.038
  396.424    7.093   77.103  394.287
  396.674    7.099   73.142  392.206
  396.924    7.271   70.183  393.457
  397.174    7.443   71.236  395.414
  397.424    7.452   73.291  397.354
  397.674    7.378   74.858  399.964
  397.924    7.299   75.910  400.563
  398.174    7.143   75.459  395.801
  398.424    7.068   74.493  393.684
