~VERSION INFORMATION
 VERS.                 2.0:   CWLS LOG ASCII STANDARD -VERSION 2.0
 WRAP.                  NO:   ONE LINE PER DEPTH STEP
~WELL INFORMATION BLOCK
#MNEM.UNIT           DATA                    DESCRIPTION OF MNEMONIC
#---------    -------------------            -------------------------------
# Generated from Intellog Unique Number	CS_77_79/WELL/998
WELL.         MESA HB THORNBURY              : Well_name    - WELL
LOC .         00/11-25-078-13W4/0            : Location     - LOCATION
UWI .         00/11-25-078-13W4/0            : Uwi          - UNIQUE WELL ID
ENTR.         JHS                            : Entered      - ENTERED BY
SRVC.         SCHLUMBERGER                   : Scn          - SERVICE COMPANY
STRT.M        253.234                        : top_depth    - START DEPTH
STOP.M        475.234                        : bot_depth    - STOP DEPTH
STEP.M        0.25                           : increment    - STEP LENGTH
 NULL. -999.2500:NULL Value
~CURVE INFORMATION BLOCK
#MNEM UNIT       ERCB CURVE CODE    CURVE DESCRIPTION
#-----------   ------------------   ----------------------------------
DEPT.M        00 001 00 00         : DEPTH        - DEPTH
RHOB.KG/M3    00 350 00 00         : DENS         - BULK DENSITY
GR  .API      00 310 00 00         : GR           - GAMMA RAY
DPHI.V/V      00 890 00 00         : PHID         - DENSITY POROSITY (SANDSTONE)
NPHI.V/V      00 330 00 00         : PHIN         - NEUTRON POROSITY (SANDSTONE)
ILD .OHMM     00 120 00 00         : RESD         - DEEP RESISTIVITY (DIL)
~PARAMETER INFORMATION
#MNEM.UNIT           DATA             DESCRIPTION OF MNEMONIC
#---------         -----------     ------------------------------
GL  .M        669.127              : gl           - GROUND LEVEL ELEVATION
EREF.M        673.349              : kb           - ELEVATION OF DEPTH REFERENCE
DATM.M        673.349              : datum        - DATUM ELEVATION
TDD .M        486.156              : tdd          - TOTAL DEPTH DRILLER
RUN .         ONE                  : Run          - RUN NUMBER
ENG .         BILL                 : Engineer     - RECORDING ENGINEER
WIT .         JIM                  : Witness      - WITNESSED BY
MUD .         GEL                  : Mud_type     - MUD TYPE
MATR.         SANDSTONE            : Logunit      - NEUTRON MATRIX
TMAX.C        60                   : BHT          - MAXIMUM RECORDED TEMPERATURE
BHTD.M        486.156              : BHTDEP       - MAXIMUM RECORDED TEMPERATURE
MATR.         1                    : LOGUNIT      - NEUTRON MATRIX
RMT .C        25                   : MDTP         - TEMPERATURE OF MUD
NEUT.         1                    : NEUTRON      - NEUTRON TYPE
RESI.         0                    : RESIST       - RESISTIVITY TYPE
RMC .OHMM     0.25                 : RMC          - RESISTIVITY OF MUD CAKE
RMF .OHMM     0.25                 : RMF          - RESISTIVITY OF MUD FILTRATE
SUFT.C        15                   : SUFT         - SURFACE TEMPERATURE
~A  DEPTH     DENS       GR     PHID     PHIN     RESD
# ...
  362.734    0.000   82.933    0.215    0.546    5.677
  362.984   -0.000   71.865    0.268    0.494    6.424
  363.234   -0.000   64.609    0.276    0.468    7.010
  363.484   -0.000   66.452    0.291    0.453    7.290
  363.734    0.000   68.932    0.279    0.465    7.444
  363.984    0.000   70.965    0.290    0.445    7.268
  364.234   -0.000   71.898    0.310    0.437    7.288
  364.484   -0.000   74.674    0.309    0.449    7.155
  364.734   -0.000   74.928    0.272    0.466    7.025
  364.984    0.000   76.513    0.259    0.490    7.268
  365.234    0.000   82.112    0.216    0.499    7.850
  365.484    0.000   82.889    0.169    0.482    8.887
  365.734   -0.000   81.320    0.126    0.410    9.618
  365.984   -0.000   81.589    0.081    0.370    9.608
  366.234   -0.000   87.485    0.078    0.362    9.116
  366.484    0.000   89.344    0.160    0.418    8.509
  366.734    0.000   90.194    0.212    0.463    7.802
  366.984    0.000   88.465    0.229    0.483    7.283
  367.234   -0.000   86.160    0.246    0.480    6.916
  367.484   -0.000   85.212    0.247    0.476    6.882
  367.734    0.000   84.284    0.228    0.477    7.007
  367.984    0.000   81.679    0.240    0.471    7.238
  368.234    0.000   79.101    0.249    0.469    7.278
  368.484   -0.000   77.578    0.248    0.477    7.410
  368.734   -0.000   78.840    0.250    0.489    7.423
  368.984   -0.000   82.567    0.231    0.486    7.429
  369.234    0.000   85.111    0.209    0.460    7.315
  369.484    0.000   85.559    0.214    0.465    7.304
  369.734    0.000   86.654    0.239    0.476    7.148
  369.984   -0.000   84.722    0.221    0.493    7.155
  370.234   -0.000   82.164    0.220    0.496    7.160
  370.484    0.000   79.933    0.236    0.487    7.023
  370.734    0.000   78.445    0.234    0.492    6.791
  370.984    0.000   79.959    0.237    0.488    6.704
  371.234   -0.000   84.370    0.214    0.498    6.519
  371.484   -0.000   88.055    0.204    0.489    6.259
  371.734   -0.000   88.461    0.211    0.492    6.154
  371.984    0.000   88.916    0.201    0.511    6.383
  372.234    0.000   90.470    0.197    0.520    6.503
  372.484    0.000   89.613    0.214    0.509    6.650
  372.734   -0.000   87.939    0.232    0.498    6.905
  372.984   -0.000   87.614    0.236    0.476    6.899
  373.234   -0.000   87.885    0.201    0.465    6.758
  373.484    0.000   86.848    0.214    0.472    6.639
  373.734    0.000   85.925    0.227    0.469    6.474
  373.984   -0.000   87.206    0.212    0.459    6.274
  374.234   -0.000   88.190    0.207    0.472    6.192
  374.484   -0.000   89.033    0.214    0.480    6.285
  374.734    0.000   88.519    0.229    0.464    6.271
  374.984    0.000   87.829    0.234    0.463    6.280
  375.234    0.000   87.920    0.247    0.486    6.136
  375.484   -0.000   89.472    0.240    0.487    5.966
  375.734   -0.000   90.318    0.242    0.467    5.430
  375.984   -0.000   90.971    0.244    0.463    4.795
  376.234    0.000   90.954    0.234    0.483    4.104
  376.484    0.000   91.111    0.225    0.503    3.529
  376.734   -0.000   92.164    0.209    0.519    3.248
  376.984   -0.000   92.883    0.221    0.547    3.217
  377.234   -0.000   92.024    0.234    0.567    3.328
  377.484    0.000   90.513    0.224    0.550    3.368
  377.734    0.000   88.123    0.221    0.539    3.616
  377.984    0.000   86.439    0.231    0.523    3.884
  378.234   -0.000   87.080    0.230    0.526    4.187
  378.484   -0.000   88.565    0.223    0.539    4.653
  378.734   -0.000   88.523    0.229    0.495    4.929
  378.984    0.000   91.128    0.236    0.462    5.000
  379.234    0.000   94.436    0.219    0.471    5.119
  379.484    0.000   95.829    0.201    0.506    5.004
  379.734   -0.000   94.311    0.216    0.520    5.010
  379.984   -0.000   91.835    0.212    0.522    5.032
  380.234    0.000   91.568    0.206    0.505    5.103
  380.484    0.000   91.055    0.210    0.502    5.212
  380.734    0.000   87.398    0.201    0.500    5.419
  380.984   -0.000   84.979    0.200    0.485    5.589
  381.234   -0.000   84.419    0.220    0.486    5.712
  381.484   -0.000   85.379    0.229    0.496    5.842
  381.734    0.000   83.179    0.238    0.511    5.925
  381.984    0.000   83.361    0.255    0.491    6.059
  382.234    0.000   87.605    0.282    0.487    6.050
  382.484   -0.000   92.774    0.269    0.510    6.160
  382.734   -0.000   90.697    0.235    0.508    6.361
  382.984    0.000   87.918    0.211    0.461    6.640
  383.234    0.000   85.509    0.203    0.449    6.859
  383.484    0.000   86.418    0.217    0.448    6.885
  383.734   -0.000   87.368    0.213    0.442    7.019
  383.984   -0.000   85.740    0.225    0.443    7.017
  384.234   -0.000   84.067    0.230    0.452    6.985
  384.484    0.000   83.087    0.227    0.457    6.759
  384.734    0.000   83.009    0.225    0.453    6.766
  384.984    0.000   79.083    0.243    0.442    6.768
  385.234   -0.000   75.420    0.249    0.426    6.759
  385.484   -0.000   78.369    0.273    0.437    6.951
  385.734   -0.000   82.412    0.285    0.456    7.166
  385.984    0.000   79.031    0.265    0.484    7.392
  386.234    0.000   71.196    0.273    0.491    7.631
  386.484   -0.000   70.198    0.281    0.471    7.723
  386.734   -0.000   69.484    0.292    0.473    7.722
  386.984   -0.000   69.337    0.304    0.477    7.715
  387.234    0.000   64.460    0.291    0.475    7.855
  387.484    0.000   62.129    0.280    0.472    7.851
  387.734    0.000   62.292    0.303    0.476    8.030
  387.984   -0.000   62.714    0.293    0.488    8.014
  388.234   -0.000   65.374    0.296    0.519    7.951
  388.484   -0.000   65.853    0.310    0.536    7.864
  388.734    0.000   64.443    0.298    0.543    7.710
  388.984    0.000   62.730    0.311    0.522    7.671
  389.234    0.000   62.824    0.303    0.495    7.580
  389.484   -0.000   64.000    0.292    0.482    7.427
  389.734   -0.000   63.729    0.275    0.495    7.438
  389.984    0.000   66.994    0.278    0.485    7.437
  390.234    0.000   68.811    0.304    0.473    7.360
  390.484    0.000   68.128    0.320    0.494    7.304
  390.734   -0.000   62.817    0.327    0.513    7.298
  390.984   -0.000   60.001    0.325    0.511    7.232
  391.234   -0.000   59.775    0.321    0.514    7.155
  391.484    0.000   59.767    0.320    0.503    7.017
  391.734    0.000   59.762    0.330    0.486    7.267
  391.984    0.000   59.761    0.341    0.486    7.740
  392.234   -0.000   60.584    0.350    0.502    8.126
  392.484   -0.000   61.674    0.334    0.515    8.293
  392.734    0.000   61.018    0.334    0.507    8.179
  392.984    0.000   59.964    0.340    0.515    7.782
  393.234    0.000   59.777    0.343    0.521    7.389
  393.484   -0.000   59.809    0.331    0.504    7.189
  393.734   -0.000   59.112    0.319    0.499    6.811
  393.984   -0.000   59.204    0.331    0.496    6.775
  394.234    0.000   60.793    0.321    0.488    6.773
  394.484    0.000   61.858    0.312    0.485    6.770
  394.734    0.000   62.859    0.324    0.495    6.765
  394.984   -0.000   62.895    0.348    0.498    6.652
  395.234   -0.000   62.184    0.325    0.484    6.510
  395.484   -0.000   61.600    0.316    0.479    6.524
  395.734    0.000   60.327    0.329    0.485    6.512
  395.984    0.000   60.500    0.313    0.483    6.673
  396.234   -0.000   61.610    0.312    0.487    7.140
  396.484   -0.000   62.320    0.293    0.492    7.904
  396.734   -0.000   62.787    0.245    0.487    9.227
  396.984    0.000   63.016    0.196    0.323   10.240
  397.234    0.000   56.246    0.030    0.234   10.412
  397.484    0.000   53.452    0.033    0.227    9.602
  397.734   -0.000   57.579    0.053    0.240    8.361
  397.984   -0.000   62.668    0.152    0.427    7.145
  398.234   -0.000   64.765    0.246    0.454    6.389
  398.484    0.000   65.521    0.334    0.485    6.076
  398.734    0.000   65.221    0.304    0.463    6.092
  398.984   -0.000   67.080    0.293    0.458    6.166
