~VERSION INFORMATION
 VERS.                 2.0:   CWLS LOG ASCII STANDARD -VERSION 2.0
 WRAP.                  NO:   ONE LINE PER DEPTH STEP
~WELL INFORMATION BLOCK
#MNEM.UNIT           DATA                    DESCRIPTION OF MNEMONIC
#---------    -------------------            -------------------------------
# Generated from Intellog Unique Number	CW_73_75/WELL/3528
WELL.         GULF ET AL MITSUE              : Well_name    - WELL
LOC .         00/12-04-074-04W5/0            : Location     - LOCATION
UWI .         00/12-04-074-04W5/0            : Uwi          - UNIQUE WELL ID
ENTR.         T                              : Entered      - ENTERED BY
SRVC.         SCHLUMBERGER                   : Scn          - SERVICE COMPANY
STRT.M        345                            : top_depth    - START DEPTH
STOP.M        580                            : bot_depth    - STOP DEPTH
STEP.M        0.25                           : increment    - STEP LENGTH
 NULL. -999.2500:NULL Value
~CURVE INFORMATION BLOCK
#MNEM UNIT       ERCB CURVE CODE    CURVE DESCRIPTION
#-----------   ------------------   ----------------------------------
DEPT.M        00 001 00 00         : DEPTH        - DEPTH
ILD .OHMM     00 120 00 00         : RESD         - DEEP RESISTIVITY (DIL)
DPHI.V/V      00 890 00 00         : PHID         - DENSITY POROSITY (SANDSTONE)
NPHI.V/V      00 330 00 00         : PHIN         - NEUTRON POROSITY (SANDSTONE)
GR  .API      00 310 00 00         : GR           - GAMMA RAY
~PARAMETER INFORMATION
#MNEM.UNIT           DATA             DESCRIPTION OF MNEMONIC
#---------         -----------     ------------------------------
GL  .M        600                  : gl           - GROUND LEVEL ELEVATION
EREF.M        606                  : kb           - ELEVATION OF DEPTH REFERENCE
DATM.M        606                  : datum        - DATUM ELEVATION
TDD .M        1836                 : tdd          - TOTAL DEPTH DRILLER
RUN .         ONE                  : Run          - RUN NUMBER
ENG .         BILL                 : Engineer     - RECORDING ENGINEER
WIT .         JIM                  : Witness      - WITNESSED BY
MUD .         GEL                  : Mud_type     - MUD TYPE
MATR.         SANDSTONE            : Logunit      - NEUTRON MATRIX
TMAX.C        36                   : BHT          - MAXIMUM RECORDED TEMPERATURE
BHTD.M        1836                 : BHTDEP       - MAXIMUM RECORDED TEMPERATURE
MATR.         1                    : LOGUNIT      - NEUTRON MATRIX
RMT .C        17                   : MDTP         - TEMPERATURE OF MUD
NEUT.         1                    : NEUTRON      - NEUTRON TYPE
RESI.         0                    : RESIST       - RESISTIVITY TYPE
RMC .OHMM     1.3                  : RMC          - RESISTIVITY OF MUD CAKE
RMF .OHMM     0.89                 : RMF          - RESISTIVITY OF MUD FILTRATE
SUFT.C        15                   : SUFT         - SURFACE TEMPERATURE
~A  DEPTH     RESD     PHID     PHIN       GR
# ...
  432.000    6.776    0.401    0.421   65.560
  432.250    6.774    0.356    0.400   66.733
  432.500    6.770    0.345    0.405   67.314
  432.750    6.768    0.345    0.415   67.299
  433.000    6.641    0.355    0.433   67.284
  433.250    6.637    0.371    0.435   67.265
  433.500    6.511    0.388    0.436   67.250
  433.750    6.390    0.400    0.437   68.423
  434.000    6.270    0.409    0.434   69.608
  434.250    5.819    0.413    0.431   71.978
  434.500    5.606    0.409    0.429   73.747
  434.750    5.300    0.378    0.428   76.117
  435.000    5.201    0.371    0.428   77.298
  435.250    5.010    0.357    0.427   73.109
  435.500    5.008    0.344    0.427   68.917
  435.750    4.563    0.356    0.426   67.114
  436.000    4.158    0.388    0.425   66.502
  436.250    4.005    0.405    0.424   64.095
  436.500    4.473    0.426    0.421   62.888
  436.750    4.904    0.431    0.420   62.284
  437.000    5.182    0.388    0.420   70.019
  437.250    5.374    0.371    0.420   72.985
  437.500    5.373    0.374    0.423   69.985
  437.750    5.370    0.369    0.425   68.181
  438.000    5.269    0.369    0.428   70.551
  438.250    5.170    0.403    0.429   71.728
  438.500    5.168    0.419    0.433   68.725
  438.750    5.772    0.424    0.433   67.525
  439.000    6.447    0.413    0.430   67.510
  439.250    6.444    0.394    0.426   69.283
  439.500    6.207    0.378    0.426   71.652
  439.750    6.091    0.373    0.426   71.041
  440.000    6.678    0.364    0.426   68.045
  440.250    7.459    0.311    0.426   62.664
  440.500    7.456    0.321    0.426   56.688
  440.750    6.920    0.305    0.426   53.688
  441.000    6.305    0.262    0.426   56.654
  441.250    5.852    0.165    0.427   60.812
  441.500    5.638    0.222    0.426   64.366
  441.750    5.430    0.284    0.425   64.951
  442.000    5.328    0.321    0.424   66.132
  442.250    5.228    0.350    0.424   67.901
  442.500    5.129    0.355    0.425   69.082
  442.750    5.033    0.320    0.427   71.452
  443.000    4.939    0.312    0.423   73.822
  443.250    4.846    0.307    0.421   76.191
  443.500    4.844    0.296    0.417   79.745
  443.750    4.753    0.300    0.414   80.334
  444.000    4.664    0.303    0.410   80.315
  444.250    4.576    0.292    0.408   80.296
  444.500    4.490    0.292    0.408   81.473
  444.750    4.488    0.332    0.404   82.058
  445.000    4.569    0.340    0.400   79.658
  445.250    4.739    0.310    0.396   75.470
  445.500    4.916    0.300    0.391   77.243
  445.750    5.194    0.291    0.388   80.209
  446.000    5.488    0.302    0.388   80.190
  446.250    5.589    0.355    0.391   80.179
  446.500    5.586    0.366    0.393   80.164
  446.750    5.583    0.321    0.398   76.568
  447.000    5.581    0.291    0.401   75.957
  447.250    5.578    0.278    0.406   75.942
  447.500    5.679    0.269    0.411   76.523
  447.750    5.782    0.264    0.414   77.696
  448.000    5.780    0.261    0.418   77.685
  448.250    5.885    0.261    0.427   78.858
  448.500    5.883    0.261    0.440   78.843
  448.750    5.881    0.265    0.438   78.232
  449.000    5.878    0.266    0.428   75.832
  449.250    5.874    0.268    0.421   73.432
  449.500    5.873    0.292    0.434   72.821
  449.750    5.870    0.305    0.441   72.806
  450.000    5.867    0.299    0.413   73.983
  450.250    5.864    0.283    0.404   76.352
  450.500    5.860    0.286    0.402   75.741
  450.750    5.859    0.296    0.408   73.938
  451.000    5.856    0.304    0.415   73.919
  451.250    5.853    0.312    0.427   75.696
  451.500    5.743    0.314    0.433   79.254
  451.750    5.741    0.306    0.424   80.435
  452.000    5.633    0.295    0.424   75.050
  452.250    5.631    0.288    0.442   70.858
  452.500    5.733    0.284    0.436   71.439
  452.750    5.946    0.280    0.426   74.401
  453.000    6.054    0.279    0.420   76.778
  453.250    6.165    0.276    0.433   80.933
  453.500    6.162    0.276    0.440   78.529
  453.750    5.935    0.274    0.434   77.325
  454.000    5.717    0.273    0.432   76.718
  454.250    5.507    0.272    0.427   76.699
  454.500    5.206    0.272    0.432   77.280
  454.750    5.110    0.272    0.437   74.280
  455.000    5.014    0.272    0.443   70.092
  455.250    4.920    0.275    0.444   65.904
  455.500    4.916    0.280    0.440   61.715
  455.750    4.915    0.296    0.434   59.316
  456.000    5.004    0.325    0.428   64.670
  456.250    5.002    0.382    0.423   69.424
  456.500    4.998    0.411    0.421   67.024
  456.750    4.906    0.421    0.423   62.836
  457.000    4.814    0.415    0.422   58.640
  457.250    4.901    0.408    0.420   60.413
  457.500    5.083    0.392    0.416   64.575
  457.750    5.371    0.380    0.416   66.945
  458.000    5.469    0.378    0.425   63.353
  458.250    5.366    0.383    0.436   57.972
  458.500    5.168    0.389    0.440   55.572
  458.750    4.978    0.428    0.442   58.538
  459.000    4.707    0.434    0.439   60.907
  459.250    4.794    0.433    0.437   62.681
  459.500    4.881    0.428    0.442   61.466
  459.750    5.063    0.428    0.446   60.262
  460.000    5.251    0.428    0.448   59.051
  460.250    5.446    0.430    0.449   60.224
  460.500    5.545    0.430    0.451   60.813
  460.750    5.544    0.430    0.450   60.798
  461.000    5.541    0.430    0.447   58.391
  461.250    5.539    0.430    0.445   56.594
  461.500    5.237    0.429    0.438   54.195
  461.750    4.860    0.431    0.431   55.372
  462.000    4.595    0.434    0.434   57.734
  462.250    4.510    0.439    0.428   57.123
  462.500    4.507    0.439    0.424   55.915
  462.750    4.506    0.439    0.434   55.900
  463.000    4.672    0.437    0.442   57.673
  463.250    4.759    0.436    0.437   60.043
  463.500    4.935    0.436    0.428   61.224
  463.750    4.934    0.436    0.420   62.401
  464.000    5.023    0.430    0.428   64.771
  464.250    5.021    0.416    0.437   67.733
  464.500    4.926    0.406    0.436   69.510
  464.750    4.834    0.366    0.433   70.687
  465.000    4.922    0.360    0.435   71.857
  465.250    5.396    0.338    0.444   72.434
  465.500    5.809    0.346    0.444   70.038
  465.750    6.733    0.352    0.441   65.257
  466.000    7.661    0.343    0.434   58.088
  466.250    8.879    0.319    0.432   53.900
  466.500   10.103    0.196    0.136   50.307
  466.750   11.495    0.019    0.121   50.292
  467.000   12.838    0.005    0.134   53.251
  467.250   14.339    0.023    0.162   53.839
  467.500   14.598    0.110    0.184   50.836
  467.750   14.595    0.171    0.213   49.628
  468.000   13.298    0.245    0.296   51.998
  468.250   10.844    0.291    0.375   56.756
  468.500    8.365    0.104    0.219   64.491
  468.750    6.104    0.122    0.284   71.626
  469.000    5.070    0.183    0.338   71.018
  469.250    4.794    0.251    0.357   69.811
  469.500    4.703    0.298    0.423   68.000
  469.750    4.789    0.317    0.426   69.184
  470.000    4.877    0.301    0.416   73.335
  470.250    4.966    0.285    0.409   75.112
  470.500    5.056    0.313    0.422   77.486
  470.750    5.054    0.330    0.431   81.036
  471.000    4.958    0.322    0.425   79.236
  471.250    4.956    0.311    0.419   75.640
  471.500    4.954    0.297    0.426   73.244
  471.750    4.862    0.307    0.435   72.633
  472.000    4.859    0.311    0.445   75.002
  472.250    4.856    0.315    0.447   76.183
  472.500    4.854    0.315    0.446   75.561
  472.750    4.943    0.315    0.443   74.957
  473.000    5.032    0.315    0.439   73.153
  473.250    5.124    0.322    0.435   70.750
  473.500    5.122    0.325    0.427   69.543
  473.750    5.215    0.334    0.423   71.320
  474.000    5.310    0.338    0.423   71.897
  474.250    5.507    0.336    0.435   71.286
  474.500    5.506    0.311    0.445   72.467
  474.750    5.606    0.308    0.443   75.432
  475.000    5.501    0.308    0.433   75.413
  475.250    5.398    0.316    0.427   73.610
