~VERSION INFORMATION
 VERS.                 2.0:   CWLS LOG ASCII STANDARD -VERSION 2.0
 WRAP.                  NO:   ONE LINE PER DEPTH STEP
~WELL INFORMATION BLOCK
#MNEM.UNIT           DATA                    DESCRIPTION OF MNEMONIC
#---------    -------------------            -------------------------------
# Generated from Intellog Unique Number	CN_91_93/WELL/3184
WELL.         MIAMI OIL PRODUCERS INC.       : Well_name    - WELL
LOC .         00/10-16-092-19W4/0            : Location     - LOCATION
UWI .         00/10-16-092-19W4/0            : Uwi          - UNIQUE WELL ID
ENTR.         JOETTE                         : Entered      - ENTERED BY
SRVC.         SCHLUMBERGER                   : Scn          - SERVICE COMPANY
DATE.         04/12/92                       : Date         - LOG DATE
STRT.F        600                            : top_depth    - START DEPTH
STOP.F        919.882                        : bot_depth    - STOP DEPTH
STEP.F        0.82                           : increment    - STEP LENGTH
 NULL. -999.2500:NULL Value
~CURVE INFORMATION BLOCK
#MNEM UNIT       ERCB CURVE CODE    CURVE DESCRIPTION
#-----------   ------------------   ----------------------------------
DEPT.F        00 001 00 00         : DEPTH        - DEPTH
CALI.IN       00 280 01 00         : CAL          - CALIPER
GR  .API      00 310 00 00         : GR           - GAMMA RAY
NPHI.V/V      00 330 00 00         : PHIN         - NEUTRON POROSITY (SANDSTONE)
DPHI.V/V      00 890 00 00         : PHID         - DENSITY POROSITY (SANDSTONE)
ILD .OHMM     00 120 00 00         : RESD         - DEEP RESISTIVITY (DIL)
~PARAMETER INFORMATION
#MNEM.UNIT           DATA             DESCRIPTION OF MNEMONIC
#---------         -----------     ------------------------------
GL  .F        1727                 : gl           - GROUND LEVEL ELEVATION
EREF.F        1740                 : kb           - ELEVATION OF DEPTH REFERENCE
DATM.F        1740                 : datum        - DATUM ELEVATION
TDD .F        1097                 : tdd          - TOTAL DEPTH DRILLER
RUN .         ONE                  : Run          - RUN NUMBER
ENG .         BILL                 : Engineer     - RECORDING ENGINEER
WIT .         JIM                  : Witness      - WITNESSED BY
MUD .         GEL                  : Mud_type     - MUD TYPE
MATR.         SANDSTONE            : Logunit      - NEUTRON MATRIX
TMAX.F        67                   : BHT          - MAXIMUM RECORDED TEMPERATURE
BHTD.F        1097                 : BHTDEP       - MAXIMUM RECORDED TEMPERATURE
RMT .F        65                   : MDTP         - TEMPERATURE OF MUD
MUDD.LB/G     8.5                  : MWT          - MUD DENSITY
NEUT.         1                    : NEUTRON      - NEUTRON TYPE
RESI.         0                    : RESIST       - RESISTIVITY TYPE
RM  .OHMM     6.7                  : RM           - RESISTIVITY OF MUD
RMC .OHMM     6.7                  : RMC          - RESISTIVITY OF MUD CAKE
RMF .OHMM     6.7                  : RMF          - RESISTIVITY OF MUD FILTRATE
SUFT.F        39.2                 : SUFT         - SURFACE TEMPERATURE
~A  DEPTH      CAL       GR     PHIN     PHID     RESD
# ...
  839.501    6.102   33.099    0.424    0.282   50.954
  840.322    6.142   34.906    0.442    0.294   43.908
  841.142    6.140   37.325    0.411    0.300   36.452
  841.962    6.136   40.963    0.406    0.301   30.255
  842.782    6.135   45.836    0.409    0.294   25.117
  843.602    6.133   50.716    0.413    0.283   21.242
  844.423    6.130   58.654    0.430    0.252   16.990
  845.243    6.128   66.591    0.496    0.241   11.295
  846.063    6.125   70.237    0.579    0.234   10.097
  846.883    6.164   68.979    0.532    0.207    9.192
  847.703    6.244   66.494    0.505    0.159    9.183
  848.524    6.283   64.614    0.492    0.171    9.172
  849.344    6.321   62.750    0.485    0.189    9.339
  850.164    6.360   66.388    0.513    0.194    9.504
  850.984    6.358   68.808    0.501    0.203   10.608
  851.804    6.314   68.776    0.463    0.232   15.345
  852.625    6.271   66.896    0.454    0.239   15.912
  853.445    6.228   63.806    0.460    0.295   17.439
  854.265    6.186   58.861    0.557    0.313   20.204
  855.085    6.143   56.376    0.516    0.336   23.845
  855.906    6.139   70.453    0.489    0.355   23.385
  856.726    6.219   80.843    0.486    0.344   12.679
  857.546    6.340   88.167    0.536    0.412   10.332
  858.366    7.278   91.200    0.570    0.428    7.676
  859.186    7.316   85.642    0.590    0.396    7.526
  860.007    7.233   77.026    0.557    0.317   10.689
  860.827    7.230   65.958    0.468    0.241   12.157
  861.647    6.860   59.173    0.422    0.216   15.167
  862.467    6.489   73.855    0.364    0.234   16.317
  863.287    6.651   81.188    0.490    0.255   13.547
  864.108    6.853   87.891    0.603    0.260   12.105
  864.928    6.810   85.406    0.623    0.363   12.781
  865.748    6.685   78.630    0.592    0.349   13.257
  866.568    6.969   73.079    0.519    0.315   15.077
  867.388    6.722   66.916    0.479    0.276   17.147
  868.209    6.515   64.423    0.476    0.265   20.237
  869.029    6.349   63.778    0.488    0.250   23.878
  869.849    6.223   61.898    0.491    0.214   23.413
  870.669    6.180   59.421    0.505    0.158   21.721
  871.490    6.137   45.279    0.396    0.102   22.519
  872.310    6.135   31.146    0.255   -0.006   27.080
  873.130    6.134   23.756    0.221   -0.021   42.979
  873.950    6.171   18.190    0.200   -0.044   68.213
  874.770    6.170   17.544    0.179   -0.042  104.327
  875.591    6.209   20.585    0.178   -0.053  130.160
  876.411    6.248   21.779    0.183   -0.050  127.620
  877.231    6.327   19.907    0.185   -0.042  134.781
  878.051    6.366   18.027    0.187   -0.045  150.474
  878.871    6.363   16.777    0.189   -0.045  158.956
  879.692    6.320   14.276    0.193   -0.039  170.931
  880.512    6.276   13.638    0.198   -0.046  177.211
  881.332    6.274   12.993    0.196   -0.045  187.155
  882.152    6.272   16.631    0.190   -0.046  205.113
  882.972    6.352   19.059    0.199   -0.046  224.794
  883.793    6.472   24.536    0.193   -0.044  224.581
  884.613    6.552   30.642    0.168   -0.045  179.710
  885.433    6.467   45.308    0.160   -0.048   32.073
  886.253    6.343   47.744    0.194   -0.054   19.800
  887.073    6.259   54.455    0.215   -0.042   14.981
  887.894    6.216   69.137    0.244   -0.019   12.669
  888.714    6.418   85.045    0.294    0.012   11.326
  889.534    6.498  100.961    0.348    0.064    9.938
  890.354    6.700  118.087    0.428    0.085    8.717
  891.175    6.902  118.062    0.455    0.095    8.394
  891.995    6.981  119.248    0.462    0.108    8.082
  892.815    7.020  121.055    0.450    0.122    7.926
  893.635    7.222  125.306    0.477    0.143    7.916
  894.455    7.220  127.726    0.486    0.149    8.057
  895.276    7.259  128.911    0.487    0.183    8.199
  896.096    7.502  128.895    0.485    0.187    8.660
  896.916    7.827  129.476    0.531    0.153    8.815
  897.736    7.620  129.443    0.504    0.155    9.132
  898.556    7.250  130.024    0.514    0.157    9.299
  899.377    7.370  130.596    0.498    0.180    9.463
  900.197    7.409  131.177    0.460    0.184    9.992
  901.017    7.325  129.305    0.448    0.160   10.362
  901.837    7.200  124.981    0.434    0.164   10.540
  902.657    6.994  122.496    0.426    0.152    9.779
  903.478    6.950  122.464    0.480    0.146    9.074
  904.298    7.234  125.497    0.530    0.190    8.264
  905.118    7.436  128.530    0.555    0.214    7.956
  905.938    7.148  124.811    0.570    0.228    9.217
  906.759    6.819   93.510    0.570    0.219   11.497
  907.579    6.571   73.851    0.389    0.132   20.767
  908.399    6.323   64.009    0.305    0.097   23.196
  909.219    6.239   38.211    0.273    0.051   44.303
  910.039    6.195   32.055    0.203    0.023   92.825
  910.860    6.153   23.431    0.189   -0.031  152.846
  911.680    6.151   19.099    0.200   -0.025  247.120
  912.500    6.149   17.849    0.223   -0.019  237.967
  913.320    6.187   17.203    0.239    0.002  212.694
  914.140    6.185   15.928    0.245    0.014  204.816
  914.961    6.182   15.904    0.235    0.023  193.565
  915.781    6.180   16.476    0.250    0.013  189.744
  916.601    6.179   16.452    0.259   -0.011  219.880
  917.421    6.216   16.411    0.235   -0.015  284.674
  918.241    6.215   16.379    0.233   -0.016  389.611
  919.062    6.213   16.338    0.227   -0.016  468.413
  919.882    6.169   16.322    0.237   -0.007  552.559
