~VERSION INFORMATION
 VERS.                 2.0:   CWLS LOG ASCII STANDARD -VERSION 2.0
 WRAP.                  NO:   ONE LINE PER DEPTH STEP
~WELL INFORMATION BLOCK
#MNEM.UNIT           DATA                    DESCRIPTION OF MNEMONIC
#---------    -------------------            -------------------------------
# Generated from Intellog Unique Number	CW_76_78/WELL/1033
WELL.         SUNCOR DROWNED 12-29           : Well_name    - WELL
LOC .         00/12-29-076-22W4/0            : Location     - LOCATION
UWI .         00/12-29-076-22W4/0            : Uwi          - UNIQUE WELL ID
ENTR.         JAYE                           : Entered      - ENTERED BY
SRVC.         SCHLUMBERGER                   : Scn          - SERVICE COMPANY
DATE.         25 FEB 83                      : Date         - LOG DATE
STRT.M        470                            : top_depth    - START DEPTH
STOP.M        690                            : bot_depth    - STOP DEPTH
STEP.M        0.25                           : increment    - STEP LENGTH
 NULL. -999.2500:NULL Value
~CURVE INFORMATION BLOCK
#MNEM UNIT       ERCB CURVE CODE    CURVE DESCRIPTION
#-----------   ------------------   ----------------------------------
DEPT.M        00 001 00 00         : DEPTH        - DEPTH
ILD .OHMM     00 120 00 00         : RESD         - DEEP RESISTIVITY (DIL)
NPHI.V/V      00 330 00 00         : PHIN         - NEUTRON POROSITY (SANDSTONE)
DPHI.V/V      00 890 00 00         : PHID         - DENSITY POROSITY (SANDSTONE)
GR  .API      00 310 00 00         : GR           - GAMMA RAY
CALI.MM       00 280 01 00         : CAL          - CALIPER
~PARAMETER INFORMATION
#MNEM.UNIT           DATA             DESCRIPTION OF MNEMONIC
#---------         -----------     ------------------------------
GL  .M        748.9                : gl           - GROUND LEVEL ELEVATION
EREF.M        752.9                : kb           - ELEVATION OF DEPTH REFERENCE
DATM.M        748.9                : datum        - DATUM ELEVATION
TDD .M        1180                 : tdd          - TOTAL DEPTH DRILLER
RUN .         ONE                  : Run          - RUN NUMBER
ENG .         GAGGING              : Engineer     - RECORDING ENGINEER
WIT .         LYSZKIEWICH          : Witness      - WITNESSED BY
BASE.         EDM                  : Branch       - HOME BASE OF LOGGING UNIT
MUD .         GEL CHEM             : Mud_type     - MUD TYPE
MATR.         SANDSTONE            : Logunit      - NEUTRON MATRIX
TMAX.C        34.4                 : BHT          - MAXIMUM RECORDED TEMPERATURE
BHTD.M        1177                 : BHTDEP       - MAXIMUM RECORDED TEMPERATURE
RMT .C        16.6                 : MDTP         - TEMPERATURE OF MUD
MUDD.KG/M     9.5                  : MWT          - MUD DENSITY
NEUT.         1                    : NEUTRON      - NEUTRON TYPE
RESI.         0                    : RESIST       - RESISTIVITY TYPE
RM  .OHMM     3.648                : RM           - RESISTIVITY OF MUD
RMC .OHMM     0                    : RMC          - RESISTIVITY OF MUD CAKE
RMF .OHMM     2.673                : RMF          - RESISTIVITY OF MUD FILTRATE
SUFT.C        0                    : SUFT         - SURFACE TEMPERATURE
~A  DEPTH     RESD     PHIN     PHID       GR      CAL
# ...
  579.500    6.301    0.453    0.200   71.879  271.338
  579.750    6.394    0.429    0.203   69.839  272.480
  580.000    6.510    0.407    0.187   70.214  273.726
  580.250    6.568    0.409    0.188   71.457  275.281
  580.500    6.502    0.428    0.200   74.187  279.211
  580.750    6.271    0.445    0.206   77.102  285.929
  581.000    5.860    0.466    0.218   80.018  290.376
  581.250    5.293    0.481    0.238   85.288  289.659
  581.500    4.772    0.452    0.233   84.982  288.529
  581.750    4.552    0.428    0.221   80.897  286.883
  582.000    4.776    0.444    0.246   78.051  280.590
  582.250    5.115    0.438    0.231   77.001  260.976
  582.500    5.552    0.414    0.197   75.951  255.303
  582.750    6.014    0.399    0.209   73.910  256.032
  583.000    6.663    0.418    0.216   71.931  257.278
  583.250    7.044    0.440    0.201   73.918  259.039
  583.500    7.159    0.428    0.174   74.913  263.175
  583.750    7.049    0.440    0.170   72.190  265.144
  584.000    6.736    0.460    0.205   67.919  265.046
  584.250    6.570    0.429    0.207   64.081  248.427
  584.500    6.804    0.360    0.143   65.138  239.242
  584.750    7.356    0.345    0.160   67.372  233.363
  585.000    8.256    0.369    0.197   66.880  232.233
  585.250    9.390    0.388    0.208   66.451  231.000
  585.500   10.096    0.405    0.209   65.400  230.077
  585.750   10.166    0.424    0.192   63.607  230.496
  586.000    9.587    0.405    0.135   60.451  231.122
  586.250    9.334    0.253    0.106   55.622  230.921
  586.500   10.092    0.228    0.070   45.650  230.617
  586.750   11.848    0.212    0.056   41.379  229.694
  587.000   13.807    0.193    0.044   43.675  227.841
  587.250   16.331    0.172    0.017   44.236  226.713
  587.500   19.719    0.155   -0.007   39.098  225.995
  587.750   24.173    0.141    0.001   39.473  225.383
  588.000   27.489    0.152    0.018   43.504  224.872
  588.250   28.792    0.183    0.048   48.960  224.156
  588.500   27.151    0.202    0.065   54.602  223.852
  588.750   19.739    0.237    0.118   61.979  223.857
  589.000   16.236    0.325    0.148   73.693  223.864
  589.250   13.457    0.368    0.158   72.581  223.974
  589.500   11.687    0.375    0.166   69.735  224.186
  589.750    9.722    0.362    0.175   71.164  224.709
  590.000    8.287    0.383    0.191   72.964  225.024
  590.250    7.389    0.413    0.199   74.393  225.341
  590.500    7.007    0.419    0.193   75.016  225.760
  590.750    6.747    0.404    0.194   72.170  227.005
  591.000    6.581    0.395    0.185   72.359  229.800
  591.250    6.478    0.406    0.191   73.230  232.387
  591.500    6.464    0.409    0.197   75.031  235.388
  591.750    6.483    0.411    0.187   75.282  238.492
  592.000    6.530    0.414    0.176   78.384  241.906
  592.250    6.598    0.422    0.185   75.414  245.423
  592.500    6.682    0.431    0.178   70.832  250.489
  592.750    6.780    0.415    0.164   70.216  256.381
  593.000    6.852    0.405    0.174   71.088  261.757
  593.250    6.848    0.405    0.186   73.322  266.720
  593.500    6.817    0.415    0.186   75.680  271.889
  593.750    6.725    0.427    0.168   77.233  275.923
  594.000    6.622    0.446    0.164   78.042  276.445
  594.250    6.556    0.439    0.184   78.727  274.180
  594.500    6.420    0.421    0.204   80.280  272.637
  594.750    6.284    0.435    0.201   80.407  272.850
  595.000    6.119    0.444    0.194   78.862  274.095
  595.250    6.092    0.431    0.195   77.751  274.927
  595.500    6.169    0.430    0.196   77.197  276.070
  595.750    6.235    0.432    0.191   76.519  276.695
  596.000    6.363    0.439    0.179   75.469  276.185
  596.250    6.467    0.432    0.183   74.667  278.462
  596.500    6.597    0.418    0.187   74.609  277.333
  596.750    6.782    0.412    0.192   76.596  277.546
  597.000    6.894    0.414    0.196   81.184  278.378
  597.250    6.993    0.415    0.199   79.019  280.346
  597.500    7.014    0.415    0.207   74.190  283.658
  597.750    6.971    0.415    0.202   71.468  286.347
  598.000    6.864    0.418    0.189   73.082  289.142
  598.250    6.783    0.424    0.184   75.006  290.388
  598.500    6.730    0.433    0.182   76.993  291.117
  598.750    6.676    0.430    0.179   78.112  291.742
  599.000    6.646    0.429    0.181   78.983  292.575
  599.250    6.581    0.437    0.191   79.483  293.716
  599.500    6.492    0.435    0.191   78.742  294.962
  599.750    6.391    0.430    0.175   76.330  295.278
  600.000    6.280    0.419    0.168   75.528  295.284
  600.250    6.218    0.417    0.162   76.833  295.084
  600.500    6.203    0.437    0.153   79.129  294.986
  600.750    6.178    0.467    0.140   78.513  293.548
  601.000    6.163    0.461    0.152   77.525  292.004
  601.250    6.138    0.436    0.167   78.707  290.875
  601.500    6.098    0.408    0.177   80.631  290.262
  601.750    6.094    0.421    0.187   82.122  289.544
  602.000    6.092    0.440    0.197   82.683  289.344
  602.250    6.099    0.437    0.189   82.935  289.866
  602.500    6.107    0.440    0.194   83.186  289.872
  602.750    6.081    0.439    0.193   76.684  287.813
  603.000    6.088    0.433    0.182   74.271  285.032
  603.250    6.085    0.421    0.195   75.762  282.250
  603.500    6.069    0.432    0.199   75.208  280.294
  603.750    6.022    0.459    0.195   74.592  278.751
  604.000    5.984    0.493    0.181   76.641  277.105
  604.250    5.892    0.469    0.181   79.866  275.252
  604.500    5.899    0.462    0.199   77.453  272.883
  604.750    5.863    0.458    0.203   74.917  269.481
  605.000    5.883    0.451    0.181   74.115  265.047
  605.250    5.879    0.442    0.162   74.119  260.406
  605.500    5.842    0.434    0.180   72.697  254.113
  605.750    5.784    0.417    0.189   71.524  244.929
  606.000    5.846    0.403    0.195   72.147  238.636
  606.250    6.077    0.404    0.203   72.151  237.610
  606.500    6.425    0.394    0.208   64.657  238.546
  606.750    6.934    0.383    0.163   66.272  240.926
  607.000    7.372    0.363    0.138   67.886  243.514
  607.250    7.778    0.366    0.141   67.333  245.173
  607.500    8.057    0.390    0.174   63.929  245.902
  607.750    8.188    0.406    0.142   59.781  246.115
  608.000    8.230    0.373    0.117   63.874  246.844
  608.250    8.224    0.375    0.137   71.499  247.469
  608.500    8.143    0.396    0.167   77.451  248.301
  608.750    8.048    0.406    0.150   79.127  250.476
  609.000    7.748    0.406    0.152   79.936  253.374
  609.250    7.348    0.419    0.182   80.622  255.135
  609.500    6.788    0.437    0.197   81.617  249.978
  609.750    6.132    0.461    0.213   84.718  239.038
  610.000    5.644    0.330    0.080   74.870  228.408
  610.250    5.495    0.271    0.058   61.429  223.974
  610.500    5.952    0.270    0.086   68.558  222.947
  610.750    7.200    0.321    0.139   78.661  225.845
  611.000    9.145    0.351    0.169   79.842  231.531
  611.250   10.075    0.357    0.152   79.597  239.695
  611.500   10.221    0.352    0.138   82.761  242.799
  611.750    9.915    0.353    0.144   87.660  244.251
  612.000    9.386    0.364    0.156   88.035  245.806
  612.250    8.868    0.353    0.163   83.392  247.052
  612.500    8.472    0.364    0.171   80.979  246.955
  612.750    8.021    0.390    0.181   80.116  245.618
  613.000    7.680    0.408    0.187   79.190  240.151
  613.250    7.476    0.400    0.186   79.132  236.440
  613.500    7.387    0.382    0.182   80.437  235.207
  613.750    7.355    0.389    0.175   82.113  235.110
  614.000    7.462    0.405    0.164   85.029  235.736
  614.250    7.585    0.404    0.151   88.068  235.121
  614.500    7.738    0.333    0.092   76.424  236.264
  614.750    8.045    0.300    0.040   66.390  237.406
  615.000    8.519    0.283    0.036   68.377  238.548
  615.250    9.040    0.328    0.059   75.877  240.620
  615.500    9.504    0.360    0.084   76.810  243.826
  615.750    9.570    0.366    0.097   72.849  246.311
