~VERSION INFORMATION
 VERS.                 2.0:   CWLS LOG ASCII STANDARD -VERSION 2.0
 WRAP.                  NO:   ONE LINE PER DEPTH STEP
~WELL INFORMATION BLOCK
#MNEM.UNIT           DATA                    DESCRIPTION OF MNEMONIC
#---------    -------------------            -------------------------------
# Generated from Intellog Unique Number	CS_67_68/WELL/2215
WELL.         BP ATMORE                      : Well_name    - WELL
LOC .         00/13-20-067-17W4/0            : Location     - LOCATION
UWI .         00/13-20-067-17W4/0            : Uwi          - UNIQUE WELL ID
ENTR.         SP                             : Entered      - ENTERED BY
SRVC.         SCHLUMBERGER                   : Scn          - SERVICE COMPANY
STRT.M        345                            : top_depth    - START DEPTH
STOP.M        510                            : bot_depth    - STOP DEPTH
STEP.M        0.25                           : increment    - STEP LENGTH
 NULL. -999.2500:NULL Value
~CURVE INFORMATION BLOCK
#MNEM UNIT       ERCB CURVE CODE    CURVE DESCRIPTION
#-----------   ------------------   ----------------------------------
DEPT.M        00 001 00 00         : DEPTH        - DEPTH
ILD .OHMM     00 120 00 00         : RESD         - DEEP RESISTIVITY (DIL)
DPHI.V/V      00 890 00 00         : PHID         - DENSITY POROSITY (LIMESTONE)
NPHI.V/V      00 330 00 00         : PHIN         - NEUTRON POROSITY (LIMESTONE)
GR  .API      00 310 00 00         : GR           - GAMMA RAY
CALI.MM       00 280 01 00         : CAL          - CALIPER
~PARAMETER INFORMATION
#MNEM.UNIT           DATA             DESCRIPTION OF MNEMONIC
#---------         -----------     ------------------------------
GL  .M        582.64               : gl           - GROUND LEVEL ELEVATION
EREF.M        586.34               : kb           - ELEVATION OF DEPTH REFERENCE
DATM.M        586.34               : datum        - DATUM ELEVATION
TDD .M        537                  : tdd          - TOTAL DEPTH DRILLER
RUN .         ONE                  : Run          - RUN NUMBER
ENG .         BILL                 : Engineer     - RECORDING ENGINEER
WIT .         JIM                  : Witness      - WITNESSED BY
MUD .         GEL                  : Mud_type     - MUD TYPE
MATR.         LIMESTONE            : Logunit      - NEUTRON MATRIX
TMAX.C        13                   : BHT          - MAXIMUM RECORDED TEMPERATURE
BHTD.M        537                  : BHTDEP       - MAXIMUM RECORDED TEMPERATURE
MATR.         1                    : LOGUNIT      - NEUTRON MATRIX
RMT .C        25                   : MDTP         - TEMPERATURE OF MUD
NEUT.         1                    : NEUTRON      - NEUTRON TYPE
RESI.         0                    : RESIST       - RESISTIVITY TYPE
RMC .OHMM     0.25                 : RMC          - RESISTIVITY OF MUD CAKE
RMF .OHMM     0.25                 : RMF          - RESISTIVITY OF MUD FILTRATE
SUFT.C        15                   : SUFT         - SURFACE TEMPERATURE
~A  DEPTH     RESD     PHID     PHIN       GR      CAL
# ...
  381.500    3.064    0.174    0.495  120.291  171.017
  381.750    3.030    0.191    0.487  121.021  174.760
  382.000    3.020    0.227    0.464  117.080  179.110
  382.250    3.015    0.222    0.457  111.016  175.069
  382.500    3.044    0.191    0.460  105.195  170.927
  382.750    3.085    0.219    0.476   97.069  168.807
  383.000    3.145    0.230    0.434   90.945  166.991
  383.250    3.170    0.162    0.436   84.274  163.759
  383.500    3.171    0.186    0.460   86.278  163.155
  383.750    3.154    0.216    0.455   89.737  163.562
  384.000    3.089    0.237    0.459   92.710  163.464
  384.250    3.067    0.233    0.472   84.099  161.850
  384.500    3.114    0.255    0.473   79.249  159.932
  384.750    3.242    0.270    0.462   77.612  158.520
  385.000    3.399    0.260    0.444   78.524  158.826
  385.250    3.525    0.243    0.406   80.952  159.233
  385.500    3.553    0.236    0.419   82.470  158.932
  385.750    3.421    0.274    0.444   79.621  156.408
  386.000    3.258    0.306    0.461   74.892  152.671
  386.250    3.004    0.328    0.446   72.589  150.146
  386.500    2.734    0.318    0.444   70.892  148.633
  386.750    2.497    0.321    0.464   70.651  149.040
  387.000    2.272    0.304    0.479   70.653  151.368
  387.250    2.176    0.306    0.485   70.048  153.898
  387.500    2.144    0.308    0.469   75.023  151.475
  387.750    2.148    0.303    0.474   82.728  150.972
  388.000    2.227    0.307    0.481   87.401  154.412
  388.250    2.340    0.305    0.458   81.640  153.303
  388.500    2.450    0.316    0.442   75.940  150.981
  388.750    2.478    0.321    0.447   72.546  153.309
  389.000    2.437    0.319    0.445   70.545  155.132
  389.250    2.361    0.329    0.434   69.213  152.405
  389.500    2.278    0.327    0.430   68.426  149.173
  389.750    2.300    0.314    0.445   72.552  148.468
  390.000    2.358    0.305    0.445   72.918  148.471
  390.250    2.408    0.301    0.436   71.646  149.182
  390.500    2.483    0.287    0.434   78.380  149.892
  390.750    2.550    0.274    0.436   81.172  151.816
  391.000    2.624    0.253    0.442   79.112  155.357
  391.250    2.675    0.237    0.455   79.114  156.978
  391.500    2.706    0.233    0.462   82.694  157.182
  391.750    2.712    0.249    0.455   85.789  156.882
  392.000    2.733    0.253    0.442   86.337  154.661
  392.250    2.792    0.244    0.443   85.550  152.035
  392.500    2.856    0.244    0.449   85.067  152.949
  392.750    2.934    0.250    0.443   86.948  154.670
  393.000    2.996    0.238    0.441   89.376  157.402
  393.250    3.136    0.231    0.444   93.927  158.921
  393.500    3.277    0.222    0.448   95.324  159.026
  393.750    3.347    0.205    0.457   97.206  159.028
  394.000    3.463    0.220    0.473   99.331  160.547
  394.250    3.544    0.236    0.485  101.031  163.381
  394.500    3.612    0.232    0.476  102.549  165.305
  394.750    3.669    0.222    0.463  102.430  165.611
  395.000    3.726    0.242    0.451  101.218  165.108
  395.250    3.762    0.212    0.450   98.066  163.595
  395.500    3.806    0.217    0.466   95.277  161.677
  395.750    3.807    0.231    0.473   92.792  160.669
  396.000    3.758    0.224    0.454   91.945  160.267
  396.250    3.633    0.213    0.443   93.948  161.281
  396.500    3.505    0.193    0.449   94.374  165.227
  396.750    3.408    0.193    0.485   94.680  167.555
  397.000    3.339    0.182    0.490   94.985  166.041
  397.250    3.264    0.188    0.483   95.957  164.427
  397.500    3.156    0.198    0.486   99.173  164.531
  397.750    3.127    0.208    0.503  102.511  166.050
  398.000    3.249    0.209    0.523  104.272  167.670
  398.250    3.426    0.226    0.543  102.211  168.583
  398.500    3.614    0.249    0.517  101.485  169.900
  398.750    3.797    0.269    0.493  102.457  171.622
  399.000    3.982    0.192    0.481  103.187  169.199
  399.250    4.160    0.214    0.479  103.249  167.382
  399.500    4.257    0.178    0.466  103.191  166.475
  399.750    4.323    0.186    0.463  105.315  165.972
  400.000    4.357    0.197    0.460  106.651  165.369
  400.250    4.349    0.190    0.443  101.315  164.259
  400.500    4.318    0.197    0.436   98.406  163.858
  400.750    4.278    0.214    0.437  100.470  163.962
  401.000    4.175    0.201    0.433   96.954  164.268
  401.250    4.083    0.205    0.440   94.711  164.473
  401.500    3.910    0.231    0.452   96.836  164.577
  401.750    3.524    0.206    0.470   99.082  164.479
  402.000    2.979    0.191    0.484   91.501  164.179
  402.250    2.624    0.194    0.469   79.979  163.070
  402.500    2.357    0.211    0.454   74.158  163.173
  402.750    2.120    0.223    0.443   69.671  161.256
  403.000    1.970    0.264    0.434   67.246  155.800
  403.250    1.915    0.296    0.432   65.974  154.388
  403.500    1.997    0.303    0.436   64.460  156.008
  403.750    2.147    0.293    0.425   70.709  156.921
  404.000    2.360    0.277    0.413   74.653  157.025
  404.250    2.571    0.212    0.403   75.504  156.320
  404.500    2.701    0.194    0.412   73.019  156.323
  404.750    2.817    0.182    0.426   67.562  157.235
  405.000    2.877    0.156    0.350   62.348  159.361
  405.250    2.473    0.097    0.283   59.074  160.982
  405.500    2.122    0.105    0.253   56.831  162.602
  405.750    1.866    0.165    0.358   55.802  163.413
  406.000    1.676    0.250    0.402   57.077  162.911
  406.250    1.584    0.302    0.433   58.231  161.701
  406.500    1.578    0.316    0.448   59.507  160.390
  406.750    1.606    0.310    0.451   61.996  159.078
  407.000    1.631    0.307    0.443   64.424  157.666
  407.250    1.656    0.307    0.438   66.002  157.062
  407.500    1.666    0.315    0.440   64.245  157.773
  407.750    1.673    0.308    0.460   63.762  159.494
  408.000    1.670    0.304    0.470   67.281  161.013
  408.250    1.667    0.310    0.445   66.737  161.926
  408.500    1.668    0.309    0.442   66.557  162.031
  408.750    1.681    0.308    0.449   68.379  161.629
  409.000    1.681    0.314    0.443   69.351  160.418
  409.250    1.681    0.319    0.447   69.777  158.602
  409.500    1.692    0.318    0.452   69.718  157.998
  409.750    1.702    0.315    0.447   68.689  157.799
  410.000    1.715    0.326    0.444   67.416  157.398
  410.250    1.745    0.316    0.444   65.781  157.400
  410.500    1.900    0.304    0.449   64.509  158.111
  410.750    2.066    0.315    0.441   65.784  158.215
  411.000    2.289    0.318    0.427   74.096  157.712
  411.250    2.679    0.297    0.416   81.922  157.614
  411.500    2.852    0.274    0.420   86.776  158.021
  411.750    3.136    0.234    0.441   89.204  159.238
  412.000    3.264    0.226    0.440   88.781  161.161
  412.250    3.359    0.198    0.424   86.842  162.781
  412.500    3.347    0.204    0.419   85.024  156.011
  412.750    3.193    0.201    0.425   83.995  151.768
  413.000    3.164    0.196    0.425   83.693  148.941
  413.250    3.195    0.215    0.432   84.302  151.168
  413.500    3.257    0.234    0.433   87.397  155.214
  413.750    3.345    0.232    0.437   91.280  157.643
  414.000    3.501    0.228    0.451   95.649  158.859
  414.250    3.714    0.195    0.469   99.412  152.392
  414.500    3.880    0.209    0.482  101.415  150.171
  414.750    4.039    0.214    0.470  103.540  154.926
  415.000    4.101    0.202    0.446  104.390  157.658
  415.250    3.648    0.193    0.435  103.846  158.469
  415.500    3.166    0.192    0.442   96.084  160.090
  415.750    2.897    0.223    0.440   85.350  160.295
  416.000    2.717    0.262    0.438   76.860  154.940
  416.250    2.568    0.287    0.412   69.098  149.383
  416.500    2.579    0.240    0.373   66.188  147.263
  416.750    2.756    0.223    0.401   75.349  145.345
  417.000    2.879    0.258    0.439   83.175  145.146
  417.250    3.019    0.250    0.457   88.272  147.372
  417.500    3.072    0.257    0.458   92.216  150.813
  417.750    2.759    0.235    0.471   94.644  154.556
