~VERSION INFORMATION
 VERS.                 2.0:   CWLS LOG ASCII STANDARD -VERSION 2.0
 WRAP.                  NO:   ONE LINE PER DEPTH STEP
~WELL INFORMATION BLOCK
#MNEM.UNIT           DATA                    DESCRIPTION OF MNEMONIC
#---------    -------------------            -------------------------------
# Generated from Intellog Unique Number	CW_73_75/WELL/1046
WELL.         AMOCO 57 MARTEN HILLS 11-32    : Well_name    - WELL
LOC .         00/11-32-075-25W4/0            : Location     - LOCATION
UWI .         00/11-32-075-25W4/0            : Uwi          - UNIQUE WELL ID
ENTR.         JAYE                           : Entered      - ENTERED BY
SRVC.         SCHLUMBERGER                   : Scn          - SERVICE COMPANY
STRT.M        463.296                        : top_depth    - START DEPTH
STOP.M        649.296                        : bot_depth    - STOP DEPTH
STEP.M        0.25                           : increment    - STEP LENGTH
 NULL. -999.2500:NULL Value
~CURVE INFORMATION BLOCK
#MNEM UNIT       ERCB CURVE CODE    CURVE DESCRIPTION
#-----------   ------------------   ----------------------------------
DEPT.M        00 001 00 00         : DEPTH        - DEPTH
ILD .OHMM     00 120 00 00         : RESD         - DEEP RESISTIVITY (DIL)
NPHI.V/V      00 330 00 00         : PHIN         - NEUTRON POROSITY (SANDSTONE)
DPHI.V/V      00 890 00 00         : PHID         - DENSITY POROSITY (SANDSTONE)
GR  .API      00 310 00 00         : GR           - GAMMA RAY
CALI.MM       00 280 01 00         : CAL          - CALIPER
~PARAMETER INFORMATION
#MNEM.UNIT           DATA             DESCRIPTION OF MNEMONIC
#---------         -----------     ------------------------------
GL  .M        752.246              : gl           - GROUND LEVEL ELEVATION
EREF.M        756.209              : kb           - ELEVATION OF DEPTH REFERENCE
DATM.M        752.246              : datum        - DATUM ELEVATION
TDD .M        649.529              : tdd          - TOTAL DEPTH DRILLER
RUN .         ONE                  : Run          - RUN NUMBER
MATR.         SANDSTONE            : Logunit      - NEUTRON MATRIX
TMAX.C        31.1111              : BHT          - MAXIMUM RECORDED TEMPERATURE
BHTD.M        649.224              : BHTDEP       - MAXIMUM RECORDED TEMPERATURE
RMT .C        25                   : MDTP         - TEMPERATURE OF MUD
MUDD.KG/M     0                    : MWT          - MUD DENSITY
NEUT.         1                    : NEUTRON      - NEUTRON TYPE
RESI.         0                    : RESIST       - RESISTIVITY TYPE
RM  .OHMM     5.57                 : RM           - RESISTIVITY OF MUD
RMC .OHMM     0                    : RMC          - RESISTIVITY OF MUD CAKE
RMF .OHMM     0                    : RMF          - RESISTIVITY OF MUD FILTRATE
SUFT.C        -17.7778             : SUFT         - SURFACE TEMPERATURE
~A  DEPTH     RESD     PHIN     PHID       GR      CAL
# ...
  609.296   32.803    0.493    0.232   66.309  220.936
  609.546   32.056    0.484    0.236   66.086  216.742
  609.796   31.319    0.478    0.220   68.056  212.242
  610.046   29.988    0.480    0.227   67.893  211.038
  610.296   27.628    0.507    0.238   69.556  211.385
  610.546   25.591    0.511    0.245   70.674  212.038
  610.796   24.325    0.494    0.255   70.085  212.587
  611.046   23.423    0.485    0.259   71.140  214.174
  611.296   23.920    0.473    0.258   72.563  216.162
  611.546   25.157    0.446    0.242   69.964  219.086
  611.796   27.603    0.415    0.194   65.723  221.590
  612.046   27.981    0.398    0.163   62.822  222.450
  612.296   27.494    0.417    0.165   67.469  219.599
  612.546   27.062    0.449    0.191   71.994  216.333
  612.796   26.642    0.476    0.222   74.814  216.164
  613.046   26.320    0.483    0.252   73.982  218.780
  613.296   25.958    0.466    0.249   70.716  221.182
  613.546   25.830    0.453    0.226   71.590  223.590
  613.796   26.041    0.439    0.202   71.305  224.756
  614.046   26.399    0.458    0.188   69.072  225.202
  614.296   26.566    0.434    0.202   66.901  225.341
  614.546   26.587    0.415    0.173   64.487  225.478
  614.796   25.932    0.398    0.139   62.378  225.618
  615.046   25.336    0.386    0.127   60.265  225.544
  615.296   24.666    0.391    0.124   61.322  225.997
  615.546   24.012    0.407    0.137   63.533  226.027
  615.796   23.725    0.424    0.141   66.295  225.649
  616.046   24.454    0.417    0.137   67.957  225.582
  616.296   25.204    0.393    0.149   67.735  225.411
  616.546   25.833    0.368    0.112   68.181  224.313
  616.796   25.568    0.375    0.081   69.300  222.593
  617.046   24.437    0.424    0.179   70.962  221.392
  617.296   21.699    0.482    0.162   74.938  221.734
  617.546   18.033    0.465    0.137   76.603  223.212
  617.796   14.285    0.441    0.119   76.321  225.003
  618.046   11.213    0.430    0.147   76.705  226.483
  618.296    9.866    0.418    0.156   77.699  227.440
  618.546    9.377    0.429    0.157   78.755  228.508
  618.796    9.063    0.444    0.189   81.942  228.745
  619.046    8.921    0.441    0.183   87.135  228.993
  619.296    8.781    0.437    0.183   92.391  229.123
  619.546    8.487    0.436    0.189   99.231  228.854
  619.796    8.291    0.434    0.188  108.017  228.579
  620.046    7.969    0.428    0.183  111.936  228.609
  620.296    7.659    0.420    0.177  111.954  228.644
  620.546    7.415    0.426    0.171  112.403  228.681
  620.796    7.325    0.444    0.165  113.335  228.718
  621.046    7.467    0.449    0.155  114.146  228.852
  621.296    7.796    0.449    0.143  114.717  229.194
  621.546    8.698    0.442    0.149  111.751  229.126
  621.796    9.828    0.412    0.159  106.660  228.749
  622.046   11.146    0.403    0.165  102.175  227.240
  622.296   12.595    0.396    0.182   97.872  225.315
  622.546   14.310    0.396    0.177   88.397  224.116
  622.796   16.871    0.410    0.161   83.546  223.632
  623.046   19.998    0.377    0.132   77.175  223.045
  623.296   19.941    0.320    0.098   70.925  222.874
  623.546   19.305    0.303    0.066   66.320  223.013
  623.796   18.555    0.312    0.020   69.687  223.157
  624.046   17.377    0.364    0.037   77.317  224.112
  624.296   13.945    0.386    0.105   83.365  224.663
  624.546   13.184    0.387    0.163   82.411  225.630
  624.796   13.267    0.388    0.154   82.675  226.692
  625.046   13.423    0.407    0.155   84.400  227.967
  625.296   13.557    0.392    0.150   84.542  229.036
  625.546   13.126    0.367    0.136   85.233  229.788
  625.796   12.430    0.363    0.134   88.236  230.436
  626.046   10.836    0.377    0.145   91.240  228.411
  626.296    9.173    0.399    0.147   94.184  224.114
  626.546    8.435    0.393    0.156   96.578  222.091
  626.796    8.504    0.382    0.157   99.458  222.951
  627.046    9.681    0.406    0.152   97.836  224.740
  627.296   11.861    0.413    0.146   92.073  226.318
  627.546   14.294    0.387    0.125   86.614  227.798
  627.796   16.242    0.361    0.091   81.337  228.554
  628.046   16.495    0.330    0.068   74.113  228.586
  628.296   14.703    0.342    0.071   75.474  228.317
  628.546   12.330    0.348    0.064   78.051  226.801
  628.796   10.097    0.318    0.041   79.106  224.565
  629.046    8.706    0.353    0.041   82.966  223.568
  629.296    8.155    0.405    0.111   89.010  224.326
  629.546    8.160    0.437    0.140   91.465  225.908
  629.796    8.427    0.437    0.126   88.990  227.181
  630.046    8.605    0.439    0.101   86.878  228.045
  630.296    8.953    0.434    0.139   84.953  228.076
  630.546    9.226    0.424    0.131   82.537  227.696
  630.796    9.597    0.399    0.114   78.845  227.219
  631.046    9.964    0.378    0.083   80.204  227.040
  631.296   10.176    0.390    0.053   84.851  226.464
  631.546   10.016    0.393    0.096   88.098  226.390
  631.796    9.296    0.385    0.132   86.659  226.013
  632.046    8.564    0.397    0.086   85.583  226.053
  632.296    8.125    0.423    0.076   86.213  226.082
  632.546    7.968    0.432    0.146   88.972  226.528
  632.796    7.843    0.432    0.152   92.461  226.771
  633.046    7.622    0.421    0.145   94.126  226.815
  633.296    7.516    0.409    0.138   94.329  227.043
  633.546    7.237    0.399    0.142   89.601  226.875
  633.796    6.955    0.405    0.122   90.657  227.113
  634.046    6.574    0.404    0.102   93.172  226.942
  634.296    6.284    0.398    0.097   95.143  226.880
  634.546    6.028    0.406    0.110   96.805  226.814
  634.796    5.815    0.406    0.099   97.555  226.637
  635.046    5.558    0.394    0.103   98.855  226.460
  635.296    5.253    0.393    0.125  100.398  226.296
  635.546    4.822    0.406    0.128  100.844  226.220
  635.796    4.329    0.429    0.137   96.847  225.851
  636.046    3.578    0.455    0.123   98.267  225.782
  636.296    3.784    0.506    0.124   98.958  225.812
  636.546    4.636    0.567    0.148   93.742  225.740
  636.796    5.840    0.495    0.174   83.779  225.780
  637.046    7.991    0.451    0.182   68.762  225.814
  637.296    9.719    0.422    0.183   65.860  225.538
  637.546   11.228    0.397    0.198   72.090  225.470
  637.796   13.683    0.376    0.189   76.130  225.506
  638.046   18.013    0.355    0.148   77.306  225.230
  638.296   26.286    0.325    0.140   71.908  225.055
  638.546   42.057    0.258    0.175   59.023  224.471
  638.796   60.478    0.164    0.253   47.172  218.528
  639.046   82.150    0.096    0.319   29.964  214.130
  639.296  103.091    0.075    0.364   26.638  213.546
  639.546  126.095    0.086    0.379   26.234  213.478
  639.796  137.336    0.098    0.381   26.313  215.059
  640.046  147.943    0.101    0.379   27.613  217.362
  640.296  155.313    0.102    0.379   29.763  218.530
  640.546  166.068    0.101    0.382   31.853  218.570
  640.796  178.568    0.104    0.381   31.995  218.187
  641.046  186.775    0.107    0.376   30.860  216.779
  641.296  191.094    0.112    0.369   31.062  215.369
  641.546  189.487    0.118    0.374   32.604  214.682
  641.796  182.115    0.123    0.377   36.095  214.306
  642.046  165.323    0.129    0.374   45.490  214.652
  642.296  147.608    0.149    0.371   55.373  215.199
  642.546  131.812    0.171    0.367   65.742  215.647
  642.796  117.677    0.239    0.359   67.408  215.990
  643.046   97.074    0.332    0.337   64.872  215.926
  643.296   78.184    0.397    0.316   62.882  214.617
  643.546   69.682    0.410    0.302   61.686  206.304
  643.796   63.723    0.389    0.287   61.035  208.193
  644.046   56.381    0.393    0.290   60.631  214.204
  644.296   50.801    0.410    0.288   60.897  220.940
  644.546   45.275    0.440    0.278   61.340  220.562
  644.796   41.559    0.460    0.272   62.761  220.290
  645.046   40.084    0.469    0.273   65.278  220.011
  645.296   40.194    0.469    0.278   64.689  219.532
  645.546   40.371    0.466    0.277   61.423  219.364
