~VERSION INFORMATION
 VERS.                 2.0:   CWLS LOG ASCII STANDARD -VERSION 2.0
 WRAP.                  NO:   ONE LINE PER DEPTH STEP
~WELL INFORMATION BLOCK
#MNEM.UNIT           DATA                    DESCRIPTION OF MNEMONIC
#---------    -------------------            -------------------------------
# Generated from Intellog Unique Number	CS_77_79/WELL/972
WELL.         BRALORNE RESOURCES LIMITED     : Well_name    - WELL
LOC .         00/10-27-077-15W4/0            : Location     - LOCATION
UWI .         00/10-27-077-15W4/0            : Uwi          - UNIQUE WELL ID
ENTR.         SP                             : Entered      - ENTERED BY
SRVC.         SCHLUMBERGER                   : Scn          - SERVICE COMPANY
STRT.M        275                            : top_depth    - START DEPTH
STOP.M        535                            : bot_depth    - STOP DEPTH
STEP.M        0.25                           : increment    - STEP LENGTH
 NULL. -999.2500:NULL Value
~CURVE INFORMATION BLOCK
#MNEM UNIT       ERCB CURVE CODE    CURVE DESCRIPTION
#-----------   ------------------   ----------------------------------
DEPT.M        00 001 00 00         : DEPTH        - DEPTH
ILD .OHMM     00 120 00 00         : RESD         - DEEP RESISTIVITY (DIL)
DPHI.V/V      00 890 00 00         : PHID         - DENSITY POROSITY (LIMESTONE)
NPHI.V/V      00 330 00 00         : PHIN         - NEUTRON POROSITY (LIMESTONE)
GR  .API      00 310 00 00         : GR           - GAMMA RAY
~PARAMETER INFORMATION
#MNEM.UNIT           DATA             DESCRIPTION OF MNEMONIC
#---------         -----------     ------------------------------
GL  .M        669.41               : gl           - GROUND LEVEL ELEVATION
EREF.M        673.69               : kb           - ELEVATION OF DEPTH REFERENCE
DATM.M        669.41               : datum        - DATUM ELEVATION
TDD .M        552                  : tdd          - TOTAL DEPTH DRILLER
RUN .         ONE                  : Run          - RUN NUMBER
ENG .         BILL                 : Engineer     - RECORDING ENGINEER
WIT .         JIM                  : Witness      - WITNESSED BY
MUD .         GEL                  : Mud_type     - MUD TYPE
MATR.         LIMESTONE            : Logunit      - NEUTRON MATRIX
TMAX.C        25                   : BHT          - MAXIMUM RECORDED TEMPERATURE
BHTD.M        552                  : BHTDEP       - MAXIMUM RECORDED TEMPERATURE
MATR.         1                    : LOGUNIT      - NEUTRON MATRIX
RMT .C        25                   : MDTP         - TEMPERATURE OF MUD
NEUT.         1                    : NEUTRON      - NEUTRON TYPE
RESI.         0                    : RESIST       - RESISTIVITY TYPE
RMC .OHMM     0.25                 : RMC          - RESISTIVITY OF MUD CAKE
RMF .OHMM     0.25                 : RMF          - RESISTIVITY OF MUD FILTRATE
SUFT.C        15                   : SUFT         - SURFACE TEMPERATURE
~A  DEPTH     RESD     PHID     PHIN       GR
# ...
  362.000   12.157    0.324    0.478   49.322
  362.250   12.161    0.317    0.481   48.706
  362.500   12.166    0.315    0.484   48.094
  362.750   12.169    0.319    0.485   49.904
  363.000   12.175    0.328    0.491   51.114
  363.250   12.178    0.339    0.500   51.104
  363.500   12.182    0.341    0.502   50.488
  363.750   11.963    0.340    0.489   52.299
  364.000   11.967    0.339    0.480   52.902
  364.250   12.196    0.343    0.478   51.679
  364.500   12.199    0.342    0.478   49.241
  364.750   12.204    0.340    0.482   48.627
  365.000   12.208    0.340    0.484   49.224
  365.250   12.212    0.339    0.480   51.641
  365.500   12.216    0.337    0.482   52.849
  365.750   11.999    0.337    0.483   52.232
  366.000   12.002    0.332    0.480   51.621
  366.250   12.005    0.327    0.473   51.612
  366.500   12.008    0.333    0.464   53.423
  366.750   12.013    0.326    0.460   54.632
  367.000   12.016    0.336    0.459   56.442
  367.250   11.800    0.334    0.472   57.045
  367.500   11.804    0.331    0.482   57.036
  367.750   11.808    0.333    0.485   55.206
  368.000   11.814    0.330    0.484   53.982
  368.250   11.817    0.330    0.482   53.975
  368.500   11.604    0.321    0.479   55.785
  368.750   11.607    0.324    0.475   57.601
  369.000   11.397    0.327    0.471   61.235
  369.250   11.191    0.319    0.470   64.869
  369.500   10.990    0.313    0.483   69.108
  369.750   10.791    0.318    0.500   70.317
  370.000   10.794    0.313    0.500   72.133
  370.250   10.213    0.307    0.506   74.553
  370.500    9.664    0.301    0.516   76.975
  370.750    9.143    0.291    0.509   80.611
  371.000    8.650    0.288    0.496   84.853
  371.250    8.338    0.283    0.486   88.488
  371.500    8.187    0.293    0.503   88.479
  371.750    8.192    0.301    0.535   84.218
  372.000    8.043    0.306    0.535   82.996
  372.250    7.897    0.308    0.535   84.201
  372.500    7.900    0.305    0.542   84.803
  372.750    7.757    0.295    0.546   85.397
  373.000    7.618    0.305    0.545   84.786
  373.250    7.619    0.302    0.541   83.563
  373.500    7.623    0.285    0.508   85.983
  373.750    7.625    0.270    0.498   88.397
  374.000    7.487    0.260    0.492   89.605
  374.250    7.218    0.272    0.493   90.812
  374.500    7.219    0.284    0.496   92.023
  374.750    7.090    0.276    0.497   90.798
  375.000    7.091    0.260    0.503   88.966
  375.250    7.094    0.249    0.509   88.961
  375.500    7.230    0.254    0.510   90.772
  375.750    7.099    0.260    0.509   92.585
  376.000    7.102    0.261    0.503   93.187
  376.250    6.973    0.258    0.498   93.175
  376.500    6.847    0.261    0.503   93.171
  376.750    6.600    0.252    0.503   93.770
  377.000    6.480    0.246    0.499   96.189
  377.250    6.132    0.237    0.494   98.003
  377.500    5.910    0.240    0.509   96.778
  377.750    5.803    0.248    0.523   96.770
  378.000    5.491    0.249    0.534   96.764
  378.250    5.392    0.253    0.537   97.359
  378.500    5.294    0.257    0.536   97.355
  378.750    5.103    0.244    0.532   96.738
  379.000    5.105    0.245    0.527   96.123
  379.250    5.107    0.257    0.527   94.900
  379.500    5.205    0.262    0.537   93.677
  379.750    5.304    0.262    0.538   92.454
  380.000    5.405    0.260    0.537   90.622
  380.250    5.716    0.268    0.541   89.399
  380.500    6.046    0.273    0.543   87.571
  380.750    6.161    0.283    0.542   85.740
  381.000    5.412    0.287    0.530   86.340
  381.250    4.754    0.299    0.516   90.583
  381.500    4.254    0.290    0.514   96.645
  381.750    3.737    0.282    0.520   99.674
  382.000    3.283    0.273    0.561  100.882
  382.250    2.938    0.282    0.577  103.300
  382.500    2.581    0.292    0.588  104.509
  382.750    2.487    0.282    0.595  103.892
  383.000    2.397    0.284    0.601  105.705
  383.250    2.398    0.299    0.610  107.519
  383.500    2.444    0.302    0.620  108.114
  383.750    2.445    0.291    0.620  107.499
  384.000    2.446    0.293    0.647  106.275
  384.250    2.401    0.295    0.652  105.659
  384.500    2.402    0.303    0.640  104.438
  384.750    2.448    0.297    0.637  104.432
  385.000    2.495    0.289    0.636  103.818
  385.250    2.639    0.295    0.628  103.200
  385.500    2.689    0.298    0.629  101.369
  385.750    2.792    0.299    0.624  100.757
  386.000    2.953    0.295    0.615   98.320
  386.250    3.066    0.290    0.619   92.239
  386.500    3.303    0.284    0.598   89.800
  386.750    3.694    0.286    0.593   91.008
  387.000    4.532    0.283    0.588   90.391
  387.250    5.260    0.269    0.575   85.526
  387.500    6.220    0.294    0.554   80.659
  387.750    7.218    0.300    0.522   75.181
  388.000    7.634    0.298    0.489   73.354
  388.250    8.074    0.308    0.483   68.488
  388.500    8.078    0.315    0.476   61.194
  388.750    8.080    0.319    0.472   58.754
  389.000    8.235    0.321    0.465   58.140
  389.250    8.238    0.327    0.455   56.916
  389.500    8.395    0.331    0.457   56.303
  389.750    8.397    0.329    0.455   55.081
  390.000    8.400    0.308    0.448   53.858
  390.250    8.722    0.332    0.443   55.063
  390.500    8.565    0.340    0.451   55.661
  390.750    8.567    0.334    0.454   56.868
  391.000    8.570    0.328    0.451   57.469
  391.250    8.572    0.336    0.445   57.457
  391.500    8.576    0.341    0.440   56.839
  391.750    8.580    0.343    0.436   56.224
  392.000    8.581    0.335    0.436   55.613
  392.250    8.746    0.336    0.445   55.605
  392.500    8.750    0.347    0.445   56.203
  392.750    8.591    0.348    0.440   56.194
  393.000    8.593    0.335    0.441   56.186
  393.250    8.758    0.318    0.440   54.963
  393.500    9.092    0.264    0.423   54.349
  393.750   10.951    0.166    0.311   53.732
  394.000   12.246    0.067    0.270   53.118
  394.250   13.951    0.049    0.226   50.071
  394.500   14.484    0.166    0.166   48.849
  394.750   12.961    0.213    0.197   50.056
  395.000   10.185    0.241    0.258   54.904
  395.250    8.947    0.265    0.369   58.541
  395.500    8.157    0.316    0.426   62.175
  395.750    8.008    0.333    0.455   65.203
  396.000    7.438    0.346    0.469   68.838
  396.250    7.304    0.344    0.473   73.079
  396.500    7.041    0.345    0.475   76.107
  396.750    7.043    0.346    0.480   77.921
  397.000    7.045    0.335    0.474   77.308
  397.250    7.048    0.332    0.470   74.260
  397.500    7.050    0.318    0.469   73.644
  397.750    7.053    0.314    0.464   74.240
  398.000    7.055    0.310    0.463   76.056
  398.250    7.057    0.316    0.471   77.266
  398.500    6.930    0.334    0.486   76.648
  398.750    6.806    0.345    0.493   74.817
  399.000    6.807    0.347    0.500   74.810
  399.250    6.561    0.334    0.529   75.410
  399.500    5.981    0.333    0.521   77.223
  399.750    5.353    0.319    0.503   80.251
  400.000    4.971    0.290    0.502   81.456
  400.250    4.792    0.263    0.513   81.449
  400.500    5.068    0.273    0.527   81.439
  400.750    5.261    0.297    0.541   80.826
  401.000    5.462    0.304    0.535   78.994
  401.250    5.777    0.315    0.511   76.555
  401.500    6.111    0.304    0.501   77.153
  401.750    6.228    0.309    0.508   77.754
  402.000    6.347    0.299    0.512   80.175
  402.250    6.232    0.301    0.483   83.204
  402.500    6.007    0.289    0.500   83.195
  402.750    6.008    0.278    0.509   81.364
  403.000    6.123    0.278    0.525   80.747
  403.250    6.358    0.295    0.523   81.346
  403.500    6.600    0.287    0.496   81.948
  403.750    6.853    0.273    0.481   82.545
  404.000    7.114    0.260    0.473   81.321
  404.250    7.117    0.249    0.488   80.708
  404.500    6.988    0.265    0.494   82.521
  404.750    6.612    0.286    0.501   83.728
  405.000    6.492    0.290    0.488   85.542
  405.250    6.258    0.283    0.463   87.354
