~VERSION INFORMATION
 VERS.                 2.0:   CWLS LOG ASCII STANDARD -VERSION 2.0
 WRAP.                  NO:   ONE LINE PER DEPTH STEP
~WELL INFORMATION BLOCK
#MNEM.UNIT           DATA                    DESCRIPTION OF MNEMONIC
#---------    -------------------            -------------------------------
# Generated from Intellog Unique Number	CW_82_90/WELL/3440
WELL.         TEXACO CORN LAKE               : Well_name    - WELL
LOC .         00/10-21-088-25W4/0            : Location     - LOCATION
UWI .         00/10-21-088-25W4/0            : Uwi          - UNIQUE WELL ID
ENTR.         MAX                            : Entered      - ENTERED BY
SRVC.         SCHLUMBERGER                   : Scn          - SERVICE COMPANY
STRT.M        260                            : top_depth    - START DEPTH
STOP.M        462                            : bot_depth    - STOP DEPTH
STEP.M        0.25                           : increment    - STEP LENGTH
 NULL. -999.2500:NULL Value
~CURVE INFORMATION BLOCK
#MNEM UNIT       ERCB CURVE CODE    CURVE DESCRIPTION
#-----------   ------------------   ----------------------------------
DEPT.M        00 001 00 00         : DEPTH        - DEPTH
ILD .OHMM     00 120 00 00         : RESD         - DEEP RESISTIVITY (DIL)
NPHI.V/V      00 330 00 00         : PHIN         - NEUTRON POROSITY (SANDSTONE)
DPHI.V/V      00 890 00 00         : PHID         - DENSITY POROSITY (SANDSTONE)
CALI.MM       00 280 01 00         : CAL          - CALIPER
GR  .API      00 310 00 00         : GR           - GAMMA RAY
~PARAMETER INFORMATION
#MNEM.UNIT           DATA             DESCRIPTION OF MNEMONIC
#---------         -----------     ------------------------------
GL  .M        659.7                : gl           - GROUND LEVEL ELEVATION
EREF.M        663                  : kb           - ELEVATION OF DEPTH REFERENCE
DATM.M        659.7                : datum        - DATUM ELEVATION
TDD .M        465.5                : tdd          - TOTAL DEPTH DRILLER
RUN .         ONE                  : Run          - RUN NUMBER
ENG .         BILL                 : Engineer     - RECORDING ENGINEER
WIT .         JIM                  : Witness      - WITNESSED BY
MUD .         GEL                  : Mud_type     - MUD TYPE
MATR.         SANDSTONE            : Logunit      - NEUTRON MATRIX
TMAX.C        33.4                 : BHT          - MAXIMUM RECORDED TEMPERATURE
BHTD.M        465.5                : BHTDEP       - MAXIMUM RECORDED TEMPERATURE
MATR.         1                    : LOGUNIT      - NEUTRON MATRIX
RMT .C        15.6                 : MDTP         - TEMPERATURE OF MUD
NEUT.         1                    : NEUTRON      - NEUTRON TYPE
RESI.         0                    : RESIST       - RESISTIVITY TYPE
RMC .OHMM     2.17                 : RMC          - RESISTIVITY OF MUD CAKE
RMF .OHMM     2.17                 : RMF          - RESISTIVITY OF MUD FILTRATE
SUFT.C        -5                   : SUFT         - SURFACE TEMPERATURE
~A  DEPTH     RESD     PHIN     PHID      CAL       GR
# ...
  406.000    6.357    0.461    0.202  238.760  122.611
  406.250    6.251    0.464    0.214  235.372  122.942
  406.500    6.264    0.470    0.214  240.370  122.692
  406.750    6.329    0.488    0.215  243.874  121.555
  407.000    6.398    0.486    0.223  238.034  120.699
  407.250    6.527    0.453    0.255  228.757  117.491
  407.500    6.722    0.429    0.260  223.409  115.464
  407.750    6.920    0.420    0.225  222.984  114.618
  408.000    7.060    0.411    0.227  224.035  113.181
  408.250    7.073    0.403    0.224  224.094  113.522
  408.500    6.955    0.394    0.220  223.193  114.448
  408.750    6.778    0.385    0.224  223.243  112.711
  409.000    6.728    0.375    0.237  222.826  111.575
  409.250    6.677    0.379    0.236  222.884  113.392
  409.500    6.814    0.384    0.230  223.460  115.199
  409.750    6.825    0.390    0.217  224.995  117.606
  410.000    6.836    0.401    0.206  227.039  119.709
  410.250    6.976    0.415    0.204  229.575  122.112
  410.500    7.180    0.435    0.213  230.618  123.038
  410.750    7.262    0.410    0.218  230.184  123.083
  411.000    7.272    0.393    0.228  227.807  118.983
  411.250    7.154    0.412    0.223  226.872  116.365
  411.500    7.034    0.416    0.208  226.948  115.815
  411.750    6.730    0.411    0.196  227.498  115.855
  412.000    6.382    0.432    0.182  226.097  117.967
  412.250    6.218    0.433    0.233  225.671  121.256
  412.500    6.060    0.435    0.228  232.145  123.363
  412.750    5.961    0.433    0.212  236.141  122.522
  413.000    5.916    0.431    0.216  237.685  119.899
  413.250    5.714    0.431    0.225  235.299  117.287
  413.500    5.519    0.437    0.233  231.420  116.140
  413.750    5.279    0.443    0.234  227.549  115.294
  414.000    4.782    0.444    0.231  225.655  114.448
  414.250    4.412    0.447    0.263  227.199  112.131
  414.500    4.221    0.451    0.237  225.296  108.031
  414.750    4.075    0.468    0.212  223.895  103.351
  415.000    3.937    0.494    0.173  224.437   98.366
  415.250    3.871    0.457    0.170  226.490   92.789
  415.500    3.843    0.453    0.206  230.978   97.855
  415.750    4.029    0.522    0.264  246.312  105.574
  416.000    4.424    0.530    0.313  242.933  110.059
  416.250    4.944    0.501    0.264  235.608  107.136
  416.500    6.003    0.488    0.225  224.855  103.336
  416.750    6.353    0.474    0.162  221.476   98.651
  417.000    6.363    0.437    0.126  221.051   95.443
  417.250    6.317    0.416    0.160  221.134   99.908
  417.500    6.329    0.457    0.197  221.184  104.973
  417.750    6.397    0.468    0.219  221.752  105.013
  418.000    6.406    0.485    0.206  223.287  110.369
  418.250    6.418    0.482    0.215  226.799  112.197
  418.500    6.429    0.465    0.228  230.804  111.931
  418.750    6.500    0.480    0.236  229.894  111.676
  419.000    6.510    0.486    0.222  225.031  111.130
  419.250    6.584    0.474    0.200  223.621  110.585
  419.500    6.714    0.466    0.193  224.680  110.625
  419.750    6.788    0.464    0.186  225.239  111.551
  420.000    6.798    0.470    0.213  225.790  113.063
  420.250    6.809    0.463    0.232  226.850  115.756
  420.500    6.760    0.445    0.248  228.885  117.283
  420.750    6.647    0.450    0.234  223.037  117.032
  421.000    6.721    0.474    0.220  222.612  117.062
  421.250    7.047    0.489    0.212  231.054  116.512
  421.500    7.953    0.502    0.209  237.028  107.687
  421.750    9.055    0.489    0.203  233.157   97.095
  422.000   10.793    0.452    0.042  224.864   90.343
  422.250   13.847    0.379    0.028  221.978   85.657
  422.500   16.653    0.255    0.028  222.036   83.921
  422.750   17.626    0.222    0.073  222.103   84.261
  423.000   15.961    0.241    0.211  222.187   86.664
  423.250   12.953    0.296    0.233  221.753   90.843
  423.500   10.227    0.380    0.253  221.828   95.904
  423.750    8.531    0.413    0.255  221.886   98.016
  424.000    8.089    0.427    0.253  221.953   96.580
  424.250    8.480    0.433    0.248  219.559   93.957
  424.500   10.682    0.441    0.232  218.650   91.044
  424.750   11.511    0.448    0.202  218.708   87.535
  425.000   15.745    0.404    0.163  220.260   82.554
  425.250   19.826    0.219    0.134  221.311   70.781
  425.500   23.848    0.202    0.031  221.870   71.707
  425.750   23.256    0.227    0.017  221.929   74.701
  426.000   21.248    0.251    0.031  221.995   78.580
  426.250   16.469    0.301    0.045  222.071   82.760
  426.500   13.241    0.341    0.066  222.129   87.230
  426.750   10.551    0.371    0.112  222.213   94.954
  427.000    8.963    0.398    0.159  222.271  102.086
  427.250    8.344    0.425    0.198  222.338  103.603
  427.500    8.282    0.442    0.220  222.405  103.939
  427.750    8.527    0.455    0.206  222.972  105.756
  428.000    9.023    0.443    0.194  223.030  109.335
  428.250    9.124    0.427    0.170  223.106  110.561
  428.500    9.056    0.423    0.168  223.164  111.487
  428.750    8.986    0.428    0.194  223.247  111.828
  429.000    9.254    0.434    0.182  223.298  111.267
  429.250    9.795    0.408    0.172  222.881  109.835
  429.500   10.175    0.434    0.161  222.956  107.513
  429.750   10.968    0.451    0.158  223.014  104.895
  430.000   12.150    0.448    0.165  223.081  100.205
  430.250   12.857    0.405    0.156  224.132   94.929
  430.500   12.884    0.345    0.109  224.216   91.425
  430.750   12.440    0.291    0.079  223.774   91.760
  431.000   11.371    0.352    0.080  223.348   99.479
  431.250   10.205    0.399    0.166  223.423  106.317
  431.500    9.497    0.435    0.198  223.490  109.906
  431.750    8.924    0.443    0.177  224.541  112.309
  432.000    8.695    0.444    0.153  225.109  109.390
  432.250    8.246    0.426    0.131  225.659  113.870
  432.500    8.108    0.426    0.114  226.218  118.926
  432.750    8.050    0.469    0.151  226.786  123.101
  433.000    8.063    0.480    0.215  226.360  122.846
  433.250    8.153    0.464    0.209  225.927  120.228
  433.500    8.241    0.458    0.202  225.501  120.573
  433.750    8.485    0.473    0.187  225.084  118.536
  434.000    8.734    0.487    0.174  224.667  115.032
  434.250    9.329    0.465    0.156  224.734  111.238
  434.500    9.874    0.441    0.131  224.300  111.278
  434.750   10.451    0.422    0.130  224.358  112.204
  435.000   10.660    0.437    0.167  224.442  110.177
  435.250   10.676    0.442    0.143  224.017  111.989
  435.500   10.030    0.446    0.130  224.092  115.573
  435.750    9.085    0.454    0.127  223.658  119.452
  436.000    8.386    0.475    0.177  223.224  120.383
  436.250    8.394    0.486    0.192  222.807  119.237
  436.500    8.815    0.493    0.205  222.874  116.329
  436.750    8.423    0.502    0.181  222.941  114.001
  437.000    8.438    0.477    0.135  222.524  110.202
  437.250    8.451    0.451    0.104  222.082  109.366
  437.500    8.467    0.426    0.121  222.148  110.577
  437.750    8.479    0.448    0.197  221.723  113.576
  438.000    8.816    0.434    0.186  221.306  116.279
  438.250    9.072    0.430    0.169  221.373  118.682
  438.500    9.693    0.425    0.155  221.439  118.717
  438.750    9.794    0.428    0.145  221.515  119.352
  439.000    9.637    0.413    0.125  221.089  124.708
  439.250    9.474    0.388    0.140  221.156  133.018
  439.500    9.407    0.399    0.172  220.722  145.762
  439.750    9.772    0.410    0.182  220.305  150.542
  440.000   10.631    0.404    0.138  220.380  147.614
  440.250   11.883    0.385    0.088  220.447  142.634
  440.500   13.909    0.294    0.066  220.514  135.881
  440.750   17.355    0.281    0.043  220.572  127.947
  441.000   22.261    0.273    0.038  220.647  128.878
  441.250   23.130    0.287    0.049  220.723  134.525
  441.500   22.341    0.322    0.074  220.789  139.295
  441.750   20.604    0.365    0.122  220.848  145.242
  442.000   14.179    0.405    0.181  220.422  148.240
  442.250   11.827    0.390    0.190  220.498  143.845
