~VERSION INFORMATION
 VERS.                 2.0:   CWLS LOG ASCII STANDARD -VERSION 2.0
 WRAP.                  NO:   ONE LINE PER DEPTH STEP
~WELL INFORMATION BLOCK
#MNEM.UNIT           DATA                    DESCRIPTION OF MNEMONIC
#---------    -------------------            -------------------------------
# Generated from Intellog Unique Number	CS_73_76/WELL/3278
WELL.         BOW VALLEY EXPLORATION         : Well_name    - WELL
LOC .         00/15-06-075-13W4/0            : Location     - LOCATION
UWI .         00/15-06-075-13W4/0            : Uwi          - UNIQUE WELL ID
ENTR.         SP                             : Entered      - ENTERED BY
SRVC.         SCHLUMBERGER                   : Scn          - SERVICE COMPANY
STRT.M        375                            : top_depth    - START DEPTH
STOP.M        615                            : bot_depth    - STOP DEPTH
STEP.M        0.25                           : increment    - STEP LENGTH
 NULL. -999.2500:NULL Value
~CURVE INFORMATION BLOCK
#MNEM UNIT       ERCB CURVE CODE    CURVE DESCRIPTION
#-----------   ------------------   ----------------------------------
DEPT.M        00 001 00 00         : DEPTH        - DEPTH
ILD .OHMM     00 120 00 00         : RESD         - DEEP RESISTIVITY (DIL)
DPHI.V/V      00 890 00 00         : PHID         - DENSITY POROSITY (LIMESTONE)
NPHI.V/V      00 330 00 00         : PHIN         - NEUTRON POROSITY (LIMESTONE)
GR  .API      00 310 00 00         : GR           - GAMMA RAY
~PARAMETER INFORMATION
#MNEM.UNIT           DATA             DESCRIPTION OF MNEMONIC
#---------         -----------     ------------------------------
GL  .M        742.4                : gl           - GROUND LEVEL ELEVATION
EREF.M        745.6                : kb           - ELEVATION OF DEPTH REFERENCE
DATM.M        742.4                : datum        - DATUM ELEVATION
TDD .M        636                  : tdd          - TOTAL DEPTH DRILLER
RUN .         ONE                  : Run          - RUN NUMBER
ENG .         BILL                 : Engineer     - RECORDING ENGINEER
WIT .         JIM                  : Witness      - WITNESSED BY
MUD .         GEL                  : Mud_type     - MUD TYPE
MATR.         LIMESTONE            : Logunit      - NEUTRON MATRIX
TMAX.C        14                   : BHT          - MAXIMUM RECORDED TEMPERATURE
BHTD.M        636                  : BHTDEP       - MAXIMUM RECORDED TEMPERATURE
MATR.         1                    : LOGUNIT      - NEUTRON MATRIX
RMT .C        25                   : MDTP         - TEMPERATURE OF MUD
NEUT.         1                    : NEUTRON      - NEUTRON TYPE
RESI.         0                    : RESIST       - RESISTIVITY TYPE
RMC .OHMM     0.25                 : RMC          - RESISTIVITY OF MUD CAKE
RMF .OHMM     0.25                 : RMF          - RESISTIVITY OF MUD FILTRATE
SUFT.C        15                   : SUFT         - SURFACE TEMPERATURE
~A  DEPTH     RESD     PHID     PHIN       GR
# ...
  592.500   10.043    0.214    0.355   71.344
  592.750   10.047    0.203    0.350   74.373
  593.000   10.243    0.163    0.349   75.590
  593.250   10.440    0.189    0.360   73.178
  593.500   10.643    0.204    0.364   73.791
  593.750   10.848    0.210    0.361   74.403
  594.000   11.060    0.226    0.358   72.594
  594.250   11.064    0.223    0.367   68.973
  594.500   11.276    0.224    0.364   66.560
  594.750   11.074    0.227    0.354   64.752
  595.000   10.673    0.232    0.350   63.547
  595.250    9.727    0.240    0.353   62.952
  595.500    8.865    0.241    0.356   61.747
  595.750    8.078    0.243    0.354   62.361
  596.000    7.363    0.235    0.344   63.575
  596.250    6.710    0.225    0.342   60.557
  596.500    6.346    0.233    0.345   58.750
  596.750    5.784    0.242    0.350   59.362
  597.000    5.078    0.255    0.354   58.160
  597.250    4.715    0.264    0.345   56.351
  597.500    4.218    0.249    0.339   56.964
  597.750    3.843    0.238    0.336   59.995
  598.000    3.636    0.253    0.341   58.794
  598.250    3.376    0.265    0.354   54.565
  598.500    3.194    0.282    0.362   48.523
  598.750    3.136    0.310    0.371   41.876
  599.000    3.080    0.311    0.357   39.464
  599.250    3.081    0.295    0.357   41.285
  599.500    3.026    0.308    0.365   37.058
  599.750    2.971    0.310    0.367   36.462
  600.000    2.972    0.307    0.373   37.072
  600.250    2.919    0.329    0.374   37.078
  600.500    2.867    0.335    0.377   40.114
  600.750    2.815    0.327    0.368   41.330
  601.000    2.764    0.319    0.368   42.543
  601.250    2.715    0.329    0.372   43.759
  601.500    2.716    0.339    0.373   38.324
  601.750    2.667    0.325    0.365   37.726
  602.000    2.619    0.320    0.361   38.340
  602.250    2.572    0.311    0.373   38.948
  602.500    2.573    0.319    0.369   37.745
  602.750    2.526    0.319    0.361   38.359
  603.000    2.481    0.313    0.365   41.390
  603.250    2.529    0.305    0.366   41.396
  603.500    2.530    0.296    0.374   38.378
  603.750    2.532    0.307    0.388   35.361
  604.000    2.533    0.313    0.397   32.949
  604.250    2.534    0.323    0.402   37.191
  604.500    2.583    0.302    0.391   39.616
  604.750    2.537    0.309    0.385   37.808
  605.000    2.538    0.308    0.394   35.397
  605.250    2.540    0.337    0.400   37.824
  605.500    2.540    0.342    0.402   40.855
  605.750    2.542    0.316    0.381   44.489
  606.000    2.543    0.306    0.373   49.942
  606.250    2.592    0.314    0.367   51.157
  606.500    2.594    0.324    0.362   52.374
  606.750    2.644    0.314    0.358   48.751
  607.000    2.645    0.308    0.361   39.686
  607.250    2.696    0.325    0.367   34.248
  607.500    2.698    0.303    0.373   29.416
  607.750    2.750    0.314    0.379   27.608
  608.000    2.856    0.315    0.384   27.011
  608.250    2.966    0.315    0.381   25.808
  608.500    3.139    0.312    0.368   25.814
  608.750    3.321    0.309    0.363   25.825
  609.000    3.580    0.319    0.360   25.830
  609.250    4.159    0.306    0.347   28.256
  609.500    4.654    0.281    0.330   30.075
  609.750    5.307    0.234    0.299   34.921
  610.000    6.164    0.166    0.278   34.929
  610.250    7.717    0.081    0.237   34.935
  610.500    9.133    0.039    0.226   39.785
  610.750   11.868    0.009    0.232   42.208
  611.000   14.856    0.000    0.223   48.868
  611.250   18.596    0.000    0.206   43.432
  611.500   21.602    0.000    0.165   39.810
  611.750   24.632    0.000    0.157   39.818
  612.000   27.053    0.009    0.176   40.431
  612.250   29.715    0.022    0.190   41.040
  612.500   33.258    0.028    0.201   38.628
  612.750   35.190    0.038    0.190   34.401
  613.000   37.233    0.007    0.166   31.382
  613.250   40.142    0.022    0.139   28.365
  613.500   41.689    0.021    0.161   28.375
  613.750   43.301    0.016    0.182   28.378
  614.000   44.973    0.030    0.191   23.548
  614.250   45.839    0.051    0.185   21.135
  614.500   46.727    0.059    0.156   19.932
  614.750   46.746    0.039    0.150   20.544
  615.000   44.225    0.034    0.138   21.762
