~VERSION INFORMATION
 VERS.                 2.0:   CWLS LOG ASCII STANDARD -VERSION 2.0
 WRAP.                  NO:   ONE LINE PER DEPTH STEP
~WELL INFORMATION BLOCK
#MNEM.UNIT           DATA                    DESCRIPTION OF MNEMONIC
#---------    -------------------            -------------------------------
# Generated from Intellog Unique Number	CW_73_75/WELL/1032
WELL.         AMOCO MARTEN HILLS 11-02       : Well_name    - WELL
LOC .         00/11-02-075-02W5/0            : Location     - LOCATION
UWI .         00/11-02-075-02W5/0            : Uwi          - UNIQUE WELL ID
ENTR.         JAYE                           : Entered      - ENTERED BY
SRVC.         SCHLUMBERGER                   : Scn          - SERVICE COMPANY
DATE.         30 MAR 80                      : Date         - LOG DATE
STRT.M        500                            : top_depth    - START DEPTH
STOP.M        690                            : bot_depth    - STOP DEPTH
STEP.M        0.25                           : increment    - STEP LENGTH
 NULL. -999.2500:NULL Value
~CURVE INFORMATION BLOCK
#MNEM UNIT       ERCB CURVE CODE    CURVE DESCRIPTION
#-----------   ------------------   ----------------------------------
DEPT.M        00 001 00 00         : DEPTH        - DEPTH
ILD .OHMM     00 120 00 00         : RESD         - DEEP RESISTIVITY (DIL)
NPHI.V/V      00 330 00 00         : PHIN         - NEUTRON POROSITY (SANDSTONE)
DPHI.V/V      00 890 00 00         : PHID         - DENSITY POROSITY (SANDSTONE)
GR  .API      00 310 00 00         : GR           - GAMMA RAY
CALI.MM       00 280 01 00         : CAL          - CALIPER
~PARAMETER INFORMATION
#MNEM.UNIT           DATA             DESCRIPTION OF MNEMONIC
#---------         -----------     ------------------------------
GL  .M        773.04               : gl           - GROUND LEVEL ELEVATION
EREF.M        778.83               : kb           - ELEVATION OF DEPTH REFERENCE
DATM.M        773.04               : datum        - DATUM ELEVATION
TDD .M        691.8                : tdd          - TOTAL DEPTH DRILLER
RUN .         ONE                  : Run          - RUN NUMBER
ENG .         VERWAIK              : Engineer     - RECORDING ENGINEER
WIT .         MACMAHON             : Witness      - WITNESSED BY
BASE.         EDM                  : Branch       - HOME BASE OF LOGGING UNIT
MUD .         GEL                  : Mud_type     - MUD TYPE
MATR.         SANDSTONE            : Logunit      - NEUTRON MATRIX
TMAX.C        29                   : BHT          - MAXIMUM RECORDED TEMPERATURE
BHTD.M        691.7                : BHTDEP       - MAXIMUM RECORDED TEMPERATURE
RMT .C        29                   : MDTP         - TEMPERATURE OF MUD
MUDD.KG/M     1110                 : MWT          - MUD DENSITY
NEUT.         1                    : NEUTRON      - NEUTRON TYPE
RESI.         0                    : RESIST       - RESISTIVITY TYPE
RM  .OHMM     4.4                  : RM           - RESISTIVITY OF MUD
RMC .OHMM     0                    : RMC          - RESISTIVITY OF MUD CAKE
RMF .OHMM     4.96                 : RMF          - RESISTIVITY OF MUD FILTRATE
SUFT.C        0                    : SUFT         - SURFACE TEMPERATURE
~A  DEPTH     RESD     PHIN     PHID       GR      CAL
# ...
  609.500    3.501    0.452    0.274   61.560  217.384
  609.750    3.465    0.442    0.282   60.748  219.707
  610.000    3.462    0.399    0.260   61.038  220.193
  610.250    3.558    0.377    0.185   60.656  219.961
  610.500    3.732    0.337    0.165   59.538  219.225
  610.750    4.049    0.277    0.140   56.090  219.199
  611.000    4.511    0.255    0.121   51.906  219.989
  611.250    4.831    0.235    0.130   48.827  221.189
  611.500    4.992    0.193    0.019   46.544  222.291
  611.750    5.111    0.169    0.025   45.609  223.487
  612.000    5.193    0.182    0.045   47.248  224.078
  612.250    5.397    0.220    0.066   49.931  224.359
  612.500    5.758    0.259    0.090   52.245  224.127
  612.750    6.402    0.338    0.201   55.540  223.694
  613.000    7.349    0.377    0.226   60.856  222.952
  613.250    8.371    0.405    0.247   65.624  222.728
  613.500    9.626    0.428    0.261   67.754  222.187
  613.750   11.364    0.424    0.263   65.717  221.652
  614.000   13.415    0.405    0.270   63.924  221.014
  614.250   15.808    0.393    0.276   64.397  220.578
  614.500   16.521    0.415    0.266   65.057  220.250
  614.750   14.423    0.412    0.259   65.595  220.227
  615.000   12.107    0.402    0.255   65.027  220.305
  615.250   10.767    0.403    0.247   66.177  220.478
  615.500    8.431    0.433    0.247   69.351  220.555
  615.750    6.348    0.446    0.274   72.522  220.739
  616.000    5.459    0.429    0.244   72.628  221.016
  616.250    4.929    0.406    0.226   71.573  220.991
  616.500    4.552    0.400    0.211   70.453  220.968
  616.750    4.324    0.412    0.203   69.580  220.739
  617.000    4.200    0.403    0.195   69.015  220.713
  617.250    4.080    0.387    0.207   71.206  220.688
  617.500    4.001    0.378    0.209   73.826  220.663
  617.750    3.938    0.386    0.197   76.017  220.637
  618.000    3.905    0.403    0.195   78.147  220.409
  618.250    4.036    0.409    0.202   79.482  220.485
  618.500    4.194    0.401    0.206   79.897  220.463
  618.750    4.383    0.388    0.205   72.219  220.541
  619.000    4.659    0.381    0.188   69.323  220.512
  619.250    4.915    0.391    0.177   72.556  220.491
  619.500    5.061    0.378    0.198   73.951  220.871
  619.750    5.046    0.361    0.186   72.466  220.948
  620.000    5.005    0.364    0.182   70.428  221.229
  620.250    4.954    0.386    0.204   74.273  221.411
  620.500    4.941    0.399    0.207   78.673  221.486
  620.750    4.955    0.385    0.189   79.638  221.559
  621.000    4.960    0.393    0.177   77.416  221.537
  621.250    5.039    0.409    0.176   81.263  221.820
  621.500    5.238    0.426    0.197   82.535  221.491
  621.750    5.392    0.405    0.198   79.087  221.464
  622.000    5.572    0.377    0.186   77.602  221.744
  622.250    5.738    0.347    0.173   81.386  221.821
  622.500    5.819    0.348    0.153   85.048  221.694
  622.750    5.891    0.408    0.203   88.467  220.139
  623.000    5.919    0.412    0.206   87.103  215.823
  623.250    5.925    0.397    0.202   82.674  214.265
  623.500    5.853    0.411    0.210   78.062  216.178
  623.750    5.794    0.421    0.220   72.776  218.301
  624.000    5.714    0.408    0.200   69.083  220.014
  624.250    5.719    0.389    0.190   68.210  219.982
  624.500    5.790    0.399    0.188   72.914  219.343
  624.750    5.884    0.390    0.180   74.248  219.322
  625.000    5.978    0.387    0.197   74.233  219.807
  625.250    6.075    0.406    0.192   75.689  219.885
  625.500    6.014    0.407    0.175   76.287  220.578
  625.750    5.940    0.398    0.193   75.537  220.961
  626.000    5.792    0.411    0.207   80.057  220.935
  626.250    5.637    0.409    0.209   85.313  220.910
  626.500    5.559    0.392    0.194   81.743  220.269
  626.750    5.533    0.372    0.201   75.598  220.346
  627.000    5.539    0.380    0.210   75.461  220.420
  627.250    5.597    0.397    0.221   78.327  220.197
  627.500    5.688    0.403    0.219   82.664  220.478
  627.750    5.735    0.407    0.205   83.750  220.656
  628.000    5.784    0.422    0.210   83.369  220.731
  628.250    5.824    0.436    0.214   82.006  220.709
  628.500    5.830    0.430    0.210   82.725  220.578
  628.750    5.846    0.421    0.202   81.300  219.941
  629.000    5.874    0.411    0.188   79.078  219.917
  629.250    5.890    0.390    0.209   78.818  219.890
  629.500    5.853    0.385    0.210   80.888  220.069
  629.750    5.805    0.401    0.185   84.245  220.450
  630.000    5.724    0.416    0.178   87.417  220.730
  630.250    5.614    0.418    0.178   87.156  221.013
  630.500    5.545    0.417    0.183   87.386  221.298
  630.750    5.478    0.441    0.131   86.820  222.809
  631.000    5.382    0.346    0.094   84.966  224.518
  631.250    5.347    0.307    0.098   80.046  225.004
  631.500    5.313    0.309    0.155   72.555  225.490
  631.750    5.349    0.307    0.173   63.345  225.668
  632.000    5.393    0.283    0.072   54.809  225.849
  632.250    5.429    0.293    0.134   63.315  225.617
  632.500    5.487    0.336    0.201   70.962  225.085
  632.750    5.523    0.373    0.200   78.425  224.136
  633.000    5.560    0.376    0.184   80.922  223.704
  633.250    5.682    0.376    0.183   81.826  223.881
  633.500    5.783    0.391    0.170   84.447  223.962
  633.750    6.101    0.398    0.163   86.578  224.241
  634.000    6.861    0.395    0.179   84.601  224.117
  634.250    7.513    0.391    0.196   81.765  223.778
  634.500    8.400    0.395    0.206   81.383  223.348
  634.750    9.642    0.407    0.191   80.511  222.918
  635.000   10.114    0.411    0.178   78.532  222.481
  635.250    9.394    0.408    0.206   76.190  221.838
  635.500    8.124    0.405    0.250   72.375  221.718
  635.750    6.768    0.394    0.285   66.228  221.386
  636.000    5.733    0.391    0.311   61.862  219.931
  636.250    5.034    0.384    0.329   57.005  217.353
  636.500    4.946    0.376    0.301   53.618  215.384
  636.750    4.978    0.352    0.250   52.868  214.647
  637.000    5.050    0.295    0.212   52.301  213.395
  637.250    5.130    0.122    0.155   48.853  211.940
  637.500    5.272    0.098    0.018   47.000  213.241
  637.750    5.418    0.092   -0.002   46.983  214.238
  638.000    5.538    0.098   -0.003   45.008  216.358
  638.250    5.647    0.107    0.004   42.112  218.479
  638.500    6.207    0.126    0.013   45.896  219.780
  638.750    6.735    0.143    0.029   49.806  220.778
  639.000    6.922    0.163    0.054   53.284  220.754
  639.250    6.916    0.198    0.103   54.984  220.726
  639.500    6.936    0.325    0.179   52.640  220.295
  639.750    7.195    0.368    0.231   51.276  219.145
  640.000    7.734    0.388    0.262   52.121  217.282
  640.250    8.582    0.393    0.266   54.617  215.927
  640.500    9.907    0.386    0.252   56.134  215.291
  640.750   12.028    0.381    0.270   56.916  215.261
  641.000   14.797    0.387    0.284   57.025  215.441
  641.250   20.142    0.387    0.276   57.129  215.724
  641.500   21.982    0.396    0.263   57.729  216.212
  641.750   22.375    0.394    0.254   59.492  216.897
  642.000   21.213    0.361    0.233   61.991  217.589
  642.250   19.775    0.358    0.215   63.080  218.583
  642.500   17.822    0.329    0.198   59.632  218.666
  642.750   15.212    0.379    0.232   58.267  219.656
  643.000   12.626    0.406    0.257   59.602  220.044
  643.250   11.083    0.427    0.261   63.570  220.734
  643.500    9.217    0.431    0.245   67.050  221.017
  643.750    8.591    0.421    0.230   69.670  221.806
  644.000    8.347    0.409    0.217   71.371  222.393
  644.250    8.481    0.399    0.220   73.254  222.777
  644.500    9.047    0.408    0.222   74.897  223.368
  644.750   10.100    0.422    0.213   76.781  223.545
  645.000   10.793    0.422    0.215   78.544  223.826
  645.250   11.428    0.418    0.231   77.180  223.804
  645.500   11.943    0.429    0.230   73.488  223.776
  645.750   12.319    0.425    0.233   70.895  223.749
