~VERSION INFORMATION
 VERS.                 2.0:   CWLS LOG ASCII STANDARD -VERSION 2.0
 WRAP.                  NO:   ONE LINE PER DEPTH STEP
~WELL INFORMATION BLOCK
#MNEM.UNIT           DATA                    DESCRIPTION OF MNEMONIC
#---------    -------------------            -------------------------------
# Generated from Intellog Unique Number	CW_82_90/WELL/928
WELL.         TEXEX WABASCA 10-27            : Well_name    - WELL
LOC .         00/10-27-082-24W4/0            : Location     - LOCATION
UWI .         00/10-27-082-24W4/0            : Uwi          - UNIQUE WELL ID
ENTR.         JAYE                           : Entered      - ENTERED BY
SRVC.         SCHLUMBERGER                   : Scn          - SERVICE COMPANY
STRT.M        228.6                          : top_depth    - START DEPTH
STOP.M        457.1                          : bot_depth    - STOP DEPTH
STEP.M        0.25                           : increment    - STEP LENGTH
 NULL. -999.2500:NULL Value
~CURVE INFORMATION BLOCK
#MNEM UNIT       ERCB CURVE CODE    CURVE DESCRIPTION
#-----------   ------------------   ----------------------------------
DEPT.M        00 001 00 00         : DEPTH        - DEPTH
CALI.MM       00 280 01 00         : CAL          - CALIPER
GR  .API      00 310 00 00         : GR           - GAMMA RAY
DPHI.V/V      00 890 00 00         : PHID         - DENSITY POROSITY (SANDSTONE)
NPHI.V/V      00 330 00 00         : PHIN         - NEUTRON POROSITY (SANDSTONE)
ILD .OHMM     00 120 00 00         : RESD         - DEEP RESISTIVITY (DIL)
~PARAMETER INFORMATION
#MNEM.UNIT           DATA             DESCRIPTION OF MNEMONIC
#---------         -----------     ------------------------------
GL  .M        599.572              : gl           - GROUND LEVEL ELEVATION
EREF.M        603.23               : kb           - ELEVATION OF DEPTH REFERENCE
DATM.M        599.572              : datum        - DATUM ELEVATION
TDD .M        491.033              : tdd          - TOTAL DEPTH DRILLER
RUN .         ONE                  : Run          - RUN NUMBER
ENG .         EARLEY               : Engineer     - RECORDING ENGINEER
WIT .         SEVERS               : Witness      - WITNESSED BY
BASE.         EDMONTON             : Branch       - HOME BASE OF LOGGING UNIT
MUD .         WATER & LOST CIRC    : Mud_type     - MUD TYPE
MATR.         SANDSTONE            : Logunit      - NEUTRON MATRIX
TMAX.C        18.8889              : BHT          - MAXIMUM RECORDED TEMPERATURE
BHTD.M        490.728              : BHTDEP       - MAXIMUM RECORDED TEMPERATURE
RMT .C        4.44444              : MDTP         - TEMPERATURE OF MUD
MUDD.KG/M     1000                 : MWT          - MUD DENSITY
NEUT.         1                    : NEUTRON      - NEUTRON TYPE
RESI.         0                    : RESIST       - RESISTIVITY TYPE
RM  .OHMM     0.25                 : RM           - RESISTIVITY OF MUD
RMC .OHMM     0.25                 : RMC          - RESISTIVITY OF MUD CAKE
RMF .OHMM     0.25                 : RMF          - RESISTIVITY OF MUD FILTRATE
SUFT.C        4                    : SUFT         - SURFACE TEMPERATURE
~A  DEPTH      CAL       GR     PHID     PHIN     RESD
# ...
  265.100  215.423   82.936    0.247    0.439    8.145
  265.350  217.605   89.956    0.247    0.449    6.806
  265.600  217.297   89.960    0.272    0.481    6.290
  265.850  215.130   81.271    0.296    0.508    6.310
  266.100  208.828   70.969    0.317    0.498    7.212
  266.350  208.106   62.840    0.339    0.486    8.304
  266.600  207.492   60.670    0.343    0.483    9.887
  266.850  207.808   59.867    0.350    0.504   13.141
  267.100  207.918   58.257    0.337    0.504   17.994
  267.350  209.373   59.875    0.338    0.486   22.280
  267.600  211.967   63.231    0.337    0.480   23.113
  267.850  214.043   65.470    0.344    0.481   23.270
  268.100  215.083   65.101    0.336    0.475   22.871
  268.350  214.158   64.298    0.337    0.468   22.227
  268.600  211.991   64.674    0.324    0.471   22.213
  268.850  210.963   65.609    0.323    0.483   22.240
  269.100  210.040   65.923    0.320    0.479   22.184
  269.350  209.838   66.486    0.320    0.466   22.505
  269.600  213.051   68.601    0.316    0.461   22.618
  269.850  215.542   69.163    0.317    0.470   22.771
  270.100  215.961   67.739    0.310    0.474   22.887
  270.350  215.760   65.073    0.322    0.478   23.130
  270.600  215.766   63.339    0.333    0.481   23.376
  270.850  215.566   62.907    0.330    0.486   23.624
  271.100  215.573   63.470    0.327    0.487   23.874
  271.350  215.268   64.219    0.330    0.484   24.039
  271.600  214.448   67.141    0.331    0.486   23.978
  271.850  214.039   67.454    0.333    0.492   23.831
  272.100  213.015   64.354    0.336    0.492   23.817
  272.350  212.810   61.130    0.331    0.489   23.626
  272.600  212.405   60.264    0.331    0.490   23.480
  272.850  212.512   60.454    0.320    0.477   23.292
  273.100  209.621   60.458    0.324    0.468   22.975
  273.350  209.317   61.144    0.343    0.466   23.005
  273.600  209.317   63.446    0.344    0.485   23.119
  273.850  211.814   65.995    0.333    0.522   23.192
  274.100  212.444   66.682    0.324    0.520   23.306
  274.350  212.446   65.009    0.320    0.509   23.467
  274.600  212.452   64.765    0.321    0.493   23.410
  274.850  212.148   67.562    0.315    0.480   23.393
  275.100  212.465   67.628    0.307    0.482   23.336
  275.350  212.465   64.403    0.322    0.498   23.149
  275.600  212.688   62.482    0.325    0.491   22.750
  275.850  212.690   64.287    0.323    0.487   22.235
  276.100  212.690   65.842    0.330    0.490   21.169
  276.350  213.118   66.156    0.329    0.506   20.460
  276.600  213.229   65.540    0.335    0.494   19.552
  276.850  213.229   65.854    0.339    0.484   19.108
  277.100  213.551   67.533    0.336    0.475   18.955
  277.350  213.763   69.834    0.334    0.472   19.156
  277.600  213.976   68.224    0.321    0.486   19.433
  277.850  213.982   69.284    0.310    0.494   20.082
  278.100  213.982   71.522    0.299    0.500   20.487
  278.350  214.099   74.071    0.312    0.506   20.587
  278.600  213.693   78.049    0.318    0.522   20.689
  278.850  213.180   77.680    0.324    0.509   20.795
  279.100  210.706   77.994    0.325    0.499   21.016
  279.350  209.984   81.226    0.314    0.491   21.002
  279.600  207.819   81.975    0.302    0.488   21.148
  279.850  206.274   79.619    0.294    0.509   21.174
  280.100  205.762   72.421    0.298    0.514   21.399
  280.350  205.353   64.851    0.307    0.502   21.666
  280.600  205.566   62.557    0.329    0.491   21.897
  280.850  205.987   61.009    0.338    0.482   21.557
  281.100  207.131   60.392    0.315    0.490   21.347
  281.350  208.586   61.700    0.323    0.486   20.979
  281.600  209.838   61.331    0.327    0.474   20.653
  281.850  210.254   59.037    0.329    0.477   20.528
  282.100  210.674   61.090    0.327    0.496   20.210
  282.350  210.991   63.887    0.343    0.513   20.048
  282.600  211.311   63.705    0.341    0.523   20.038
  282.850  211.418   64.703    0.338    0.504   20.175
  283.100  211.941   67.003    0.336    0.495   20.238
  283.350  212.258   67.690    0.342    0.498   20.339
  283.600  212.369   69.122    0.348    0.513   20.517
  283.850  211.547   71.236    0.330    0.504   20.620
  284.100  210.517   71.488    0.327    0.504   20.646
  284.350  209.282   64.414    0.323    0.517   20.786
  284.600  207.632   63.549    0.312    0.517   20.968
  284.850  206.295   64.484    0.303    0.518   21.072
  285.100  205.679   65.667    0.323    0.510   21.140
  285.350  204.961   66.478    0.337    0.512   21.009
  285.600  204.555   64.743    0.336    0.501   20.685
  285.850  204.042   63.940    0.347    0.494   20.327
  286.100  203.531   63.075    0.357    0.523   20.240
  286.350  202.813   61.526    0.354    0.537   20.190
  286.600  202.405   62.462    0.337    0.529   20.253
  286.850  203.136   58.864    0.329    0.523   20.354
  287.100  204.177   60.110    0.330    0.517   20.647
  287.350  206.876   63.342    0.342    0.505   21.022
  287.600  207.604   66.884    0.344    0.513   21.366
  287.850  208.335   70.862    0.355    0.525   21.632
  288.100  208.343   71.797    0.355    0.527   21.701
  288.350  208.350   68.200    0.329    0.515   21.607
  288.600  208.354   67.086    0.347    0.515   21.313
  288.850  208.050   69.262    0.355    0.505   21.103
  289.100  207.435   70.943    0.358    0.520   20.662
  289.350  206.408   71.319    0.352    0.537   20.232
  289.600  206.413   70.392    0.365    0.541   19.587
  289.850  205.902   70.767    0.357    0.526   19.178
  290.100  206.218   70.895    0.348    0.511   18.744
  290.350  211.915   72.824    0.352    0.509   18.251
  290.600  214.198   73.884    0.344    0.524   17.670
  290.850  214.722   70.348    0.343    0.515   17.237
  291.100  215.246   70.414    0.353    0.510   16.688
  291.350  215.979   72.466    0.353    0.520   16.280
  291.600  215.879   74.271    0.337    0.527   15.732
  291.850  215.885   74.585    0.324    0.533   15.261
  292.100  215.891   74.899    0.331    0.525   14.832
  292.350  215.898   75.400    0.354    0.520   14.713
  292.600  215.493   73.230    0.363    0.513   14.786
  292.850  215.497   72.924    0.369    0.513   14.944
  293.100  214.781   73.362    0.364    0.525   15.074
  293.350  214.785   72.000    0.364    0.534   15.262
  293.600  213.757   73.680    0.352    0.535   15.368
  293.850  213.145   71.201    0.355    0.529   15.445
  294.100  212.631   71.640    0.362    0.533   15.348
  294.350  212.328   72.264    0.356    0.543   15.224
  294.600  212.125   72.516    0.350    0.551   15.019
  294.850  211.408   73.761    0.346    0.543   14.982
  295.100  211.003   74.324    0.361    0.531   14.862
  295.350  210.799   73.706    0.354    0.526   14.769
  295.600  210.083   73.151    0.348    0.535   14.706
  295.850  206.569   74.273    0.343    0.524   14.533
  296.100  199.022   75.207    0.337    0.532   14.283
  296.350  204.927   75.895    0.348    0.520   13.907
  296.600  208.761   76.333    0.343    0.535   13.316
  296.850  208.560   77.143    0.327    0.536   12.654
  297.100  208.877   77.520    0.317    0.526   12.004
  297.350  208.987   79.882    0.311    0.515   11.515
  297.600  208.993   82.556    0.306    0.505   10.741
  297.850  209.000   82.622    0.292    0.494   10.000
  298.100  209.422   82.440    0.296    0.483    9.416
  298.350  209.632   82.754    0.291    0.480    8.832
  298.600  209.632   82.758    0.290    0.488    8.285
  298.850  210.476   82.886    0.289    0.501    7.714
  299.100  210.585   83.634    0.289    0.524    7.511
  299.350  210.486   85.687    0.286    0.539    7.633
  299.600  210.079   84.821    0.296    0.525    8.173
  299.850  209.981   86.004    0.305    0.509    8.670
  300.100  209.884   88.803    0.325    0.504    9.353
  300.350  209.582   89.489    0.323    0.533    9.940
  300.600  209.068   92.597    0.321    0.559   10.216
  300.850  209.178   95.953    0.303    0.548    9.872
  301.100  213.326  100.117    0.258    0.550    7.904
  301.350  216.020  106.702    0.235    0.543    5.755
