~VERSION INFORMATION
 VERS.                 2.0:   CWLS LOG ASCII STANDARD -VERSION 2.0
 WRAP.                  NO:   ONE LINE PER DEPTH STEP
~WELL INFORMATION BLOCK
#MNEM.UNIT           DATA                    DESCRIPTION OF MNEMONIC
#---------    -------------------            -------------------------------
# Generated from Intellog Unique Number	CS_77_79/WELL/946
WELL.         AMOCO B-1 LEISMER              : Well_name    - WELL
LOC .         00/10-11-078-10W4/0            : Location     - LOCATION
UWI .         00/10-11-078-10W4/0            : Uwi          - UNIQUE WELL ID
ENTR.         JHS                            : Entered      - ENTERED BY
SRVC.         SCHLUMBERGER                   : Scn          - SERVICE COMPANY
STRT.M        198.12                         : top_depth    - START DEPTH
STOP.M        429.62                         : bot_depth    - STOP DEPTH
STEP.M        0.25                           : increment    - STEP LENGTH
 NULL. -999.2500:NULL Value
~CURVE INFORMATION BLOCK
#MNEM UNIT       ERCB CURVE CODE    CURVE DESCRIPTION
#-----------   ------------------   ----------------------------------
DEPT.M        00 001 00 00         : DEPTH        - DEPTH
RHOB.KG/M3    00 350 00 00         : DENS         - BULK DENSITY
GR  .API      00 310 00 00         : GR           - GAMMA RAY
DPHI.V/V      00 890 00 00         : PHID         - DENSITY POROSITY (SANDSTONE)
NPHI.V/V      00 330 00 00         : PHIN         - NEUTRON POROSITY (SANDSTONE)
ILD .OHMM     00 120 00 00         : RESD         - DEEP RESISTIVITY (DIL)
~PARAMETER INFORMATION
#MNEM.UNIT           DATA             DESCRIPTION OF MNEMONIC
#---------         -----------     ------------------------------
GL  .M        619.354              : gl           - GROUND LEVEL ELEVATION
EREF.M        622.097              : kb           - ELEVATION OF DEPTH REFERENCE
DATM.M        622.097              : datum        - DATUM ELEVATION
TDD .M        429.768              : tdd          - TOTAL DEPTH DRILLER
RUN .         ONE                  : Run          - RUN NUMBER
ENG .         BILL                 : Engineer     - RECORDING ENGINEER
WIT .         JIM                  : Witness      - WITNESSED BY
MUD .         GEL                  : Mud_type     - MUD TYPE
MATR.         SANDSTONE            : Logunit      - NEUTRON MATRIX
TMAX.C        30                   : BHT          - MAXIMUM RECORDED TEMPERATURE
BHTD.M        429.768              : BHTDEP       - MAXIMUM RECORDED TEMPERATURE
MATR.         1                    : LOGUNIT      - NEUTRON MATRIX
RMT .C        25                   : MDTP         - TEMPERATURE OF MUD
NEUT.         1                    : NEUTRON      - NEUTRON TYPE
RESI.         0                    : RESIST       - RESISTIVITY TYPE
RMC .OHMM     0.25                 : RMC          - RESISTIVITY OF MUD CAKE
RMF .OHMM     0.25                 : RMF          - RESISTIVITY OF MUD FILTRATE
SUFT.C        15                   : SUFT         - SURFACE TEMPERATURE
~A  DEPTH     DENS       GR     PHID     PHIN     RESD
# ...
  380.620 2339.190   61.068    0.217    0.388   19.026
  380.870 2272.160   58.200    0.256    0.395   23.687
  381.120 2382.080   62.640    0.192    0.369   27.516
  381.370 2431.120   69.303    0.163    0.365   31.905
  381.620 2409.560   71.183    0.176    0.417   32.639
  381.870 2259.470   67.228    0.263    0.414   31.332
  382.120 2215.700   68.210    0.289    0.408   28.648
  382.370 2284.760   70.119    0.249    0.396   25.390
  382.620 2272.200   68.552    0.256    0.392   21.823
  382.870 2255.780   69.078    0.266    0.380   19.890
  383.120 2285.050   73.781    0.249    0.383   19.979
  383.370 2310.110   70.532    0.234    0.399   20.119
  383.620 2267.410   64.055    0.259    0.423   21.264
  383.870 2230.820   59.854    0.280    0.434   22.520
  384.120 2212.010   64.364    0.291    0.414   25.088
  384.370 2249.810   66.446    0.269    0.423   27.976
  384.620 2288.680   61.407    0.246    0.440   27.918
  384.870 2219.190   58.783    0.287    0.415   27.011
  385.120 2193.360   62.427    0.302    0.391   24.159
  385.370 2253.740   72.111    0.267    0.383   21.201
  385.620 2314.440   81.307    0.231    0.384   18.230
  385.870 2399.900   85.757    0.181    0.378   15.711
  386.120 2411.040   86.446    0.175    0.359   13.407
  386.370 2406.510   86.354    0.177    0.349   13.188
  386.620 2396.970   85.254    0.183    0.352   13.008
  386.870 2406.710   86.154    0.177    0.357   12.875
  387.120 2435.310   87.116    0.161    0.363   12.755
  387.370 2433.260   88.184    0.162    0.366   12.806
  387.620 2408.990   87.139    0.176    0.359   12.447
  387.870 2430.750   86.496    0.163    0.351   12.338
  388.120 2450.600   88.733    0.152    0.350   12.106
  388.370 2462.750   91.097    0.145    0.368   12.073
  388.620 2389.860   91.918    0.187    0.384   11.925
  388.870 2411.750   90.792    0.174    0.385   11.801
  389.120 2443.500   86.441    0.156    0.381   11.734
  389.370 2441.370   84.092    0.157    0.381   11.740
  389.620 2388.080   86.870    0.188    0.383   11.861
  389.870 2432.090   90.424    0.163    0.378   11.970
  390.120 2434.530   93.152    0.161    0.384   11.985
  390.370 2370.170   97.163    0.199    0.398   11.997
  390.620 2405.390   98.614    0.178    0.380   12.016
  390.870 2411.570   99.301    0.175    0.368   12.254
  391.120 2414.830  103.436    0.173    0.365   12.311
  391.370 2448.810  108.169    0.153    0.358   12.716
  391.620 2457.580  101.884    0.148    0.368   12.954
  391.870 2439.490   93.719    0.158    0.365   13.303
  392.120 2415.210   92.056    0.172    0.359   13.458
  392.370 2400.270   92.773    0.181    0.369   13.869
  392.620 2442.000   96.582    0.157    0.364   14.275
  392.870 2474.450  103.650    0.138    0.356   14.052
  393.120 2439.730  110.410    0.158    0.362   13.788
  393.370 2460.390  113.025    0.146    0.364   13.248
  393.620 2460.760  112.283    0.146    0.371   13.091
  393.870 2427.190  114.926    0.165    0.369   12.972
  394.120 2442.130  115.478    0.157    0.362   12.832
  394.370 2451.520  110.997    0.151    0.359   13.066
  394.620 2404.260  100.732    0.179    0.366   13.402
  394.870 2353.620   92.854    0.208    0.374   14.065
  395.120 2326.500   90.324    0.224    0.383   15.230
  395.370 2313.080   83.444    0.232    0.397   16.529
  395.620 2289.490   78.411    0.246    0.393   17.527
  395.870 2286.640   80.012    0.248    0.385   18.332
  396.120 2314.360   81.390    0.231    0.370   18.306
  396.370 2324.660   79.189    0.225    0.358   18.055
  396.620 2329.520   81.245    0.223    0.356   17.679
  396.870 2350.460   82.035    0.210    0.366   17.364
  397.120 2353.110   80.240    0.209    0.383   17.474
  397.370 2337.850   76.133    0.218    0.383   17.491
  397.620 2289.870   74.376    0.246    0.375   18.053
  397.870 2298.800   72.409    0.240    0.391   19.434
  398.120 2313.110   70.291    0.232    0.405   21.499
  398.370 2269.910   68.963    0.257    0.402   24.188
  398.620 2227.460   72.906    0.282    0.416   26.238
  398.870 2195.670   75.963    0.301    0.407   27.789
  399.120 2226.980   80.847    0.282    0.394   28.651
  399.370 2276.740   93.607    0.253    0.390   28.695
  399.620 2274.640  111.156    0.255    0.384   28.682
  399.870 2252.500  124.902    0.268    0.410   28.578
  400.120 2233.870  110.061    0.278    0.430   30.454
  400.370 2222.720   90.628    0.285    0.419   34.846
  400.620 2246.750   94.130    0.271    0.406   38.587
  400.870 2274.430  105.389    0.255    0.414   39.411
  401.120 2246.290  109.202    0.271    0.425   41.641
  401.370 2223.400  107.509    0.285    0.426   48.746
  401.620 2234.210  100.754    0.278    0.421   51.124
  401.870 2209.130   94.722    0.293    0.412   51.171
  402.120 2264.050   90.167    0.261    0.413   51.226
  402.370 2225.340   84.184    0.283    0.420   51.336
  402.620 2211.580   76.819    0.291    0.419   53.787
  402.870 2197.900   71.234    0.299    0.412   56.348
  403.120 2214.450   65.911    0.290    0.416   57.464
  403.370 2231.400   56.828    0.280    0.434   60.169
  403.620 2201.700   58.114    0.297    0.442   62.788
  403.870 2188.360   58.514    0.305    0.437   61.730
  404.120 2194.030   54.949    0.302    0.421   53.235
  404.370 2225.140   53.690    0.284    0.413   48.846
  404.620 2214.050   60.181    0.290    0.409   45.448
  404.870 2229.250   66.597    0.281    0.401   43.621
  405.120 2261.240   68.321    0.262    0.403   43.281
  405.370 2239.130   62.240    0.275    0.408   46.754
  405.620 2200.800   56.546    0.298    0.403   54.928
  405.870 2185.560   50.884    0.307    0.412   63.035
  406.120 2200.620   47.599    0.298    0.420   72.463
  406.370 2205.050   43.771    0.295    0.433   82.471
  406.620 2171.410   37.535    0.315    0.409   92.059
  406.870 2168.670   37.049    0.317    0.401   96.684
  407.120 2169.780   40.919    0.316    0.393  100.262
  407.370 2191.290   39.027    0.303    0.387  104.590
  407.620 2210.850   37.548    0.292    0.401  115.614
  407.870 2228.000   40.763    0.282    0.412  133.824
  408.120 2185.500   40.428    0.307    0.420  156.320
  408.370 2172.450   37.442    0.314    0.425  162.358
  408.620 2155.270   35.949    0.324    0.429  156.234
  408.870 2188.120   36.590    0.305    0.433  144.996
  409.120 2174.000   36.388    0.313    0.430  136.362
  409.370 2160.830   36.086    0.321    0.430  128.567
  409.620 2163.160   36.992    0.320    0.445  123.382
  409.870 2141.850   39.454    0.332    0.462  117.229
  410.120 2141.020   41.521    0.333    0.465  120.096
  410.370 2139.090   41.124    0.334    0.465  119.888
  410.620 2128.800   39.805    0.340    0.441  122.816
  410.870 2132.270   38.000    0.338    0.432  120.437
  411.120 2157.370   36.683    0.323    0.420  115.037
  411.370 2168.290   37.907    0.317    0.408   99.710
  411.620 2154.450   42.651    0.325    0.411   80.723
  411.870 2140.350   41.743    0.333    0.416   60.380
  412.120 2142.550   36.739    0.332    0.415   46.309
  412.370 2167.850   31.069    0.317    0.402   36.597
  412.620 2158.820   34.746    0.322    0.399   28.005
  412.870 2127.930   39.259    0.340    0.408   22.987
  413.120 2141.170   37.828    0.333    0.426   19.164
  413.370 2149.030   34.596    0.328    0.429   16.414
  413.620 2143.720   32.117    0.331    0.427   14.677
  413.870 2147.160   34.866    0.329    0.431   13.151
  414.120 2139.940   36.983    0.333    0.437   12.026
  414.370 2137.180   36.926    0.335    0.452   10.423
  414.620 2147.330   36.908    0.329    0.446    9.688
  414.870 2136.330   37.764    0.335    0.445    9.033
  415.120 2127.940   39.730    0.340    0.447    7.837
  415.370 2138.420   42.588    0.334    0.435    7.072
  415.620 2152.170   46.245    0.326    0.423    6.546
  415.870 2143.880   44.882    0.331    0.420    6.095
  416.120 2128.370   42.282    0.340    0.420    5.580
  416.370 2140.480   41.238    0.333    0.419    5.001
  416.620 2143.690   43.705    0.331    0.411    4.748
  416.870 2145.240   46.150    0.330    0.407    4.461
