~VERSION INFORMATION
 VERS.                 2.0:   CWLS LOG ASCII STANDARD -VERSION 2.0
 WRAP.                  NO:   ONE LINE PER DEPTH STEP
~WELL INFORMATION BLOCK
#MNEM.UNIT           DATA                    DESCRIPTION OF MNEMONIC
#---------    -------------------            -------------------------------
# Generated from Intellog Unique Number	CS_69_70/WELL/880
NULL.         -999.25                        : NULL_VALUE
WELL.         HUSKY OIL OPERATION LTD.       : Well_name    - WELL              
LOC .         00/10-33-070-06W4/0            : Location     - LOCATION          
UWI .         00/10-33-070-06W4/0            : Uwi          - UNIQUE WELL ID    
ENTR.         SP                             : Entered      - ENTERED BY        
SRVC.         SCHLUMBERGER                   : Scn          - SERVICE COMPANY   
STRT.M        275                            : top_depth    - START DEPTH       
STOP.M        500                            : bot_depth    - STOP DEPTH        
STEP.M        0.25                           : increment    - STEP LENGTH       
~CURVE INFORMATION BLOCK
#MNEM UNIT       ERCB CURVE CODE    CURVE DESCRIPTION
#-----------   ------------------   ----------------------------------
DEPT.M        00 001 00 00         : DEPTH        - DEPTH                       
ILD .OHMM     00 120 00 00         : RESD         - DEEP RESISTIVITY (DIL)      
DPHI.V/V      00 890 00 00         : PHID         - DENSITY POROSITY (LIMESTONE)
NPHI.V/V      00 330 00 00         : PHIN         - NEUTRON POROSITY (LIMESTONE)
GR  .API      00 310 00 00         : GR           - GAMMA RAY                   
~PARAMETER INFORMATION       
#MNEM.UNIT           DATA             DESCRIPTION OF MNEMONIC
#---------         -----------     ------------------------------
GL  .M        638.1                : gl           - GROUND LEVEL ELEVATION      
EREF.M        641.8                : kb           - ELEVATION OF DEPTH REFERENCE
DATM.M        638.1                : datum        - DATUM ELEVATION             
TDD .M        503                  : tdd          - TOTAL DEPTH DRILLER         
RUN .         ONE                  : Run          - RUN NUMBER                  
ENG .         BILL                 : Engineer     - RECORDING ENGINEER          
WIT .         JIM                  : Witness      - WITNESSED BY                
MUD .         GEL                  : Mud_type     - MUD TYPE                    
MATR.         LIMESTONE            : Logunit      - NEUTRON MATRIX              
TMAX.C        26                   : BHT          - MAXIMUM RECORDED TEMPERATURE
BHTD.M        503                  : BHTDEP       - MAXIMUM RECORDED TEMPERATURE
MATR.         1                    : LOGUNIT      - NEUTRON MATRIX              
RMT .C        25                   : MDTP         - TEMPERATURE OF MUD          
NEUT.         1                    : NEUTRON      - NEUTRON TYPE                
RESI.         0                    : RESIST       - RESISTIVITY TYPE            
RMC .OHMM     0.25                 : RMC          - RESISTIVITY OF MUD CAKE     
RMF .OHMM     0.25                 : RMF          - RESISTIVITY OF MUD FILTRATE 
SUFT.C        15                   : SUFT         - SURFACE TEMPERATURE         
~A  DEPTH     RESD     PHID     PHIN       GR
  275.000    2.312    0.275    0.572   93.369
  275.250    2.228    0.276    0.583   96.375
  275.500    2.787    0.270    0.537   97.576
  275.750    2.736    0.261    0.527   90.942
  276.000    2.737    0.259    0.534   87.322
  276.250    2.688    0.256    0.541   89.123
  276.500    2.689    0.277    0.548   89.115
  276.750    2.689    0.283    0.555   87.303
  277.000    2.793    0.278    0.545   86.695
  277.250    2.899    0.271    0.522   89.096
  277.500    2.955    0.271    0.516   91.500
  277.750    3.012    0.277    0.539   94.506
  278.000    3.012    0.281    0.553   96.309
  278.250    3.014    0.271    0.576   96.905
  278.500    2.959    0.254    0.553   93.885
  278.750    2.905    0.243    0.534   92.677
  279.000    2.853    0.238    0.537   92.670
  279.250    2.801    0.242    0.545   96.279
  279.500    2.802    0.244    0.533  100.487
  279.750    2.803    0.244    0.521  100.481
  280.000    2.804    0.239    0.499   99.874
  280.250    2.858    0.228    0.499   98.663
  280.500    2.913    0.224    0.515   99.256
  280.750    2.968    0.231    0.532   99.855
  281.000    3.083    0.227    0.531  101.053
  281.250    3.141    0.226    0.519   98.036
  281.500    3.262    0.239    0.509   90.801
  281.750    3.324    0.249    0.501   87.181
  282.000    3.516    0.242    0.514   87.175
  282.250    3.720    0.233    0.475   88.374
  282.500    3.791    0.225    0.459   92.584
  282.750    3.792    0.216    0.468   96.191
  283.000    3.655    0.222    0.484  100.399
  283.250    3.394    0.227    0.498  101.601
  283.500    3.093    0.222    0.514  104.004
  283.750    2.926    0.220    0.520  102.792
  284.000    2.820    0.225    0.518  102.186
  284.250    2.821    0.236    0.514   99.770
  284.500    2.875    0.237    0.510   96.751
  284.750    2.930    0.227    0.503   96.745
  285.000    2.986    0.221    0.496   97.944
  285.250    3.043    0.227    0.487  100.347
  285.500    3.220    0.231    0.481  100.943
  285.750    3.343    0.241    0.487   99.130
  286.000    3.471    0.246    0.491   96.110
  286.250    3.604    0.239    0.485   95.503
  286.500    3.812    0.242    0.475   95.498
  286.750    3.958    0.241    0.464   98.501
  287.000    3.959    0.233    0.461  100.305
  287.250    3.746    0.226    0.461  104.515
  287.500    3.610    0.218    0.478   95.472
  287.750    3.290    0.222    0.487   90.646
  288.000    3.231    0.233    0.508   90.037
  288.250    3.482    0.238    0.513   91.237
  288.500    4.043    0.407    0.495   97.857
  288.750    4.522    0.475    0.458  101.467
  289.000    5.154    0.536    0.553  104.471
  289.250    5.658    0.559    0.589   92.418
  289.500    6.569    0.547    0.626   83.978
  289.750    7.486    0.395    0.645   82.165
  290.000    9.363    0.270    0.326   83.364
  290.250   12.385    0.274    0.261   73.116
  290.500   17.322    0.335    0.204   44.194
  290.750   24.681    0.360    0.146   39.972
  291.000   39.327    0.382    0.118   38.762
  291.250   50.115    0.397    0.123   39.358
  291.500   56.059    0.405    0.130   39.954
  291.750   59.301    0.396    0.127   41.755
  292.000   60.435    0.378    0.138   41.749
  292.250   56.118    0.361    0.153   38.730
  292.500   49.276    0.337    0.170   36.315
  292.750   41.687    0.323    0.174   38.718
  293.000   29.827    0.343    0.174   42.327
  293.250   21.341    0.359    0.175   47.742
  293.500   16.759    0.372    0.199   46.531
  293.750   12.918    0.316    0.220   56.163
  294.000    9.957    0.266    0.254   75.434
  294.250    8.269    0.242    0.317   93.500
  294.500    7.397    0.221    0.387   98.313
  294.750    6.742    0.207    0.412   99.511
  295.000    6.498    0.200    0.425   98.299
  295.250    7.134    0.214    0.406   94.076
  295.500    8.283    0.253    0.396   88.046
  295.750    8.762    0.278    0.413   83.223
  296.000    7.694    0.293    0.434   80.806
  296.250    8.292    0.292    0.429   85.618
  296.500    9.277    0.295    0.412   87.420
  296.750    9.630    0.299    0.404   86.812
  297.000    8.456    0.302    0.396   90.418
  297.250    8.781    0.306    0.399   92.220
  297.500    9.822    0.298    0.399   95.826
  297.750    7.858    0.265    0.395   96.425
  298.000    7.296    0.240    0.389   97.622
  298.250    6.775    0.221    0.391   97.016
  298.500    6.777    0.211    0.423   94.600
  298.750    8.321    0.223    0.425   88.569
  299.000    7.726    0.263    0.401   84.347
  299.250    7.446    0.279    0.391   88.558
  299.500    7.177    0.291    0.398   96.382
  299.750    7.180    0.306    0.408   99.992
  300.000    7.050    0.315    0.419   98.177
  300.250    7.052    0.328    0.434   98.171
  300.500    6.924    0.321    0.449  102.380
  300.750    6.799    0.288    0.453  104.786
  301.000    6.553    0.238    0.445  108.394
  301.250    6.434    0.200    0.439  101.158
  301.500    6.318    0.179    0.427   93.924
  301.750    6.089    0.143    0.418   98.737
  302.000    5.654    0.107    0.417  110.175
  302.250    5.153    0.158    0.453  117.399
  302.500    4.697    0.190    0.470  117.392
  302.750    4.443    0.203    0.490  115.579
  303.000    4.203    0.208    0.501  114.970
  303.250    3.831    0.207    0.513  116.770
  303.500    3.557    0.215    0.522  117.970
  303.750    3.303    0.220    0.526  120.373
  304.000    3.183    0.228    0.536  122.174
  304.250    3.305    0.248    0.536  122.771
  304.500    3.767    0.264    0.543  121.560
  304.750    4.374    0.265    0.553  114.928
  305.000    4.892    0.256    0.489   93.837
  305.250    5.787    0.254    0.462   78.168
  305.500    6.353    0.280    0.441   67.319
  305.750    6.720    0.299    0.428   57.675
  306.000    6.849    0.324    0.399   44.417
  306.250    6.852    0.339    0.381   53.444
  306.500    6.983    0.343    0.389   57.657
  306.750    7.386    0.344    0.394   66.685
  307.000    7.814    0.353    0.410   73.908
  307.250    8.113    0.362    0.477   80.529
  307.500    8.424    0.375    0.503   88.355
  307.750    8.585    0.328    0.435   90.155
  308.000    8.588    0.271    0.412   80.511
  308.250    8.433    0.256    0.386   87.734
  308.500    8.128    0.242    0.388   92.547
  308.750    7.833    0.233    0.396   85.915
  309.000    7.549    0.246    0.389   73.255
  309.250    7.276    0.279    0.398   66.623
  309.500    7.144    0.308    0.399   61.197
  309.750    7.015    0.327    0.404   56.371
  310.000    6.888    0.335    0.411   53.354
  310.250    6.890    0.343    0.410   58.167
  310.500    6.766    0.346    0.414   63.581
  310.750    6.768    0.347    0.429   64.177
  311.000    6.771    0.333    0.410   61.762
  311.250    6.773    0.337    0.404   59.950
  311.500    6.903    0.341    0.403   58.134
  311.750    6.905    0.344    0.416   57.528
  312.000    6.907    0.349    0.432   59.931
  312.250    7.039    0.338    0.428   66.548
  312.500    7.042    0.325    0.414   70.159
  312.750    7.177    0.319    0.398   76.776
  313.000    7.314    0.310    0.397   80.386
  313.250    7.595    0.298    0.404   82.190
  313.500    7.740    0.278    0.392   85.797
  313.750    7.889    0.269    0.393   84.586
  314.000    8.191    0.278    0.414   82.772
  314.250    8.348    0.291    0.422   80.356
  314.500    8.508    0.302    0.432   78.544
  314.750    8.670    0.307    0.429   73.718
  315.000    8.836    0.303    0.416   74.917
  315.250    8.839    0.302    0.415   79.127
  315.500    8.843    0.302    0.431   80.930
  315.750    9.012    0.303    0.445   83.332
  316.000    9.015    0.298    0.451   82.721
  316.250    9.018    0.275    0.438   82.717
  316.500    8.856    0.278    0.427   83.912
  316.750    8.694    0.287    0.418   83.909
  317.000    8.697    0.297    0.417   84.506
  317.250    8.540    0.281    0.406   85.101
  317.500    8.386    0.221    0.417   84.494
  317.750    8.388    0.218    0.433   76.051
  318.000    8.391    0.255    0.438   73.035
  318.250    8.394    0.278    0.434   69.415
