~VERSION INFORMATION
 VERS.                 2.0:   CWLS LOG ASCII STANDARD -VERSION 2.0
 WRAP.                  NO:   ONE LINE PER DEPTH STEP
~WELL INFORMATION BLOCK
#MNEM.UNIT           DATA                    DESCRIPTION OF MNEMONIC
#---------    -------------------            -------------------------------
# Generated from Intellog Unique Number	CW_73_75/WELL/1050
WELL.         TRICENT ET AL MITSUE 12-08     : Well_name    - WELL
LOC .         00/12-08-074-05W5/0            : Location     - LOCATION
UWI .         00/12-08-074-05W5/0            : Uwi          - UNIQUE WELL ID
ENTR.         JAYE                           : Entered      - ENTERED BY
SRVC.         SCHLUMBERGER                   : Scn          - SERVICE COMPANY
DATE.         11 JAN 84                      : Date         - LOG DATE
STRT.M        360                            : top_depth    - START DEPTH
STOP.M        590                            : bot_depth    - STOP DEPTH
STEP.M        0.25                           : increment    - STEP LENGTH
 NULL. -999.2500:NULL Value
~CURVE INFORMATION BLOCK
#MNEM UNIT       ERCB CURVE CODE    CURVE DESCRIPTION
#-----------   ------------------   ----------------------------------
DEPT.M        00 001 00 00         : DEPTH        - DEPTH
CALI.MM       00 280 01 00         : CAL          - CALIPER
GR  .API      00 310 00 00         : GR           - GAMMA RAY
NPHI.V/V      00 330 00 00         : PHIN         - NEUTRON POROSITY (SANDSTONE)
DPHI.V/V      00 890 00 00         : PHID         - DENSITY POROSITY (SANDSTONE)
ILD .OHMM     00 120 00 00         : RESD         - DEEP RESISTIVITY (DIL)
~PARAMETER INFORMATION
#MNEM.UNIT           DATA             DESCRIPTION OF MNEMONIC
#---------         -----------     ------------------------------
GL  .M        596.5                : gl           - GROUND LEVEL ELEVATION
EREF.M        600.65               : kb           - ELEVATION OF DEPTH REFERENCE
DATM.M        596.5                : datum        - DATUM ELEVATION
TDD .M        1689                 : tdd          - TOTAL DEPTH DRILLER
RUN .         ONE                  : Run          - RUN NUMBER
ENG .         GAGGINO              : Engineer     - RECORDING ENGINEER
WIT .         EARLE                : Witness      - WITNESSED BY
BASE.         EDM                  : Branch       - HOME BASE OF LOGGING UNIT
MUD .         GEL CHEM             : Mud_type     - MUD TYPE
MATR.         SANDSTONE            : Logunit      - NEUTRON MATRIX
TMAX.C        53                   : BHT          - MAXIMUM RECORDED TEMPERATURE
BHTD.M        1689.5               : BHTDEP       - MAXIMUM RECORDED TEMPERATURE
RMT .C        15                   : MDTP         - TEMPERATURE OF MUD
MUDD.KG/M     1130                 : MWT          - MUD DENSITY
NEUT.         1                    : NEUTRON      - NEUTRON TYPE
RESI.         0                    : RESIST       - RESISTIVITY TYPE
RM  .OHMM     0.618                : RM           - RESISTIVITY OF MUD
RMC .OHMM     0                    : RMC          - RESISTIVITY OF MUD CAKE
RMF .OHMM     1.15                 : RMF          - RESISTIVITY OF MUD FILTRATE
SUFT.C        0                    : SUFT         - SURFACE TEMPERATURE
~A  DEPTH      CAL       GR     PHIN     PHID     RESD
# ...
  542.500  415.600   62.340    0.450    0.270    3.587
  542.750  415.681   63.508    0.447    0.255    3.651
  543.000  417.314   67.884    0.441    0.222    3.801
  543.250  418.742   69.360    0.455    0.202    3.898
  543.500  420.274   65.033    0.458    0.227    3.998
  543.750  416.210   64.965    0.470    0.254    4.084
  544.000  408.932   65.885    0.476    0.335    4.104
  544.250  409.735   61.559    0.500    0.369    4.106
  544.500  412.718   62.849    0.528    0.240    4.118
  544.750  416.323   66.237    0.526    0.199    4.097
  545.000  417.854   65.676    0.432    0.192    4.062
  545.250  419.905   65.609    0.421    0.192    3.952
  545.500  422.264   64.183    0.408    0.191    3.875
  545.750  423.900   63.128    0.417    0.196    3.749
  546.000  426.261   66.640    0.435    0.209    3.506
  546.250  434.010   69.659    0.428    0.232    3.298
  546.500  430.878   65.703    0.433    0.261    3.233
  546.750  434.171   61.931    0.456    0.310    3.316
  547.000  445.134   63.715    0.481    0.390    3.564
  547.250  439.099   59.882    0.524    0.405    3.889
  547.500  441.252   63.457    0.629    0.306    4.340
  547.750  445.685   66.105    0.607    0.307    4.799
  548.000  404.102   65.543    0.556    0.317    5.286
  548.250  405.321   66.402    0.557    0.262    5.576
  548.500  410.067   67.383    0.545    0.218    5.773
  548.750  406.313   67.810    0.403    0.206    5.887
  549.000  401.936   67.927    0.414    0.204    5.859
  549.250  401.498   65.267    0.427    0.200    5.679
  549.500  405.205   62.175    0.389    0.193    5.272
  549.750  411.298   58.836    0.332    0.188    5.061
  550.000  417.029   69.227    0.357    0.195    4.990
  550.250  414.826   67.417    0.379    0.216    5.098
  550.500  412.626   62.631    0.403    0.221    5.239
  550.750  409.085   61.938    0.414    0.223    5.434
  551.000  404.611   61.679    0.401    0.224    5.678
  551.250  402.514   59.622    0.401    0.228    5.824
  551.500  401.556   57.626    0.400    0.242    6.005
  551.750  404.419   54.762    0.396    0.257    6.067
  552.000  409.034   53.697    0.390    0.258    6.027
  552.250  413.755   53.067    0.378    0.233    5.798
  552.500  419.922   52.932    0.370    0.224    5.526
  552.750  429.499   53.356    0.400    0.218    5.101
  553.000  441.967   55.393    0.416    0.222    4.691
  553.250  445.552   57.802    0.407    0.227    4.379
  553.500  447.892   53.635    0.394    0.233    4.182
  553.750  449.208   51.081    0.395    0.242    4.015
  554.000  449.592   52.001    0.415    0.243    3.848
  554.250  449.664   55.217    0.428    0.235    3.681
  554.500  452.522   57.935    0.417    0.228    3.555
  554.750  456.007   59.786    0.407    0.221    3.453
  555.000  459.178   61.699    0.408    0.215    3.372
  555.250  462.143   61.999    0.435    0.218    3.287
  555.500  463.353   61.678    0.400    0.227    3.216
  555.750  457.640   64.087    0.398    0.234    3.206
  556.000  457.297   67.861    0.451    0.240    3.196
  556.250  467.804   64.376    0.476    0.262    3.158
  556.500  482.544   59.465    0.466    0.288    3.160
  556.750  490.675   55.236    0.471    0.348    3.241
  557.000  488.579   56.467    0.505    0.382    3.355
  557.250  493.403   59.186    0.523    0.377    3.579
  557.500  500.396   54.275    0.558    0.369    3.891
  557.750  487.451   51.410    0.575    0.373    4.183
  558.000  465.833   49.477    0.546    0.370    4.564
  558.250  445.967   50.149    0.510    0.311    4.924
  558.500  433.954   55.908    0.474    0.232    5.393
  558.750  441.152   56.270    0.446    0.110    5.787
  559.000  440.400   55.887    0.366    0.113    6.104
  559.250  435.099   58.419    0.292    0.131    6.178
  559.500  431.764   59.340    0.312    0.160    5.955
  559.750  429.770   58.151    0.342    0.176    5.675
  560.000  433.869   57.954    0.365    0.190    5.511
  560.250  439.417   58.627    0.386    0.200    5.383
  560.500  442.384   59.174    0.382    0.201    5.347
  560.750  438.428   58.544    0.382    0.200    5.331
  561.000  434.364   58.533    0.410    0.198    5.325
  561.250  431.132   64.788    0.424    0.196    5.389
  561.500  428.415   64.095    0.399    0.194    5.486
  561.750  426.008   62.906    0.405    0.192    5.831
  562.000  425.567   63.391    0.428    0.200    6.162
  562.250  429.874   63.506    0.439    0.203    6.189
  562.500  432.631   66.101    0.451    0.200    6.172
  562.750  434.150   67.579    0.407    0.193    6.085
  563.000  435.875   62.668    0.391    0.190    5.921
  563.250  438.633   57.323    0.406    0.195    5.793
  563.500  440.979   57.871    0.409    0.199    5.668
  563.750  443.635   62.264    0.400    0.201    5.557
  564.000  447.219   64.612    0.399    0.197    5.396
  564.250  451.108   62.057    0.395    0.193    5.230
  564.500  453.974   59.255    0.423    0.189    5.069
  564.750  456.732   60.858    0.441    0.191    4.914
  565.000  461.569   59.855    0.451    0.194    4.764
  565.250  466.076   62.822    0.456    0.195    4.574
  565.500  469.054   65.851    0.459    0.192    4.319
  565.750  467.544   63.973    0.459    0.189    3.986
  566.000  465.830   62.791    0.465    0.193    3.687
  566.250  467.379   59.245    0.480    0.230    3.272
  566.500  473.518   58.056    0.498    0.250    2.963
  566.750  483.939   59.595    0.506    0.268    2.509
  567.000  496.399   59.648    0.534    0.336    1.845
  567.250  514.261   58.893    0.575    0.541    1.600
  567.500  543.546   57.208    0.607    0.588    1.474
  567.750  556.515   53.785    0.586    0.566    1.343
  568.000  544.096   47.572    0.627    0.540    1.249
  568.250  557.983   43.964    0.730    0.565    1.191
  568.500  565.854   42.341    0.676    0.610    1.171
  568.750  551.090   44.315    0.617    0.671    1.206
  569.000  555.189   44.925    0.601    0.641    1.275
  569.250  574.481   43.860    0.584    0.640    1.401
  569.500  536.265   45.152    0.568    0.700    1.588
  569.750  508.142   46.507    0.589    0.608    1.799
  570.000  517.441   44.883    0.668    0.609    2.120
  570.250  473.311   42.888    0.694    0.661    2.590
  570.500  453.143   51.314    0.621    0.704    3.353
  570.750  443.478   53.227    0.572    0.536    4.285
  571.000  445.026   52.843    0.542    0.486    4.606
  571.250  448.513   54.011    0.538    0.370    4.644
  571.500  439.560   55.923    0.519    0.352    4.426
  571.750  371.468   59.760    0.488    0.319    4.117
  572.000  362.720   66.077    0.452    0.243    3.757
  572.250  411.172   60.793    0.413    0.260    3.554
  572.500  426.079   58.921    0.423    0.300    3.452
  572.750  438.948   58.912    0.449    0.323    3.384
  573.000  449.470   55.798    0.492    0.370    3.373
  573.250  455.506   56.595    0.487    0.388    3.421
  573.500  438.397   61.237    0.465    0.381    3.609
  573.750  434.236   64.019    0.480    0.343    3.800
  574.000  445.064   65.187    0.487    0.298    3.904
  574.250  426.935   67.658    0.465    0.281    3.707
  574.500  382.398   68.453    0.473    0.267    3.434
  574.750  360.800   58.021    0.452    0.277    3.158
  575.000  346.546   64.276    0.467    0.293    2.976
  575.250  335.452   69.973    0.486    0.315    2.874
  575.500  374.728   73.684    0.510    0.311    2.775
  575.750  403.810   74.791    0.477    0.298    2.710
  576.000  427.893   70.934    0.452    0.291    2.652
  576.250  442.085   67.450    0.427    0.293    2.644
  576.500  453.934   66.944    0.422    0.306    2.657
  576.750  459.358   63.770    0.451    0.311    2.674
  577.000  430.931   60.037    0.448    0.325    2.716
  577.250  408.111   60.212    0.441    0.359    2.781
  577.500  443.003   61.443    0.499    0.414    2.916
  577.750  427.524   64.721    0.490    0.417    3.117
  578.000  404.806   69.114    0.470    0.377    3.289
  578.250  381.477   73.818    0.455    0.341    3.366
  578.500  367.936   78.647    0.440    0.301    3.288
  578.750  360.002   81.118    0.486    0.269    3.162
