~VERSION INFORMATION
 VERS.                 2.0:   CWLS LOG ASCII STANDARD -VERSION 2.0
 WRAP.                  NO:   ONE LINE PER DEPTH STEP
~WELL INFORMATION BLOCK
#MNEM.UNIT           DATA                    DESCRIPTION OF MNEMONIC
#---------    -------------------            -------------------------------
# Generated from Intellog Unique Number	CC_80_83/WELL/2388
NULL.         -999.25                        : NULL_VALUE
WELL.         CDN SUP ALGAR                  : Well_name    - WELL
LOC .         10-32-083-15W4                 : Location     - LOCATION          
UWI .         00/10-32-083-15W400            : Uwi          - UNIQUE WELL ID    
ENTR.         DW                             : Entered      - ENTERED BY        
SRVC.         SCHLUMBERGER                   : Scn          - SERVICE COMPANY   
DATE.         12 MAR 76                      : Date         - LOG DATE
STRT.M        85.344                         : top_depth    - START DEPTH       
STOP.M        279.195                        : bot_depth    - STOP DEPTH        
STEP.M        0.3048                         : increment    - STEP LENGTH       
~CURVE INFORMATION BLOCK
#MNEM UNIT       ERCB CURVE CODE    CURVE DESCRIPTION
#-----------   ------------------   ----------------------------------
DEPT.M        00 001 00 00         : DEPTH        - DEPTH                       
DPHI.V/V      00 890 00 00         : PHID         - DENSITY POROSITY (LIMESTONE)
NPHI.V/V      00 330 00 00         : PHIN         - NEUTRON POROSITY (LIMESTONE)
GR  .API      00 310 00 00         : GR           - GAMMA RAY                   
ILD .OHMM     00 120 00 00         : RESD         - DEEP RESISTIVITY (DIL)      
~PARAMETER INFORMATION       
#MNEM.UNIT           DATA             DESCRIPTION OF MNEMONIC
#---------         -----------     ------------------------------
GL  .M        544.068              : gl           - GROUND LEVEL ELEVATION      
EREF.M        547.421              : kb           - ELEVATION OF DEPTH REFERENCE
DATM.M        547.421              : datum        - DATUM ELEVATION             
TDD .M        278.282              : tdd          - TOTAL DEPTH DRILLER         
RUN .         ONE                  : Run          - RUN NUMBER                  
ENG .         BILL                 : Engineer     - RECORDING ENGINEER          
WIT .         JIM                  : Witness      - WITNESSED BY                
MUD .         GEL                  : Mud_type     - MUD TYPE                    
MATR.         LIMESTONE            : Logunit      - NEUTRON MATRIX              
TMAX.C        22.2222              : BHT          - MAXIMUM RECORDED TEMPERATURE
BHTD.M        278.282              : BHTDEP       - MAXIMUM RECORDED TEMPERATURE
MATR.         1                    : LOGUNIT      - NEUTRON MATRIX              
RMT .C        25                   : MDTP         - TEMPERATURE OF MUD          
NEUT.         1                    : NEUTRON      - NEUTRON TYPE                
RESI.         0                    : RESIST       - RESISTIVITY TYPE            
RMC .OHMM     0.25                 : RMC          - RESISTIVITY OF MUD CAKE     
RMF .OHMM     0.25                 : RMF          - RESISTIVITY OF MUD FILTRATE 
SUFT.C        15                   : SUFT         - SURFACE TEMPERATURE         
~A  DEPTH     PHID     PHIN       GR     RESD
# ...
  138.379    0.225    0.524  122.777    6.098
  138.684    0.223    0.515  119.794    6.567
  138.989    0.228    0.488  117.410    7.903
  139.294    0.244    0.480  112.626   10.628
  139.598    0.269    0.472   89.254   12.555
  139.903    0.343    0.451   40.697   14.559
  140.208    0.337    0.402   37.114   16.267
  140.513    0.326    0.397   38.928   16.570
  140.818    0.318    0.422   38.347   16.877
  141.122    0.357    0.440   34.766   16.564
  141.427    0.364    0.440   33.580   15.960
  141.732    0.359    0.415   28.801   14.278
  142.037    0.351    0.403   32.414   12.539
  142.342    0.346    0.426   39.627   11.219
  142.646    0.344    0.445   49.237    9.672
  142.951    0.340    0.456   63.046    8.185
  143.256    0.309    0.485   78.654    7.188
  143.561    0.263    0.499   93.661    6.925
  143.866    0.249    0.479  102.673    6.797
  144.170    0.284    0.471  106.287    6.923
  144.475    0.300    0.486  102.712    7.318
  144.780    0.258    0.500  102.121    7.183
  145.085    0.237    0.486   94.940    6.920
  145.390    0.220    0.456   96.161    6.545
  145.694    0.223    0.458   99.772    6.544
  145.999    0.268    0.515  102.789    6.790
  146.304    0.277    0.510  102.803    7.587
  146.609    0.276    0.505   96.823    9.652
  146.914    0.266    0.529   96.237   11.402
  147.218    0.296    0.490   99.853   13.222
  147.523    0.318    0.449  101.067   14.504
  147.828    0.295    0.444  100.483   14.502
  148.133    0.300    0.450   95.703   10.582
  148.437    0.312    0.447   86.723    7.721
  148.742    0.326    0.449   81.942    7.720
  149.047    0.360    0.468   72.362    8.627
  149.352    0.424    0.608   69.978   10.773
  149.657    0.353    0.575   80.192   13.961
  149.961    0.287    0.470   74.210   15.314
  150.266    0.303    0.413   65.829   15.031
  150.571    0.308    0.408   70.046   12.257
  150.876    0.305    0.404   74.256   10.373
  151.181    0.272    0.410   80.270    8.152
  151.485    0.228    0.436  104.273    6.898
  151.790    0.239    0.483  111.487    6.771
  152.095    0.263    0.506  109.103    7.025
  152.400    0.281    0.495  107.922    7.155
  152.705    0.262    0.486  109.735    7.288
  153.009    0.261    0.504  110.352    7.424
  153.314    0.265    0.481  110.367    7.286
  153.619    0.262    0.474  110.385    7.285
  153.924    0.259    0.515  106.800    7.284
  154.229    0.265    0.534  102.619    7.558
  154.533    0.268    0.505  102.040    7.698
  154.838    0.271    0.488  102.052    7.696
  155.143    0.260    0.506  100.269    7.695
  155.448    0.258    0.522   97.887    7.985
  155.753    0.265    0.503   97.302    8.285
  156.057    0.295    0.494   98.519    8.439
  156.362    0.289    0.504   99.135    8.595
  156.667    0.271    0.491   95.555    8.594
  156.972    0.254    0.481   94.373    8.593
  157.277    0.269    0.482   92.587    8.279
  157.581    0.265    0.470   89.005    7.830
  157.886    0.267    0.446   88.422    7.829
  158.191    0.261    0.480   93.835    8.430
  158.496    0.289    0.477   96.249    8.910
  158.800    0.262    0.464   93.267    9.076
  159.105    0.252    0.455   81.289    8.583
  159.410    0.245    0.459   82.502    8.425
  159.715    0.270    0.471   89.716    9.414
  160.020    0.270    0.488   91.530   10.326
  160.324    0.300    0.505   84.350   10.714
  160.629    0.325    0.482   69.975    9.947
  160.934    0.342    0.471   69.991    8.736
  161.239    0.308    0.491   81.999    7.672
  161.544    0.279    0.517   96.409    6.992
  161.848    0.246    0.535   97.626    6.613
  162.153    0.272    0.519   92.242    6.372
  162.458    0.264    0.500   94.657    6.139
  162.763    0.262    0.538  100.674    6.253
  163.068    0.269    0.562   98.887    6.488
  163.372    0.274    0.541   94.707    6.368
  163.677    0.263    0.509   92.325    6.135
  163.982    0.262    0.498   97.136    6.134
  164.287    0.279    0.520  103.750    6.484
  164.592    0.278    0.510  101.368    6.728
  164.896    0.276    0.504   97.188    6.603
  165.201    0.284    0.496   97.202    6.245
  165.506    0.276    0.486   95.421    5.692
  165.811    0.265    0.477   96.635    4.999
  166.116    0.276    0.481   99.048    4.816
  166.420    0.253    0.499  100.267    4.816
  166.725    0.271    0.522  100.882    5.381
  167.030    0.264    0.527   94.898    6.475
  167.335    0.281    0.540   98.513    7.649
  167.640    0.327    0.511   98.528    8.870
  167.944    0.319    0.485   83.552   10.478
  168.249    0.310    0.496   78.772   12.378
  168.554    0.324    0.496   78.788   13.327
  168.859    0.333    0.482   75.208   13.326
  169.163    0.329    0.488   80.623   13.080
  169.468    0.323    0.504   84.836   12.601
  169.773    0.311    0.494   84.848   12.368
  170.078    0.304    0.483   79.471   12.598
  170.383    0.316    0.479   78.887   12.831
  170.687    0.297    0.470   80.705   13.314
  170.992    0.290    0.472   81.316   13.312
  171.297    0.291    0.463   77.733   13.310
  171.602    0.289    0.471   75.952   13.308
  171.907    0.306    0.482   77.764   13.061
  172.211    0.312    0.460   78.980   13.060
  172.516    0.300    0.434   80.796   12.582
  172.821    0.298    0.431   81.415   12.581
  173.126    0.319    0.458   77.231   12.347
  173.431    0.319    0.488   74.248   11.897
  173.735    0.310    0.496   74.270   11.251
  174.040    0.283    0.508   74.882   10.641
  174.345    0.281    0.509   79.692   10.253
  174.650    0.289    0.500   88.703    9.173
  174.955    0.278    0.488   99.516    8.206
  175.259    0.255    0.500  105.527    8.055
  175.564    0.263    0.479  109.143    8.357
  175.869    0.266    0.462  110.356    8.356
  176.174    0.270    0.462  114.572    8.511
  176.479    0.276    0.459  115.191    8.510
  176.783    0.269    0.453  114.005    8.353
  177.088    0.255    0.455  112.820    7.612
  177.393    0.305    0.474  104.441    7.200
  177.698    0.275    0.481  102.659    7.066
  178.003    0.316    0.486  102.674    7.197
  178.307    0.304    0.490   97.291    7.468
  178.612    0.320    0.515   95.510    7.749
  178.917    0.300    0.487   97.327    7.748
  179.222    0.270    0.473   99.740    7.747
  179.527    0.314    0.484  100.954    6.930
  179.831    0.299    0.460   98.573    5.865
  180.136    0.280    0.441   96.190    5.151
  180.441    0.274    0.438   98.008    5.246
  180.746    0.334    0.490   99.219    6.084
  181.050    0.336    0.485   92.643    7.884
  181.355    0.330    0.486   90.256   10.409
  181.660    0.315    0.498   84.876   11.631
  181.965    0.329    0.500   83.092   11.629
  182.270    0.300    0.489   83.108   10.797
  182.574    0.292    0.470   81.924    9.482
  182.879    0.290    0.457   80.143    8.642
  183.184    0.324    0.448   89.154    8.326
  183.489    0.310    0.445   80.777    8.639
  183.794    0.302    0.481   78.394    8.799
  184.098    0.300    0.470   83.805    8.636
  184.403    0.319    0.463   86.223    8.797
  184.708    0.335    0.498   85.641    9.127
  185.013    0.342    0.481   83.858    9.647
  185.318    0.338    0.471   82.071   10.010
  185.622    0.332    0.465   82.688   10.196
  185.927    0.323    0.458   87.500   10.194
  186.232    0.318    0.454   85.119   10.006
  186.537    0.308    0.467   88.133    9.464
  186.842    0.310    0.483   92.947    7.862
  187.146    0.319    0.482   94.159    7.033
  187.451    0.313    0.471   94.178    6.530
  187.756    0.295    0.478   94.792    6.291
  188.061    0.280    0.495  103.205    6.062
  188.366    0.277    0.509  103.219    5.628
  188.670    0.275    0.515   97.237    5.323
  188.975    0.275    0.507   99.053    5.224
  189.280    0.279    0.491  102.068    5.223
  189.585    0.285    0.504  102.089    5.420
  189.890    0.269    0.524  103.300    5.836
  190.194    0.270    0.507  103.317    7.424
  190.499    0.306    0.478  100.335    9.622
  190.804    0.292    0.437   90.154   12.702
  191.109    0.308    0.408   83.576   15.286
