~VERSION INFORMATION
 VERS.                 2.0:   CWLS LOG ASCII STANDARD -VERSION 2.0
 WRAP.                  NO:   ONE LINE PER DEPTH STEP
~WELL INFORMATION BLOCK
#MNEM.UNIT           DATA                    DESCRIPTION OF MNEMONIC
#---------    -------------------            -------------------------------
# Generated from Intellog Unique Number	CS_69_70/WELL/881
WELL.         HUSKEY OIL OPERATION           : Well_name    - WELL
LOC .         00/10-34-069-05W4/0            : Location     - LOCATION
UWI .         00/10-34-069-05W4/0            : Uwi          - UNIQUE WELL ID
ENTR.         SP                             : Entered      - ENTERED BY
SRVC.         SCHLUMBERGER                   : Scn          - SERVICE COMPANY
STRT.M        300                            : top_depth    - START DEPTH
STOP.M        550                            : bot_depth    - STOP DEPTH
STEP.M        0.25                           : increment    - STEP LENGTH
 NULL. -999.2500:NULL Value
~CURVE INFORMATION BLOCK
#MNEM UNIT       ERCB CURVE CODE    CURVE DESCRIPTION
#-----------   ------------------   ----------------------------------
DEPT.M        00 001 00 00         : DEPTH        - DEPTH
ILD .OHMM     00 120 00 00         : RESD         - DEEP RESISTIVITY (DIL)
DPHI.V/V      00 890 00 00         : PHID         - DENSITY POROSITY (LIMESTONE)
NPHI.V/V      00 330 00 00         : PHIN         - NEUTRON POROSITY (LIMESTONE)
GR  .API      00 310 00 00         : GR           - GAMMA RAY
~PARAMETER INFORMATION
#MNEM.UNIT           DATA             DESCRIPTION OF MNEMONIC
#---------         -----------     ------------------------------
GL  .M        673.5                : gl           - GROUND LEVEL ELEVATION
EREF.M        677.2                : kb           - ELEVATION OF DEPTH REFERENCE
DATM.M        673.5                : datum        - DATUM ELEVATION
TDD .M        558                  : tdd          - TOTAL DEPTH DRILLER
RUN .         ONE                  : Run          - RUN NUMBER
ENG .         BILL                 : Engineer     - RECORDING ENGINEER
WIT .         JIM                  : Witness      - WITNESSED BY
MUD .         GEL                  : Mud_type     - MUD TYPE
MATR.         LIMESTONE            : Logunit      - NEUTRON MATRIX
TMAX.C        22                   : BHT          - MAXIMUM RECORDED TEMPERATURE
BHTD.M        558                  : BHTDEP       - MAXIMUM RECORDED TEMPERATURE
MATR.         1                    : LOGUNIT      - NEUTRON MATRIX
RMT .C        25                   : MDTP         - TEMPERATURE OF MUD
NEUT.         1                    : NEUTRON      - NEUTRON TYPE
RESI.         0                    : RESIST       - RESISTIVITY TYPE
RMC .OHMM     0.25                 : RMC          - RESISTIVITY OF MUD CAKE
RMF .OHMM     0.25                 : RMF          - RESISTIVITY OF MUD FILTRATE
SUFT.C        15                   : SUFT         - SURFACE TEMPERATURE
~A  DEPTH     RESD     PHID     PHIN       GR
# ...
  517.500    6.806    0.322    0.376   53.094
  517.750    6.158    0.310    0.373   52.364
  518.000    5.344    0.297    0.377   51.390
  518.250    4.927    0.298    0.381   51.386
  518.500    4.690    0.294    0.383   53.806
  518.750    4.517    0.289    0.386   55.499
  519.000    4.399    0.286    0.396   53.797
  519.250    4.341    0.291    0.392   52.400
  519.500    4.284    0.293    0.381   51.244
  519.750    4.268    0.283    0.372   51.240
  520.000    4.325    0.293    0.370   55.963
  520.250    4.425    0.303    0.373   66.990
  520.500    4.570    0.277    0.375   75.471
  520.750    4.800    0.241    0.366   81.224
  521.000    4.883    0.216    0.357   80.250
  521.250    4.711    0.216    0.355   75.882
  521.500    4.409    0.228    0.376   71.454
  521.750    4.151    0.257    0.386   63.935
  522.000    4.135    0.278    0.388   57.386
  522.250    4.238    0.296    0.377   51.079
  522.500    4.319    0.317    0.367   56.772
  522.750    4.369    0.293    0.360   63.192
  523.000    4.402    0.273    0.354   67.672
  523.250    4.411    0.260    0.348   68.638
  523.500    4.320    0.260    0.343   67.846
  523.750    4.208    0.270    0.355   65.479
  524.000    4.137    0.280    0.364   55.475
  524.250    3.953    0.296    0.384   50.865
  524.500    3.865    0.309    0.404   48.558
  524.750    4.114    0.319    0.408   57.523
  525.000    4.843    0.231    0.339   79.534
  525.250    5.124    0.193    0.324   83.298
  525.500    5.271    0.221    0.358   74.953
  525.750    5.291    0.263    0.379   63.383
  526.000    4.862    0.295    0.388   50.656
  526.250    4.596    0.320    0.367   77.482
  526.500    4.648    0.255    0.350   85.629
  526.750    5.145    0.217    0.334   93.896
  527.000    5.475    0.188    0.338   85.673
  527.250    5.233    0.167    0.360   66.860
  527.500    4.910    0.270    0.380   57.725
  527.750    4.304    0.312    0.394   55.587
  528.000    4.069    0.274    0.367   76.268
  528.250    4.580    0.233    0.352   86.543
  528.500    5.304    0.199    0.339   94.811
  528.750    5.784    0.180    0.342   87.196
  529.000    6.017    0.200    0.347   77.755
  529.250    6.074    0.222    0.352   69.593
  529.500    5.741    0.243    0.370   64.351
  529.750    5.417    0.259    0.379   76.452
  530.000    5.227    0.248    0.377   81.311
  530.250    5.168    0.248    0.376   84.224
  530.500    5.063    0.236    0.362   81.295
  530.750    4.849    0.226    0.361   70.272
  531.000    4.422    0.244    0.377   55.537
  531.250    4.125    0.285    0.383   44.698
  531.500    4.079    0.276    0.362   54.669
  531.750    4.260    0.252    0.353   62.572
  532.000    4.636    0.241    0.373   68.405
  532.250    4.980    0.235    0.386   73.204
  532.500    5.132    0.229    0.395   75.264
  532.750    4.888    0.216    0.384   67.100
  533.000    4.603    0.252    0.380   56.808
  533.250    4.392    0.295    0.379   47.977
  533.500    4.206    0.314    0.378   50.220
  533.750    4.089    0.300    0.374   55.079
  534.000    4.006    0.290    0.364   60.304
  534.250    4.051    0.275    0.365   64.312
  534.500    4.231    0.263    0.367   64.000
  534.750    4.223    0.250    0.376   55.289
  535.000    4.029    0.294    0.391   46.761
  535.250    3.844    0.323    0.385   35.739
  535.500    3.837    0.329    0.369   51.978
  535.750    3.977    0.302    0.355   61.280
  536.000    4.288    0.279    0.364   66.018
  536.250    4.589    0.266    0.378   65.583
  536.500    4.765    0.252    0.364   63.932
  536.750    4.929    0.242    0.384   63.497
  537.000    4.865    0.243    0.397   60.507
  537.250    4.633    0.253    0.393   57.030
  537.500    4.454    0.261    0.383   55.379
  537.750    4.396    0.255    0.373   57.987
  538.000    4.446    0.244    0.367   63.456
  538.250    4.531    0.235    0.373   67.098
  538.500    4.626    0.229    0.378   65.325
  538.750    4.705    0.233    0.374   62.396
  539.000    4.831    0.241    0.366   67.072
  539.250    4.997    0.241    0.376   68.585
  539.500    5.150    0.241    0.377   67.238
  539.750    5.083    0.250    0.370   60.657
  540.000    4.636    0.265    0.382   50.974
  540.250    4.088    0.287    0.381   38.491
  540.500    3.849    0.321    0.367   30.511
  540.750    3.693    0.336    0.369   25.816
  541.000    3.537    0.315    0.350   24.044
  541.250    3.511    0.301    0.335   23.609
  541.500    3.564    0.302    0.325   23.357
  541.750    3.701    0.302    0.325   23.166
  542.000    3.836    0.302    0.332   22.975
  542.250    3.850    0.302    0.333   22.785
  542.500    3.822    0.301    0.325   22.773
  542.750    3.744    0.294    0.321   22.645
  543.000    3.674    0.284    0.316   22.455
  543.250    3.626    0.297    0.315   22.262
  543.500    3.613    0.310    0.333   22.255
  543.750    3.627    0.320    0.349   22.794
  544.000    3.613    0.321    0.347   23.638
  544.250    3.620    0.316    0.339   24.055
  544.500    3.662    0.303    0.336   24.290
  544.750    3.662    0.292    0.338   24.280
  545.000    3.642    0.285    0.345   24.149
  545.250    3.628    0.295    0.357   24.203
  545.500    3.554    0.324    0.368   24.196
  545.750    3.481    0.342    0.377   23.822
  546.000    3.449    0.349    0.385   21.988
  546.250    3.482    0.335    0.378   21.371
  546.500    3.562    0.326    0.372   24.222
  546.750    3.643    0.332    0.366   26.100
  547.000    3.783    0.317    0.361   36.681
  547.250    4.557    0.267    0.354   54.928
  547.500    5.647    0.201    0.359   73.115
  547.750    6.663    0.166    0.385   85.703
  548.000    7.996    0.133    0.401   87.885
  548.250    9.597    0.101    0.322   61.649
  548.500   11.670    0.067    0.238   44.480
  548.750   13.262    0.020    0.207   39.177
  549.000   15.827   -0.005    0.200   37.100
  549.250   18.328   -0.010    0.212   41.837
  549.500   20.947   -0.011    0.212   42.802
  549.750   22.840   -0.010    0.206   42.795
  550.000   24.258   -0.008    0.201   42.603
