~VERSION INFORMATION
 VERS.                 2.0:   CWLS LOG ASCII STANDARD -VERSION 2.0
 WRAP.                  NO:   ONE LINE PER DEPTH STEP
~WELL INFORMATION BLOCK
#MNEM.UNIT           DATA                    DESCRIPTION OF MNEMONIC
#---------    -------------------            -------------------------------
# Generated from Intellog Unique Number	CW_76_78/WELL/2575
WELL.         10-09-078-26W4                 : Well_name    - WELL
LOC .         00/10-09-078-26W4/0            : Location     - LOCATION
UWI .         00/10-09-078-26W4/0            : Uwi          - UNIQUE WELL ID
ENTR.         MAX                            : Entered      - ENTERED BY
SRVC.         COMPUTALOG                     : Scn          - SERVICE COMPANY
STRT.M        300                            : top_depth    - START DEPTH
STOP.M        525                            : bot_depth    - STOP DEPTH
STEP.M        0.25                           : increment    - STEP LENGTH
 NULL. -999.2500:NULL Value
~CURVE INFORMATION BLOCK
#MNEM UNIT       ERCB CURVE CODE    CURVE DESCRIPTION
#-----------   ------------------   ----------------------------------
DEPT.M        00 001 00 00         : DEPTH        - DEPTH
ILD .OHMM     00 120 00 00         : RESD         - DEEP RESISTIVITY (DIL)
NPHI.V/V      00 330 00 00         : PHIN         - NEUTRON POROSITY (SANDSTONE)
DPHI.V/V      00 890 00 00         : PHID         - DENSITY POROSITY (SANDSTONE)
CALI.MM       00 280 01 00         : CAL          - CALIPER
GR  .API      00 310 00 00         : GR           - GAMMA RAY
~PARAMETER INFORMATION
#MNEM.UNIT           DATA             DESCRIPTION OF MNEMONIC
#---------         -----------     ------------------------------
GL  .M        595                  : gl           - GROUND LEVEL ELEVATION
EREF.M        598.9                : kb           - ELEVATION OF DEPTH REFERENCE
DATM.M        595                  : datum        - DATUM ELEVATION
TDD .M        524                  : tdd          - TOTAL DEPTH DRILLER
RUN .         ONE                  : Run          - RUN NUMBER
ENG .         BILL                 : Engineer     - RECORDING ENGINEER
WIT .         JIM                  : Witness      - WITNESSED BY
MUD .         GEL                  : Mud_type     - MUD TYPE
MATR.         SANDSTONE            : Logunit      - NEUTRON MATRIX
TMAX.C        18                   : BHT          - MAXIMUM RECORDED TEMPERATURE
BHTD.M        524                  : BHTDEP       - MAXIMUM RECORDED TEMPERATURE
RMT .C        15                   : MDTP         - TEMPERATURE OF MUD
MUDD.KG/M     1090                 : MWT          - MUD DENSITY
NEUT.         1                    : NEUTRON      - NEUTRON TYPE
RESI.         0                    : RESIST       - RESISTIVITY TYPE
RM  .OHMM     7                    : RM           - RESISTIVITY OF MUD
RMC .OHMM     0                    : RMC          - RESISTIVITY OF MUD CAKE
RMF .OHMM     8                    : RMF          - RESISTIVITY OF MUD FILTRATE
SUFT.C        -20                  : SUFT         - SURFACE TEMPERATURE
~A  DEPTH     RESD     PHIN     PHID      CAL       GR
# ...
  446.000   12.535    0.355    0.193  196.180   85.003
  446.250   12.769    0.377    0.215  196.211   87.090
  446.500   13.246    0.389    0.223  196.232   84.153
  446.750   13.495    0.363    0.226  195.768   82.693
  447.000   13.625    0.384    0.215  195.796   79.757
  447.250   13.510    0.470    0.214  195.339   81.248
  447.500   13.038    0.456    0.211  195.360   83.041
  447.750   12.358    0.415    0.211  195.391   82.758
  448.000   12.034    0.366    0.203  195.422   85.140
  448.250   12.041    0.362    0.201  195.450   87.812
  448.500   12.266    0.411    0.209  195.478   88.715
  448.750   12.384    0.401    0.201  195.506   88.732
  449.000   12.391    0.404    0.196  195.531   87.865
  449.250   12.176    0.389    0.190  195.566   84.928
  449.500   11.964    0.410    0.194  195.590   83.173
  449.750   11.972    0.399    0.183  195.615   84.669
  450.000   11.977    0.399    0.187  196.138   91.771
  450.250   11.985    0.369    0.203  196.655   93.857
  450.500   11.992    0.365    0.214  197.179   92.986
  450.750   11.890    0.382    0.218  197.695   89.459
  451.000   11.790    0.421    0.215  197.723   86.524
  451.250   11.690    0.395    0.205  197.755   87.134
  451.500   11.802    0.374    0.204  197.783   88.623
  451.750   11.810    0.360    0.205  197.811   91.005
  452.000   11.922    0.368    0.200  198.334   90.133
  452.250   11.821    0.395    0.194  198.366   87.197
  452.500   11.616    0.413    0.196  198.886   85.444
  452.750   10.814    0.387    0.200  198.910   94.023
  453.000   10.436    0.358    0.189  198.935   96.111
  453.250   10.162    0.320    0.184  198.474   93.466
  453.500    9.986    0.299    0.188  198.506   91.122
  453.750    9.900    0.319    0.192  198.530   94.978
  454.000    9.729    0.354    0.196  199.071   92.339
  454.250    9.735    0.411    0.191  199.082   88.808
  454.500    9.829    0.416    0.185  200.094   84.985
  454.750    9.829    0.415    0.182  200.607   82.937
  455.000   10.112    0.406    0.178  200.639   82.662
  455.250   10.393    0.364    0.169  200.174   82.972
  455.500   10.684    0.351    0.165  199.221   85.054
  455.750   10.982    0.336    0.170  197.769   90.387
  456.000   11.089    0.346    0.175  196.321   89.225
  456.250   10.995    0.357    0.169  196.349   83.037
  456.500   10.803    0.352    0.161  196.869   83.352
  456.750   10.057    0.353    0.165  197.881   85.733
  457.000    9.705    0.348    0.171  197.417   86.636
  457.250    9.365    0.339    0.176  196.953   93.738
  457.500    9.289    0.324    0.183  197.473   97.592
  457.750    9.289    0.339    0.184  198.984  102.341
  458.000    9.297    0.353    0.177  200.482  102.355
  458.250    9.472    0.368    0.170  201.002   97.645
  458.500    9.915    0.359    0.177  199.553   95.890
  458.750   10.567    0.370    0.182  198.105   95.908
  459.000   11.365    0.398    0.177  197.152   95.039
  459.250   12.222    0.426    0.166  197.183   90.919
  459.500   13.628    0.409    0.171  197.703   84.144
  459.750   15.613    0.459    0.145  198.220   75.300
  460.000   18.377    0.388    0.086  198.244   61.732
  460.250   21.827    0.341    0.118  198.765   59.386
  460.500   25.462    0.231    0.171  198.800   67.084
  460.750   26.893    0.267    0.191  198.828   71.824
  461.000   25.953    0.330    0.179  197.871   73.612
  461.250   24.379    0.330    0.174  196.422   73.038
  461.500   22.898    0.335    0.204  195.466   74.534
  461.750   21.703    0.362    0.212  195.002   77.506
  462.000   20.570    0.375    0.166  195.522   78.112
  462.250   16.873    0.321    0.138  196.039   78.719
  462.500   14.350    0.289    0.191  197.547   76.375
  462.750   13.850    0.365    0.182  198.067   73.434
  463.000   14.630    0.315    0.156  198.095   65.777
  463.250   15.875    0.268    0.138  197.630   66.678
  463.500   17.542    0.334    0.134  197.655   74.962
  463.750   17.237    0.368    0.106  198.179   76.160
  464.000   15.902    0.334    0.116  199.191   72.632
  464.250   14.536    0.304    0.128  199.708   70.879
  464.500   13.531    0.305    0.175  199.736   74.440
  464.750   13.177    0.364    0.203  201.251   81.840
  465.000   13.190    0.398    0.184  203.244   86.879
  465.250   13.073    0.363    0.175  203.761   85.417
  465.500   13.199    0.370    0.185  202.316   86.911
  465.750   13.446    0.368    0.173  201.848   91.952
  466.000   13.575    0.387    0.170  201.879   90.488
  466.250   13.584    0.402    0.157  201.904   85.780
  466.500   13.590    0.390    0.151  201.446   81.367
  466.750   13.476    0.378    0.163  200.975   83.156
  467.000   13.362    0.403    0.181  200.975   86.421
  467.250   13.130    0.418    0.187  200.542   89.098
  467.500   12.787    0.423    0.181  199.582   86.457
  467.750   12.229    0.435    0.181  198.626   87.659
  468.000   11.801    0.389    0.170  197.676   89.443
  468.250   11.389    0.354    0.159  197.676   93.890
  468.500   11.297    0.347    0.159  197.254   95.679
  468.750   11.198    0.359    0.160  197.261   93.926
  469.000   11.102    0.329    0.154  196.800   94.238
  469.250   10.812    0.350    0.157  196.340   98.978
  469.500   10.624    0.379    0.168  196.364  105.787
  469.750   10.535    0.365    0.170  195.903  106.101
  470.000   10.542    0.380    0.157  195.952  101.391
  470.250   10.642    0.388    0.154  195.959   97.273
  470.500   10.648    0.389    0.152  195.991   93.450
  470.750   10.658    0.358    0.157  196.015   87.565
  471.000   10.660    0.342    0.162  195.547   87.579
  471.250   10.665    0.329    0.170  195.575   87.005
  471.500   10.672    0.367    0.174  196.099   87.316
  471.750   10.672    0.369    0.169  196.127   92.950
  472.000   10.779    0.335    0.157  196.651   90.895
  472.250   11.183    0.341    0.142  196.179   96.818
  472.500   11.599    0.397    0.162  196.211  101.560
  472.750   11.818    0.404    0.166  195.747  100.101
  473.000   11.612    0.379    0.145  195.747   92.439
  473.250   11.514    0.366    0.147  195.806   86.254
  473.500   11.315    0.388    0.166  195.837   84.207
  473.750   11.218    0.414    0.171  195.865   85.697
  474.000   11.025    0.414    0.167  195.401   86.895
  474.250   11.025    0.388    0.162  195.429   88.683
  474.500   10.843    0.390    0.163  195.454   96.674
  474.750   10.845    0.406    0.167  194.986   96.398
  475.000   11.250    0.382    0.169  195.021   96.712
  475.250   12.098    0.347    0.172  195.045   97.319
  475.500   13.611    0.381    0.177  195.070   90.539
  475.750   15.594    0.432    0.174  195.101   76.971
  476.000   17.388    0.355    0.112  195.126   72.265
  476.250   19.744    0.239    0.126  195.161   72.870
  476.500   20.663    0.273    0.164  195.681   75.545
  476.750   21.435    0.323    0.177  195.709   82.656
  477.000   22.640    0.409    0.181  195.737   84.736
  477.250   24.130    0.414    0.158  195.272   77.371
  477.500   26.667    0.389    0.138  195.297   69.410
  477.750   29.200    0.350    0.114  194.829   61.453
  478.000   33.154    0.283    0.077  194.861   54.086
  478.250   36.303    0.286    0.079  194.888   51.741
  478.500   36.325    0.298    0.074  194.916   54.715
  478.750   34.738    0.274    0.050  194.948   57.094
  479.000   32.629    0.247    0.067  194.976   60.948
  479.250   30.372    0.261    0.098  194.512   66.283
  479.500   27.516    0.287    0.127  194.540   64.232
  479.750   24.704    0.304    0.133  194.540   60.410
  480.000   20.822    0.315    0.144  194.609   60.429
  480.250   15.893    0.330    0.157  194.623   62.804
  480.500   14.792    0.345    0.173  194.648   69.909
  480.750   12.810    0.353    0.189  194.184   81.445
  481.000   12.141    0.340    0.184  194.215   85.892
  481.250   11.823    0.357    0.176  193.751   87.978
  481.500   11.723    0.358    0.160  193.779   89.178
  481.750   11.943    0.329    0.159  193.810   88.602
  482.000   12.167    0.325    0.146  193.831   78.576
  482.250   12.175    0.362    0.145  193.831   77.415
