~VERSION INFORMATION
 VERS.                 2.0:   CWLS LOG ASCII STANDARD -VERSION 2.0
 WRAP.                  NO:   ONE LINE PER DEPTH STEP
~WELL INFORMATION BLOCK
#MNEM.UNIT           DATA                    DESCRIPTION OF MNEMONIC
#---------    -------------------            -------------------------------
# Generated from Intellog Unique Number	CS_73_76/WELL/4784
WELL.         BOW VALLEY INDUSTRIES          : Well_name    - WELL
LOC .         00/11-28-076-16W4/0            : Location     - LOCATION
UWI .         00/11-28-076-16W4/0            : Uwi          - UNIQUE WELL ID
ENTR.         JO                             : Entered      - ENTERED BY
SRVC.         SCHLUMBERGER                   : Scn          - SERVICE COMPANY
STRT.M        330                            : top_depth    - START DEPTH
STOP.M        555                            : bot_depth    - STOP DEPTH
STEP.M        0.25                           : increment    - STEP LENGTH
 NULL. -999.2500:NULL Value
~CURVE INFORMATION BLOCK
#MNEM UNIT       ERCB CURVE CODE    CURVE DESCRIPTION
#-----------   ------------------   ----------------------------------
DEPT.M        00 001 00 00         : DEPTH        - DEPTH
GR  .API      00 310 00 00         : GR           - GAMMA RAY
NPHI.V/V      00 330 00 00         : PHIN         - NEUTRON POROSITY (SANDSTONE)
DPHI.V/V      00 890 00 00         : PHID         - DENSITY POROSITY (SANDSTONE)
ILD .OHMM     00 120 00 00         : RESD         - DEEP RESISTIVITY (DIL)
~PARAMETER INFORMATION
#MNEM.UNIT           DATA             DESCRIPTION OF MNEMONIC
#---------         -----------     ------------------------------
GL  .M        699.4                : gl           - GROUND LEVEL ELEVATION
EREF.M        708.7                : kb           - ELEVATION OF DEPTH REFERENCE
DATM.M        708.7                : datum        - DATUM ELEVATION
TDD .M        561                  : tdd          - TOTAL DEPTH DRILLER
RUN .         ONE                  : Run          - RUN NUMBER
ENG .         BILL                 : Engineer     - RECORDING ENGINEER
WIT .         JIM                  : Witness      - WITNESSED BY
MUD .         GEL                  : Mud_type     - MUD TYPE
MATR.         SANDSTONE            : Logunit      - NEUTRON MATRIX
TMAX.C        38                   : BHT          - MAXIMUM RECORDED TEMPERATURE
BHTD.M        561                  : BHTDEP       - MAXIMUM RECORDED TEMPERATURE
MATR.         1                    : LOGUNIT      - NEUTRON MATRIX
RMT .C        22                   : MDTP         - TEMPERATURE OF MUD
NEUT.         1                    : NEUTRON      - NEUTRON TYPE
RESI.         0                    : RESIST       - RESISTIVITY TYPE
RMC .OHMM     2                    : RMC          - RESISTIVITY OF MUD CAKE
RMF .OHMM     4                    : RMF          - RESISTIVITY OF MUD FILTRATE
SUFT.C        5                    : SUFT         - SURFACE TEMPERATURE
~A  DEPTH       GR     PHIN     PHID     RESD
  330.000  109.395    0.430    0.209    3.300
  330.250  102.735    0.424    0.212    3.363
  330.500  105.798    0.476    0.204    3.560
  330.750  111.292    0.514    0.187    3.628
  331.000  114.361    0.510    0.198    3.768
  331.250  105.878    0.478    0.221    3.769
  331.500   99.218    0.464    0.227    3.771
  331.750   95.591    0.425    0.222    3.702
  332.000   93.792    0.421    0.209    3.633
  332.250  109.623    0.431    0.193    3.501
  332.500  118.161    0.421    0.199    3.436
  332.750  102.987    0.413    0.206    3.373
  333.000  105.443    0.422    0.209    3.249
  333.250  117.013    0.465    0.218    3.190
  333.500  115.221    0.481    0.218    3.191
  333.750  118.284    0.480    0.220    3.192
  334.000  120.125    0.454    0.230    3.193
  334.250  107.996    0.432    0.222    3.193
  334.500   99.513    0.437    0.202    3.255
  334.750  100.145    0.443    0.206    3.318
  335.000   98.967    0.430    0.216    3.511
  335.250  103.233    0.402    0.216    3.647
  335.500   75.912    0.350    0.197    4.240
  335.750   59.529    0.321    0.252    7.183
  336.000   53.471    0.310    0.310    9.350
  336.250   54.115    0.283    0.384   11.078
  336.500   55.349    0.274    0.511   11.507
  336.750   63.881    0.371    0.573   10.676
  337.000   84.573    0.378    0.515   10.092
  337.250   91.884    0.333    0.410    9.188
  337.500   70.038    0.322    0.320    8.687
  337.750   72.487    0.349    0.312    8.368
  338.000   73.126    0.381    0.269    8.858
  338.250   73.758    0.377    0.267    9.375
  338.500   77.422    0.364    0.279    9.736
  338.750   70.161    0.361    0.282   10.112
  339.000   88.422    0.365    0.271   10.308
  339.250   93.910    0.387    0.264   10.311
  339.500   90.288    0.393    0.268   10.314
  339.750   95.174    0.397    0.271   10.125
  340.000   90.337    0.390    0.256   10.127
  340.250   97.046    0.378    0.243    9.940
  340.500   87.956    0.385    0.244    9.944
  340.750   89.803    0.379    0.239    9.947
  341.000   97.728    0.386    0.205    9.763
  341.250   78.914    0.399    0.264    8.890
  341.500   66.785    0.400    0.277    8.248
  341.750   58.309    0.395    0.302    9.064
  342.000   61.973    0.405    0.307   10.343
  342.250   57.744    0.411    0.311   11.155
  342.500   54.736    0.382    0.306   11.158
  342.750   60.831    0.410    0.269   10.952
  343.000   71.187    0.419    0.243   10.955
  343.250   59.057    0.408    0.234   10.959
  343.500   53.011    0.411    0.264   10.757
  343.750   51.815    0.395    0.300   10.761
  344.000   64.600    0.382    0.313   10.764
  344.250   65.840    0.372    0.295   10.767
  344.500   70.726    0.371    0.271   10.568
  344.750   74.397    0.408    0.260    9.623
  345.000  100.558    0.413    0.253    9.270
  345.250   81.751    0.414    0.256    8.283
  345.500   76.294    0.410    0.289    7.542
  345.750   70.849    0.396    0.304    7.544
  346.000   86.072    0.372    0.323    8.448
  346.250   98.257    0.385    0.269    9.459
  346.500   97.667    0.402    0.285   10.593
  346.750   91.615    0.398    0.300   10.797
  347.000   91.038    0.386    0.297   10.600
  347.250   88.626    0.395    0.287   10.404
  347.500   91.689    0.406    0.279   10.213
  347.750   98.398    0.394    0.277   10.410
  348.000   98.422    0.381    0.256   10.610
  348.250   99.055    0.380    0.248   10.815
  348.500  116.101    0.366    0.259   11.024
  348.750  102.756    0.396    0.271   11.028
  349.000   83.936    0.399    0.277   10.825
  349.250   79.100    0.379    0.282   10.429
  349.500   91.885    0.379    0.277   10.236
  349.750   68.818    0.371    0.302   10.239
  350.000   47.574    0.343    0.337   10.243
  350.250   42.737    0.388    0.329   10.055
  350.500   51.269    0.397    0.326   10.057
  350.750   55.547    0.398    0.331   10.059
  351.000   52.534    0.389    0.326   10.062
  351.250   51.951    0.389    0.318   10.066
  351.500   56.235    0.394    0.319   10.068
  351.750   53.829    0.402    0.325    9.884
  352.000   56.278    0.394    0.319    9.521
  352.250   61.164    0.370    0.300    9.003
  352.500   69.095    0.393    0.287    8.836
  352.750   74.595    0.383    0.275    9.007
  353.000   67.327    0.364    0.270    9.714
  353.250   70.992    0.359    0.262   10.089
  353.500   81.954    0.370    0.253    9.359
  353.750   97.171    0.386    0.240    7.612
  354.000  125.155    0.416    0.213    5.635
  354.250  120.926    0.423    0.140    4.583
  354.500  118.520    0.409    0.132    3.798
  354.750  122.798    0.421    0.147    3.524
  355.000  107.631    0.449    0.142    3.331
  355.250  105.832    0.435    0.176    3.332
  355.500  116.795    0.461    0.200    3.397
  355.750  122.897    0.447    0.182    3.462
  356.000  116.851    0.536    0.178    3.529
  356.250  123.553    0.484    0.173    3.464
  356.500  124.793    0.482    0.168    3.337
  356.750  127.863    0.491    0.180    3.096
  357.000  126.666    0.499    0.194    2.983
  357.250  127.906    0.496    0.210    2.928
  357.500  138.875    0.475    0.207    2.984
  357.750  126.746    0.451    0.205    3.099
  358.000  116.433    0.438    0.210    3.537
  358.250  108.558    0.415    0.205    4.190
  358.500  104.937    0.413    0.213    4.781
  358.750  122.590    0.399    0.212    7.101
  359.000  122.007    0.397    0.210    7.658
  359.250  112.309    0.394    0.217    7.954
  359.500  116.587    0.401    0.233    7.808
  359.750  123.904    0.420    0.241    7.664
  360.000  106.919    0.408    0.245    7.524
  360.250  120.313    0.413    0.210    7.113
  360.500  125.193    0.427    0.217    6.852
  360.750  123.394    0.432    0.237    6.601
  361.000  100.327    0.390    0.237    6.480
  361.250   91.237    0.379    0.261    6.481
  361.500   88.216    0.396    0.265    7.258
  361.750   85.203    0.412    0.256    8.599
  362.000   86.449    0.405    0.259    9.813
  362.250  102.279    0.405    0.274    9.817
  362.500  104.735    0.410    0.267    9.635
  362.750   98.676    0.417    0.257    9.459
  363.000  104.778    0.419    0.261    9.285
  363.250  110.879    0.417    0.263    8.778
  363.500  113.942    0.416    0.266    8.456
  363.750  113.967    0.415    0.258    7.846
  364.000  115.820    0.403    0.252    7.558
  364.250  118.877    0.392    0.250    7.419
  364.500  127.416    0.397    0.243    7.147
  364.750  132.302    0.403    0.251    7.149
  365.000  121.388    0.402    0.247    7.152
  365.250  119.589    0.399    0.233    7.153
  365.500  112.322    0.400    0.264    7.155
  365.750  103.225    0.396    0.331    7.717
  366.000   70.435    0.388    0.330    8.641
  366.250   55.875    0.401    0.314   10.047
  366.500   59.546    0.402    0.320   11.905
  366.750   55.937    0.400    0.315   12.839
  367.000   55.341    0.404    0.311   13.588
  367.250   55.973    0.410    0.309   13.340
  367.500   57.213    0.428    0.307   13.094
  367.750   58.459    0.424    0.316   12.853
  368.000   57.876    0.417    0.333   12.617
  368.250   60.325    0.399    0.336   12.620
  368.500   59.742    0.391    0.327   12.625
  368.750   63.413    0.390    0.315   12.629
  369.000   59.792    0.406    0.309   12.632
  369.250   54.955    0.405    0.302   12.637
  369.500   52.548    0.381    0.298   12.880
  369.750   62.910    0.398    0.327   12.883
  370.000   65.371    0.413    0.335   12.886
  370.250   59.921    0.429    0.334   12.890
  370.500   57.514    0.429    0.313   12.893
  370.750   58.754    0.412    0.310   12.422
  371.000   58.171    0.398    0.316   12.193
  371.250   55.157    0.399    0.323   11.969
  371.500   57.011    0.408    0.322   11.748
  371.750   60.676    0.411    0.311   11.319
  372.000   66.777    0.395    0.294   11.110
  372.250   72.885    0.385    0.261    9.927
  372.500   68.656    0.409    0.261    9.385
  372.750   68.066    0.448    0.264    8.873
  373.000   65.660    0.416    0.262    8.710
  373.250   82.700    0.408    0.274    8.551
