~VERSION INFORMATION
 VERS.                 2.0:   CWLS LOG ASCII STANDARD -VERSION 2.0
 WRAP.                  NO:   ONE LINE PER DEPTH STEP
~WELL INFORMATION BLOCK
#MNEM.UNIT           DATA                    DESCRIPTION OF MNEMONIC
#---------    -------------------            -------------------------------
# Generated from Intellog Unique Number	CS_67_68/WELL/857
WELL.         AEC FISHCREEK                  : Well_name    - WELL
LOC .         00/15-05-068-08W4/0            : Location     - LOCATION
UWI .         00/15-05-068-08W4/0            : Uwi          - UNIQUE WELL ID
ENTR.         SP                             : Entered      - ENTERED BY
SRVC.         SCHLUMBERGER                   : Scn          - SERVICE COMPANY
STRT.M        355                            : top_depth    - START DEPTH
STOP.M        570                            : bot_depth    - STOP DEPTH
STEP.M        0.25                           : increment    - STEP LENGTH
 NULL. -999.2500:NULL Value
~CURVE INFORMATION BLOCK
#MNEM UNIT       ERCB CURVE CODE    CURVE DESCRIPTION
#-----------   ------------------   ----------------------------------
DEPT.M        00 001 00 00         : DEPTH        - DEPTH
ILD .OHMM     00 120 00 00         : RESD         - DEEP RESISTIVITY (DIL)
DPHI.V/V      00 890 00 00         : PHID         - DENSITY POROSITY (LIMESTONE)
NPHI.V/V      00 330 00 00         : PHIN         - NEUTRON POROSITY (LIMESTONE)
GR  .API      00 310 00 00         : GR           - GAMMA RAY
~PARAMETER INFORMATION
#MNEM.UNIT           DATA             DESCRIPTION OF MNEMONIC
#---------         -----------     ------------------------------
GL  .M        668.25               : gl           - GROUND LEVEL ELEVATION
EREF.M        671.52               : kb           - ELEVATION OF DEPTH REFERENCE
DATM.M        668.25               : datum        - DATUM ELEVATION
TDD .M        576                  : tdd          - TOTAL DEPTH DRILLER
RUN .         ONE                  : Run          - RUN NUMBER
ENG .         BILL                 : Engineer     - RECORDING ENGINEER
WIT .         JIM                  : Witness      - WITNESSED BY
MUD .         GEL                  : Mud_type     - MUD TYPE
MATR.         LIMESTONE            : Logunit      - NEUTRON MATRIX
TMAX.C        20                   : BHT          - MAXIMUM RECORDED TEMPERATURE
BHTD.M        576                  : BHTDEP       - MAXIMUM RECORDED TEMPERATURE
MATR.         1                    : LOGUNIT      - NEUTRON MATRIX
RMT .C        25                   : MDTP         - TEMPERATURE OF MUD
NEUT.         1                    : NEUTRON      - NEUTRON TYPE
RESI.         0                    : RESIST       - RESISTIVITY TYPE
RMC .OHMM     0.25                 : RMC          - RESISTIVITY OF MUD CAKE
RMF .OHMM     0.25                 : RMF          - RESISTIVITY OF MUD FILTRATE
SUFT.C        15                   : SUFT         - SURFACE TEMPERATURE
~A  DEPTH     RESD     PHID     PHIN       GR
# ...
  398.500    4.347    0.298    0.446   93.584
  398.750    4.275    0.310    0.433   87.605
  399.000    4.220    0.320    0.426   81.934
  399.250    4.166    0.331    0.440   75.832
  399.500    4.113    0.344    0.455   71.208
  399.750    4.060    0.360    0.440   70.709
  400.000    3.985    0.362    0.414   69.472
  400.250    3.949    0.353    0.405   66.941
  400.500    3.995    0.348    0.403   68.720
  400.750    4.262    0.349    0.371   73.086
  401.000    4.486    0.149    0.293   71.171
  401.250    4.813    0.100    0.260   68.702
  401.500    5.114    0.080    0.239   70.051
  401.750    4.992    0.125    0.290   63.209
  402.000    4.647    0.256    0.390   55.384
  402.250    4.303    0.310    0.415   65.845
  402.500    4.129    0.327    0.431   75.876
  402.750    3.910    0.337    0.441   79.996
  403.000    3.738    0.346    0.424   79.189
  403.250    3.634    0.349    0.418   79.307
  403.500    3.521    0.350    0.429   77.761
  403.750    3.495    0.352    0.426   73.506
  404.000    3.470    0.352    0.422   72.084
  404.250    3.478    0.350    0.435   75.772
  404.500    3.479    0.350    0.446   81.246
  404.750    3.467    0.353    0.442   84.196
  405.000    3.448    0.359    0.434   81.912
  405.250    3.417    0.365    0.436   74.701
  405.500    3.393    0.370    0.435   71.493
  405.750    3.368    0.362    0.417   72.411
  406.000    3.356    0.356    0.402   71.419
  406.250    3.339    0.353    0.392   67.904
  406.500    3.314    0.351    0.388   63.526
  406.750    3.284    0.349    0.391   60.133
  407.000    3.260    0.346    0.391   58.341
  407.250    3.243    0.344    0.388   56.671
  407.500    3.232    0.342    0.395   55.618
  407.750    3.233    0.340    0.420   60.108
  408.000    3.240    0.339    0.432   63.920
  408.250    3.284    0.339    0.403   64.345
  408.500    3.329    0.344    0.403   59.782
  408.750    3.406    0.337    0.394   57.929
  409.000    3.539    0.328    0.385   61.802
  409.250    3.649    0.322    0.379   61.796
  409.500    3.741    0.324    0.396   59.266
  409.750    3.813    0.325    0.372   56.858
  410.000    3.836    0.325    0.368   62.578
  410.250    3.845    0.335    0.393   68.052
  410.500    3.860    0.344    0.418   68.970
  410.750    3.862    0.348    0.418   66.501
  411.000    3.863    0.343    0.404   67.542
  411.250    3.864    0.335    0.387   69.629
  411.500    3.880    0.339    0.372   70.547
  411.750    3.889    0.341    0.379   70.294
  412.000    3.905    0.333    0.414   69.426
  412.250    3.936    0.328    0.451   70.282
  412.500    3.982    0.323    0.421   73.786
  412.750    4.006    0.317    0.413   76.858
  413.000    4.045    0.322    0.409   71.249
  413.250    4.062    0.323    0.410   67.611
  413.500    4.063    0.318    0.422   74.747
  413.750    4.079    0.313    0.418   77.573
  414.000    4.088    0.319    0.412   76.644
  414.250    4.090    0.331    0.405   69.926
  414.500    4.122    0.335    0.397   67.272
  414.750    4.171    0.326    0.390   70.651
  415.000    4.243    0.316    0.392   71.077
  415.250    4.342    0.306    0.393   68.670
  415.500    4.460    0.295    0.395   66.139
  415.750    4.581    0.287    0.406   77.771
  416.000    4.741    0.279    0.425   95.067
  416.250    4.851    0.275    0.438  105.591
  416.500    4.974    0.276    0.417  112.482
  416.750    5.080    0.278    0.393  116.232
  417.000    5.139    0.278    0.382  114.378
  417.250    5.131    0.274    0.379  105.320
  417.500    5.075    0.270    0.382  101.559
  417.750    4.972    0.268    0.384   98.350
  418.000    4.899    0.266    0.386  101.854
  418.250    4.855    0.265    0.392  100.124
  418.500    4.820    0.268    0.382   95.869
  418.750    4.812    0.275    0.377   89.767
  419.000    4.796    0.283    0.374   82.802
  419.250    4.770    0.289    0.383   86.122
  419.500    4.772    0.291    0.391   90.057
  419.750    4.755    0.293    0.396   80.568
  420.000    4.739    0.299    0.398   73.173
  420.250    4.731    0.305    0.392   71.504
  420.500    4.715    0.316    0.400   76.669
  420.750    4.707    0.307    0.403   76.294
  421.000    4.700    0.295    0.392   76.720
  421.250    4.684    0.291    0.385   86.319
  421.500    4.685    0.295    0.382   91.731
  421.750    4.678    0.298    0.391   93.881
  422.000    4.662    0.291    0.400   92.890
  422.250    4.655    0.288    0.408   87.526
  422.500    4.639    0.289    0.411   82.102
  422.750    4.631    0.293    0.414   84.620
  423.000    4.589    0.299    0.419   89.171
  423.250    4.556    0.306    0.412   85.470
  423.500    4.515    0.311    0.400   78.260
  423.750    4.491    0.302    0.399   78.747
  424.000    4.492    0.298    0.410   80.834
  424.250    4.502    0.297    0.405   79.842
  424.500    4.529    0.302    0.402   76.758
  424.750    4.556    0.309    0.406   75.028
  425.000    4.575    0.310    0.411   74.159
  425.250    4.559    0.308    0.407   75.262
  425.500    4.578    0.313    0.402   75.441
  425.750    4.588    0.307    0.406   77.405
  426.000    4.607    0.301    0.396   82.817
  426.250    4.644    0.302    0.388   87.183
  426.500    4.707    0.308    0.393   87.732
  426.750    4.771    0.310    0.384   81.875
  427.000    4.836    0.298    0.374   78.728
  427.250    4.912    0.288    0.385   78.292
  427.500    4.960    0.288    0.394   80.810
  427.750    5.018    0.298    0.395   82.220
  428.000    5.048    0.298    0.389   81.352
  428.250    5.088    0.293    0.390   79.376
  428.500    5.089    0.289    0.395   81.155
  428.750    5.053    0.286    0.392   82.873
  429.000    5.007    0.279    0.386   83.914
  429.250    4.943    0.270    0.381   82.246
  429.500    4.889    0.266    0.390   84.272
  429.750    4.844    0.262    0.396   88.452
  430.000    4.773    0.260    0.397   88.200
  430.250    4.676    0.287    0.387   82.837
  430.500    4.513    0.299    0.379   78.891
  430.750    4.290    0.299    0.382   77.529
  431.000    4.124    0.301    0.398   80.048
  431.250    3.840    0.294    0.417   92.172
  431.500    3.548    0.289    0.437  102.819
  431.750    3.353    0.294    0.458  108.847
  432.000    3.099    0.302    0.460  110.504
  432.250    2.874    0.308    0.474  110.436
  432.500    2.711    0.311    0.479  108.829
  432.750    2.524    0.323    0.481  108.823
  433.000    2.381    0.328    0.493  109.740
  433.250    2.272    0.313    0.516  110.227
  433.500    2.205    0.306    0.504  110.714
  433.750    2.177    0.302    0.491  109.045
  434.000    2.166    0.299    0.488  104.543
  434.250    2.183    0.308    0.484  102.568
  434.500    2.267    0.328    0.485  101.084
  434.750    2.423    0.353    0.490   96.643
  435.000    2.649    0.368    0.466   91.219
  435.250    2.940    0.323    0.437   86.472
  435.500    3.257    0.312    0.436   91.268
  435.750    3.547    0.324    0.442   93.233
  436.000    3.770    0.334    0.431   91.749
  436.250    3.946    0.346    0.426   88.787
  436.500    4.007    0.353    0.430   87.550
  436.750    3.911    0.341    0.432   83.726
  437.000    3.832    0.337    0.426   75.284
  437.250    3.928    0.338    0.420   67.519
  437.500    4.223    0.333    0.415   72.624
  437.750    4.395    0.331    0.421   79.453
  438.000    4.600    0.276    0.430   83.695
  438.250    4.752    0.226    0.355   82.396
  438.500    4.871    0.190    0.341   80.173
  438.750    4.901    0.183    0.356   79.614
  439.000    4.838    0.309    0.402   79.669
  439.250    4.767    0.323    0.439   81.448
  439.500    4.635    0.301    0.453   84.152
  439.750    4.490    0.287    0.455   90.303
  440.000    4.366    0.275    0.443   89.004
  440.250    4.278    0.285    0.422   87.397
  440.500    4.255    0.281    0.411   92.687
  440.750    4.248    0.275    0.415   96.190
  441.000    4.233    0.272    0.419   97.970
  441.250    4.243    0.278    0.411   98.026
  441.500    4.252    0.290    0.431   93.524
  441.750    4.262    0.296    0.456   88.839
