~VERSION INFORMATION
 VERS.                 2.0:   CWLS LOG ASCII STANDARD -VERSION 2.0
 WRAP.                  NO:   ONE LINE PER DEPTH STEP
~WELL INFORMATION BLOCK
#MNEM.UNIT           DATA                    DESCRIPTION OF MNEMONIC
#---------    -------------------            -------------------------------
# Generated from Intellog Unique Number	CC_80_83/WELL/2328
NULL.         -999.25                        : NULL_VALUE
WELL.         CHEVRON CAN OXY JOLI FOU       : Well_name    - WELL
LOC .         10-01-082-18W4                 : Location     - LOCATION          
UWI .         00/10-01-082-18W400            : Uwi          - UNIQUE WELL ID    
ENTR.         DW                             : Entered      - ENTERED BY        
SRVC.         SCHLUMBERGER                   : Scn          - SERVICE COMPANY   
DATE.         14 FEB 73                      : Date         - LOG DATE
STRT.M        131.064                        : top_depth    - START DEPTH       
STOP.M        338.328                        : bot_depth    - STOP DEPTH        
STEP.M        0.305                          : increment    - STEP LENGTH       
~CURVE INFORMATION BLOCK
#MNEM UNIT       ERCB CURVE CODE    CURVE DESCRIPTION
#-----------   ------------------   ----------------------------------
DEPT.M        00 001 00 00         : DEPTH        - DEPTH                       
DPHI.V/V      00 890 00 00         : PHID         - DENSITY POROSITY (LIMESTONE)
NPHI.V/V      00 330 00 00         : PHIN         - NEUTRON POROSITY (LIMESTONE)
GR  .API      00 310 00 00         : GR           - GAMMA RAY                   
ILD .OHMM     00 120 00 00         : RESD         - DEEP RESISTIVITY (DIL)      
~PARAMETER INFORMATION       
#MNEM.UNIT           DATA             DESCRIPTION OF MNEMONIC
#---------         -----------     ------------------------------
GL  .M        545.287              : gl           - GROUND LEVEL ELEVATION      
EREF.M        548.64               : kb           - ELEVATION OF DEPTH REFERENCE
DATM.M        548.64               : datum        - DATUM ELEVATION             
TDD .M        336.499              : tdd          - TOTAL DEPTH DRILLER         
RUN .         ONE                  : Run          - RUN NUMBER                  
ENG .         BILL                 : Engineer     - RECORDING ENGINEER          
WIT .         JIM                  : Witness      - WITNESSED BY                
MUD .         GEL                  : Mud_type     - MUD TYPE                    
MATR.         LIMESTONE            : Logunit      - NEUTRON MATRIX              
TMAX.C        17.7778              : BHT          - MAXIMUM RECORDED TEMPERATURE
BHTD.M        336.499              : BHTDEP       - MAXIMUM RECORDED TEMPERATURE
MATR.         1                    : LOGUNIT      - NEUTRON MATRIX              
RMT .C        25                   : MDTP         - TEMPERATURE OF MUD          
NEUT.         1                    : NEUTRON      - NEUTRON TYPE                
RESI.         0                    : RESIST       - RESISTIVITY TYPE            
RMC .OHMM     0.25                 : RMC          - RESISTIVITY OF MUD CAKE     
RMF .OHMM     0.25                 : RMF          - RESISTIVITY OF MUD FILTRATE 
SUFT.C        15                   : SUFT         - SURFACE TEMPERATURE         
~A  DEPTH     PHID     PHIN       GR     RESD
# ...
  290.168    0.207    0.464   76.531    8.027
  290.473    0.231    0.485   73.523    7.826
  290.778    0.213    0.488   71.117    7.625
  291.083    0.214    0.493   70.514    7.223
  291.388    0.236    0.510   72.915    6.821
  291.692    0.231    0.509   77.119    6.620
  291.997    0.197    0.492   77.116    6.619
  292.302    0.174    0.492   78.314    6.617
  292.607    0.179    0.485   80.716    6.216
  292.912    0.182    0.512   86.722    5.814
  293.216    0.225    0.522   93.330    5.613
  293.521    0.243    0.518   95.730    5.810
  293.826    0.209    0.517   95.727    6.009
  294.131    0.219    0.517   94.523    6.408
  294.436    0.200    0.494   92.718    6.806
  294.740    0.177    0.466   93.316    7.205
  295.045    0.156    0.435   93.313    8.404
  295.350    0.132    0.376   87.902   10.003
  295.655    0.087    0.360   77.081   13.002
  295.960    0.196    0.375   76.478   13.600
  296.265    0.226    0.413   82.484   13.599
  296.569    0.209    0.430   85.486   13.398
  296.874    0.205    0.439   86.084   13.596
  297.179    0.196    0.445   85.481   13.995
  297.484    0.191    0.458   86.078   14.393
  297.789    0.190    0.458   87.278   14.991
  298.093    0.191    0.465   88.477   14.990
  298.398    0.183    0.476   86.070   14.789
  298.703    0.181    0.471   84.865   14.787
  299.008    0.189    0.458   84.863   14.986
  299.313    0.185    0.447   87.263   15.785
  299.617    0.139    0.435   85.458   15.983
  299.922    0.127    0.411   82.450   14.582
  300.227    0.189    0.475   80.644   11.980
  300.532    0.190    0.457   80.642    9.378
  300.837    0.188    0.441   84.846    9.576
  301.141    0.207    0.436   87.247   11.575
  301.446    0.224    0.418   83.037   14.174
  301.751    0.218    0.392   65.607   19.174
  302.056    0.213    0.392   43.370   26.973
  302.361    0.282    0.454   37.357   26.372
  302.666    0.291    0.430   36.753   25.170
  302.970    0.277    0.421   40.356   24.569
  303.275    0.263    0.425   42.757   24.167
  303.580    0.277    0.417   43.956   23.365
  303.885    0.291    0.406   45.756   22.163
  304.190    0.287    0.398   48.157   19.562
  304.494    0.268    0.415   49.957   15.760
  304.799    0.259    0.430   52.358   13.158
  305.104    0.264    0.439   54.759   11.156
  305.409    0.264    0.433   57.160    9.554
  305.714    0.263    0.462   60.162    7.752
  306.018    0.247    0.485   61.962    7.351
  306.323    0.232    0.493   64.963    6.348
  306.628    0.245    0.509   67.365    5.747
  306.933    0.230    0.517   72.170    5.146
  307.238    0.207    0.504   76.975    4.744
  307.542    0.205    0.494   81.778    4.343
  307.847    0.198    0.488   84.781    3.941
  308.152    0.204    0.504   86.581    3.739
  308.457    0.215    0.504   89.583    3.537
  308.762    0.200    0.496   91.984    3.536
  309.067    0.186    0.509   93.784    3.535
  309.371    0.163    0.497   85.367    3.934
  309.676    0.148    0.475   83.562    4.332
  309.981    0.201    0.505   85.963    4.331
  310.286    0.240    0.576   93.773    4.129
  310.591    0.249    0.583  105.789    4.128
  310.895    0.228    0.580  111.796    4.127
  311.200    0.220    0.501  105.783    4.325
  311.505    0.207    0.461   98.569    5.323
  311.810    0.198    0.421   94.360    5.922
  312.115    0.181    0.399   87.746    6.921
  312.419    0.168    0.394   82.936    7.119
  312.724    0.160    0.398   85.937    7.118
  313.029    0.152    0.401   87.738    6.716
  313.334    0.157    0.397   90.739    6.315
  313.639    0.212    0.393   91.939    4.913
  313.943    0.203    0.407   90.133    3.311
  314.248    0.226    0.496   82.318    2.910
  314.553    0.258    0.576   77.507    3.308
  314.858    0.258    0.530   75.702    3.707
  315.163    0.237    0.495   75.699    4.706
  315.468    0.220    0.481   77.499    5.105
  315.772    0.204    0.526   81.702    5.102
  316.077    0.188    0.571   84.104    5.101
  316.382    0.194    0.587   85.302    5.100
  316.687    0.187    0.534   86.502    5.299
  316.992    0.199    0.505   89.504    6.497
  317.296    0.228    0.514  101.520    7.495
  317.601    0.226    0.527  103.321    8.294
  317.906    0.209    0.541  100.913    8.693
  318.211    0.204    0.550   98.507    8.491
  318.516    0.212    0.513   93.696    8.090
  318.820    0.186    0.428   91.290    8.489
  319.125    0.145    0.409   90.085    9.487
  319.430    0.140    0.398   93.086   10.886
  319.735    0.170    0.393   94.286   13.685
  320.040    0.211    0.395   90.077   18.084
  320.344    0.233    0.420   68.440   20.083
  320.649    0.251    0.388   60.625   19.081
  320.954    0.268    0.383   58.819   16.280
  321.259    0.238    0.430   62.422   12.677
  321.564    0.192    0.483   85.856   10.676
  321.869    0.157    0.503   94.867    8.674
  322.173    0.150    0.551   94.865    8.273
  322.478    0.240    0.584   92.458   10.471
  322.783    0.277    0.605   81.037   13.070
  323.088    0.314    0.612   61.804   16.870
  323.393    0.328    0.612   52.787   24.270
  323.697    0.308    0.427   46.174   48.472
  324.002    0.305    0.411   44.367   60.713
  324.307    0.315    0.405   43.765   94.704
  324.612    0.313    0.404   46.165  122.691
  324.917    0.307    0.410   44.359  126.679
  325.221    0.301    0.404   42.554  128.664
  325.526    0.300    0.394   42.551  124.649
  325.831    0.324    0.391   44.951  112.632
  326.136    0.320    0.399   45.550   94.613
  326.441    0.314    0.426   46.749   96.600
  326.745    0.311    0.444   46.145  108.588
  327.050    0.317    0.455   38.931  134.577
  327.355    0.335    0.441   34.721  146.565
  327.660    0.342    0.422   35.921  152.550
  327.965    0.341    0.415   39.524  152.536
  328.270    0.331    0.427   45.531  146.519
  328.574    0.313    0.439   58.148  128.501
  328.879    0.280    0.437   65.957   21.642
  329.184    0.256    0.485   54.537   20.041
  329.489    0.277    0.425    9.463   21.039
  329.794    0.271    0.404    3.450   22.038
  330.098    0.285    0.405    1.643   22.836
  330.403    0.280    0.403    0.439   23.035
  330.708    0.270    0.394    0.436   23.034
  331.013    0.268    0.393    0.434   22.632
  331.318    0.224    0.397    0.429   22.231
  331.622    0.214    0.414    0.428   21.028
  331.927    0.218    0.440    0.425   20.227
  332.232    0.220    0.439    0.421   19.025
  332.537    0.221    0.461    0.419   18.024
  332.842    0.222    0.480    0.416   16.622
  333.146    0.213    0.495    0.414   15.020
  333.451    0.193    0.497    0.410   13.619
  333.756    0.175    0.486    0.409   12.217
  334.061    0.155    0.465    0.405   11.215
  334.366    0.137    0.467    0.402   11.014
  334.671    0.126    0.472    0.399   10.412
  334.975    0.126    0.469    0.396    9.811
  335.280    0.132    0.469    0.394    9.409
  335.585    0.141    0.469    0.993    8.807
  335.890    0.145    0.471    1.591    8.406
  336.195    0.146    0.474    2.189    8.004
  336.499    0.143    0.485    2.787    7.603
  336.804    0.123    0.492    2.784    7.401
  337.109    0.121    0.488    2.180    7.400
  337.414    0.119    0.483    2.177    7.598
  337.719    0.119    0.498    2.175    7.797
  338.023    0.127    0.509    1.570    8.195
  338.328    0.125    0.506    1.568    8.594
