~VERSION INFORMATION
 VERS.                 2.0:   CWLS LOG ASCII STANDARD -VERSION 2.0
 WRAP.                  NO:   ONE LINE PER DEPTH STEP
~WELL INFORMATION BLOCK
#MNEM.UNIT           DATA                    DESCRIPTION OF MNEMONIC
#---------    -------------------            -------------------------------
# Generated from Intellog Unique Number	CS_67_68/WELL/2212
WELL.         GEOG et al HYLO                : Well_name    - WELL
LOC .         00/12-08-067-14W4/0            : Location     - LOCATION
UWI .         00/12-08-067-14W4/0            : Uwi          - UNIQUE WELL ID
ENTR.         SP                             : Entered      - ENTERED BY
SRVC.         SCHLUMBERGER                   : Scn          - SERVICE COMPANY
STRT.M        300                            : top_depth    - START DEPTH
STOP.M        485                            : bot_depth    - STOP DEPTH
STEP.M        0.25                           : increment    - STEP LENGTH
 NULL. -999.2500:NULL Value
~CURVE INFORMATION BLOCK
#MNEM UNIT       ERCB CURVE CODE    CURVE DESCRIPTION
#-----------   ------------------   ----------------------------------
DEPT.M        00 001 00 00         : DEPTH        - DEPTH
ILD .OHMM     00 120 00 00         : RESD         - DEEP RESISTIVITY (DIL)
DPHI.V/V      00 890 00 00         : PHID         - DENSITY POROSITY (LIMESTONE)
NPHI.V/V      00 330 00 00         : PHIN         - NEUTRON POROSITY (LIMESTONE)
GR  .API      00 310 00 00         : GR           - GAMMA RAY
CALI.MM       00 280 01 00         : CAL          - CALIPER
~PARAMETER INFORMATION
#MNEM.UNIT           DATA             DESCRIPTION OF MNEMONIC
#---------         -----------     ------------------------------
GL  .M        565.5                : gl           - GROUND LEVEL ELEVATION
EREF.M        568.7                : kb           - ELEVATION OF DEPTH REFERENCE
DATM.M        568.7                : datum        - DATUM ELEVATION
TDD .M        494.5                : tdd          - TOTAL DEPTH DRILLER
RUN .         ONE                  : Run          - RUN NUMBER
ENG .         BILL                 : Engineer     - RECORDING ENGINEER
WIT .         JIM                  : Witness      - WITNESSED BY
MUD .         GEL                  : Mud_type     - MUD TYPE
MATR.         LIMESTONE            : Logunit      - NEUTRON MATRIX
TMAX.C        24                   : BHT          - MAXIMUM RECORDED TEMPERATURE
BHTD.M        493.2                : BHTDEP       - MAXIMUM RECORDED TEMPERATURE
MATR.         1                    : LOGUNIT      - NEUTRON MATRIX
RMT .C        25                   : MDTP         - TEMPERATURE OF MUD
NEUT.         1                    : NEUTRON      - NEUTRON TYPE
RESI.         0                    : RESIST       - RESISTIVITY TYPE
RMC .OHMM     0.25                 : RMC          - RESISTIVITY OF MUD CAKE
RMF .OHMM     0.25                 : RMF          - RESISTIVITY OF MUD FILTRATE
SUFT.C        15                   : SUFT         - SURFACE TEMPERATURE
~A  DEPTH     RESD     PHID     PHIN       GR      CAL
  300.000    2.562    0.204    0.449   96.617  178.944
  300.250    2.399    0.217    0.476   97.026  176.267
  300.500    2.268    0.234    0.505  101.037  173.691
  300.750    2.410    0.221    0.476  106.089  171.522
  301.000    2.813    0.207    0.456  104.544  170.575
  301.250    2.845    0.209    0.470  101.350  170.954
  301.500    2.670    0.218    0.494   99.434  171.433
  301.750    2.510    0.217    0.486  101.068  170.378
  302.000    2.667    0.209    0.476  101.660  170.450
  302.250    2.713    0.218    0.463   98.952  170.722
  302.500    2.689    0.225    0.487   98.384  170.900
  302.750    2.695    0.217    0.503   99.284  172.294
  303.000    2.701    0.208    0.476   97.492  175.520
  303.250    2.706    0.195    0.472   96.376  176.199
  303.500    2.801    0.188    0.468  100.205  174.640
  303.750    3.101    0.186    0.441  100.368  173.290
  304.000    3.389    0.183    0.427   99.494  173.666
  304.250    3.435    0.171    0.475   92.331  176.079
  304.500    3.430    0.149    0.504   86.938  174.215
  304.750    3.431    0.114    0.520   83.499  171.945
  305.000    3.387    0.088    0.429   80.487  172.218
  305.250    3.208    0.169    0.407   88.836  174.731
  305.500    3.033    0.200    0.405   95.047  176.941
  305.750    2.868    0.205    0.431   99.488  178.332
  306.000    2.681    0.205    0.440  102.276  178.096
  306.250    2.539    0.198    0.426   98.960  177.662
  306.500    2.507    0.194    0.424   97.538  176.203
  306.750    2.604    0.215    0.454   98.251  175.056
  307.000    2.720    0.226    0.504  100.248  174.005
  307.250    2.772    0.215    0.518   98.460  173.162
  307.500    2.773    0.204    0.525   96.607  173.230
  307.750    2.723    0.207    0.507   95.856  174.420
  308.000    2.683    0.213    0.494   95.838  177.849
  308.250    2.658    0.206    0.483   94.232  180.365
  308.500    2.664    0.199    0.473   91.404  182.570
  308.750    2.640    0.201    0.470   88.208  183.866
  309.000    2.587    0.213    0.471   85.439  184.038
  309.250    2.521    0.227    0.461   83.712  181.564
  309.500    2.419    0.223    0.468   84.489  179.803
  309.750    2.326    0.208    0.473   90.085  180.485
  310.000    2.262    0.193    0.495   91.719  183.304
  310.250    2.192    0.231    0.513   91.212  185.713
  310.500    2.120    0.280    0.427   84.110  180.085
  310.750    2.050    0.313    0.390   75.785  172.828
  311.000    1.997    0.324    0.383   65.383  167.603
  311.250    1.920    0.318    0.388   55.714  164.108
  311.500    1.943    0.314    0.382   49.771  162.856
  311.750    2.052    0.316    0.391   46.517  162.418
  312.000    2.172    0.326    0.403   52.057  161.676
  312.250    2.243    0.321    0.412   57.838  160.933
  312.500    2.089    0.313    0.418   59.835  160.701
  312.750    1.935    0.305    0.390   58.596  160.365
  313.000    1.809    0.296    0.370   56.745  159.722
  313.250    1.743    0.305    0.369   50.681  159.386
  313.500    1.692    0.311    0.361   46.507  158.643
  313.750    1.661    0.319    0.350   47.161  158.206
  314.000    1.661    0.320    0.359   50.686  157.868
  314.250    1.751    0.306    0.365   51.828  157.425
  314.500    1.833    0.294    0.357   51.137  156.989
  314.750    1.936    0.285    0.347   56.187  156.550
  315.000    1.966    0.290    0.338   59.161  156.011
  315.250    1.902    0.273    0.330   53.091  155.880
  315.500    1.808    0.274    0.327   50.695  155.749
  315.750    1.716    0.301    0.325   50.981  155.412
  316.000    1.641    0.319    0.331   55.176  155.382
  316.250    1.601    0.315    0.360   57.420  155.655
  316.500    1.575    0.316    0.377   50.560  155.931
  316.750    1.567    0.320    0.376   43.761  156.201
  317.000    1.573    0.315    0.366   37.086  156.478
  317.250    1.592    0.308    0.356   32.305  156.346
  317.500    1.631    0.309    0.360   31.859  156.316
  317.750    1.701    0.315    0.361   40.328  156.283
  318.000    1.770    0.315    0.348   46.173  156.455
  318.250    1.835    0.310    0.341   52.931  156.528
  318.500    1.910    0.294    0.350   57.495  156.799
  318.750    1.984    0.261    0.353   61.997  157.177
  319.000    2.033    0.272    0.358   70.528  157.962
  319.250    2.144    0.288    0.374   69.835  159.048
  319.500    2.347    0.292    0.384   67.253  160.545
  319.750    2.570    0.269    0.379   71.694  162.142
  320.000    2.767    0.240    0.369   78.087  164.248
  320.250    3.029    0.221    0.346   84.483  166.864
  320.500    3.212    0.205    0.351   90.876  170.599
  320.750    3.324    0.195    0.393  101.729  174.128
  321.000    3.055    0.212    0.461  111.176  178.476
  321.250    2.654    0.228    0.514  116.348  181.603
  321.500    2.376    0.239    0.535  114.254  183.709
  321.750    2.163    0.236    0.515  105.869  178.690
  322.000    2.038    0.211    0.489   96.201  173.873
  322.250    2.286    0.206    0.465   88.670  169.569
  322.500    2.653    0.203    0.438   82.540  166.178
  322.750    2.988    0.193    0.414   79.042  162.888
  323.000    3.271    0.204    0.404   76.581  161.536
  323.250    3.561    0.238    0.390   72.716  160.077
  323.500    3.556    0.260    0.371   70.072  159.438
  323.750    3.337    0.257    0.361   77.563  158.997
  324.000    3.038    0.260    0.378   81.882  158.866
  324.250    2.751    0.267    0.384   76.122  158.734
  324.500    2.586    0.255    0.386   71.887  158.803
  324.750    2.501    0.219    0.403   70.223  158.875
  325.000    2.578    0.140    0.405   67.821  158.842
  325.250    2.775    0.071    0.360   63.528  158.913
  325.500    2.943    0.151    0.340   66.806  158.884
  325.750    3.109    0.233    0.377   72.467  159.260
  326.000    3.157    0.255    0.400   78.311  159.636
  326.250    3.146    0.247    0.422   80.614  160.622
  326.500    3.141    0.239    0.419   82.306  160.997
  326.750    3.143    0.234    0.401   85.097  161.273
  327.000    3.173    0.242    0.421   88.559  160.937
  327.250    3.265    0.245    0.434   91.290  160.907
  327.500    3.353    0.239    0.405   87.729  160.672
  327.750    3.399    0.229    0.406   85.877  160.837
  328.000    3.406    0.223    0.410   85.613  161.317
  328.250    3.407    0.206    0.422   88.160  161.901
  328.500    3.389    0.180    0.437   93.150  162.784
  328.750    3.390    0.163    0.426   98.201  164.588
  329.000    3.360    0.160    0.430  103.311  167.306
  329.250    3.267    0.155    0.434  109.951  170.124
  329.500    3.250    0.173    0.438  118.604  171.213
  329.750    3.288    0.189    0.443  123.717  169.452
  330.000    3.390    0.200    0.451  116.858  166.358
  330.250    3.481    0.210    0.430  107.984  164.808
  330.500    3.596    0.237    0.404  101.186  162.641
  330.750    3.777    0.234    0.389   93.899  160.878
  331.000    3.857    0.225    0.380   89.057  159.729
  331.250    3.801    0.233    0.370   84.091  158.576
  331.500    3.627    0.250    0.364   81.629  157.419
  331.750    3.417    0.262    0.379   85.641  156.990
  332.000    3.292    0.267    0.400   84.522  156.754
  332.250    3.207    0.262    0.382   83.282  157.334
  332.500    3.113    0.261    0.371   83.937  157.704
  332.750    3.033    0.268    0.373   82.147  157.977
  333.000    2.950    0.264    0.380   78.706  157.954
  333.250    2.874    0.254    0.384   80.827  158.225
  333.500    2.869    0.236    0.403   93.083  159.009
  333.750    2.876    0.253    0.413  109.187  159.794
  334.000    2.866    0.264    0.419  121.811  160.267
  334.250    2.835    0.273    0.439  139.688  160.037
  334.500    2.741    0.279    0.455  155.732  159.395
  334.750    2.606    0.285    0.428  133.849  158.443
  335.000    2.446    0.290    0.432  100.423  157.700
  335.250    2.330    0.295    0.438   86.722  157.365
  335.500    2.249    0.301    0.424   80.903  157.638
  335.750    2.271    0.285    0.412   74.776  157.915
  336.000    2.297    0.281    0.413   71.644  158.091
  336.250    2.328    0.295    0.417   77.489  158.669
