~VERSION INFORMATION
 VERS.                 2.0:   CWLS LOG ASCII STANDARD -VERSION 2.0
 WRAP.                  NO:   ONE LINE PER DEPTH STEP
~WELL INFORMATION BLOCK
#MNEM.UNIT           DATA                    DESCRIPTION OF MNEMONIC
#---------    -------------------            -------------------------------
# Generated from Intellog Unique Number	CS_73_76/WELL/842
WELL.         HOUSTON OILS LIMITED           : Well_name    - WELL
LOC .         00/10-36-073-16W4/0            : Location     - LOCATION
UWI .         00/10-36-073-16W4/0            : Uwi          - UNIQUE WELL ID
ENTR.         SP                             : Entered      - ENTERED BY
SRVC.         SCHLUMBERGER                   : Scn          - SERVICE COMPANY
STRT.M        265.176                        : top_depth    - START DEPTH
STOP.M        481.426                        : bot_depth    - STOP DEPTH
STEP.M        0.25                           : increment    - STEP LENGTH
 NULL. -999.2500:NULL Value
~CURVE INFORMATION BLOCK
#MNEM UNIT       ERCB CURVE CODE    CURVE DESCRIPTION
#-----------   ------------------   ----------------------------------
DEPT.M        00 001 00 00         : DEPTH        - DEPTH
GR  .API      00 310 00 00         : GR           - GAMMA RAY
DPHI.V/V      00 890 00 00         : PHID         - DENSITY POROSITY (SANDSTONE)
NPHI.V/V      00 330 00 00         : PHIN         - NEUTRON POROSITY (SANDSTONE)
ILD .OHMM     00 120 00 00         : RESD         - DEEP RESISTIVITY (DIL)
~PARAMETER INFORMATION
#MNEM.UNIT           DATA             DESCRIPTION OF MNEMONIC
#---------         -----------     ------------------------------
GL  .M        609.295              : gl           - GROUND LEVEL ELEVATION
EREF.M        612.038              : kb           - ELEVATION OF DEPTH REFERENCE
DATM.M        609.295              : datum        - DATUM ELEVATION
TDD .M        485.546              : tdd          - TOTAL DEPTH DRILLER
RUN .         ONE                  : Run          - RUN NUMBER
ENG .         BILL                 : Engineer     - RECORDING ENGINEER
WIT .         JIM                  : Witness      - WITNESSED BY
MUD .         GEL                  : Mud_type     - MUD TYPE
MATR.         SANDSTONE            : Logunit      - NEUTRON MATRIX
TMAX.C        25.5556              : BHT          - MAXIMUM RECORDED TEMPERATURE
BHTD.M        485.546              : BHTDEP       - MAXIMUM RECORDED TEMPERATURE
MATR.         1                    : LOGUNIT      - NEUTRON MATRIX
RMT .C        25                   : MDTP         - TEMPERATURE OF MUD
NEUT.         1                    : NEUTRON      - NEUTRON TYPE
RESI.         0                    : RESIST       - RESISTIVITY TYPE
RMC .OHMM     0.25                 : RMC          - RESISTIVITY OF MUD CAKE
RMF .OHMM     0.25                 : RMF          - RESISTIVITY OF MUD FILTRATE
SUFT.C        15                   : SUFT         - SURFACE TEMPERATURE
~A  DEPTH       GR     PHID     PHIN     RESD
# ...
  439.176   94.903    0.220    0.498    4.175
  439.426   89.400    0.201    0.474    4.710
  439.676   90.290    0.185    0.465    5.322
  439.926   92.419    0.169    0.449    5.607
  440.176   91.119    0.150    0.458    5.636
  440.426   93.652    0.134    0.435    5.445
  440.676   96.882    0.133    0.420    5.320
  440.926  100.607    0.206    0.449    5.312
  441.176   99.498    0.207    0.491    5.235
  441.426   94.850    0.191    0.503    5.126
  441.676   89.968    0.134    0.444    5.136
  441.926   96.963    0.125    0.423    5.137
  442.176  100.963    0.163    0.444    5.129
  442.426   98.645    0.203    0.480    5.234
  442.676   93.871    0.176    0.482    5.361
  442.926   89.957    0.173    0.497    5.582
  443.176   84.335    0.161    0.499    5.940
  443.426   89.411    0.148    0.480    6.250
  443.676   89.089    0.158    0.484    6.421
  443.926   89.174    0.148    0.456    6.322
  444.176   94.084    0.125    0.426    6.109
  444.426   94.914    0.171    0.462    7.169
  444.676   90.677    0.220    0.478    8.560
  444.926   81.391    0.234    0.489   10.749
  445.176   73.774    0.249    0.432   13.245
  445.426   69.180    0.280    0.384   16.152
  445.676   66.332    0.263    0.428   19.318
  445.926   66.282    0.247    0.446   21.168
  446.176   67.689    0.232    0.429   22.596
  446.426   66.056    0.254    0.450   22.246
  446.676   68.486    0.203    0.387   21.610
  446.926   70.432    0.175    0.340   20.790
  447.176   73.067    0.245    0.370   19.545
  447.426   74.484    0.264    0.395   18.655
  447.676   75.367    0.258    0.404   18.516
  447.926   74.634    0.276    0.410   17.952
  448.176   75.158    0.257    0.419   17.942
  448.426   75.262    0.253    0.430   18.410
  448.676   75.275    0.253    0.419   19.359
  448.926   75.204    0.255    0.396   19.952
  449.176   77.183    0.274    0.399   19.888
  449.426   84.035    0.291    0.387   18.689
  449.676   91.597    0.256    0.371   17.311
  449.926   98.498    0.226    0.376   15.143
  450.176  106.598    0.209    0.390   12.433
  450.426  112.839    0.205    0.381   10.223
  450.676  118.126    0.211    0.402    8.812
  450.926  122.556    0.187    0.428    7.915
  451.176  118.420    0.186    0.451    7.532
  451.426  115.366    0.205    0.444    8.057
  451.676  110.048    0.212    0.433    9.847
  451.926  100.107    0.246    0.439   13.210
  452.176   84.290    0.259    0.445   15.817
  452.426   71.111    0.219    0.428   17.923
  452.676   75.017    0.226    0.411   19.309
  452.926   80.834    0.263    0.401   18.198
  453.176   88.549    0.283    0.383   15.595
  453.426   93.890    0.241    0.400   13.961
  453.676   96.772    0.250    0.416   12.568
  453.926   98.758    0.251    0.405   11.908
  454.176   98.488    0.239    0.391   11.584
  454.426   94.104    0.221    0.370   11.427
  454.676   88.933    0.217    0.357   11.402
  454.926   93.388    0.213    0.343   11.166
  455.176   97.627    0.211    0.364   10.832
  455.426  100.557    0.205    0.370   10.460
  455.676  103.333    0.195    0.373   10.019
  455.926  105.391    0.178    0.376    9.842
  456.176  105.666    0.158    0.376    9.673
  456.426  105.177    0.126    0.377    9.829
  456.676  104.532    0.159    0.422   10.118
  456.926  103.842    0.203    0.447   10.423
  457.176  100.775    0.211    0.471   10.746
  457.426   96.759    0.217    0.421   11.142
  457.676   91.120    0.273    0.384   11.845
  457.926   89.028    0.239    0.358   12.351
  458.176   93.932    0.213    0.334   13.091
  458.426   87.150    0.193    0.359   13.205
  458.676   77.664    0.185    0.399   14.065
  458.926   69.787    0.238    0.418   14.606
  459.176   69.533    0.277    0.363   15.540
  459.426   72.121    0.260    0.346   16.363
  459.676   68.900    0.246    0.350   16.868
  459.926   64.748    0.237    0.349   16.794
  460.176   60.797    0.206    0.380   16.109
  460.426   67.722    0.182    0.404   14.674
  460.676   78.428    0.065    0.366   12.730
  460.926   90.479    0.092    0.424   11.970
  461.176   85.095    0.242    0.489   13.020
  461.426   80.647    0.275    0.547   14.407
  461.676   69.219    0.328    0.544   16.893
  461.926   60.301    0.349    0.409   21.640
  462.176   61.107    0.337    0.422   24.690
  462.426   67.363    0.322    0.432   29.171
  462.676   71.161    0.298    0.433   23.607
  462.926   76.880    0.286    0.397   19.702
  463.176   80.134    0.272    0.378   16.819
  463.426   80.528    0.264    0.378   15.447
  463.676   83.284    0.255    0.388   14.259
  463.926   92.447    0.270    0.393   13.178
  464.176  100.236    0.251    0.374   12.403
  464.426  105.061    0.213    0.359   11.950
  464.676   99.090    0.199    0.347   11.010
  464.926  101.629    0.170    0.334   10.506
  465.176   97.884    0.133    0.349    9.976
  465.426   91.964    0.038    0.351    9.705
  465.676   98.802    0.096    0.354    9.522
  465.926  102.168    0.128    0.366    9.326
  466.176  104.443    0.196    0.375    9.345
  466.426  104.406    0.174    0.393    9.350
  466.676  102.052    0.201    0.407    9.364
  466.926  100.772    0.231    0.391    9.533
  467.176  104.819    0.210    0.365    9.598
  467.426  108.272    0.192    0.374    9.705
  467.676  111.864    0.212    0.391    9.872
  467.926  112.719    0.224    0.410   10.076
  468.176  112.897    0.236    0.405   10.246
  468.426  113.645    0.228    0.373   10.396
  468.676  111.978    0.208    0.372   11.144
  468.926  108.690    0.202    0.369   11.392
  469.176   94.647    0.215    0.362   12.479
  469.426   78.989    0.239    0.366   13.464
  469.676   64.430    0.222    0.379   15.742
  469.926   61.684    0.185    0.369   17.594
  470.176   68.899    0.160    0.362   19.224
  470.426   75.879    0.193    0.358   20.246
  470.676   85.424    0.247    0.382   19.044
  470.926   94.239    0.269    0.396   16.509
  471.176  124.841    0.223    0.365   14.030
  471.426  126.644    0.199    0.360   12.014
  471.676  130.124    0.185    0.383   10.303
  471.926  133.960    0.188    0.404    9.135
  472.176  121.206    0.196    0.455    9.524
  472.426  110.472    0.195    0.452   10.313
  472.676   97.669    0.258    0.432   12.700
  472.926  107.503    0.259    0.393   13.597
  473.176  121.725    0.249    0.360   13.406
  473.426  131.569    0.241    0.350   12.395
  473.676  138.320    0.228    0.355   10.625
  473.926  144.784    0.214    0.371    9.626
  474.176  149.930    0.224    0.386    8.926
  474.426  150.652    0.208    0.384    8.557
  474.676  149.463    0.200    0.388    8.223
  474.926  144.211    0.192    0.407    8.244
  475.176  138.349    0.173    0.378    8.250
  475.426  139.878    0.175    0.355    8.338
  475.676  145.453    0.182    0.363    8.422
  475.926  151.504    0.185    0.377    8.663
  476.176  152.245    0.186    0.390    9.261
  476.426  150.444    0.192    0.369    9.216
  476.676  145.857    0.196    0.381    9.215
  476.926  143.298    0.191    0.412    9.231
  477.176  118.805    0.164    0.426    9.047
  477.426   96.457    0.122    0.407    8.934
  477.676   60.584    0.082    0.351    8.853
  477.926   37.709    0.054    0.309    8.574
  478.176   22.482    0.129    0.335    8.399
  478.426   19.789    0.179    0.354    8.398
  478.676   19.829    0.173    0.367    8.578
  478.926   19.820    0.163    0.383    8.848
  479.176   19.802    0.130    0.368   10.240
  479.426   20.319    0.062    0.344   12.994
  479.676   20.401    0.058    0.309   19.115
  479.926   20.416    0.070    0.249   25.731
  480.176   20.410    0.050    0.230   37.174
  480.426   20.365    0.025    0.224   46.547
  480.676   21.010    0.039    0.250   49.123
  480.926   21.012    0.059    0.256   49.262
  481.176   21.149    0.064    0.257   47.004
  481.426   21.617    0.061    0.262   45.746
