~VERSION INFORMATION
 VERS.                 2.0:   CWLS LOG ASCII STANDARD -VERSION 2.0
 WRAP.                  NO:   ONE LINE PER DEPTH STEP
~WELL INFORMATION BLOCK
#MNEM.UNIT           DATA                    DESCRIPTION OF MNEMONIC
#---------    -------------------            -------------------------------
# Generated from Intellog Unique Number	CW_79_81/WELL/694
WELL.         10-04-079-25W4                 : Well_name    - WELL
LOC .         00/10-04-079-25W4/0            : Location     - LOCATION
UWI .         00/10-04-079-25W4/0            : Uwi          - UNIQUE WELL ID
ENTR.         MAX                            : Entered      - ENTERED BY
SRVC.         SCHLUMBERGER                   : Scn          - SERVICE COMPANY
STRT.M        274.32                         : top_depth    - START DEPTH
STOP.M        502.82                         : bot_depth    - STOP DEPTH
STEP.M        0.25                           : increment    - STEP LENGTH
 NULL. -999.2500:NULL Value
~CURVE INFORMATION BLOCK
#MNEM UNIT       ERCB CURVE CODE    CURVE DESCRIPTION
#-----------   ------------------   ----------------------------------
DEPT.M        00 001 00 00         : DEPTH        - DEPTH
ILD .OHMM     00 120 00 00         : RESD         - DEEP RESISTIVITY (DIL)
NPHI.V/V      00 330 00 00         : PHIN         - NEUTRON POROSITY (SANDSTONE)
DPHI.V/V      00 890 00 00         : PHID         - DENSITY POROSITY (SANDSTONE)
CALI.MM       00 280 01 00         : CAL          - CALIPER
GR  .API      00 310 00 00         : GR           - GAMMA RAY
~PARAMETER INFORMATION
#MNEM.UNIT           DATA             DESCRIPTION OF MNEMONIC
#---------         -----------     ------------------------------
GL  .M        587.35               : gl           - GROUND LEVEL ELEVATION
EREF.M        590.855              : kb           - ELEVATION OF DEPTH REFERENCE
DATM.M        587.35               : datum        - DATUM ELEVATION
TDD .M        502.006              : tdd          - TOTAL DEPTH DRILLER
RUN .         ONE                  : Run          - RUN NUMBER
ENG .         BILL                 : Engineer     - RECORDING ENGINEER
WIT .         JIM                  : Witness      - WITNESSED BY
MUD .         GEL                  : Mud_type     - MUD TYPE
MATR.         SANDSTONE            : Logunit      - NEUTRON MATRIX
TMAX.C        21.6667              : BHT          - MAXIMUM RECORDED TEMPERATURE
BHTD.M        502.006              : BHTDEP       - MAXIMUM RECORDED TEMPERATURE
RMT .C        17.7778              : MDTP         - TEMPERATURE OF MUD
MUDD.KG/M     9800                 : MWT          - MUD DENSITY
NEUT.         1                    : NEUTRON      - NEUTRON TYPE
RESI.         0                    : RESIST       - RESISTIVITY TYPE
RM  .OHMM     4.66                 : RM           - RESISTIVITY OF MUD
RMC .OHMM     0                    : RMC          - RESISTIVITY OF MUD CAKE
RMF .OHMM     4.56                 : RMF          - RESISTIVITY OF MUD FILTRATE
SUFT.C        -20.5556             : SUFT         - SURFACE TEMPERATURE
~A  DEPTH     RESD     PHIN     PHID      CAL       GR
  274.320   21.624    0.466    0.237  244.051   83.662
  274.570   27.087    0.458    0.258  237.014   76.836
  274.820   29.270    0.436    0.262  230.479   70.010
  275.070   31.079    0.428    0.251  227.963   63.481
  275.320   32.991    0.445    0.254  226.954   52.798
  275.570   34.131    0.459    0.268  224.940   50.125
  275.820   35.000    0.459    0.279  223.429   52.200
  276.070   36.196    0.465    0.295  222.924   54.868
  276.320   37.442    0.469    0.295  222.918   56.348
  276.570   38.395    0.462    0.294  222.915   52.193
  276.820   39.372    0.452    0.291  222.911   49.520
  277.070   40.732    0.449    0.295  222.908   48.332
  277.320   42.869    0.448    0.298  222.903   48.922
  277.570   45.507    0.449    0.304  222.898   50.403
  277.820   47.497    0.454    0.304  222.896   53.071
  278.070   49.549    0.463    0.299  222.891   55.738
  278.320   50.804    0.468    0.304  222.887   57.516
  278.570   50.320    0.474    0.310  222.380   59.294
  278.820   48.544    0.459    0.308  222.377   58.995
  279.070   47.240    0.461    0.299  223.377   55.136
  279.320   46.351    0.453    0.309  223.876   56.617
  279.570   45.534    0.471    0.311  223.370   58.098
  279.820   43.179    0.485    0.306  222.863   57.502
  280.070   43.179    0.518    0.312  222.356   56.016
  280.320   41.609    0.518    0.318  221.851   56.014
  280.570   41.609    0.505    0.321  221.344   56.308
  280.820   38.051    0.495    0.308  221.842   56.603
  281.070   35.469    0.489    0.310  222.843   55.413
  281.320   33.046    0.476    0.301  224.849   54.521
  281.570   31.607    0.464    0.294  224.844   53.035
  281.820   31.031    0.467    0.294  224.839   51.252
  282.070   31.260    0.489    0.299  224.836   50.954
  282.320   32.336    0.495    0.302  225.335   51.842
  282.570   33.167    0.496    0.310  225.833   53.619
  282.820   34.903    0.498    0.317  225.829   52.134
  283.070   36.105    0.493    0.327  225.825   51.538
  283.320   37.028    0.468    0.316  225.820   53.612
  283.570   37.632    0.443    0.322  225.817   54.500
  283.820   37.924    0.443    0.326  225.813   52.717
  284.070   38.557    0.452    0.327  226.312   50.935
  284.320   38.505    0.449    0.316  226.307   50.636
  284.570   37.803    0.420    0.323  225.800   52.117
  284.820   37.803    0.401    0.313  225.797   51.224
  285.070   36.752    0.424    0.319  225.792   50.628
  285.320   34.249    0.441    0.316  225.788   52.109
  285.570   32.185    0.473    0.313  225.785   52.998
  285.820   31.060    0.477    0.311  225.781   52.402
  286.070   29.443    0.507    0.316  225.777   52.992
  286.320   28.907    0.511    0.309  225.773   52.694
  286.570   28.383    0.507    0.311  226.271   51.801
  286.820   27.862    0.490    0.300  225.765   51.205
  287.070   27.828    0.494    0.292  225.258   53.280
  287.320   27.808    0.511    0.300  224.752   54.167
  287.570   28.261    0.494    0.322  224.748   51.792
  287.820   28.729    0.487    0.322  224.241   49.712
  288.070   29.205    0.468    0.312  224.237   50.600
  288.320   29.432    0.464    0.327  223.731   50.004
  288.570   29.656    0.493    0.330  223.225   50.299
  288.820   29.623    0.497    0.329  223.220   50.297
  289.070   29.341    0.493    0.328  223.217   50.294
  289.320   28.057    0.496    0.330  224.720   50.291
  289.570   25.252    0.495    0.326  225.720   47.619
  289.820   19.088    0.467    0.316  226.219   45.837
  290.070   14.816    0.442    0.308  225.713   46.724
  290.320   12.652    0.395    0.279  225.707   49.689
  290.570   12.315    0.373    0.270  227.212   56.213
  290.820   12.845    0.399    0.248  233.235   66.595
  291.070   13.524    0.449    0.257  231.222   71.932
  291.320   13.869    0.463    0.280  230.214   64.216
  291.570   13.962    0.469    0.288  231.716   60.950
  291.820   14.202    0.459    0.290  229.704   61.838
  292.070   15.080    0.476    0.289  227.689   62.726
  292.320   16.583    0.493    0.279  228.690   67.767
  292.570   19.043    0.494    0.279  229.189   70.138
  292.820   21.483    0.497    0.276  228.682   70.432
  293.070   22.035    0.499    0.293  228.175   66.573
  293.320   22.200    0.471    0.309  227.669   60.341
  293.570   22.179    0.460    0.309  227.665   54.998
  293.820   22.154    0.454    0.303  227.661   53.216
  294.070   22.138    0.457    0.286  228.661   54.400
  294.320   22.113    0.462    0.299  229.663   54.991
  294.570   22.075    0.459    0.285  228.654   55.582
  294.820   22.067    0.451    0.291  230.157   55.579
  295.070   22.045    0.434    0.275  233.670   56.764
  295.320   22.214    0.438    0.270  235.676   58.542
  295.570   22.214    0.446    0.262  235.671   58.836
  295.820   22.353    0.448    0.263  234.663   56.757
  296.070   22.534    0.443    0.289  231.644   54.974
  296.320   22.512    0.434    0.303  229.631   54.675
  296.570   22.490    0.451    0.313  229.627   51.410
  296.820   22.270    0.458    0.323  230.627   49.034
  297.070   22.053    0.455    0.315  230.624   49.328
  297.320   21.840    0.433    0.303  230.619   51.699
  297.570   21.256    0.437    0.298  231.118   53.773
  297.820   20.331    0.439    0.274  231.616   52.881
  298.070   19.443    0.440    0.303  232.616   50.802
  298.320   17.958    0.467    0.320  232.613   51.689
  298.570   16.445    0.480    0.330  232.606   53.171
  298.820   15.059    0.489    0.323  233.108   55.542
  299.070   14.153    0.490    0.307  236.117   60.583
  299.320   13.896    0.497    0.284  238.625   65.327
  299.570   14.495    0.514    0.295  238.621   65.621
  299.820   15.261    0.506    0.283  235.602   62.949
  300.070   16.344    0.506    0.285  232.584   59.090
  300.320   17.203    0.498    0.302  231.576   57.604
  300.570   17.486    0.468    0.307  230.567   58.492
  300.820   17.168    0.470    0.304  230.563   63.236
  301.070   16.562    0.453    0.285  230.559   62.937
  301.320   15.842    0.450    0.264  232.063   62.638
  301.570   14.889    0.463    0.238  233.565   65.603
  301.820   13.995    0.480    0.237  233.561   71.533
  302.070   13.039    0.486    0.254  233.558   75.684
  302.320   12.255    0.492    0.259  234.056   76.572
  302.570   11.723    0.489    0.249  236.061   76.273
  302.820   11.710    0.478    0.237  238.569   76.271
  303.070   12.324    0.489    0.223  239.569   77.455
  303.320   13.201    0.510    0.254  238.059   76.859
  303.570   16.683    0.517    0.293  234.036   72.407
  303.820   18.342    0.492    0.343  231.520   66.471
  304.070   20.158    0.470    0.351  230.009   61.425
  304.320   20.857    0.461    0.345  230.009   64.983
  304.570   21.386    0.466    0.338  230.001   69.727
  304.820   21.182    0.471    0.332  229.493   70.318
  305.070   20.975    0.457    0.335  229.490   71.502
  305.320   20.414    0.449    0.337  229.988   74.170
  305.570   19.184    0.455    0.331  230.487   77.134
  305.820   18.351    0.467    0.297  230.483   78.022
  306.070   18.172    0.468    0.287  229.474   78.020
  306.320   18.172    0.467    0.296  229.470   77.424
  306.570   18.933    0.465    0.315  229.466   75.642
  306.820   20.113    0.457    0.319  228.960   72.376
  307.070   20.801    0.464    0.311  228.453   69.703
  307.320   21.330    0.455    0.302  228.449   68.811
  307.570   21.876    0.452    0.323  229.450   67.919
  307.820   22.233    0.458    0.320  230.450   62.577
  308.070   22.211    0.463    0.317  230.446   55.751
  308.320   21.809    0.432    0.329  230.443   48.628
  308.570   20.494    0.427    0.328  228.932   46.549
  308.820   18.933    0.435    0.329  227.921   44.470
  309.070   16.027    0.432    0.342  228.923   47.434
  309.320   14.423    0.433    0.361  231.934   53.069
  309.570   14.423    0.443    0.383  234.944   62.560
  309.820   13.418    0.480    0.425  272.115   65.821
  310.070   13.176    0.507    0.406  251.012   70.565
  310.320   13.632    0.508    0.366  234.429   70.266
  310.570   16.635    0.482    0.324  230.407   67.593
