~VERSION INFORMATION
 VERS.                 2.0:   CWLS LOG ASCII STANDARD -VERSION 2.0
 WRAP.                  NO:   ONE LINE PER DEPTH STEP
~WELL INFORMATION BLOCK
#MNEM.UNIT           DATA                    DESCRIPTION OF MNEMONIC
#---------    -------------------            -------------------------------
# Generated from Intellog Unique Number	CS_73_76/WELL/2210
WELL.         WAINOCO OIL & GAS LIMITED      : Well_name    - WELL
LOC .         00/14-18-074-12W4/0            : Location     - LOCATION
UWI .         00/14-18-074-12W4/0            : Uwi          - UNIQUE WELL ID
ENTR.         SP                             : Entered      - ENTERED BY
SRVC.         SCHLUMBERGER                   : Scn          - SERVICE COMPANY
STRT.M        310                            : top_depth    - START DEPTH
STOP.M        533                            : bot_depth    - STOP DEPTH
STEP.M        0.25                           : increment    - STEP LENGTH
 NULL. -999.2500:NULL Value
~CURVE INFORMATION BLOCK
#MNEM UNIT       ERCB CURVE CODE    CURVE DESCRIPTION
#-----------   ------------------   ----------------------------------
DEPT.M        00 001 00 00         : DEPTH        - DEPTH
ILD .OHMM     00 120 00 00         : RESD         - DEEP RESISTIVITY (DIL)
DPHI.V/V      00 890 00 00         : PHID         - DENSITY POROSITY (LIMESTONE)
NPHI.V/V      00 330 00 00         : PHIN         - NEUTRON POROSITY (LIMESTONE)
GR  .API      00 310 00 00         : GR           - GAMMA RAY
~PARAMETER INFORMATION
#MNEM.UNIT           DATA             DESCRIPTION OF MNEMONIC
#---------         -----------     ------------------------------
GL  .M        679.35               : gl           - GROUND LEVEL ELEVATION
EREF.M        682.6                : kb           - ELEVATION OF DEPTH REFERENCE
DATM.M        679.35               : datum        - DATUM ELEVATION
TDD .M        543                  : tdd          - TOTAL DEPTH DRILLER
RUN .         ONE                  : Run          - RUN NUMBER
ENG .         BILL                 : Engineer     - RECORDING ENGINEER
WIT .         JIM                  : Witness      - WITNESSED BY
MUD .         GEL                  : Mud_type     - MUD TYPE
MATR.         LIMESTONE            : Logunit      - NEUTRON MATRIX
TMAX.C        23                   : BHT          - MAXIMUM RECORDED TEMPERATURE
BHTD.M        543                  : BHTDEP       - MAXIMUM RECORDED TEMPERATURE
MATR.         1                    : LOGUNIT      - NEUTRON MATRIX
RMT .C        25                   : MDTP         - TEMPERATURE OF MUD
NEUT.         1                    : NEUTRON      - NEUTRON TYPE
RESI.         0                    : RESIST       - RESISTIVITY TYPE
RMC .OHMM     0.25                 : RMC          - RESISTIVITY OF MUD CAKE
RMF .OHMM     0.25                 : RMF          - RESISTIVITY OF MUD FILTRATE
SUFT.C        15                   : SUFT         - SURFACE TEMPERATURE
~A  DEPTH     RESD     PHID     PHIN       GR
  310.000    3.094    0.236    0.471  101.416
  310.250    3.154    0.218    0.482  103.231
  310.500    3.155    0.235    0.476  104.439
  310.750    3.155    0.242    0.477  106.863
  311.000    3.156    0.251    0.473  106.248
  311.250    3.157    0.258    0.465  103.204
  311.500    3.158    0.242    0.487  100.162
  311.750    3.219    0.229    0.493  103.192
  312.000    3.344    0.235    0.478  104.403
  312.250    3.408    0.235    0.482  104.397
  312.500    3.608    0.246    0.467  105.603
  312.750    3.747    0.236    0.459  106.813
  313.000    3.966    0.219    0.459  105.591
  313.250    4.198    0.209    0.458  100.120
  313.500    4.360    0.190    0.464   92.826
  313.750    4.614    0.172    0.419   89.177
  314.000    4.703    0.153    0.406   95.244
  314.250    4.617    0.164    0.421  100.704
  314.500    4.364    0.201    0.434  106.163
  314.750    4.050    0.225    0.447  101.298
  315.000    3.828    0.238    0.439  103.114
  315.250    3.551    0.224    0.434  107.356
  315.500    3.358    0.214    0.465  109.175
  315.750    3.235    0.215    0.477  110.384
  316.000    3.175    0.202    0.475  104.303
  316.250    3.298    0.192    0.475  101.262
  316.500    3.491    0.192    0.482   99.434
  316.750    3.558    0.196    0.438   97.604
  317.000    3.627    0.228    0.426   97.599
  317.250    3.767    0.256    0.427  105.487
  317.500    3.768    0.222    0.447  112.161
  317.750    3.841    0.213    0.458  112.155
  318.000    3.914    0.211    0.474  107.899
  318.250    3.843    0.230    0.470  101.819
  318.500    3.844    0.230    0.439  103.027
  318.750    3.703    0.239    0.449  103.630
  319.000    3.501    0.235    0.464   98.158
  319.250    3.437    0.243    0.447   94.509
  319.500    3.437    0.228    0.451   90.858
  319.750    3.708    0.228    0.467   85.387
  320.000    4.477    0.187    0.481   80.522
  320.250    5.014    0.121    0.395   76.873
  320.500    5.721    0.120    0.356   74.437
  320.750    6.528    0.438    0.347   68.358
  321.000    8.033    0.494    0.347   63.494
  321.250    9.699    0.532    0.428   64.702
  321.500   17.720    0.607    0.419   67.124
  321.750   23.954    0.625    0.389   62.868
  322.000   27.855    0.390    0.297   61.041
  322.250   31.194    0.400    0.263   64.068
  322.500   33.014    0.399    0.245   66.492
  322.750   30.063    0.403    0.268   68.309
  323.000   27.888    0.405    0.281   70.126
  323.250   25.391    0.399    0.284   71.940
  323.500   23.115    0.397    0.296   71.326
  323.750   19.155    0.382    0.302   71.322
  324.000   16.482    0.352    0.318   74.351
  324.250   12.433    0.334    0.332   77.379
  324.500   10.698    0.336    0.350   79.196
  324.750    9.559    0.339    0.368   80.407
  325.000    8.867    0.328    0.380   78.578
  325.250    8.542    0.323    0.387   77.965
  325.500    7.925    0.313    0.388   80.387
  325.750    7.634    0.302    0.380   82.811
  326.000    7.218    0.289    0.402   87.659
  326.250    6.954    0.276    0.412   90.084
  326.500    6.698    0.259    0.428   93.115
  326.750    6.575    0.232    0.439   96.752
  327.000    6.455    0.228    0.429   98.569
  327.250    6.336    0.235    0.435  102.813
  327.500    6.338    0.228    0.441  104.631
  327.750    6.221    0.208    0.434  105.838
  328.000    6.462    0.196    0.426  106.440
  328.250    6.840    0.240    0.415  100.360
  328.500    7.104    0.262    0.423   94.890
  328.750    7.662    0.285    0.431   85.165
  329.000    7.957    0.308    0.414   82.124
  329.250    8.422    0.331    0.386   79.689
  329.500    8.914    0.329    0.397   87.578
  329.750    9.259    0.316    0.413   94.858
  330.000    9.438    0.313    0.412   97.886
  330.250    9.620    0.310    0.419   98.491
  330.500    9.806    0.296    0.413   99.697
  330.750    9.809    0.288    0.392   99.085
  331.000    9.811    0.275    0.395   93.005
  331.250    9.814    0.258    0.398   85.103
  331.500    9.818    0.242    0.376   82.063
  331.750    9.458    0.237    0.361   76.592
  332.000    9.284    0.243    0.344   77.193
  332.250    8.776    0.253    0.368   79.615
  332.500    7.991    0.242    0.370   81.430
  332.750    7.554    0.225    0.362   85.068
  333.000    7.141    0.246    0.362   86.277
  333.250    6.751    0.264    0.371   82.017
  333.500    6.383    0.253    0.382   80.192
  333.750    6.148    0.258    0.391   79.579
  334.000    5.923    0.262    0.395   81.394
  334.250    5.814    0.267    0.403   83.210
  334.500    5.816    0.271    0.416   85.634
  334.750    5.929    0.272    0.426   88.664
  335.000    5.930    0.274    0.413   86.226
  335.250    6.160    0.278    0.422   85.008
  335.500    6.398    0.287    0.412   81.963
  335.750    6.399    0.292    0.406   78.922
  336.000    6.523    0.298    0.407   76.487
  336.250    6.284    0.304    0.406   78.909
  336.500    5.616    0.284    0.402   83.761
  336.750    5.308    0.262    0.408   86.793
  337.000    5.113    0.252    0.401   86.785
  337.250    4.568    0.255    0.397   89.210
  337.500    4.006    0.251    0.413  100.742
  337.750    3.787    0.215    0.438  112.880
  338.000    3.448    0.191    0.470  114.089
  338.250    3.321    0.180    0.471  108.010
  338.500    3.582    0.145    0.469  100.717
  338.750    3.791    0.148    0.465  103.748
  339.000    4.327    0.240    0.461  104.955
  339.250    4.845    0.276    0.459   96.445
  339.500    5.634    0.293    0.439   92.797
  339.750    6.933    0.294    0.416   86.110
  340.000    8.215    0.297    0.402   81.854
  340.250    9.199    0.308    0.384   78.204
  340.500    9.921    0.313    0.369   76.377
  340.750    9.558    0.309    0.369   75.155
  341.000    8.702    0.308    0.388   76.362
  341.250    7.923    0.297    0.400   76.965
  341.500    6.818    0.285    0.404   79.388
  341.750    6.092    0.272    0.417   85.456
  342.000    5.758    0.256    0.410   96.380
  342.250    5.342    0.240    0.416  104.876
  342.500    5.051    0.223    0.435  110.942
  342.750    5.246    0.194    0.452  113.366
  343.000    5.658    0.169    0.463  113.968
  343.250    6.102    0.156    0.459  118.211
  343.500    6.581    0.195    0.436  120.635
  343.750    7.233    0.222    0.421  117.593
  344.000    7.948    0.233    0.414  113.943
  344.250    8.736    0.228    0.415  110.293
  344.500    9.246    0.236    0.411  106.037
  344.750    9.603    0.243    0.409  104.208
  345.000    9.789    0.256    0.414  104.200
  345.250    9.792    0.264    0.422  103.588
  345.500    9.258    0.277    0.415   99.329
  345.750    9.088    0.292    0.409   96.896
  346.000    8.920    0.311    0.400   90.210
  346.250    7.970    0.325    0.393   83.523
  346.500    7.257    0.316    0.392  103.555
  346.750    6.990    0.293    0.405  107.803
  347.000    6.734    0.286    0.415  110.224
  347.250    6.487    0.274    0.426  110.220
  347.500    6.612    0.266    0.435  113.858
  347.750    6.999    0.273    0.426  118.707
  348.000    7.134    0.273    0.419  119.917
  348.250    7.550    0.271    0.407  115.661
  348.500    7.991    0.279    0.425  102.902
  348.750    8.458    0.295    0.420   85.891
  349.000    8.785    0.308    0.397   78.599
  349.250    8.787    0.273    0.401   81.020
  349.500    8.309    0.255    0.409   87.692
  349.750    8.005    0.248    0.414   91.332
  350.000    7.857    0.241    0.420   94.362
  350.250    7.568    0.217    0.412   94.357
  350.500    7.155    0.210    0.406   98.602
  350.750    6.764    0.211    0.407  102.239
  351.000    6.766    0.227    0.407  104.053
  351.250    6.897    0.265    0.410  104.049
  351.500    7.163    0.286    0.425  101.006
  351.750    7.581    0.313    0.439   98.572
  352.000    7.728    0.273    0.429   95.529
  352.250    7.877    0.254    0.420   93.094
  352.500    7.879    0.232    0.413   90.051
  352.750    7.590    0.200    0.411   91.866
  353.000    7.175    0.163    0.430   97.931
  353.250    6.411    0.176    0.440  100.356
