~VERSION INFORMATION
 VERS.                 2.0:   CWLS LOG ASCII STANDARD -VERSION 2.0
 WRAP.                  NO:   ONE LINE PER DEPTH STEP
~WELL INFORMATION BLOCK
#MNEM.UNIT           DATA                    DESCRIPTION OF MNEMONIC
#---------    -------------------            -------------------------------
# Generated from Intellog Unique Number	CC_80_83/WELL/2383
NULL.         -999.25                        : NULL_VALUE
WELL.         SIEBENS PONY                   : Well_name    - WELL
LOC .         10-29-080-09W4                 : Location     - LOCATION          
UWI .         00/10-29-080-09W400            : Uwi          - UNIQUE WELL ID    
ENTR.         DW                             : Entered      - ENTERED BY        
SRVC.         SCHLUMBERGER                   : Scn          - SERVICE COMPANY   
DATE.         02 FEB 75                      : Date         - LOG DATE
STRT.M        265.176                        : top_depth    - START DEPTH       
STOP.M        484.639                        : bot_depth    - STOP DEPTH        
STEP.M        0.305                          : increment    - STEP LENGTH       
~CURVE INFORMATION BLOCK
#MNEM UNIT       ERCB CURVE CODE    CURVE DESCRIPTION
#-----------   ------------------   ----------------------------------
DEPT.M        00 001 00 00         : DEPTH        - DEPTH                       
DPHI.V/V      00 890 00 00         : PHID         - DENSITY POROSITY (LIMESTONE)
NPHI.V/V      00 330 00 00         : PHIN         - NEUTRON POROSITY (LIMESTONE)
GR  .API      00 310 00 00         : GR           - GAMMA RAY                   
ILD .OHMM     00 120 00 00         : RESD         - DEEP RESISTIVITY (DIL)      
~PARAMETER INFORMATION       
#MNEM.UNIT           DATA             DESCRIPTION OF MNEMONIC
#---------         -----------     ------------------------------
GL  .M        698.906              : gl           - GROUND LEVEL ELEVATION      
EREF.M        702.564              : kb           - ELEVATION OF DEPTH REFERENCE
DATM.M        702.564              : datum        - DATUM ELEVATION             
TDD .M        496.824              : tdd          - TOTAL DEPTH DRILLER         
RUN .         ONE                  : Run          - RUN NUMBER                  
ENG .         BILL                 : Engineer     - RECORDING ENGINEER          
WIT .         JIM                  : Witness      - WITNESSED BY                
MUD .         GEL                  : Mud_type     - MUD TYPE                    
MATR.         LIMESTONE            : Logunit      - NEUTRON MATRIX              
TMAX.C        23.3333              : BHT          - MAXIMUM RECORDED TEMPERATURE
BHTD.M        496.824              : BHTDEP       - MAXIMUM RECORDED TEMPERATURE
MATR.         1                    : LOGUNIT      - NEUTRON MATRIX              
RMT .C        25                   : MDTP         - TEMPERATURE OF MUD          
NEUT.         1                    : NEUTRON      - NEUTRON TYPE                
RESI.         0                    : RESIST       - RESISTIVITY TYPE            
RMC .OHMM     0.25                 : RMC          - RESISTIVITY OF MUD CAKE     
RMF .OHMM     0.25                 : RMF          - RESISTIVITY OF MUD FILTRATE 
SUFT.C        15                   : SUFT         - SURFACE TEMPERATURE         
~A  DEPTH     PHID     PHIN       GR     RESD
# ...
  371.250    0.214    0.564  104.410    5.004
  371.555    0.214    0.532  105.005    5.286
  371.859    0.219    0.493  104.999    5.795
  372.164    0.220    0.482   97.145    6.353
  372.469    0.234    0.465   91.101    6.711
  372.774    0.246    0.476   93.507    6.706
  373.079    0.239    0.484   95.312    6.701
  373.383    0.219    0.485   95.907    6.698
  373.688    0.218    0.513   98.311    6.818
  373.993    0.227    0.536   98.911    6.940
  374.298    0.243    0.514   95.283    7.066
  374.603    0.259    0.509   87.426    7.061
  374.907    0.246    0.505   89.834    7.059
  375.212    0.241    0.480   94.052    6.923
  375.517    0.227    0.461   94.648    6.793
  375.822    0.233    0.456   92.829    6.541
  376.127    0.219    0.479   89.805    6.184
  376.431    0.215    0.497   86.174    5.847
  376.736    0.258    0.486   86.168    5.425
  377.041    0.235    0.484   89.782    5.323
  377.346    0.233    0.485   90.983    5.519
  377.651    0.223    0.479   87.955    5.725
  377.956    0.224    0.490   87.948    6.393
  378.260    0.240    0.494   90.958    6.880
  378.565    0.224    0.485   92.160    7.267
  378.870    0.229    0.478   92.756    7.538
  379.175    0.239    0.478   92.146    7.531
  379.480    0.241    0.473   91.533    7.390
  379.784    0.240    0.466   92.733    6.984
  380.089    0.235    0.476   95.140    6.852
  380.394    0.238    0.497   93.322    6.849
  380.699    0.232    0.486   93.316    6.845
  381.004    0.233    0.479   96.927    7.097
  381.308    0.240    0.461   97.526    7.093
  381.613    0.245    0.484   93.896    6.960
  381.918    0.267    0.489   95.096    6.580
  382.223    0.279    0.487  101.123    5.884
  382.528    0.258    0.499  104.738    5.166
  382.832    0.232    0.525  105.940    4.452
  383.137    0.277    0.570  108.345    4.286
  383.442    0.254    0.582  110.149    4.364
  383.747    0.225    0.586  110.746    4.444
  384.052    0.232    0.575  105.909    4.783
  384.357    0.236    0.549  106.506    4.692
  384.661    0.240    0.536  108.311    4.354
  384.966    0.251    0.541  111.321    4.115
  385.271    0.260    0.531  114.332    4.114
  385.576    0.262    0.551  116.135    4.509
  385.881    0.254    0.546   98.622    7.027
  386.185    0.210    0.541   75.677    9.099
  386.490    0.169    0.542   70.840   10.940
  386.795    0.076    0.301   78.076   11.137
  387.100    0.138    0.326   92.556   10.530
  387.405    0.180    0.475  105.225    9.076
  387.709    0.225    0.506  102.802    7.129
  388.014    0.218    0.494  104.003    6.617
  388.319    0.221    0.506  105.807    6.373
  388.624    0.223    0.508  107.006    6.023
  388.929    0.221    0.500  108.206    6.021
  389.233    0.223    0.491  109.406    6.130
  389.538    0.232    0.515  110.605    6.240
  389.843    0.244    0.520  106.977    6.010
  390.148    0.250    0.531  102.744    5.085
  390.453    0.243    0.543  105.150    3.921
  390.758    0.259    0.567  110.576    3.380
  391.062    0.271    0.584  117.208    2.859
  391.367    0.266    0.591  115.993    2.557
  391.672    0.275    0.585  112.364    2.463
  391.977    0.281    0.584  107.527    2.507
  392.282    0.281    0.554  104.502    2.698
  392.586    0.254    0.511  101.476    3.559
  392.891    0.252    0.484  101.469    4.360
  393.196    0.243    0.510  100.254    5.146
  393.501    0.246    0.519   95.419    5.538
  393.806    0.237    0.517   99.032    6.072
  394.110    0.259    0.516   98.422    6.534
  394.415    0.281    0.510   99.017    6.652
  394.720    0.294    0.479  102.631    6.770
  395.025    0.322    0.460  105.643    7.020
  395.330    0.276    0.475  108.051    7.283
  395.634    0.240    0.481  111.060    8.284
  395.939    0.227    0.462  112.261    9.251
  396.244    0.217    0.439  103.802   10.141
  396.549    0.182    0.417   99.570   10.325
  396.854    0.147    0.409  103.787    9.407
  397.159    0.222    0.431  103.779    8.107
  397.463    0.245    0.477  103.772    7.386
  397.768    0.246    0.498  105.575    6.854
  398.073    0.230    0.494  107.981    6.360
  398.378    0.222    0.486  108.578    6.240
  398.683    0.227    0.494  106.762    6.472
  398.987    0.233    0.503   99.510    7.928
  399.292    0.238    0.505   96.485    9.712
  399.597    0.223    0.491   92.252   10.843
  399.902    0.197    0.429   84.397   10.636
  400.207    0.162    0.385   86.201   10.438
  400.511    0.254    0.418   95.248    8.995
  400.816    0.267    0.462   93.428    8.194
  401.121    0.266    0.459   92.215    7.746
  401.426    0.269    0.453   90.397    7.742
  401.731    0.278    0.454   90.388    7.881
  402.035    0.281    0.465   94.606    7.732
  402.340    0.277    0.484  100.032    7.447
  402.645    0.255    0.449  101.836    6.910
  402.950    0.222    0.476  105.451    6.907
  403.255    0.260    0.492  107.858    7.432
  403.560    0.242    0.493  104.228    7.709
  403.864    0.232    0.486  101.203    8.293
  404.169    0.239    0.455   98.177    8.445
  404.474    0.253    0.445   95.755    7.835
  404.779    0.259    0.445   95.747    7.689
  405.084    0.256    0.470   96.947    7.269
  405.388    0.256    0.487   95.129    7.130
  405.693    0.259    0.503   85.464    7.127
  405.998    0.262    0.490   78.212    7.528
  406.303    0.262    0.488   75.187    7.384
  406.608    0.267    0.487   81.216    7.802
  406.912    0.270    0.492   89.658    7.942
  407.217    0.264    0.487   88.444    7.793
  407.522    0.265    0.476   87.227    7.366
  407.827    0.282    0.474   89.033    7.361
  408.132    0.276    0.477   90.234    7.223
  408.436    0.282    0.479   87.811    7.086
  408.741    0.290    0.477   90.821    6.823
  409.046    0.289    0.479   93.833    6.450
  409.351    0.265    0.493   99.862    5.358
  409.656    0.264    0.523  101.666    4.449
  409.961    0.278    0.527   93.810    4.447
  410.265    0.293    0.503   85.954    4.612
  410.570    0.292    0.502   81.722    5.649
  410.875    0.287    0.510   77.488    6.669
  411.180    0.284    0.508   76.878    7.586
  411.485    0.247    0.490   75.664    8.956
  411.789    0.095    0.450   69.017   13.954
  412.094    0.015    0.365   58.143   15.297
  412.399    0.018    0.260   63.570   13.184
  412.704    0.049    0.329   82.877    9.270
  413.009    0.100    0.391   87.698    7.557
  413.313    0.172    0.444   88.297    6.757
  413.618    0.195    0.438   91.308    6.507
  413.923    0.196    0.438   94.317    6.504
  414.228    0.199    0.450   90.686    6.622
  414.533    0.189    0.481   89.472    6.740
  414.837    0.183    0.493   91.880    6.864
  415.142    0.180    0.491   96.099    6.733
  415.447    0.198    0.485  105.145    6.727
  415.752    0.212    0.479  107.552    6.600
  416.057    0.220    0.471  107.544    6.844
  416.362    0.205    0.463  106.330    7.100
  416.666    0.211    0.474  105.720    7.500
  416.971    0.226    0.465  108.128    7.494
  417.276    0.205    0.451  111.138    7.352
  417.581    0.200    0.442  106.905    6.950
  417.886    0.205    0.431  103.276    6.572
  418.190    0.208    0.450  104.475    5.068
  418.495    0.205    0.472  100.243    4.450
  418.800    0.217    0.492   97.218    3.561
  419.105    0.226    0.501   99.021    2.696
  419.410    0.237    0.519   92.373    2.324
  419.714    0.270    0.576   89.347    2.078
  420.019    0.295    0.588   92.357    2.077
  420.324    0.296    0.592   88.124    2.235
  420.629    0.290    0.592   86.912    2.542
  420.934    0.266    0.587   89.317    2.787
  421.238    0.242    0.549   89.914    3.352
  421.543    0.240    0.493   94.735    4.261
  421.848    0.227    0.485   95.936    5.620
  422.153    0.219    0.473   91.097    6.635
  422.458    0.202    0.463   89.883    7.689
  422.763    0.193    0.440   86.859    8.747
  423.067    0.184    0.418   82.626    8.423
  423.372    0.080    0.370   86.845    6.742
  423.677    0.168    0.466   97.701    5.396
  423.982    0.213    0.483  100.714    4.737
