~VERSION INFORMATION
 VERS.                 2.0:   CWLS LOG ASCII STANDARD -VERSION 2.0
 WRAP.                  NO:   ONE LINE PER DEPTH STEP
~WELL INFORMATION BLOCK
#MNEM.UNIT           DATA                    DESCRIPTION OF MNEMONIC
#---------    -------------------            -------------------------------
# Generated from Intellog Unique Number	CW_73_75/WELL/2979
WELL.         ANR ET AL FRANCIS 15-09        : Well_name    - WELL
LOC .         00/15-09-073-21W4/0            : Location     - LOCATION
UWI .         00/15-09-073-21W4/0            : Uwi          - UNIQUE WELL ID
ENTR.         JAYE                           : Entered      - ENTERED BY
SRVC.         WESTERN ATLAS                  : Scn          - SERVICE COMPANY
DATE.         30 JAN 81                      : Date         - LOG DATE
STRT.M        360                            : top_depth    - START DEPTH
STOP.M        560                            : bot_depth    - STOP DEPTH
STEP.M        0.25                           : increment    - STEP LENGTH
 NULL. -999.2500:NULL Value
~CURVE INFORMATION BLOCK
#MNEM UNIT       ERCB CURVE CODE    CURVE DESCRIPTION
#-----------   ------------------   ----------------------------------
DEPT.M        00 001 00 00         : DEPTH        - DEPTH
NPHI.V/V      00 330 00 00         : PHIN         - NEUTRON POROSITY (SANDSTONE)
ILD .OHMM     00 120 00 00         : RESD         - DEEP RESISTIVITY (DIL)
CALI.MM       00 280 01 00         : CAL          - CALIPER
GR  .API      00 310 00 00         : GR           - GAMMA RAY
DPHI.V/V      00 890 00 00         : PHID         - DENSITY POROSITY (SANDSTONE)
~PARAMETER INFORMATION
#MNEM.UNIT           DATA             DESCRIPTION OF MNEMONIC
#---------         -----------     ------------------------------
GL  .M        657.4                : gl           - GROUND LEVEL ELEVATION
EREF.M        660.4                : kb           - ELEVATION OF DEPTH REFERENCE
DATM.M        657.4                : datum        - DATUM ELEVATION
TDD .M        560                  : tdd          - TOTAL DEPTH DRILLER
RUN .         ONE                  : Run          - RUN NUMBER
ENG .         VINCENT              : Engineer     - RECORDING ENGINEER
WIT .         FARMER               : Witness      - WITNESSED BY
BASE.         EDM                  : Branch       - HOME BASE OF LOGGING UNIT
MUD .         GEL CHEM             : Mud_type     - MUD TYPE
MATR.         SANDSTONE            : Logunit      - NEUTRON MATRIX
TMAX.C        19                   : BHT          - MAXIMUM RECORDED TEMPERATURE
BHTD.M        559.1                : BHTDEP       - MAXIMUM RECORDED TEMPERATURE
RMT .C        18                   : MDTP         - TEMPERATURE OF MUD
MUDD.KG/M     1000                 : MWT          - MUD DENSITY
NEUT.         1                    : NEUTRON      - NEUTRON TYPE
RESI.         0                    : RESIST       - RESISTIVITY TYPE
RM  .OHMM     4.25                 : RM           - RESISTIVITY OF MUD
RMC .OHMM     4.9                  : RMC          - RESISTIVITY OF MUD CAKE
RMF .OHMM     4                    : RMF          - RESISTIVITY OF MUD FILTRATE
SUFT.C        0                    : SUFT         - SURFACE TEMPERATURE
~A  DEPTH     PHIN     RESD      CAL       GR     PHID
  360.000    0.375    2.507  159.548  117.140    0.253
  360.250    0.385    2.475  161.344  115.854    0.249
  360.500    0.390    2.447  162.628  116.684    0.241
  360.750    0.392    2.453  162.555  118.698    0.232
  361.000    0.389    2.464  162.696  122.142    0.225
  361.250    0.382    2.483  162.114  122.474    0.218
  361.500    0.379    2.519  162.042  121.872    0.209
  361.750    0.383    2.560  161.561  121.457    0.200
  362.000    0.382    2.580  161.385  115.689    0.207
  362.250    0.382    2.595  161.942  112.908    0.220
  362.500    0.394    2.580  162.279  117.162    0.226
  362.750    0.389    2.573  162.837  118.802    0.230
  363.000    0.381    2.544  162.557  116.270    0.237
  363.250    0.378    2.502  162.906  115.046    0.241
  363.500    0.367    2.445  162.629  115.815    0.237
  363.750    0.377    2.456  160.072  119.632    0.227
  364.000    0.387    2.504  159.273  124.258    0.224
  364.250    0.386    2.580  159.101  116.624    0.220
  364.500    0.380    2.654  159.242  112.662    0.218
  364.750    0.386    2.725  159.585  116.230    0.224
  365.000    0.391    2.756  160.139  121.541    0.212
  365.250    0.374    2.801  160.381  122.061    0.205
  365.500    0.370    2.827  160.318  118.721    0.213
  365.750    0.364    2.844  160.036  115.442    0.218
  366.000    0.366    2.856  160.383  112.911    0.217
  366.250    0.367    2.913  160.622  110.754    0.206
  366.500    0.361    3.074  161.693  108.906    0.197
  366.750    0.348    3.307  162.663  112.786    0.186
  367.000    0.349    3.478  163.426  112.184    0.160
  367.250    0.333    3.541  163.665  107.289    0.122
  367.500    0.356    3.574  162.976  101.770    0.140
  367.750    0.361    3.633  161.142   96.625    0.229
  368.000    0.362    3.704  159.723  107.102    0.229
  368.250    0.360    3.804  159.347  121.377    0.219
  368.500    0.349    3.899  158.967  128.866    0.216
  368.750    0.344    4.046  158.693  130.755    0.231
  369.000    0.339    4.226  157.791  119.759    0.244
  369.250    0.334    4.362  157.621  117.103    0.260
  369.500    0.323    4.479  157.134  112.082    0.277
  369.750    0.331    4.592  155.614  101.335    0.272
  370.000    0.323    4.780  154.300   96.002    0.248
  370.250    0.329    5.071  154.436   93.786    0.242
  370.500    0.347    5.407  155.921   94.488    0.247
  370.750    0.355    5.468  156.683  100.298    0.217
  371.000    0.348    5.171  157.133  105.983    0.162
  371.250    0.343    5.018  157.794  106.253    0.102
  371.500    0.339    4.912  158.141  109.138    0.178
  371.750    0.331    4.949  158.798  115.943    0.220
  372.000    0.325    5.064  158.629  123.307    0.231
  372.250    0.333    5.174  158.244  118.722    0.238
  372.500    0.332    5.240  158.067  112.395    0.240
  372.750    0.318    5.173  157.485  107.623    0.250
  373.000    0.316    5.054  157.311  102.229    0.260
  373.250    0.323    4.871  157.348   97.767    0.270
  373.500    0.337    4.647  157.480   93.182    0.260
  373.750    0.346    4.524  157.935   99.988    0.235
  374.000    0.339    4.458  158.175  110.839    0.254
  374.250    0.338    4.485  158.628  117.893    0.262
  374.500    0.328    4.590  159.077  119.594    0.261
  374.750    0.326    4.746  159.521  114.014    0.241
  375.000    0.315    4.865  159.562  105.943    0.228
  375.250    0.315    5.047  159.384  100.113    0.231
  375.500    0.315    5.191  158.693  104.179    0.243
  375.750    0.317    5.489  158.525  106.131    0.238
  376.000    0.323    5.913  158.557  106.961    0.239
  376.250    0.328    6.615  158.592  112.956    0.232
  376.500    0.333    7.779  158.623  116.898    0.229
  376.750    0.334    9.146  158.664  109.387    0.254
  377.000    0.329   12.209  158.798  103.247    0.276
  377.250    0.318   20.577  158.937   94.740    0.290
  377.500    0.323   32.494  158.871   72.665    0.300
  377.750    0.328   39.271  158.801   58.059    0.310
  378.000    0.329   44.313  158.417   53.100    0.321
  378.250    0.323   43.667  158.036   54.428    0.277
  378.500    0.326   40.046  157.449   54.947    0.261
  378.750    0.324   34.581  156.656   49.927    0.294
  379.000    0.323   28.612  156.377   45.219    0.320
  379.250    0.324   25.394  156.210   47.105    0.327
  379.500    0.316   22.852  156.240   46.318    0.322
  379.750    0.305   20.777  156.485   43.599    0.300
  380.000    0.312   18.505  157.556   49.098    0.310
  380.250    0.311   15.574  158.524   59.576    0.316
  380.500    0.308   13.019  159.181   57.729    0.341
  380.750    0.318   10.920  159.837   53.518    0.331
  381.000    0.324    9.895  160.498   58.952    0.270
  381.250    0.323    9.470  160.739   71.546    0.240
  381.500    0.325    9.143  160.774   92.667    0.265
  381.750    0.327    8.721  160.605   97.169    0.306
  382.000    0.329    8.108  160.841   86.236    0.303
  382.250    0.327    7.563  161.292   80.904    0.263
  382.500    0.328    7.019  161.533   86.215    0.238
  382.750    0.330    6.305  161.464   94.078    0.228
  383.000    0.340    5.616  160.257  103.809    0.226
  383.250    0.345    5.036  158.836  103.394    0.211
  383.500    0.340    4.509  161.776  103.105    0.200
  383.750    0.334    3.988  163.678  109.785    0.202
  384.000    0.341    3.334  162.885  110.303    0.198
  384.250    0.369    2.934  162.085  110.946    0.189
  384.500    0.386    2.737  160.461  122.607    0.182
  384.750    0.388    2.606  159.359  129.226    0.175
  385.000    0.390    2.551  160.324  130.802    0.170
  385.250    0.403    2.562  161.915  131.321    0.187
  385.500    0.399    2.590  163.090  134.018    0.224
  385.750    0.409    2.692  164.266  139.018    0.271
  386.000    0.406    3.043  164.922  144.019    0.295
  386.250    0.367    3.559  164.646  145.908    0.267
  386.500    0.338    4.192  163.957  144.371    0.222
  386.750    0.331    4.963  162.954  139.351    0.215
  387.000    0.337    5.384  161.434  132.151    0.225
  387.250    0.347    5.444  160.948  126.758    0.226
  387.500    0.358    5.356  160.258  126.468    0.224
  387.750    0.346    5.287  160.913  123.252    0.229
  388.000    0.335    5.447  161.364  127.505    0.233
  388.250    0.347    5.919  160.468  132.380    0.237
  388.500    0.346    6.388  158.840  128.417    0.250
  388.750    0.329    6.742  157.837  105.533    0.264
  389.000    0.327    6.959  157.352   93.541    0.285
  389.250    0.329    7.013  156.972   84.911    0.278
  389.500    0.328    6.934  156.802   89.912    0.271
  389.750    0.327    6.671  156.633   97.653    0.255
  390.000    0.327    6.364  156.764   98.044    0.240
  390.250    0.324    6.250  156.911  104.289    0.261
  390.500    0.321    6.223  157.047  103.563    0.276
  390.750    0.317    6.228  156.874   94.123    0.276
  391.000    0.325    6.212  157.111   90.348    0.263
  391.250    0.337    6.007  157.672   94.913    0.262
  391.500    0.350    5.622  158.321   97.982    0.263
  391.750    0.353    5.299  159.502   97.879    0.253
  392.000    0.341    4.986  160.677  108.108    0.238
  392.250    0.346    4.700  161.541  116.157    0.234
  392.500    0.357    4.537  161.579  120.161    0.230
  392.750    0.358    4.425  161.504  122.112    0.224
  393.000    0.361    4.294  161.126  121.759    0.262
  393.250    0.356    4.290  160.536  118.357    0.265
  393.500    0.346    4.520  158.705  121.741    0.257
  393.750    0.352    4.954  158.115  121.138    0.252
  394.000    0.354    5.476  159.603  122.901    0.244
  394.250    0.349    6.116  159.951  126.345    0.255
  394.500    0.344    6.831  158.948  114.477    0.286
  394.750    0.347    7.448  158.156   96.698    0.298
  395.000    0.350    7.915  157.668   81.780    0.290
  395.250    0.349    7.550  157.086   69.352    0.292
  395.500    0.350    7.091  156.495   72.362    0.305
  395.750    0.353    6.547  156.114   75.244    0.314
  396.000    0.350    6.025  155.940   82.362    0.294
  396.250    0.346    5.998  156.599   91.159    0.285
