~VERSION INFORMATION
 VERS.                 2.0:   CWLS LOG ASCII STANDARD -VERSION 2.0
 WRAP.                  NO:   ONE LINE PER DEPTH STEP
~WELL INFORMATION BLOCK
#MNEM.UNIT           DATA                    DESCRIPTION OF MNEMONIC
#---------    -------------------            -------------------------------
# Generated from Intellog Unique Number	CC_80_83/WELL/2379
NULL.         -999.25                        : NULL_VALUE
WELL.         GULF BOHN                      : Well_name    - WELL              
LOC .         10-27-081-07W4                 : Location     - LOCATION          
UWI .         00/10-27-081-07W4/0            : Uwi          - UNIQUE WELL ID    
ENTR.         DW                             : Entered      - ENTERED BY        
SRVC.         SCHLUMBERGER                   : Scn          - SERVICE COMPANY   
DATE.         19 FEB 79                      : Date         - LOG DATE
STRT.M        205                            : top_depth    - START DEPTH       
STOP.M        459.992                        : bot_depth    - STOP DEPTH        
STEP.M        0.3                            : increment    - STEP LENGTH       
~CURVE INFORMATION BLOCK
#MNEM UNIT       ERCB CURVE CODE    CURVE DESCRIPTION
#-----------   ------------------   ----------------------------------
DEPT.M        00 001 00 00         : DEPTH        - DEPTH                       
DPHI.V/V      00 890 00 00         : PHID         - DENSITY POROSITY (LIMESTONE)
NPHI.V/V      00 330 00 00         : PHIN         - NEUTRON POROSITY (LIMESTONE)
GR  .API      00 310 00 00         : GR           - GAMMA RAY                   
ILD .OHMM     00 120 00 00         : RESD         - DEEP RESISTIVITY (DIL)      
~PARAMETER INFORMATION       
#MNEM.UNIT           DATA             DESCRIPTION OF MNEMONIC
#---------         -----------     ------------------------------
GL  .M        656.2                : gl           - GROUND LEVEL ELEVATION      
EREF.M        659.9                : kb           - ELEVATION OF DEPTH REFERENCE
DATM.M        659.9                : datum        - DATUM ELEVATION             
TDD .M        510                  : tdd          - TOTAL DEPTH DRILLER         
RUN .         ONE                  : Run          - RUN NUMBER                  
ENG .         BILL                 : Engineer     - RECORDING ENGINEER          
WIT .         JIM                  : Witness      - WITNESSED BY                
MUD .         GEL                  : Mud_type     - MUD TYPE                    
MATR.         LIMESTONE            : Logunit      - NEUTRON MATRIX              
TMAX.C        20                   : BHT          - MAXIMUM RECORDED TEMPERATURE
BHTD.M        510                  : BHTDEP       - MAXIMUM RECORDED TEMPERATURE
MATR.         1                    : LOGUNIT      - NEUTRON MATRIX              
RMT .C        25                   : MDTP         - TEMPERATURE OF MUD          
NEUT.         1                    : NEUTRON      - NEUTRON TYPE                
RESI.         0                    : RESIST       - RESISTIVITY TYPE            
RMC .OHMM     0.25                 : RMC          - RESISTIVITY OF MUD CAKE     
RMF .OHMM     0.25                 : RMF          - RESISTIVITY OF MUD FILTRATE 
SUFT.C        4                    : SUFT         - SURFACE TEMPERATURE         
~A  DEPTH     PHID     PHIN       GR     RESD
  205.000    0.302    0.553  113.510    2.720
  205.300    0.298    0.572  113.507    2.722
  205.600    0.278    0.572  113.505    2.723
  205.900    0.264    0.544  114.737    2.776
  206.200    0.256    0.543  116.586    2.830
  206.500    0.259    0.554  116.584    2.832
  206.800    0.280    0.575  115.348    2.832
  207.100    0.291    0.591  114.112    2.834
  207.400    0.282    0.564  112.877    2.835
  207.700    0.283    0.520  110.407    2.836
  208.000    0.280    0.520  108.554    2.891
  208.300    0.282    0.532  107.935    2.948
  208.600    0.285    0.551  109.784    2.949
  208.900    0.277    0.565  111.016    2.950
  209.200    0.283    0.561  112.248    2.952
  209.500    0.287    0.564  112.246    2.953
  209.800    0.298    0.569  107.308    2.954
  210.100    0.289    0.575  106.073    2.955
  210.400    0.287    0.579  108.538    2.957
  210.700    0.295    0.579  110.387    2.903
  211.000    0.303    0.578  108.534    2.904
  211.300    0.289    0.596  102.363    2.850
  211.600    0.290    0.630   98.659    2.695
  211.900    0.305    0.640   97.424    2.548
  212.200    0.306    0.611   99.273    2.363
  212.500    0.317    0.622  107.290    2.320
  212.800    0.312    0.635  107.288    2.278
  213.100    0.288    0.641  103.585    2.278
  213.400    0.230    0.645   99.882    2.323
  213.700    0.192    0.614   98.029    2.506
  214.000    0.250    0.587  104.813    2.555
  214.300    0.278    0.594  104.811    2.508
  214.600    0.285    0.603  101.724    2.416
  214.900    0.279    0.559   99.871    2.328
  215.200    0.287    0.563   99.253    2.285
  215.500    0.292    0.573  100.484    2.286
  215.800    0.277    0.575   99.865    2.287
  216.100    0.283    0.563   99.246    2.332
  216.400    0.289    0.583  101.095    2.377
  216.700    0.271    0.590  102.943    2.470
  217.000    0.268    0.567  102.942    2.615
  217.300    0.269    0.564   98.005    2.769
  217.600    0.266    0.566   99.237    2.822
  217.900    0.263    0.545   99.852    2.878
  218.200    0.253    0.535   99.850    3.047
  218.500    0.252    0.547  102.931    3.226
  218.800    0.247    0.557  104.164    3.351
  219.100    0.258    0.516  103.545    3.416
  219.400    0.250    0.513  101.075    3.291
  219.700    0.258    0.525  104.775    3.171
  220.000    0.267    0.545  103.539    3.172
  220.300    0.267    0.540  101.069    3.295
  220.600    0.243    0.524   99.217    3.424
  220.900    0.261    0.506   93.045    3.557
  221.200    0.258    0.499   87.491    3.766
  221.500    0.224    0.451   80.087    4.219
  221.800    0.219    0.439   70.214    4.818
  222.100    0.202    0.443   69.595    5.398
  222.400    0.210    0.426   72.061    5.824
  222.700    0.266    0.436   78.228    5.506
  223.000    0.274    0.452   88.713    5.011
  223.300    0.278    0.468   97.348    4.476
  223.600    0.257    0.492   97.963    3.504
  223.900    0.257    0.502   93.642    3.130
  224.200    0.278    0.503   94.257    3.251
  224.500    0.292    0.481   90.554    3.855
  224.800    0.320    0.439   81.298    7.058
  225.100    0.318    0.421   72.043   11.536
  225.400    0.306    0.405   70.190   12.927
  225.700    0.310    0.402   73.889   11.991
  226.000    0.297    0.406   78.823    9.384
  226.300    0.274    0.425   85.606    6.436
  226.600    0.256    0.452   91.156    5.331
  226.900    0.272    0.477   95.473    5.136
  227.200    0.281    0.499   99.172    5.541
  227.500    0.289    0.514   99.170    6.822
  227.800    0.310    0.518   93.616    8.725
  228.100    0.303    0.499   88.062    9.962
  228.400    0.287    0.461   81.891   10.547
  228.700    0.277    0.458   76.337   11.596
  229.000    0.267    0.452   72.017   12.749
  229.300    0.268    0.441   67.696   14.018
  229.600    0.266    0.423   60.908   14.562
  229.900    0.258    0.392   60.906   14.296
  230.200    0.303    0.402   62.138   14.036
  230.500    0.321    0.410   62.753   13.780
  230.800    0.332    0.410   64.601   13.027
  231.100    0.308    0.428   67.684   13.033
  231.400    0.282    0.437   71.384   13.036
  231.700    0.255    0.437   73.232   13.290
  232.000    0.252    0.434   74.464   13.296
  232.300    0.278    0.419   76.930   13.303
  232.600    0.283    0.410   79.395   13.307
  232.900    0.288    0.407   81.861   13.064
  233.200    0.292    0.405   81.859   12.825
  233.500    0.292    0.415   82.474   12.357
  233.800    0.281    0.436   84.939   12.129
  234.100    0.284    0.449   89.873   10.835
  234.400    0.268    0.457   98.507    9.678
  234.700    0.217    0.471  108.992    8.326
  235.000    0.213    0.479  107.140    8.329
  235.300    0.210    0.468   98.501    9.510
  235.600    0.229    0.451   90.480   11.491
  235.900    0.282    0.441   63.951   14.150
  236.200    0.304    0.446   61.481   15.855
  236.500    0.342    0.439   65.797   15.861
  236.800    0.334    0.456   67.029   15.278
  237.100    0.333    0.447   70.112   13.908
  237.400    0.310    0.424   75.662   12.191
  237.700    0.303    0.417   81.212   10.891
  238.000    0.289    0.419   85.528   10.296
  238.300    0.270    0.417   87.377   10.696
  238.600    0.266    0.417   85.524   11.324
  238.900    0.299    0.438   83.055   12.688
  239.200    0.328    0.460   79.968   14.764
  239.500    0.350    0.465   77.498   16.232
  239.800    0.365    0.442   78.730   17.187
  240.100    0.355    0.452   77.494   17.194
  240.400    0.342    0.472   71.323   16.880
  240.700    0.335    0.476   64.535   16.571
  241.000    0.339    0.459   59.598   16.576
  241.300    0.356    0.450   55.278   16.277
  241.600    0.365    0.456   54.042   16.280
  241.900    0.365    0.460   59.592   16.598
  242.200    0.355    0.460   63.909   17.243
  242.500    0.333    0.456   66.374   17.917
  242.800    0.313    0.443   66.989   17.923
  243.100    0.283    0.441   67.604   17.268
  243.400    0.266    0.445   71.303   16.633
  243.700    0.314    0.456   77.470   16.026
  244.000    0.329    0.471   80.553   15.436
  244.300    0.327    0.468   80.551   14.871
  244.600    0.331    0.456   80.549   14.600
  244.900    0.339    0.468   81.781   14.606
  245.200    0.344    0.475   83.012   14.613
  245.500    0.343    0.462   84.861   14.345
  245.800    0.341    0.450   89.177   14.351
  246.100    0.331    0.445   95.961   14.088
  246.400    0.317    0.478  100.894   13.572
  246.700    0.310    0.501  103.360   12.591
  247.000    0.317    0.504  101.507   12.128
  247.300    0.318    0.494   90.401   12.134
  247.600    0.330    0.488   79.912   12.846
  247.900    0.372    0.485   73.741   13.347
  248.200    0.393    0.499   72.505   13.607
  248.500    0.414    0.546   74.971   12.863
  248.800    0.422    0.557   81.138   10.259
  249.100    0.370    0.523   83.603    8.824
  249.400    0.370    0.515   81.134    8.664
  249.700    0.345    0.506   71.878    9.172
  250.000    0.323    0.406   55.837    9.896
  250.300    0.325    0.406   58.302   10.478
  250.600    0.324    0.428   62.618   10.885
  250.900    0.318    0.444   59.532   11.524
  251.200    0.328    0.425   53.361   13.159
  251.500    0.360    0.419   48.424   14.743
  251.800    0.355    0.427   52.123   15.906
  252.100    0.353    0.433   58.290   15.618
  252.400    0.346    0.432   60.756   15.046
  252.700    0.341    0.434   61.988   14.771
  253.000    0.355    0.446   60.752   14.499
  253.300    0.359    0.453   61.984   14.233
  253.600    0.346    0.444   65.683   13.973
  253.900    0.335    0.449   69.382   13.978
  254.201    0.320    0.438   72.465   14.524
  254.501    0.304    0.440   70.612   14.807
  254.801    0.320    0.456   69.993   15.094
  255.101    0.340    0.462   71.225   15.102
  255.401    0.339    0.461   75.541   15.109
  255.701    0.339    0.453   80.475   14.833
  256.001    0.327    0.449   84.791   14.560
  256.301    0.311    0.451   90.341   13.764
  256.600    0.290    0.458   95.891   12.768
  256.900    0.267    0.462  102.058   10.378
