~VERSION INFORMATION
 VERS.                 2.0:   CWLS LOG ASCII STANDARD -VERSION 2.0
 WRAP.                  NO:   ONE LINE PER DEPTH STEP
~WELL INFORMATION BLOCK
#MNEM.UNIT           DATA                    DESCRIPTION OF MNEMONIC
#---------    -------------------            -------------------------------
# Generated from Intellog Unique Number	CW_79_81/WELL/2488
WELL.         13-10-081-21W4                 : Well_name    - WELL
LOC .         00/13-10-081-21W4/0            : Location     - LOCATION
UWI .         00/13-10-081-21W4/0            : Uwi          - UNIQUE WELL ID
ENTR.         MAX                            : Entered      - ENTERED BY
SRVC.         SCHLUMBERGER                   : Scn          - SERVICE COMPANY
STRT.M        215                            : top_depth    - START DEPTH
STOP.M        440                            : bot_depth    - STOP DEPTH
STEP.M        0.25                           : increment    - STEP LENGTH
 NULL. -999.2500:NULL Value
~CURVE INFORMATION BLOCK
#MNEM UNIT       ERCB CURVE CODE    CURVE DESCRIPTION
#-----------   ------------------   ----------------------------------
DEPT.M        00 001 00 00         : DEPTH        - DEPTH
ILD .OHMM     00 120 00 00         : RESD         - DEEP RESISTIVITY (DIL)
NPHI.V/V      00 330 00 00         : PHIN         - NEUTRON POROSITY (SANDSTONE)
DPHI.V/V      00 890 00 00         : PHID         - DENSITY POROSITY (SANDSTONE)
GR  .API      00 310 00 00         : GR           - GAMMA RAY
CALI.MM       00 280 01 00         : CAL          - CALIPER
~PARAMETER INFORMATION
#MNEM.UNIT           DATA             DESCRIPTION OF MNEMONIC
#---------         -----------     ------------------------------
GL  .M        599.6                : gl           - GROUND LEVEL ELEVATION
EREF.M        603.9                : kb           - ELEVATION OF DEPTH REFERENCE
DATM.M        599.6                : datum        - DATUM ELEVATION
TDD .M        448.25               : tdd          - TOTAL DEPTH DRILLER
RUN .         ONE                  : Run          - RUN NUMBER
ENG .         BILL                 : Engineer     - RECORDING ENGINEER
WIT .         JIM                  : Witness      - WITNESSED BY
MUD .         GEL                  : Mud_type     - MUD TYPE
MATR.         SANDSTONE            : Logunit      - NEUTRON MATRIX
TMAX.C        28.6                 : BHT          - MAXIMUM RECORDED TEMPERATURE
BHTD.M        448.25               : BHTDEP       - MAXIMUM RECORDED TEMPERATURE
MATR.         1                    : LOGUNIT      - NEUTRON MATRIX
RMT .C        15                   : MDTP         - TEMPERATURE OF MUD
NEUT.         1                    : NEUTRON      - NEUTRON TYPE
RESI.         0                    : RESIST       - RESISTIVITY TYPE
RMC .OHMM     9.82                 : RMC          - RESISTIVITY OF MUD CAKE
RMF .OHMM     4.93                 : RMF          - RESISTIVITY OF MUD FILTRATE
SUFT.C        -15                  : SUFT         - SURFACE TEMPERATURE
~A  DEPTH     RESD     PHIN     PHID       GR      CAL
# ...
  288.000   14.532    0.366    0.258   54.634  222.350
  288.250   15.989    0.312    0.165   52.381  222.385
  288.500   17.832    0.222    0.090   50.648  222.410
  288.750   20.177    0.190    0.077   49.706  222.434
  289.000   22.506    0.195    0.078   49.660  222.460
  289.250   24.628    0.210    0.090   50.395  222.486
  289.500   25.981    0.223    0.102   51.550  222.512
  289.750   25.447    0.226    0.107   52.681  222.543
  290.000   24.525    0.204    0.100   53.447  222.576
  290.250   25.836    0.183    0.094   52.502  223.000
  290.500   28.099    0.164    0.079   50.477  223.424
  290.750   31.462    0.145    0.055   48.814  224.048
  291.000   36.311    0.129    0.029   48.051  225.073
  291.250   44.278    0.113    0.023   47.827  226.792
  291.500   48.622    0.116    0.024   47.843  227.231
  291.750   53.476    0.122    0.030   47.381  227.658
  292.000   56.407    0.133    0.036   46.735  227.486
  292.250   56.900    0.146    0.046   46.391  227.112
  292.500   54.329    0.162    0.061   46.587  226.735
  292.750   45.617    0.193    0.084   47.673  226.283
  293.000   35.250    0.229    0.110   49.439  225.892
  293.250   30.181    0.269    0.161   52.097  224.322
  293.500   25.267    0.304    0.214   53.852  223.047
  293.750   21.154    0.362    0.269   55.065  222.272
  294.000   18.106    0.430    0.317   55.979  221.998
  294.250   15.930    0.452    0.343   56.422  221.951
  294.500   14.899    0.434    0.338   54.937  221.557
  294.750   14.488    0.429    0.333   52.791  221.183
  295.000   14.245    0.448    0.324   49.567  220.812
  295.250   14.312    0.460    0.315   45.984  220.438
  295.500   14.800    0.455    0.313   42.941  219.861
  295.750   16.007    0.441    0.326   41.620  218.026
  296.000   16.909    0.437    0.325   42.139  214.719
  296.250   17.689    0.459    0.321   42.634  214.746
  296.500   18.006    0.469    0.318   42.768  215.974
  296.750   18.028    0.471    0.313   42.783  217.600
  297.000   17.922    0.467    0.311   42.679  218.923
  297.250   17.816    0.455    0.320   42.067  219.355
  297.500   17.842    0.442    0.319   41.336  219.391
  297.750   17.989    0.437    0.323   41.349  219.412
  298.000   18.142    0.443    0.323   41.545  219.433
  298.250   18.299    0.445    0.320   41.922  219.457
  298.500   18.458    0.440    0.318   42.358  219.485
  298.750   18.537    0.441    0.313   42.764  219.436
  299.000   18.145    0.456    0.311   43.531  219.044
  299.250   17.635    0.453    0.297   44.986  219.068
  299.500   16.577    0.436    0.227   47.520  219.096
  299.750   15.307    0.412    0.154   51.014  219.125
  300.000   14.127    0.382    0.118   54.749  219.153
  300.250   13.133    0.357    0.167   57.457  219.182
  300.500   12.563    0.417    0.252   57.722  219.207
  300.750   12.034    0.445    0.288   60.857  219.231
  301.000   11.596    0.450    0.303   63.092  219.259
  301.250   11.320    0.446    0.305   64.188  219.286
  301.500   11.190    0.440    0.301   64.504  219.311
  301.750   11.002    0.432    0.286   65.253  219.259
  302.000   10.448    0.424    0.272   66.519  218.867
  302.250    9.645    0.442    0.261   68.454  218.494
  302.500    9.367    0.435    0.256   68.230  218.119
  302.750    9.580    0.429    0.248   66.565  217.744
  303.000   10.310    0.433    0.247   64.000  217.272
  303.250   11.897    0.432    0.285   60.453  216.506
  303.500   13.475    0.435    0.300   58.220  216.528
  303.750   14.714    0.447    0.300   58.712  216.955
  304.000   14.665    0.447    0.294   59.747  217.381
  304.250   14.051    0.447    0.294   60.843  217.807
  304.500   13.594    0.448    0.303   61.938  218.132
  304.750   13.939    0.443    0.314   63.696  217.999
  305.000   14.609    0.437    0.314   65.215  217.191
  305.250   15.953    0.430    0.309   64.992  214.022
  305.500   17.613    0.421    0.300   63.864  215.644
  305.750   19.865    0.408    0.274   62.440  218.068
  306.000   23.272    0.389    0.241   62.278  218.796
  306.250   28.974    0.372    0.249   66.594  216.999
  306.500   27.924    0.421    0.290   70.108  217.854
  306.750   18.510    0.442    0.313   68.443  217.884
  307.000   16.251    0.455    0.317   68.218  217.907
  307.250   15.582    0.456    0.314   68.716  217.531
  307.500   15.319    0.446    0.310   69.513  216.659
  307.750   15.137    0.439    0.307   70.939  215.743
  308.000   14.703    0.438    0.306   73.205  217.018
  308.250   14.187    0.441    0.304   72.499  219.444
  308.500   13.846    0.444    0.296   72.515  220.968
  308.750   13.562    0.442    0.287   73.850  221.192
  309.000   13.211    0.439    0.277   76.565  220.518
  309.250   12.427    0.443    0.246   80.933  220.152
  309.500   11.364    0.437    0.218   84.699  220.177
  309.750    9.878    0.427    0.207   84.713  220.603
  310.000    9.260    0.418    0.201   86.350  221.930
  310.250    9.007    0.410    0.198   86.965  223.355
  310.500    8.986    0.406    0.201   86.138  224.479
  310.750    9.325    0.421    0.216   85.728  224.978
  311.000    9.626    0.432    0.224   85.994  223.339
  311.250    9.707    0.432    0.213   86.012  222.569
  311.500    9.629    0.447    0.210   85.126  222.392
  311.750    9.502    0.457    0.214   84.661  222.615
  312.000    9.412    0.454    0.223   84.977  222.939
  312.250    9.411    0.441    0.231   85.026  223.055
  312.500    9.349    0.431    0.233   82.791  223.503
  312.750    9.293    0.426    0.227   83.047  224.326
  313.000    9.338    0.432    0.225   83.843  223.654
  313.250    9.418    0.440    0.225   83.501  222.881
  313.500    9.517    0.445    0.227   81.838  222.506
  313.750    9.716    0.441    0.237   80.274  222.055
  314.000    9.952    0.435    0.239   80.792  221.666
  314.250   10.411    0.429    0.236   82.486  221.688
  314.500   10.542    0.421    0.235   85.079  221.413
  314.750   10.478    0.420    0.235   86.416  221.241
  315.000   10.339    0.422    0.237   86.313  221.269
  315.250   10.169    0.420    0.234   87.069  221.379
  315.500   10.029    0.432    0.230   89.587  221.823
  315.750    9.469    0.439    0.224   89.362  223.452
  316.000    9.143    0.439    0.222   88.777  225.378
  316.250    8.922    0.442    0.220   88.433  226.603
  316.500    8.738    0.451    0.222   88.688  226.927
  316.750    8.548    0.456    0.233   89.268  226.874
  317.000    8.495    0.449    0.231   87.282  226.485
  317.250    8.568    0.443    0.243   83.219  224.512
  317.500    8.736    0.434    0.244   79.515  221.938
  317.750    9.069    0.428    0.248   75.572  220.165
  318.000    9.492    0.429    0.256   71.809  219.593
  318.250    9.734    0.432    0.257   70.319  219.290
  318.500    9.820    0.420    0.242   73.587  217.655
  318.750    9.978    0.415    0.240   72.881  217.276
  319.000   10.137    0.416    0.239   72.895  216.604
  319.250   10.223    0.422    0.238   72.312  216.029
  319.500   10.252    0.429    0.234   71.249  215.552
  319.750   10.343    0.430    0.229   71.216  214.702
  320.000   10.355    0.425    0.263   70.981  214.316
  320.250   10.368    0.424    0.273   71.001  213.537
  320.500   10.383    0.428    0.281   72.276  213.065
  320.750   10.321    0.428    0.274   74.689  212.893
  321.000   10.107    0.425    0.256   78.361  214.219
  321.250    9.521    0.429    0.242   84.010  219.699
  321.500    8.771    0.442    0.233   85.776  220.977
  321.750    7.977    0.458    0.235   90.109  220.601
  322.000    7.383    0.481    0.249   93.364  220.527
  322.250    6.711    0.494    0.260   92.539  220.354
  322.500    6.124    0.493    0.270   86.257  220.080
  322.750    6.045    0.485    0.295   74.160  220.109
  323.000    6.537    0.482    0.307   71.177  220.134
  323.250    7.241    0.484    0.306   71.913  220.163
  323.500    7.735    0.477    0.296   71.028  220.188
  323.750    8.351    0.465    0.290   70.085  220.415
  324.000    9.223    0.454    0.291   69.861  220.742
  324.250   10.079    0.452    0.288   71.007  220.852
