~VERSION INFORMATION
 VERS.                 2.0:   CWLS LOG ASCII STANDARD -VERSION 2.0
 WRAP.                  NO:   ONE LINE PER DEPTH STEP
~WELL INFORMATION BLOCK
#MNEM.UNIT           DATA                    DESCRIPTION OF MNEMONIC
#---------    -------------------            -------------------------------
# Generated from Intellog Unique Number	CS_69_70/WELL/889
WELL.         BOW VALLEY INDUSTRIES          : Well_name    - WELL
LOC .         00/11-21-069-13W4/0            : Location     - LOCATION
UWI .         00/11-21-069-13W4/0            : Uwi          - UNIQUE WELL ID
ENTR.         SP                             : Entered      - ENTERED BY
SRVC.         SCHLUMBERGER                   : Scn          - SERVICE COMPANY
STRT.M        270                            : top_depth    - START DEPTH
STOP.M        472                            : bot_depth    - STOP DEPTH
STEP.M        0.25                           : increment    - STEP LENGTH
 NULL. -999.2500:NULL Value
~CURVE INFORMATION BLOCK
#MNEM UNIT       ERCB CURVE CODE    CURVE DESCRIPTION
#-----------   ------------------   ----------------------------------
DEPT.M        00 001 00 00         : DEPTH        - DEPTH
ILD .OHMM     00 120 00 00         : RESD         - DEEP RESISTIVITY (DIL)
DPHI.V/V      00 890 00 00         : PHID         - DENSITY POROSITY (LIMESTONE)
NPHI.V/V      00 330 00 00         : PHIN         - NEUTRON POROSITY (LIMESTONE)
GR  .API      00 310 00 00         : GR           - GAMMA RAY
~PARAMETER INFORMATION
#MNEM.UNIT           DATA             DESCRIPTION OF MNEMONIC
#---------         -----------     ------------------------------
GL  .M        568.76               : gl           - GROUND LEVEL ELEVATION
EREF.M        571.5                : kb           - ELEVATION OF DEPTH REFERENCE
DATM.M        568.76               : datum        - DATUM ELEVATION
TDD .M        480                  : tdd          - TOTAL DEPTH DRILLER
RUN .         ONE                  : Run          - RUN NUMBER
ENG .         BILL                 : Engineer     - RECORDING ENGINEER
WIT .         JIM                  : Witness      - WITNESSED BY
MUD .         GEL                  : Mud_type     - MUD TYPE
MATR.         LIMESTONE            : Logunit      - NEUTRON MATRIX
TMAX.C        24.2                 : BHT          - MAXIMUM RECORDED TEMPERATURE
BHTD.M        480                  : BHTDEP       - MAXIMUM RECORDED TEMPERATURE
MATR.         1                    : LOGUNIT      - NEUTRON MATRIX
RMT .C        25                   : MDTP         - TEMPERATURE OF MUD
NEUT.         1                    : NEUTRON      - NEUTRON TYPE
RESI.         0                    : RESIST       - RESISTIVITY TYPE
RMC .OHMM     0.25                 : RMC          - RESISTIVITY OF MUD CAKE
RMF .OHMM     0.25                 : RMF          - RESISTIVITY OF MUD FILTRATE
SUFT.C        15                   : SUFT         - SURFACE TEMPERATURE
~A  DEPTH     RESD     PHID     PHIN       GR
# ...
  313.500    3.585    0.219    0.452   95.778
  313.750    3.546    0.254    0.474  103.160
  314.000    3.514    0.288    0.485   98.989
  314.250    3.521    0.276    0.474   96.935
  314.500    3.548    0.269    0.461   96.878
  314.750    3.562    0.276    0.451   97.606
  315.000    3.563    0.257    0.443   98.395
  315.250    3.564    0.248    0.443   98.397
  315.500    3.551    0.250    0.449   96.827
  315.750    3.539    0.277    0.466   95.620
  316.000    3.520    0.295    0.477   96.289
  316.250    3.495    0.282    0.477   97.803
  316.500    3.483    0.270    0.474   99.620
  316.750    3.477    0.257    0.467  102.042
  317.000    3.490    0.251    0.463  102.892
  317.250    3.524    0.244    0.460  101.745
  317.500    3.571    0.247    0.467   97.817
  317.750    3.611    0.259    0.471   96.125
  318.000    3.667    0.261    0.479   99.697
  318.250    3.701    0.266    0.482  102.300
  318.500    3.744    0.246    0.458  104.964
  318.750    3.794    0.222    0.449  104.059
  319.000    3.844    0.210    0.448  101.522
  319.250    3.932    0.233    0.459   99.407
  319.500    3.999    0.263    0.463   97.656
  319.750    4.037    0.245    0.468   97.114
  320.000    4.045    0.245    0.467   96.875
  320.250    4.016    0.262    0.463   98.874
  320.500    3.950    0.255    0.452  103.170
  320.750    3.800    0.241    0.447  107.709
  321.000    3.759    0.228    0.467  112.550
  321.250    3.746    0.218    0.481  115.335
  321.500    3.774    0.235    0.498  108.382
  321.750    3.832    0.245    0.512  101.792
  322.000    3.897    0.237    0.479   96.654
  322.250    3.964    0.244    0.438   95.688
  322.500    3.987    0.232    0.417   97.445
  322.750    3.987    0.225    0.421   97.992
  323.000    3.966    0.240    0.425   98.297
  323.250    3.909    0.245    0.431   96.546
  323.500    3.859    0.246    0.436   93.524
  323.750    3.810    0.250    0.440   97.277
  324.000    3.810    0.254    0.449   97.945
  324.250    3.861    0.259    0.436   92.141
  324.500    3.942    0.261    0.417   90.026
  324.750    4.024    0.251    0.401   89.666
  325.000    4.154    0.236    0.391   94.689
  325.250    4.296    0.224    0.385   97.655
  325.500    4.452    0.219    0.381  100.319
  325.750    4.665    0.218    0.386  103.406
  326.000    4.780    0.226    0.400  104.861
  326.250    4.816    0.235    0.404  103.956
  326.500    4.764    0.219    0.417  105.471
  326.750    4.721    0.221    0.427  107.651
  327.000    4.670    0.234    0.420  109.952
  327.250    4.645    0.239    0.417  111.588
  327.500    4.603    0.251    0.435  108.566
  327.750    4.494    0.242    0.446  105.423
  328.000    4.371    0.228    0.448  100.467
  328.250    4.059    0.240    0.457   93.816
  328.500    3.811    0.273    0.462   87.105
  328.750    3.558    0.284    0.454   83.418
  329.000    3.354    0.296    0.447   84.327
  329.250    3.202    0.306    0.437   84.935
  329.500    3.103    0.285    0.431   84.151
  329.750    3.075    0.275    0.427   80.404
  330.000    3.059    0.284    0.446   76.475
  330.250    3.060    0.297    0.455   79.503
  330.500    3.072    0.284    0.464   81.561
  330.750    3.095    0.275    0.450   81.926
  331.000    3.136    0.282    0.441   79.147
  331.250    3.149    0.292    0.435   76.549
  331.500    3.149    0.304    0.438   75.342
  331.750    3.144    0.297    0.441   74.921
  332.000    3.104    0.290    0.437   76.980
  332.250    3.105    0.289    0.426   79.765
  332.500    3.135    0.284    0.419   82.066
  332.750    3.170    0.277    0.411   79.831
  333.000    3.219    0.269    0.416   77.474
  333.250    3.298    0.267    0.422   81.227
  333.500    3.373    0.276    0.409   85.040
  333.750    3.476    0.283    0.416   88.067
  334.000    3.548    0.269    0.434   91.698
  334.250    3.718    0.269    0.440   94.060
  334.500    3.845    0.274    0.430   94.305
  334.750    3.932    0.260    0.433   94.368
  335.000    4.007    0.248    0.438   95.943
  335.250    4.015    0.241    0.436   97.397
  335.500    3.935    0.241    0.432   98.609
  335.750    3.885    0.245    0.425   99.580
  336.000    3.814    0.251    0.414   98.191
  336.250    3.738    0.266    0.402   91.481
  336.500    3.629    0.272    0.404   88.519
  336.750    3.465    0.252    0.426   85.255
  337.000    3.358    0.240    0.431   83.262
  337.250    3.224    0.235    0.425   84.052
  337.500    3.136    0.245    0.415   84.174
  337.750    3.039    0.264    0.409   82.725
  338.000    2.940    0.286    0.417   77.889
  338.250    2.844    0.294    0.424   73.416
  338.500    2.813    0.299    0.419   72.754
  338.750    2.793    0.295    0.421   73.543
  339.000    2.783    0.294    0.427   74.936
  339.250    2.825    0.306    0.426   76.390
  339.500    2.933    0.314    0.417   80.930
  339.750    3.154    0.300    0.425   84.924
  340.000    3.398    0.285    0.435   89.040
  340.250    3.641    0.277    0.445   91.341
  340.500    3.850    0.270    0.457   93.581
  340.750    4.019    0.268    0.439   95.459
  341.000    4.134    0.262    0.425   98.849
  341.250    4.252    0.256    0.414  101.936
  341.500    4.284    0.253    0.405  105.084
  341.750    4.198    0.245    0.421  106.719
  342.000    4.009    0.254    0.449  107.145
  342.250    3.695    0.279    0.477  102.672
  342.500    3.324    0.326    0.505   98.803
  342.750    3.139    0.334    0.538   98.625
  343.000    3.163    0.302    0.488  101.229
  343.250    3.259    0.265    0.475  102.743
  343.500    3.396    0.231    0.480  100.689
  343.750    3.479    0.231    0.479   95.369
  344.000    3.487    0.236    0.465   90.049
  344.250    3.462    0.260    0.452   85.757
  344.500    3.437    0.272    0.448   82.796
  344.750    3.387    0.262    0.443   81.045
  345.000    3.319    0.259    0.435   80.503
  345.250    3.247    0.270    0.432   79.962
  345.500    3.205    0.263    0.434   79.360
  345.750    3.158    0.263    0.415   78.576
  346.000    3.084    0.272    0.417   77.672
  346.250    3.028    0.277    0.428   77.070
  346.500    3.000    0.290    0.435   77.132
  346.750    2.984    0.288    0.438   77.860
  347.000    2.963    0.278    0.438   78.831
  347.250    2.969    0.288    0.435   79.499
  347.500    2.981    0.278    0.434   79.985
  347.750    2.981    0.278    0.442   80.593
  348.000    3.015    0.280    0.451   81.502
  348.250    3.055    0.271    0.454   84.529
  348.500    3.090    0.281    0.442   89.491
  348.750    3.126    0.278    0.436   92.639
  349.000    3.161    0.267    0.441   89.920
  349.250    3.168    0.258    0.450   87.745
  349.500    3.128    0.262    0.447   87.566
  349.750    3.042    0.263    0.439   90.472
  350.000    2.910    0.243    0.446   93.015
  350.250    2.805    0.231    0.459   94.469
  350.500    2.733    0.220    0.468   94.956
  350.750    2.693    0.234    0.472   94.172
  351.000    2.689    0.281    0.466   91.393
  351.250    2.689    0.305    0.464   88.129
  351.500    2.710    0.304    0.462   85.229
  351.750    2.767    0.307    0.458   82.691
  352.000    2.904    0.315    0.446   80.818
  352.250    3.117    0.289    0.432   79.067
  352.500    3.473    0.258    0.420   79.130
  352.750    3.964    0.214    0.415   78.225
  353.000    5.067    0.172    0.372   74.841
  353.250    6.648    0.139    0.285   69.339
  353.500    8.689    0.121    0.273   64.261
  353.750   11.253    0.127    0.291   61.179
  354.000   15.294    0.169    0.260   58.641
  354.250   14.441    0.009    0.142   55.378
  354.500    9.333   -0.012    0.169   57.377
  354.750    5.662    0.156    0.233   64.274
  355.000    4.215    0.182    0.369   71.536
  355.250    3.667    0.213    0.414   75.409
  355.500    3.342    0.258    0.434   80.613
  355.750    3.209    0.305    0.460   83.217
  356.000    3.168    0.308    0.482   83.400
  356.250    3.235    0.300    0.497   83.283
  356.500    3.272    0.300    0.508   83.466
  356.750    3.303    0.309    0.482   83.771
