~VERSION INFORMATION
 VERS.                 2.0:   CWLS LOG ASCII STANDARD -VERSION 2.0
 WRAP.                  NO:   ONE LINE PER DEPTH STEP
~WELL INFORMATION BLOCK
#MNEM.UNIT           DATA                    DESCRIPTION OF MNEMONIC
#---------    -------------------            -------------------------------
# Generated from Intellog Unique Number	CS_73_76/WELL/3244
WELL.         10-27-076-05W4                 : Well_name    - WELL
LOC .         00/10-27-076-05W4/0            : Location     - LOCATION
UWI .         00/10-27-076-05W4/0            : Uwi          - UNIQUE WELL ID
ENTR.         SP                             : Entered      - ENTERED BY
SRVC.         SCHLUMBERGER                   : Scn          - SERVICE COMPANY
STRT.M        160                            : top_depth    - START DEPTH
STOP.M        410                            : bot_depth    - STOP DEPTH
STEP.M        0.25                           : increment    - STEP LENGTH
 NULL. -999.2500:NULL Value
~CURVE INFORMATION BLOCK
#MNEM UNIT       ERCB CURVE CODE    CURVE DESCRIPTION
#-----------   ------------------   ----------------------------------
DEPT.M        00 001 00 00         : DEPTH        - DEPTH
DPHI.V/V      00 890 00 00         : PHID         - DENSITY POROSITY (LIMESTONE)
NPHI.V/V      00 330 00 00         : PHIN         - NEUTRON POROSITY (LIMESTONE)
GR  .API      00 310 00 00         : GR           - GAMMA RAY
ILD .OHMM     00 120 00 00         : RESD         - DEEP RESISTIVITY (DIL)
~PARAMETER INFORMATION
#MNEM.UNIT           DATA             DESCRIPTION OF MNEMONIC
#---------         -----------     ------------------------------
GL  .M        569.67               : gl           - GROUND LEVEL ELEVATION
EREF.M        573.87               : kb           - ELEVATION OF DEPTH REFERENCE
DATM.M        569.67               : datum        - DATUM ELEVATION
TDD .M        416.7                : tdd          - TOTAL DEPTH DRILLER
RUN .         ONE                  : Run          - RUN NUMBER
ENG .         BILL                 : Engineer     - RECORDING ENGINEER
WIT .         JIM                  : Witness      - WITNESSED BY
MUD .         GEL                  : Mud_type     - MUD TYPE
MATR.         LIMESTONE            : Logunit      - NEUTRON MATRIX
TMAX.C        36.7                 : BHT          - MAXIMUM RECORDED TEMPERATURE
BHTD.M        416.7                : BHTDEP       - MAXIMUM RECORDED TEMPERATURE
MATR.         1                    : LOGUNIT      - NEUTRON MATRIX
RMT .C        25                   : MDTP         - TEMPERATURE OF MUD
NEUT.         1                    : NEUTRON      - NEUTRON TYPE
RESI.         0                    : RESIST       - RESISTIVITY TYPE
RMC .OHMM     0.25                 : RMC          - RESISTIVITY OF MUD CAKE
RMF .OHMM     0.25                 : RMF          - RESISTIVITY OF MUD FILTRATE
SUFT.C        15                   : SUFT         - SURFACE TEMPERATURE
~A  DEPTH     PHID     PHIN       GR     RESD
# ...
  290.500    0.292    0.452   67.394    9.852
  290.750    0.298    0.452   67.404   10.042
  291.000    0.280    0.450   68.634   10.048
  291.250    0.267    0.451   73.505   10.242
  291.500    0.255    0.473   77.163   10.440
  291.750    0.257    0.463   77.174   10.642
  292.000    0.273    0.456   75.365   10.651
  292.250    0.285    0.439   74.162   10.856
  292.500    0.298    0.439   74.785   10.863
  292.750    0.293    0.445   75.403   10.869
  293.000    0.292    0.451   75.416   11.288
  293.250    0.283    0.468   75.427   11.941
  293.500    0.269    0.472   75.440   13.352
  293.750    0.228    0.452   73.631   15.784
  294.000    0.204    0.365   65.143   19.363
  294.250    0.007    0.275   59.082   26.059
  294.500    0.026    0.219   57.882   25.596
  294.750    0.111    0.257   65.180   20.892
  295.000    0.236    0.426   73.087   16.132
  295.250    0.271    0.474   78.570   10.941
  295.500    0.252    0.486   77.972    9.267
  295.750    0.247    0.496   77.380    8.772
  296.000    0.254    0.499   79.822    8.460
  296.250    0.246    0.491   84.693    8.310
  296.500    0.249    0.479   88.955    8.163
  296.750    0.241    0.481   93.220    8.168
  297.000    0.220    0.474   92.017    8.023
  297.250    0.217    0.465   92.031    7.882
  297.500    0.212    0.441   92.652    7.887
  297.750    0.214    0.433   88.412    7.892
  298.000    0.224    0.442   84.781    8.044
  298.250    0.206    0.450   82.367    8.511
  298.500    0.218    0.436   82.986    8.836
  298.750    0.227    0.430   83.603    9.176
  299.000    0.244    0.445   84.224    9.353
  299.250    0.242    0.451   87.277    9.359
  299.500    0.239    0.453   87.893    9.195
  299.750    0.256    0.465   86.086    9.030
  300.000    0.262    0.465   86.097    8.708
  300.250    0.251    0.464   84.895    8.398
  300.500    0.244    0.465   83.086    8.403
  300.750    0.254    0.467   81.279    8.255
  301.000    0.269    0.467   78.254    8.108
  301.250    0.275    0.461   77.658    8.112
  301.500    0.271    0.467   77.670    8.118
  301.750    0.254    0.473   79.510    7.975
  302.000    0.246    0.477   81.343    7.690
  302.250    0.237    0.467   83.783    7.415
  302.500    0.226    0.462   86.832    6.639
  302.750    0.204    0.459   89.885    4.940
  303.000    0.193    0.468   91.108    3.608
  303.250    0.188    0.480   89.299    2.493
  303.500    0.200    0.490   89.313    2.151
  303.750    0.211    0.483   89.933    2.036
  304.000    0.204    0.482   91.161    2.000
  304.250    0.199    0.489   91.173    2.236
  304.500    0.199    0.480   91.189    2.955
  304.750    0.209    0.485   91.806    3.625
  305.000    0.229    0.500   93.642    4.206
  305.250    0.233    0.514   96.083    4.533
  305.500    0.223    0.536   99.132    4.535
  305.750    0.222    0.550   97.323    4.215
  306.000    0.242    0.550   96.120    4.217
  306.250    0.236    0.534   89.454    4.630
  306.500    0.264    0.501   84.609    4.897
  306.750    0.252    0.503   84.012    5.277
  307.000    0.239    0.499   82.810    5.687
  307.250    0.228    0.485   74.930    6.016
  307.500    0.201    0.457   71.300    6.483
  307.750    0.196    0.464   72.528    6.986
  308.000    0.283    0.484   73.751    7.528
  308.250    0.288    0.471   73.161    7.964
  308.500    0.296    0.451   73.173    8.268
  308.750    0.292    0.453   72.578    8.428
  309.000    0.273    0.459   71.376    8.435
  309.250    0.266    0.457   72.601    8.440
  309.500    0.241    0.454   75.650    8.290
  309.750    0.182    0.446   74.450    8.609
  310.000    0.080    0.410   70.211    8.939
  310.250    0.112    0.345   70.830    9.113
  310.500    0.191    0.338   81.776    8.787
  310.750    0.206    0.475   92.111    8.016
  311.000    0.208    0.465   88.480    7.588
  311.250    0.203    0.462   86.670    7.317
  311.500    0.222    0.464   90.328    7.187
  311.750    0.220    0.466   89.733    7.062
  312.000    0.226    0.464   85.497    7.065
  312.250    0.225    0.459   84.906    7.068
  312.500    0.216    0.470   84.912    6.944
  312.750    0.208    0.477   88.572    6.822
  313.000    0.216    0.471   83.118    6.824
  313.250    0.222    0.484   87.381    6.704
  313.500    0.221    0.478   89.215    6.710
  313.750    0.211    0.470   86.799    6.715
  314.000    0.221    0.462   90.460    6.718
  314.250    0.238    0.464   92.290    6.599
  314.500    0.247    0.449   92.910    6.604
  314.750    0.239    0.445   89.280    6.487
  315.000    0.253    0.476   88.684    6.490
  315.250    0.314    0.467   87.482    6.258
  315.500    0.262    0.449   85.673    5.815
  315.750    0.258    0.460   83.257    5.607
  316.000    0.262    0.480   87.523    5.309
  316.250    0.290    0.483   85.712    4.932
  316.500    0.274    0.472   80.867    4.255
  316.750    0.304    0.512   77.841    3.348
  317.000    0.323    0.541   77.247    2.997
  317.250    0.359    0.573   80.301    2.586
  317.500    0.344    0.570   78.487    2.359
  317.750    0.356    0.566   74.857    2.192
  318.000    0.341    0.567   76.084    2.154
  318.250    0.333    0.572   78.527    2.195
  318.500    0.268    0.585   77.931    2.196
  318.750    0.256    0.585   79.158    2.197
  319.000    0.276    0.580   81.601    2.199
  319.250    0.265    0.574   87.080    2.161
  319.500    0.253    0.569   88.914    2.122
  319.750    0.251    0.563   87.713    2.084
  320.000    0.240    0.532   87.118    2.125
  320.250    0.230    0.522   82.272    2.655
  320.500    0.234    0.494   82.892    3.640
  320.750    0.281    0.504   81.083    4.224
  321.000    0.288    0.498   81.705    4.637
  321.250    0.302    0.502   82.324    4.905
  321.500    0.238    0.486   82.946    5.286
  321.750    0.208    0.439   82.956    5.490
  322.000    0.213    0.435   82.361    5.595
  322.250    0.218    0.454   82.981    5.704
  322.500    0.274    0.459   85.424    5.603
  322.750    0.302    0.468   89.084    5.018
  323.000    0.320    0.471   90.915    4.662
  323.250    0.278    0.494   93.964    4.252
  323.500    0.237    0.517   95.193    4.100
  323.750    0.242    0.525   90.953    3.955
  324.000    0.230    0.515   86.108    3.957
  324.250    0.220    0.502   87.942    3.959
  324.500    0.225    0.490   90.383    3.889
  324.750    0.209    0.488   92.825    3.891
  325.000    0.202    0.483   94.052    3.823
  325.250    0.211    0.487   95.280    3.756
  325.500    0.201    0.504   92.864    3.688
  325.750    0.197    0.517   95.309    3.557
  326.000    0.206    0.517   96.533    3.494
  326.250    0.202    0.507   97.154    3.433
  326.500    0.197    0.489   97.773    3.371
  326.750    0.203    0.495   95.359    3.312
  327.000    0.214    0.506   91.727    3.313
  327.250    0.220    0.488   89.311    3.441
  327.500    0.209    0.471   86.287    3.778
  327.750    0.183    0.462   83.263    3.996
  328.000    0.197    0.459   79.025    4.468
  328.250    0.222    0.437   74.179    5.794
  328.500    0.230    0.390   70.547    6.978
  328.750    0.207    0.382   68.130    8.721
  329.000    0.177    0.378   68.749    9.573
  329.250    0.166    0.402   73.014    9.758
  329.500    0.217    0.420   74.848    9.765
  329.750    0.245    0.411   74.257    9.592
  330.000    0.237    0.413   70.017    9.779
  330.250    0.231    0.398   68.814    9.969
  330.500    0.211    0.412   66.397    9.973
  330.750    0.217    0.429   68.840   10.356
  331.000    0.266    0.449   71.281   10.172
  331.250    0.272    0.449   76.761    8.617
  331.500    0.260    0.444   79.809    7.299
  331.750    0.223    0.461   80.430    6.536
  332.000    0.234    0.484   74.979    6.072
  332.250    0.243    0.517   71.345    5.855
  332.500    0.265    0.468   66.500    6.310
  332.750    0.271    0.403   65.904    9.667
  333.000    0.270    0.395   68.348   15.088
  333.250    0.260    0.389   67.145   21.071
  333.500    0.260    0.374   62.906   27.330
  333.750    0.261    0.376   62.919   28.376
