~VERSION INFORMATION
 VERS.                 2.0:   CWLS LOG ASCII STANDARD -VERSION 2.0
 WRAP.                  NO:   ONE LINE PER DEPTH STEP
~WELL INFORMATION BLOCK
#MNEM.UNIT           DATA                    DESCRIPTION OF MNEMONIC
#---------    -------------------            -------------------------------
# Generated from Intellog Unique Number	CS_73_76/WELL/2188
WELL.         PEX-MARGIS                     : Well_name    - WELL
LOC .         00/10-14-074-09W4/0            : Location     - LOCATION
UWI .         00/10-14-074-09W4/0            : Uwi          - UNIQUE WELL ID
ENTR.         SP                             : Entered      - ENTERED BY
SRVC.         SCHLUMBERGER                   : Scn          - SERVICE COMPANY
STRT.M        285                            : top_depth    - START DEPTH
STOP.M        493                            : bot_depth    - STOP DEPTH
STEP.M        0.25                           : increment    - STEP LENGTH
 NULL. -999.2500:NULL Value
~CURVE INFORMATION BLOCK
#MNEM UNIT       ERCB CURVE CODE    CURVE DESCRIPTION
#-----------   ------------------   ----------------------------------
DEPT.M        00 001 00 00         : DEPTH        - DEPTH
ILD .OHMM     00 120 00 00         : RESD         - DEEP RESISTIVITY (DIL)
NPHI.V/V      00 330 00 00         : PHIN         - NEUTRON POROSITY (LIMESTONE)
GR  .API      00 310 00 00         : GR           - GAMMA RAY
DPHI.V/V      00 890 00 00         : PHID         - DENSITY POROSITY (LIMESTONE)
~PARAMETER INFORMATION
#MNEM.UNIT           DATA             DESCRIPTION OF MNEMONIC
#---------         -----------     ------------------------------
GL  .M        654.68               : gl           - GROUND LEVEL ELEVATION
EREF.M        658.64               : kb           - ELEVATION OF DEPTH REFERENCE
DATM.M        654.68               : datum        - DATUM ELEVATION
TDD .M        503.51               : tdd          - TOTAL DEPTH DRILLER
RUN .         ONE                  : Run          - RUN NUMBER
ENG .         BILL                 : Engineer     - RECORDING ENGINEER
WIT .         JIM                  : Witness      - WITNESSED BY
MUD .         GEL                  : Mud_type     - MUD TYPE
MATR.         LIMESTONE            : Logunit      - NEUTRON MATRIX
TMAX.C        34                   : BHT          - MAXIMUM RECORDED TEMPERATURE
BHTD.M        503.51               : BHTDEP       - MAXIMUM RECORDED TEMPERATURE
MATR.         1                    : LOGUNIT      - NEUTRON MATRIX
RMT .C        25                   : MDTP         - TEMPERATURE OF MUD
NEUT.         1                    : NEUTRON      - NEUTRON TYPE
RESI.         0                    : RESIST       - RESISTIVITY TYPE
RMC .OHMM     0.25                 : RMC          - RESISTIVITY OF MUD CAKE
RMF .OHMM     0.25                 : RMF          - RESISTIVITY OF MUD FILTRATE
SUFT.C        15                   : SUFT         - SURFACE TEMPERATURE
~A  DEPTH     RESD     PHIN       GR     PHID
# ...
  415.500    2.129    0.461   89.079    0.361
  415.750    2.050    0.459   92.811    0.340
  416.000    2.050    0.442   93.431    0.277
  416.250    2.051    0.442   88.449    0.275
  416.500    2.051    0.434   90.314    0.279
  416.750    2.090    0.445   95.291    0.279
  417.000    2.212    0.438   98.401    0.302
  417.250    2.386    0.431  102.756    0.289
  417.500    2.723    0.436   96.529    0.293
  417.750    3.051    0.422   90.925    0.311
  418.000    3.417    0.412   87.811    0.337
  418.250    3.686    0.401   84.075    0.384
  418.500    4.208    0.395   84.695    0.404
  418.750    4.454    0.391   87.803    0.344
  419.000    4.804    0.389   89.046    0.281
  419.250    5.589    0.385   89.667    0.242
  419.500    6.752    0.376   89.665    0.204
  419.750    8.005    0.368   87.796    0.191
  420.000    9.672    0.360   82.814    0.180
  420.250   11.252    0.353   77.210    0.201
  420.500   15.816    0.346   71.607    0.314
  420.750   18.400    0.344   72.226    0.333
  421.000   19.847    0.343   72.224    0.344
  421.250   20.612    0.338   72.222    0.271
  421.500   21.816    0.336   70.974    0.237
  421.750   23.090    0.332   68.483    0.220
  422.000   22.658    0.327   65.369    0.267
  422.250   21.817    0.321   64.744    0.296
  422.500   23.982    0.319   68.476    0.316
  422.750   24.440    0.321   70.964    0.322
  423.000   23.983    0.332   74.073    0.331
  423.250   23.093    0.347   74.694    0.332
  423.500   20.616    0.354   74.069    0.323
  423.750   19.479    0.356   71.577    0.317
  424.000   17.390    0.362   71.575    0.302
  424.250   17.065    0.373   74.684    0.283
  424.500   17.391    0.366   75.305    0.284
  424.750   18.062    0.356   75.302    0.296
  425.000   19.482    0.352   74.678    0.308
  425.250   20.619    0.351   75.298    0.314
  425.500   22.240    0.326   75.918    0.321
  425.750   26.368    0.315   75.294    0.307
  426.000   36.368    0.303   72.802    0.252
  426.250   40.738    0.289   70.310    0.192
  426.500   45.635    0.269   66.573    0.135
  426.750   49.222    0.252   64.082    0.021
  427.000   46.508    0.237   64.079    0.001
  427.250   41.520    0.237   62.210    0.000
  427.500   37.067    0.256   60.340    0.003
  427.750   33.091    0.284   63.450    0.036
  428.000   30.681    0.306   64.070    0.065
  428.250   27.913    0.325   67.180    0.110
  428.500   24.920    0.343   69.668    0.241
  428.750   20.626    0.337   65.308    0.059
  429.000   18.069    0.330   64.061    0.050
  429.250   16.753    0.340   67.794    0.248
  429.500   14.956    0.367   74.637    0.277
  429.750   14.131    0.383   77.748    0.288
  430.000   13.607    0.379   78.368    0.266
  430.250   13.607    0.369   78.365    0.254
  430.500   13.353    0.364   79.608    0.254
  430.750   13.103    0.361   79.605    0.254
  431.000   12.858    0.360   78.981    0.255
  431.250   12.617    0.371   77.112    0.269
  431.500   12.381    0.379   77.732    0.227
  431.750   12.381    0.372   81.464    0.206
  432.000   12.382    0.374   82.706    0.246
  432.250   12.382    0.392   80.215    0.260
  432.500   12.382    0.401   78.345    0.257
  432.750   12.619    0.399   78.343    0.246
  433.000   12.383    0.393   77.718    0.295
  433.250   12.383    0.382   75.226    0.275
  433.500   12.151    0.368   73.357    0.225
  433.750   11.700    0.360   74.599    0.219
  434.000   10.848    0.348   75.842    0.256
  434.250   10.446    0.340   77.706    0.274
  434.500    9.504    0.334   78.327    0.103
  434.750    9.326    0.332   76.458    0.081
  435.000    8.980    0.339   79.567    0.121
  435.250    8.980    0.350   81.432    0.168
  435.500    9.326    0.355   82.053    0.227
  435.750   10.252    0.352   80.805    0.247
  436.000   10.448    0.347   80.181    0.252
  436.250   10.647    0.344   78.934    0.258
  436.500   10.252    0.340   77.064    0.247
  436.750    9.506    0.341   77.062    0.203
  437.000    8.327    0.345   78.305    0.171
  437.250    7.295    0.345   80.793    0.133
  437.500    5.814    0.356   88.258    0.161
  437.750    5.190    0.368   93.858    0.186
  438.000    4.812    0.370  100.080    0.202
  438.250    5.093    0.365  106.924    0.215
  438.500    7.159    0.354  108.167    0.228
  438.750    9.689    0.345  103.808    0.251
  439.000   11.487    0.335   96.959    0.273
  439.250   13.113    0.331   87.621    0.286
  439.500   14.144    0.328   80.772    0.280
  439.750   14.690    0.328   70.189    0.286
  440.000   15.256    0.324   63.340    0.295
  440.250   14.971    0.319   60.226    0.265
  440.500   14.691    0.325   68.937    0.236
  440.750   13.880    0.334   73.915    0.221
  441.000   12.869    0.336   75.779    0.205
  441.250   11.932    0.329   78.888    0.219
  441.500   11.489    0.334   79.510    0.213
  441.750   11.490    0.341   81.374    0.236
  442.000   11.275    0.344   83.861    0.254
  442.250   10.857    0.335   82.615    0.233
  442.500   10.454    0.331   85.102    0.242
  442.750    9.692    0.328   77.009    0.255
  443.000    9.333    0.330   75.139    0.244
  443.250    8.653    0.328   80.115    0.237
  443.500    8.332    0.327   82.603    0.205
  443.750    8.176    0.330   83.846    0.230
  444.000    7.873    0.339   80.732    0.243
  444.250    7.725    0.333   84.464    0.258
  444.500    7.726    0.335   90.063    0.238
  444.750    7.873    0.338   95.663    0.238
  445.000    7.873    0.344   98.150    0.227
  445.250    7.874    0.345   96.281    0.215
  445.500    7.874    0.348   94.411    0.213
  445.750    7.874    0.352   96.276    0.210
  446.000    7.727    0.360  103.120    0.209
  446.250    7.874    0.355  108.097    0.205
  446.500    8.334    0.355  102.494    0.201
  446.750    8.656    0.341   85.686    0.196
  447.000    9.696    0.332   73.236    0.188
  447.250   10.262    0.325   75.723    0.184
  447.500   10.862    0.322   79.456    0.207
  447.750   11.939    0.318   86.922    0.217
  448.000   12.167    0.322   92.522    0.184
  448.250   12.878    0.327   95.631    0.161
  448.500   13.375    0.329   93.139    0.167
  448.750   14.156    0.322   87.536    0.189
  449.000   14.426    0.321   85.044    0.163
  449.250   14.702    0.318   85.663    0.184
  449.500   15.858    0.322   86.284    0.197
  449.750   19.898    0.327   88.771    0.141
  450.000   22.715    0.328   91.259    0.115
  450.250   25.445    0.343   93.746    0.142
  450.500   26.427    0.356   88.765    0.257
  450.750   25.447    0.351   86.273    0.309
  451.000   21.062    0.346   90.005    0.274
  451.250   17.107    0.346   95.604    0.235
  451.500   15.564    0.345   99.959    0.175
  451.750   14.160    0.338  102.447    0.141
  452.000   14.160    0.345  103.689    0.149
  452.250   14.431    0.349   83.147    0.175
  452.500   15.274    0.354   80.034    0.217
  452.750   15.863    0.351   80.653    0.212
  453.000   16.789    0.351   81.895    0.213
  453.250   17.110    0.344   83.138    0.207
  453.500   17.770    0.338   84.381    0.203
  453.750   17.770    0.338   88.113    0.198
  454.000   17.438    0.345   89.355    0.186
  454.250   17.438    0.349   88.731    0.170
  454.500   17.439    0.350   85.617    0.187
  454.750   17.439    0.358   85.615    0.202
  455.000   17.439    0.355   86.234    0.197
  455.250   17.773    0.340   84.366    0.236
  455.500   18.112    0.329   83.741    0.214
  455.750   18.811    0.326   87.472    0.191
  456.000   19.171    0.343   89.960    0.182
  456.250   20.678    0.350   93.070    0.198
  456.500   21.475    0.354   94.313    0.183
  456.750   23.163    0.351   94.933    0.171
  457.000   25.947    0.352   89.329    0.191
  457.250   28.521    0.359   83.725    0.233
  457.500   30.763    0.365   78.744    0.269
  457.750   31.950    0.352   77.496    0.302
  458.000   30.765    0.347   78.739    0.324
  458.250   25.950    0.343   86.206    0.289
  458.500   22.307    0.345   91.805    0.243
  458.750   19.541    0.345   94.293    0.230
