~VERSION INFORMATION
 VERS.                 2.0:   CWLS LOG ASCII STANDARD -VERSION 2.0
 WRAP.                  NO:   ONE LINE PER DEPTH STEP
~WELL INFORMATION BLOCK
#MNEM.UNIT           DATA                    DESCRIPTION OF MNEMONIC
#---------    -------------------            -------------------------------
# Generated from Intellog Unique Number	CW_79_81/WELL/2475
WELL.         GULF AMOCO HOOLE               : Well_name    - WELL
LOC .         00/10-26-081-25W4/0            : Location     - LOCATION
UWI .         00/10-26-081-25W4/0            : Uwi          - UNIQUE WELL ID
ENTR.         MAX                            : Entered      - ENTERED BY
SRVC.         SCHLUMBERGER                   : Scn          - SERVICE COMPANY
STRT.M        195.072                        : top_depth    - START DEPTH
STOP.M        457.072                        : bot_depth    - STOP DEPTH
STEP.M        0.25                           : increment    - STEP LENGTH
 NULL. -999.2500:NULL Value
~CURVE INFORMATION BLOCK
#MNEM UNIT       ERCB CURVE CODE    CURVE DESCRIPTION
#-----------   ------------------   ----------------------------------
DEPT.M        00 001 00 00         : DEPTH        - DEPTH
ILD .OHMM     00 120 00 00         : RESD         - DEEP RESISTIVITY (DIL)
NPHI.V/V      00 330 00 00         : PHIN         - NEUTRON POROSITY (SANDSTONE)
DPHI.V/V      00 890 00 00         : PHID         - DENSITY POROSITY (SANDSTONE)
GR  .API      00 310 00 00         : GR           - GAMMA RAY
CALI.MM       00 280 01 00         : CAL          - CALIPER
~PARAMETER INFORMATION
#MNEM.UNIT           DATA             DESCRIPTION OF MNEMONIC
#---------         -----------     ------------------------------
GL  .M        579.76               : gl           - GROUND LEVEL ELEVATION
EREF.M        583.021              : kb           - ELEVATION OF DEPTH REFERENCE
DATM.M        579.76               : datum        - DATUM ELEVATION
TDD .M        466.344              : tdd          - TOTAL DEPTH DRILLER
RUN .         ONE                  : Run          - RUN NUMBER
ENG .         BILL                 : Engineer     - RECORDING ENGINEER
WIT .         JIM                  : Witness      - WITNESSED BY
MUD .         GEL                  : Mud_type     - MUD TYPE
MATR.         SANDSTONE            : Logunit      - NEUTRON MATRIX
TMAX.C        27.2222              : BHT          - MAXIMUM RECORDED TEMPERATURE
BHTD.M        466.344              : BHTDEP       - MAXIMUM RECORDED TEMPERATURE
MATR.         1                    : LOGUNIT      - NEUTRON MATRIX
RMT .C        11.1111              : MDTP         - TEMPERATURE OF MUD
NEUT.         1                    : NEUTRON      - NEUTRON TYPE
RESI.         0                    : RESIST       - RESISTIVITY TYPE
RMC .OHMM     5.73                 : RMC          - RESISTIVITY OF MUD CAKE
RMF .OHMM     5.46                 : RMF          - RESISTIVITY OF MUD FILTRATE
SUFT.C        -20.5556             : SUFT         - SURFACE TEMPERATURE
~A  DEPTH     RESD     PHIN     PHID       GR      CAL
# ...
  414.072    8.856    0.459    0.209  102.531  173.459
  414.322    8.477    0.471    0.213  100.619  178.295
  414.572    8.524    0.458    0.223   98.171  183.435
  414.822    9.017    0.432    0.209   94.829  183.629
  415.072    9.958    0.408    0.176   90.475  177.870
  415.322   11.376    0.394    0.168   83.040  168.710
  415.572   12.366    0.382    0.220   72.107  165.337
  415.822   13.663    0.352    0.292   62.092  164.119
  416.072   15.419    0.306    0.341   51.359  161.084
  416.322   17.447    0.277    0.364   43.605  158.855
  416.572   19.409    0.278    0.364   40.561  158.443
  416.822   20.243    0.310    0.344   42.583  159.579
  417.072   17.580    0.351    0.333   45.558  161.254
  417.322   13.860    0.385    0.318   50.082  162.859
  417.572   11.832    0.403    0.310   52.999  163.255
  417.822   11.044    0.408    0.298   56.093  163.248
  418.072   11.120    0.404    0.277   59.963  163.241
  418.322   11.903    0.392    0.248   64.904  163.400
  418.572   13.038    0.385    0.207   69.370  164.232
  418.822   14.005    0.365    0.192   67.220  165.033
  419.072   14.501    0.348    0.212   59.885  165.228
  419.322   14.606    0.339    0.249   53.086  164.413
  419.572   14.446    0.334    0.286   49.208  162.992
  419.822   14.071    0.335    0.314   47.245  162.090
  420.072   13.756    0.349    0.331   46.991  161.662
  420.322   13.459    0.364    0.331   47.703  161.655
  420.572   13.096    0.377    0.323   48.950  161.647
  420.822   12.768    0.391    0.312   50.495  161.640
  421.072   12.516    0.403    0.301   51.801  161.734
  421.322   12.336    0.405    0.291   52.035  162.128
  421.572   12.446    0.406    0.275   52.625  162.119
  421.822   12.921    0.409    0.269   52.621  162.533
  422.072   13.516    0.408    0.241   53.153  162.608
  422.322   14.463    0.402    0.208   54.818  162.600
  422.572   15.753    0.382    0.174   58.628  162.694
  422.822   17.069    0.331    0.122   66.014  163.092
  423.072   18.850    0.316    0.131   76.736  164.090
  423.322   19.423    0.354    0.161   82.690  164.082
  423.572   18.491    0.373    0.169   85.130  164.377
  423.822   15.671    0.393    0.175   87.271  165.177
  424.072   12.660    0.417    0.194   89.769  166.785
  424.322   10.758    0.450    0.233   91.909  169.602
  424.572   10.375    0.461    0.258   84.753  171.612
  424.822   10.610    0.444    0.255   78.044  169.081
  425.072   11.241    0.421    0.240   71.155  165.541
  425.322   12.652    0.399    0.217   66.622  162.304
  425.572   15.008    0.379    0.204   66.796  160.378
  425.822   17.516    0.361    0.232   72.513  159.968
  426.072   19.344    0.402    0.258   76.382  159.454
  426.322   19.931    0.425    0.252   80.102  159.446
  426.572   20.708    0.435    0.258   80.663  159.742
  426.822   21.699    0.433    0.260   80.778  160.139
  427.072   22.788    0.421    0.255   81.549  160.535
  427.322   23.802    0.411    0.258   83.213  160.930
  427.572   26.049    0.413    0.267   78.737  160.921
  427.822   28.910    0.435    0.268   75.504  160.913
  428.072   31.336    0.444    0.265   76.285  160.905
  428.322   33.580    0.445    0.260   78.306  160.897
  428.572   35.338    0.445    0.256   80.388  160.889
  428.822   36.375    0.450    0.258   82.291  160.881
  429.072   34.450    0.449    0.261   84.074  160.874
  429.322   30.259    0.432    0.242   85.310  160.865
  429.572   27.016    0.421    0.225   86.091  160.858
  429.822   24.061    0.411    0.210   87.159  160.850
  430.072   19.012    0.401    0.199   88.525  160.842
  430.322   11.377    0.395    0.189   90.208  160.832
  430.572    8.560    0.408    0.176   92.687  160.827
  430.822    6.956    0.435    0.190   92.443  160.818
  431.072    6.008    0.441    0.201   92.916  161.113
  431.322    5.523    0.442    0.209   94.581  161.711
  431.572    5.386    0.446    0.210   95.947  162.409
  431.822    5.664    0.442    0.196   93.508  162.889
  432.072    6.348    0.397    0.184   93.255  163.301
  432.322    7.164    0.426    0.202   95.396  164.101
  432.572    7.562    0.447    0.200   94.677  164.295
  432.822    7.617    0.450    0.200   92.169  164.085
  433.072    7.494    0.442    0.208   88.886  163.776
  433.322    7.429    0.447    0.229   85.633  163.935
  433.572    7.953    0.482    0.276   84.882  164.765
  433.822    8.302    0.507    0.311   86.308  164.759
  434.072    8.440    0.538    0.329   87.377  164.449
  434.322    8.408    0.562    0.330   87.850  164.240
  434.572    8.241    0.560    0.309   87.725  164.333
  434.822    7.850    0.505    0.256   86.945  164.896
  435.072    7.393    0.492    0.230   85.451  165.729
  435.322    7.181    0.532    0.231   83.301  166.933
  435.572    7.091    0.539    0.222   77.932  168.743
  435.822    7.065    0.514    0.208   72.564  169.138
  436.072    7.064    0.471    0.190   71.487  168.020
  436.322    7.042    0.448    0.167   81.356  167.287
  436.572    6.936    0.505    0.188   87.808  167.699
  436.822    6.835    0.493    0.206   91.140  168.096
  437.072    6.847    0.465    0.186   90.003  167.281
  437.322    6.970    0.439    0.154   85.350  166.264
  437.572    7.212    0.427    0.140   80.757  165.450
  437.822    7.655    0.457    0.193   83.463  164.717
  438.072    8.010    0.547    0.251   88.673  165.130
  438.322    8.125    0.538    0.233   87.238  165.929
  438.572    8.022    0.514    0.214   84.373  165.215
  438.822    7.907    0.489    0.213   83.653  164.602
  439.072    7.905    0.469    0.222   85.853  164.898
  439.322    8.150    0.452    0.211   89.644  166.350
  439.572    8.527    0.448    0.207   93.115  167.605
  439.822    8.902    0.449    0.210   92.872  168.405
  440.072    9.197    0.439    0.242   95.132  169.508
  440.322    9.365    0.436    0.252   98.227  170.914
  440.572    9.311    0.452    0.241  100.785  172.419
  440.822    8.876    0.496    0.257  100.640  173.199
  441.072    8.677    0.485    0.249   95.172  171.090
  441.322    8.866    0.471    0.253   91.592  168.661
  441.572    9.353    0.457    0.222   87.654  166.837
  441.822    9.946    0.431    0.174   85.862  165.618
  442.072   10.557    0.399    0.145   86.811  165.004
  442.322   11.388    0.383    0.200   89.636  164.911
  442.572   12.007    0.381    0.234   91.866  164.484
  442.822   12.357    0.361    0.247   89.239  164.071
  443.072   13.264    0.346    0.259   83.931  163.963
  443.322   14.708    0.329    0.276   77.967  163.753
  443.572   16.484    0.319    0.289   73.969  163.443
  443.822   18.096    0.347    0.269   76.348  163.435
  444.072   19.372    0.380    0.256   82.303  163.427
  444.322   18.953    0.381    0.241   85.874  163.015
  444.572   17.043    0.384    0.231   87.658  162.301
  444.822   15.020    0.389    0.231   89.203  161.889
  445.072   13.584    0.395    0.241   90.629  161.780
  445.322   13.143    0.405    0.264   89.977  161.285
  445.572   13.857    0.405    0.277   86.744  160.856
  445.822   14.780    0.407    0.284   86.264  160.445
  446.072   15.767    0.412    0.290   85.961  160.033
  446.322   16.825    0.413    0.290   85.599  159.824
  446.572   17.678    0.406    0.283   85.237  159.816
  446.822   17.885    0.392    0.263   85.231  159.891
  447.072   19.001    0.379    0.249   85.225  160.303
  447.322   19.414    0.365    0.236   86.414  160.699
  447.572   18.679    0.379    0.229   89.569  160.792
  447.822   16.755    0.392    0.232   95.167  160.784
  448.072   14.322    0.395    0.237  102.254  160.878
  448.322   11.490    0.394    0.230  109.142  161.273
  448.572    9.215    0.395    0.225  112.615  161.266
  448.822    8.073    0.413    0.226  118.569  161.257
  449.072    7.830    0.460    0.230  125.240  161.250
  449.322    7.998    0.495    0.231  128.454  161.445
  449.572    8.338    0.494    0.226  127.675  161.739
  449.822    8.710    0.439    0.211  125.108  161.814
  450.072    9.044    0.381    0.195  120.633  162.227
  450.322    9.109    0.391    0.198  116.098  162.624
