~VERSION INFORMATION
 VERS.                 2.0:   CWLS LOG ASCII STANDARD -VERSION 2.0
 WRAP.                  NO:   ONE LINE PER DEPTH STEP
~WELL INFORMATION BLOCK
#MNEM.UNIT           DATA                    DESCRIPTION OF MNEMONIC
#---------    -------------------            -------------------------------
# Generated from Intellog Unique Number	CW_76_78/WELL/2582
WELL.         BAYSEL WILLOW R                : Well_name    - WELL
LOC .         00/11-25-078-03W5/0            : Location     - LOCATION
UWI .         00/11-25-078-03W5/0            : Uwi          - UNIQUE WELL ID
ENTR.         MAX                            : Entered      - ENTERED BY
SRVC.         SCHLUMBERGER                   : Scn          - SERVICE COMPANY
STRT.M        347.472                        : top_depth    - START DEPTH
STOP.M        609.722                        : bot_depth    - STOP DEPTH
STEP.M        0.25                           : increment    - STEP LENGTH
 NULL. -999.2500:NULL Value
~CURVE INFORMATION BLOCK
#MNEM UNIT       ERCB CURVE CODE    CURVE DESCRIPTION
#-----------   ------------------   ----------------------------------
DEPT.M        00 001 00 00         : DEPTH        - DEPTH
ILD .OHMM     00 120 00 00         : RESD         - DEEP RESISTIVITY (DIL)
NPHI.V/V      00 330 00 00         : PHIN         - NEUTRON POROSITY (SANDSTONE)
DPHI.V/V      00 890 00 00         : PHID         - DENSITY POROSITY (SANDSTONE)
CALI.MM       00 280 01 00         : CAL          - CALIPER
GR  .API      00 310 00 00         : GR           - GAMMA RAY
~PARAMETER INFORMATION
#MNEM.UNIT           DATA             DESCRIPTION OF MNEMONIC
#---------         -----------     ------------------------------
GL  .M        649.102              : gl           - GROUND LEVEL ELEVATION
EREF.M        653.308              : kb           - ELEVATION OF DEPTH REFERENCE
DATM.M        649.102              : datum        - DATUM ELEVATION
TDD .M        619.963              : tdd          - TOTAL DEPTH DRILLER
RUN .         ONE                  : Run          - RUN NUMBER
ENG .         BILL                 : Engineer     - RECORDING ENGINEER
WIT .         JIM                  : Witness      - WITNESSED BY
MUD .         GEL                  : Mud_type     - MUD TYPE
MATR.         SANDSTONE            : Logunit      - NEUTRON MATRIX
TMAX.C        27.2222              : BHT          - MAXIMUM RECORDED TEMPERATURE
BHTD.M        619.963              : BHTDEP       - MAXIMUM RECORDED TEMPERATURE
RMT .C        12.2222              : MDTP         - TEMPERATURE OF MUD
MUDD.KG/M     9100                 : MWT          - MUD DENSITY
NEUT.         1                    : NEUTRON      - NEUTRON TYPE
RESI.         0                    : RESIST       - RESISTIVITY TYPE
RM  .OHMM     0.25                 : RM           - RESISTIVITY OF MUD
RMC .OHMM     0.25                 : RMC          - RESISTIVITY OF MUD CAKE
RMF .OHMM     1.3                  : RMF          - RESISTIVITY OF MUD FILTRATE
SUFT.C        -15                  : SUFT         - SURFACE TEMPERATURE
~A  DEPTH     RESD     PHIN     PHID      CAL       GR
# ...
  456.972    6.884    0.441    0.208  151.341   82.783
  457.222    6.934    0.448    0.202  149.796   83.061
  457.472    6.921    0.452    0.213  149.259   82.744
  457.722    6.921    0.445    0.209  151.248   83.925
  457.972    6.838    0.448    0.202  153.756   85.400
  458.222    6.767    0.462    0.210  157.266   85.682
  458.472    6.758    0.489    0.220  155.212   83.278
  458.722    6.747    0.525    0.260  151.138   75.494
  458.972    6.856    0.509    0.261  148.581   71.290
  459.222    7.030    0.491    0.256  148.041   72.171
  459.472    7.083    0.465    0.242  148.014   75.742
  459.722    7.135    0.455    0.221  147.477   81.102
  459.972    7.185    0.464    0.211  147.456   75.707
  460.222    7.240    0.463    0.215  147.456   70.015
  460.472    7.491    0.460    0.234  147.398   67.609
  460.722    7.818    0.468    0.253  147.876   66.994
  460.972    8.088    0.479    0.261  148.347   69.067
  461.222    8.293    0.486    0.261  148.808   71.739
  461.472    8.356    0.514    0.262  148.802   74.411
  461.722    8.269    0.517    0.258  148.268   74.992
  461.972    8.183    0.500    0.253  148.223   74.374
  462.222    7.812    0.508    0.240  147.700   77.646
  462.472    7.596    0.514    0.221  148.179   81.509
  462.722    7.384    0.497    0.207  148.148   84.782
  462.972    7.306    0.489    0.215  148.120   85.662
  463.222    7.293    0.495    0.234  148.089   83.850
  463.472    7.282    0.497    0.245  148.062   82.636
  463.722    7.337    0.496    0.236  148.537   82.317
  463.972    7.383    0.497    0.228  148.537   82.006
  464.222    7.444    0.518    0.225  148.478   81.992
  464.472    7.499    0.520    0.223  148.457   84.961
  464.722    7.623    0.511    0.210  148.932   79.269
  464.972    7.954    0.444    0.187  149.404   67.303
  465.222    8.306    0.367    0.147  150.395   59.520
  465.472    9.229    0.296    0.120  153.901   55.619
  465.722   10.254    0.284    0.125  155.391   55.602
  465.972   11.494    0.356    0.174  153.343   55.885
  466.222   12.319    0.390    0.217  148.248   57.659
  466.472   12.301    0.386    0.209  145.185   60.331
  466.722   12.282    0.377    0.190  144.153   62.704
  466.972   11.938    0.360    0.154  144.153   64.775
  467.222   11.712    0.341    0.176  144.094   66.553
  467.472   11.081    0.368    0.177  144.063   69.820
  467.722   10.489    0.403    0.199  143.523   73.092
  467.972    9.576    0.444    0.226  143.499   78.152
  468.222    8.907    0.465    0.229  143.468   82.315
  468.472    8.064    0.476    0.218  143.943   84.689
  468.722    6.979    0.487    0.218  146.957   83.177
  468.972    6.547    0.494    0.210  152.989   81.366
  469.222    6.310    0.499    0.211  154.988   80.157
  469.472    6.133    0.502    0.213  156.478   78.345
  469.722    6.016    0.506    0.215  156.956   77.136
  469.972    6.007    0.505    0.216  155.914   76.225
  470.222    6.160    0.499    0.216  155.380   75.012
  470.472    6.603    0.478    0.197  154.847   73.500
  470.722    7.270    0.414    0.171  155.831   70.497
  470.972    8.078    0.369    0.121  158.326   66.896
  471.222    9.055    0.344    0.090  159.307   65.683
  471.472    8.963    0.300    0.121  158.274   76.719
  471.722    8.185    0.364    0.194  158.247   80.885
  471.972    7.954    0.459    0.189  159.224   77.284
  472.222    8.304    0.443    0.174  160.212   75.469
  472.472    8.219    0.411    0.157  160.686   76.650
  472.722    8.059    0.365    0.150  160.153   79.025
  472.972    7.835    0.376    0.162  158.099   81.695
  473.222    7.481    0.444    0.177  157.063   82.872
  473.472    6.957    0.504    0.205  156.526   82.256
  473.722    6.411    0.524    0.226  157.507   81.045
  473.972    6.014    0.571    0.213  157.989   80.732
  474.222    5.692    0.560    0.223  157.448   81.311
  474.472    5.484    0.513    0.212  157.424   82.787
  474.722    5.425    0.502    0.204  158.408   82.770
  474.972    5.417    0.497    0.188  157.872   83.055
  475.222    5.410    0.504    0.184  157.844   83.333
  475.472    5.401    0.505    0.188  158.322   86.005
  475.722    5.441    0.489    0.177  158.322   84.794
  475.972    5.527    0.474    0.178  158.770   84.776
  476.222    5.527    0.472    0.201  160.256   87.150
  476.472    5.512    0.524    0.202  160.728   88.027
  476.722    5.702    0.511    0.195  161.209   87.117
  476.972    5.899    0.503    0.200  161.178   87.397
  477.222    6.103    0.512    0.205  160.645   87.084
  477.472    6.315    0.506    0.215  159.606   87.066
  477.722    6.710    0.508    0.241  156.544   87.944
  477.972    7.132    0.499    0.234  153.987   88.226
  478.222    7.713    0.500    0.257  152.944   89.403
  478.472    8.570    0.521    0.259  152.913   86.999
  478.722   10.044    0.567    0.256  152.879   80.409
  478.972   11.875    0.569    0.248  152.879   77.705
  479.222   14.044    0.562    0.227  153.326   68.725
  479.472   16.170    0.508    0.177  154.823   63.330
  479.722   18.613    0.362    0.119  156.815   58.536
  479.972   21.244    0.274    0.041  159.819   50.752
  480.222   25.800    0.172    0.008  161.316   48.645
  480.472   30.238    0.174    0.019  161.794   54.003
  480.722   31.287    0.262    0.049  161.258   58.467
  480.972   27.082    0.351    0.127  161.258   62.334
  481.222   22.837    0.436    0.219  161.199   66.797
  481.472   19.251    0.471    0.266  161.165   71.859
  481.722   16.227    0.509    0.270  161.144   73.635
  481.972   14.429    0.534    0.269  161.113   74.512
  482.222   13.414    0.548    0.270  161.113   76.886
  482.472   12.471    0.535    0.278  161.048   78.363
  482.722   11.596    0.482    0.282  161.526   78.347
  482.972   10.496    0.465    0.272  162.008   80.419
  483.222    9.588    0.488    0.255  161.980   83.988
  483.472    8.914    0.478    0.227  160.938   83.374
  483.722    8.585    0.453    0.214  158.887   82.758
  483.972    8.498    0.447    0.209  158.353   79.456
  484.222    8.559    0.440    0.196  157.817   77.942
  484.472    8.624    0.417    0.187  157.786   79.420
  484.722    8.535    0.412    0.182  158.271   81.496
  484.972    8.222    0.414    0.188  159.248   83.571
  485.222    7.852    0.463    0.218  158.711   82.955
  485.472    7.364    0.487    0.222  158.691   82.342
  485.722    7.031    0.497    0.214  158.656   82.624
  485.972    6.776    0.498    0.197  159.637   84.695
  486.222    6.587    0.483    0.184  160.115   87.066
  486.472    6.402    0.447    0.197  161.103   87.353
  486.722    6.337    0.432    0.191  161.578   87.032
  486.972    6.326    0.443    0.187  162.562   87.913
  487.222    6.371    0.440    0.176  163.036   87.001
  487.472    6.476    0.438    0.175  164.021   89.972
  487.722    7.083    0.462    0.164  158.000   88.877
  487.972    7.144    0.456    0.165  157.979   88.275
  488.222    7.142    0.439    0.168  157.458   88.559
  488.472    7.140    0.455    0.172  156.940   88.550
  488.722    7.075    0.461    0.177  156.919   88.241
  488.972    6.886    0.449    0.179  156.900   87.050
  489.222    6.642    0.436    0.172  156.882   88.219
  489.472    6.465    0.441    0.169  156.863   87.024
  489.722    6.181    0.453    0.170  157.845   86.426
  489.972    6.016    0.440    0.178  159.322   87.002
  490.222    5.961    0.444    0.183  159.322   88.468
  490.472    5.906    0.451    0.187  160.275   89.933
  490.722    6.011    0.460    0.183  160.764   91.103
  490.972    6.340    0.478    0.202  161.743   93.159
  491.222    6.688    0.502    0.226  161.227   93.738
  491.472    7.118    0.505    0.260  156.208   91.660
  491.722    7.713    0.504    0.266  149.687   87.809
  491.972    8.357    0.502    0.251  147.669   81.596
  492.222    9.218    0.508    0.236  150.643   75.089
  492.472    9.987    0.546    0.247  153.125   74.487
  492.722   10.725    0.534    0.248  152.609   75.361
  492.972   11.212    0.519    0.258  152.588   75.939
  493.222   11.109    0.503    0.253  152.567   75.928
