~VERSION INFORMATION
 VERS.                 2.0:   CWLS LOG ASCII STANDARD -VERSION 2.0
 WRAP.                  NO:   ONE LINE PER DEPTH STEP
~WELL INFORMATION BLOCK
#MNEM.UNIT           DATA                    DESCRIPTION OF MNEMONIC
#---------    -------------------            -------------------------------
# Generated from Intellog Unique Number	CS_71_72/WELL/856
WELL.         PEX PHILLIPS AEC WIAU          : Well_name    - WELL
LOC .         00/10-15-071-07W4/0            : Location     - LOCATION
UWI .         00/10-15-071-07W4/0            : Uwi          - UNIQUE WELL ID
ENTR.         SP                             : Entered      - ENTERED BY
SRVC.         SCHLUMBERGER                   : Scn          - SERVICE COMPANY
STRT.M        290                            : top_depth    - START DEPTH
STOP.M        507                            : bot_depth    - STOP DEPTH
STEP.M        0.25                           : increment    - STEP LENGTH
 NULL. -999.2500:NULL Value
~CURVE INFORMATION BLOCK
#MNEM UNIT       ERCB CURVE CODE    CURVE DESCRIPTION
#-----------   ------------------   ----------------------------------
DEPT.M        00 001 00 00         : DEPTH        - DEPTH
ILD .OHMM     00 120 00 00         : RESD         - DEEP RESISTIVITY (DIL)
DPHI.V/V      00 890 00 00         : PHID         - DENSITY POROSITY (LIMESTONE)
NPHI.V/V      00 330 00 00         : PHIN         - NEUTRON POROSITY (LIMESTONE)
GR  .API      00 310 00 00         : GR           - GAMMA RAY
~PARAMETER INFORMATION
#MNEM.UNIT           DATA             DESCRIPTION OF MNEMONIC
#---------         -----------     ------------------------------
GL  .M        647.2                : gl           - GROUND LEVEL ELEVATION
EREF.M        650.2                : kb           - ELEVATION OF DEPTH REFERENCE
DATM.M        647.2                : datum        - DATUM ELEVATION
TDD .M        510                  : tdd          - TOTAL DEPTH DRILLER
RUN .         ONE                  : Run          - RUN NUMBER
ENG .         BILL                 : Engineer     - RECORDING ENGINEER
WIT .         JIM                  : Witness      - WITNESSED BY
MUD .         GEL                  : Mud_type     - MUD TYPE
MATR.         LIMESTONE            : Logunit      - NEUTRON MATRIX
TMAX.C        25                   : BHT          - MAXIMUM RECORDED TEMPERATURE
BHTD.M        510                  : BHTDEP       - MAXIMUM RECORDED TEMPERATURE
MATR.         1                    : LOGUNIT      - NEUTRON MATRIX
RMT .C        25                   : MDTP         - TEMPERATURE OF MUD
NEUT.         1                    : NEUTRON      - NEUTRON TYPE
RESI.         0                    : RESIST       - RESISTIVITY TYPE
RMC .OHMM     0.25                 : RMC          - RESISTIVITY OF MUD CAKE
RMF .OHMM     0.25                 : RMF          - RESISTIVITY OF MUD FILTRATE
SUFT.C        15                   : SUFT         - SURFACE TEMPERATURE
~A  DEPTH     RESD     PHID     PHIN       GR
# ...
  333.500    5.938    0.257    0.495  101.836
  333.750    6.289    0.264    0.488  100.981
  334.000    6.660    0.283    0.482   98.429
  334.250    6.975    0.297    0.478   99.937
  334.500    7.237    0.288    0.465  101.809
  334.750    7.482    0.280    0.452  101.985
  335.000    7.649    0.294    0.444   95.312
  335.250    7.748    0.307    0.438   94.458
  335.500    7.818    0.311    0.436   95.542
  335.750    7.817    0.297    0.434   97.717
  336.000    7.786    0.273    0.429   96.620
  336.250    7.742    0.262    0.425   98.916
  336.500    7.626    0.254    0.428  101.515
  336.750    7.471    0.243    0.437  103.629
  337.000    7.318    0.246    0.453  104.169
  337.250    7.182    0.252    0.471  102.042
  337.500    7.049    0.252    0.479   99.551
  337.750    6.970    0.267    0.481   97.969
  338.000    6.943    0.275    0.481   97.235
  338.250    7.019    0.283    0.473   98.016
  338.500    7.044    0.285    0.470   99.524
  338.750    7.029    0.264    0.482   99.579
  339.000    6.709    0.251    0.501   98.239
  339.250    6.102    0.254    0.512  100.596
  339.500    5.664    0.262    0.510  103.618
  339.750    5.716    0.249    0.502  105.309
  340.000    6.190    0.239    0.497  106.637
  340.250    6.629    0.257    0.512  100.207
  340.500    7.165    0.287    0.502   81.171
  340.750    7.659    0.321    0.498   76.135
  341.000    8.051    0.318    0.504   76.309
  341.250    8.277    0.322    0.514   77.515
  341.500    8.337    0.328    0.494   78.902
  341.750    8.228    0.335    0.485   80.410
  342.000    8.120    0.333    0.478   81.496
  342.250    8.014    0.318    0.470   76.156
  342.500    8.072    0.306    0.458   70.270
  342.750    8.131    0.316    0.457   66.265
  343.000    8.175    0.319    0.460   61.955
  343.250    8.158    0.331    0.451   60.556
  343.500    7.918    0.350    0.443   64.489
  343.750    7.529    0.323    0.438   71.390
  344.000    7.335    0.291    0.443   76.475
  344.250    7.279    0.280    0.461   79.620
  344.500    7.346    0.297    0.463   74.339
  344.750    7.524    0.315    0.468   71.850
  345.000    7.692    0.326    0.466   69.052
  345.250    7.834    0.333    0.460   68.199
  345.500    7.950    0.326    0.456   67.891
  345.750    8.113    0.312    0.462   69.641
  346.000    8.278    0.304    0.465   72.906
  346.250    8.432    0.310    0.462   74.234
  346.500    8.588    0.331    0.455   75.744
  346.750    8.699    0.347    0.446   77.737
  347.000    8.877    0.358    0.440   79.003
  347.250    9.041    0.354    0.456   80.693
  347.500    9.107    0.344    0.455   82.565
  347.750    9.207    0.334    0.448   83.892
  348.000    9.292    0.329    0.444   85.279
  348.250    9.359    0.326    0.451   85.879
  348.500    9.375    0.318    0.447   84.357
  348.750    9.321    0.313    0.436   83.685
  349.000    9.233    0.307    0.422   85.132
  349.250    9.197    0.302    0.419   86.156
  349.500    9.213    0.300    0.426   86.755
  349.750    9.228    0.301    0.426   86.506
  350.000    9.158    0.304    0.427   83.228
  350.250    9.021    0.313    0.434   80.494
  350.500    8.887    0.318    0.435   80.791
  350.750    8.673    0.306    0.431   85.572
  351.000    8.449    0.301    0.429   90.716
  351.250    8.292    0.285    0.444   94.164
  351.500    8.168    0.269    0.458   94.764
  351.750    8.122    0.270    0.473   90.091
  352.000    8.060    0.281    0.465   82.083
  352.250    7.999    0.312    0.459   78.807
  352.500    7.865    0.330    0.457   75.164
  352.750    7.690    0.318    0.464   75.097
  353.000    7.436    0.311    0.469   75.574
  353.250    7.204    0.308    0.463   74.719
  353.500    7.005    0.318    0.454   73.076
  353.750    6.824    0.312    0.451   72.404
  354.000    6.647    0.307    0.458   73.003
  354.250    6.512    0.307    0.472   73.784
  354.500    6.451    0.309    0.494   73.353
  354.750    6.461    0.312    0.508   71.893
  355.000    6.705    0.313    0.519   69.463
  355.250    7.153    0.315    0.513   65.335
  355.500    7.590    0.317    0.493   61.571
  355.750    8.082    0.326    0.477   59.444
  356.000    8.465    0.338    0.472   57.983
  356.250    8.931    0.352    0.472   60.886
  356.500    9.285    0.361    0.468   63.243
  356.750    9.474    0.358    0.460   63.539
  357.000    9.614    0.347    0.454   63.775
  357.250    9.595    0.348    0.452   65.284
  357.500    9.469    0.354    0.465   68.368
  357.750    9.173    0.356    0.447   73.268
  358.000    8.837    0.345    0.436   75.870
  358.250    8.561    0.329    0.427   82.406
  358.500    8.371    0.305    0.420   87.914
  358.750    8.292    0.262    0.419   91.545
  359.000    8.244    0.253    0.433   93.964
  359.250    8.243    0.261    0.438   95.472
  359.500    8.288    0.267    0.435   96.496
  359.750    8.410    0.267    0.439   96.793
  360.000    8.582    0.263    0.433   95.150
  360.250    8.790    0.268    0.439   87.750
  360.500    8.953    0.287    0.457   79.076
  360.750    9.187    0.320    0.467   74.162
  361.000    9.323    0.336    0.485   75.124
  361.250    9.391    0.347    0.486   77.058
  361.500    9.424    0.349    0.477   79.110
  361.750    9.318    0.347    0.482   80.499
  362.000    9.179    0.341    0.487   81.765
  362.250    9.058    0.330    0.478   82.426
  362.500    9.007    0.310    0.464   77.510
  362.750    8.988    0.295    0.450   73.868
  363.000    8.937    0.282    0.430   72.468
  363.250    8.869    0.272    0.410   71.127
  363.500    8.769    0.285    0.402   69.000
  363.750    8.574    0.300    0.407   71.115
  364.000    8.337    0.312    0.415   76.987
  364.250    8.032    0.294    0.417   82.192
  364.500    7.766    0.269    0.429   86.064
  364.750    7.496    0.255    0.439   88.058
  365.000    7.357    0.255    0.440   87.809
  365.250    7.260    0.263    0.441   87.681
  365.500    7.219    0.251    0.448   86.523
  365.750    7.177    0.236    0.457   83.002
  366.000    7.110    0.240    0.461   84.147
  366.250    6.952    0.252    0.458   88.080
  366.500    6.710    0.260    0.470   91.767
  366.750    6.464    0.244    0.478   92.612
  367.000    6.239    0.243    0.480   94.786
  367.250    6.021    0.255    0.478   96.233
  367.500    5.822    0.252    0.475   94.168
  367.750    5.619    0.259    0.473   94.282
  368.000    5.424    0.269    0.472   97.366
  368.250    5.176    0.270    0.472   99.540
  368.500    5.138    0.267    0.473  100.263
  368.750    5.005    0.263    0.478  100.862
  369.000    4.921    0.253    0.488  100.189
  369.250    4.821    0.256    0.495   98.849
  369.500    4.705    0.261    0.499   97.994
  369.750    4.669    0.264    0.490   97.259
  370.000    4.591    0.261    0.497   96.646
  370.250    4.531    0.263    0.512   96.213
  370.500    4.496    0.278    0.514   96.029
  370.750    4.471    0.262    0.501   96.325
  371.000    4.503    0.254    0.491   96.379
  371.250    4.519    0.265    0.486   96.192
  371.500    4.543    0.242    0.481   96.186
  371.750    4.534    0.253    0.493   97.512
  372.000    4.483    0.265    0.514   99.565
  372.250    4.367    0.277    0.500  101.922
  372.500    4.168    0.288    0.501  103.371
  372.750    4.061    0.291    0.516  104.939
  373.000    3.993    0.286    0.518  104.692
  373.250    3.948    0.273    0.527  101.655
  373.500    3.954    0.277    0.541   97.345
  373.750    3.998    0.285    0.521   94.309
  374.000    4.050    0.286    0.506   90.545
  374.250    4.163    0.277    0.514   89.327
  374.500    4.409    0.269    0.512   90.714
  374.750    4.549    0.263    0.513   89.495
  375.000    4.660    0.261    0.518   83.792
  375.250    4.781    0.279    0.509   79.908
  375.500    4.825    0.300    0.499   74.750
  375.750    4.842    0.317    0.490   73.229
  376.000    4.814    0.305    0.493   73.889
  376.250    4.751    0.301    0.507   74.125
  376.500    4.680    0.309    0.507   73.755
  376.750    4.680    0.301    0.509   71.324
