~VERSION INFORMATION
 VERS.                 2.0:   CWLS LOG ASCII STANDARD -VERSION 2.0
 WRAP.                  NO:   ONE LINE PER DEPTH STEP
~WELL INFORMATION BLOCK
#MNEM.UNIT           DATA                    DESCRIPTION OF MNEMONIC
#---------    -------------------            -------------------------------
# Generated from Intellog Unique Number	CS_77_79/WELL/984
WELL.         CANADIAN WORLDWIDE ENERGY      : Well_name    - WELL
LOC .         00/11-03-077-04W4/0            : Location     - LOCATION
UWI .         00/11-03-077-04W4/0            : Uwi          - UNIQUE WELL ID
ENTR.         SP                             : Entered      - ENTERED BY
SRVC.         SCHLUMBERGER                   : Scn          - SERVICE COMPANY
STRT.M        175                            : top_depth    - START DEPTH
STOP.M        450                            : bot_depth    - STOP DEPTH
STEP.M        0.25                           : increment    - STEP LENGTH
 NULL. -999.2500:NULL Value
~CURVE INFORMATION BLOCK
#MNEM UNIT       ERCB CURVE CODE    CURVE DESCRIPTION
#-----------   ------------------   ----------------------------------
DEPT.M        00 001 00 00         : DEPTH        - DEPTH
ILD .OHMM     00 120 00 00         : RESD         - DEEP RESISTIVITY (DIL)
DPHI.V/V      00 890 00 00         : PHID         - DENSITY POROSITY (LIMESTONE)
NPHI.V/V      00 330 00 00         : PHIN         - NEUTRON POROSITY (LIMESTONE)
GR  .API      00 310 00 00         : GR           - GAMMA RAY
~PARAMETER INFORMATION
#MNEM.UNIT           DATA             DESCRIPTION OF MNEMONIC
#---------         -----------     ------------------------------
GL  .M        577.9                : gl           - GROUND LEVEL ELEVATION
EREF.M        581.55               : kb           - ELEVATION OF DEPTH REFERENCE
DATM.M        577.9                : datum        - DATUM ELEVATION
TDD .M        450                  : tdd          - TOTAL DEPTH DRILLER
RUN .         ONE                  : Run          - RUN NUMBER
ENG .         BILL                 : Engineer     - RECORDING ENGINEER
WIT .         JIM                  : Witness      - WITNESSED BY
MUD .         GEL                  : Mud_type     - MUD TYPE
MATR.         LIMESTONE            : Logunit      - NEUTRON MATRIX
TMAX.C        23                   : BHT          - MAXIMUM RECORDED TEMPERATURE
BHTD.M        450                  : BHTDEP       - MAXIMUM RECORDED TEMPERATURE
MATR.         1                    : LOGUNIT      - NEUTRON MATRIX
RMT .C        25                   : MDTP         - TEMPERATURE OF MUD
NEUT.         1                    : NEUTRON      - NEUTRON TYPE
RESI.         0                    : RESIST       - RESISTIVITY TYPE
RMC .OHMM     0.25                 : RMC          - RESISTIVITY OF MUD CAKE
RMF .OHMM     0.25                 : RMF          - RESISTIVITY OF MUD FILTRATE
SUFT.C        15                   : SUFT         - SURFACE TEMPERATURE
~A  DEPTH     RESD     PHID     PHIN       GR
# ...
  218.500   26.745    0.235    0.360   68.371
  218.750   29.408    0.270    0.360   60.936
  219.000   32.340    0.308    0.354   55.363
  219.250   35.569    0.323    0.347   58.467
  219.500   36.949    0.302    0.348   58.472
  219.750   39.123    0.291    0.343   62.195
  220.000   39.915    0.297    0.337   69.638
  220.250   39.938    0.285    0.354   64.684
  220.500   39.244    0.276    0.356   55.391
  220.750   39.274    0.274    0.346   53.536
  221.000   39.301    0.286    0.344   60.978
  221.250   39.328    0.292    0.353   65.322
  221.500   39.359    0.301    0.360   62.847
  221.750   38.667    0.308    0.359   60.992
  222.000   38.694    0.312    0.344   61.617
  222.250   39.457    0.316    0.344   63.482
  222.500   39.489    0.317    0.348   65.965
  222.750   39.524    0.322    0.337   69.070
  223.000   39.563    0.329    0.340   69.074
  223.250   38.849    0.335    0.345   68.459
  223.500   38.155    0.335    0.355   67.224
  223.750   36.771    0.333    0.365   65.988
  224.000   36.121    0.332    0.374   64.133
  224.250   35.483    0.333    0.380   67.857
  224.500   35.498    0.337    0.376   75.921
  224.750   34.870    0.341    0.367   78.404
  225.000   33.609    0.341    0.361   77.788
  225.250   33.004    0.336    0.386   74.075
  225.500   32.423    0.332    0.406   72.840
  225.750   31.844    0.338    0.403   76.564
  226.000   30.697    0.334    0.381   79.667
  226.250   29.038    0.327    0.361   82.151
  226.500   27.980    0.322    0.346   85.254
  226.750   25.978    0.322    0.339   89.598
  227.000   24.568    0.298    0.338   91.463
  227.250   22.810    0.291    0.354   93.948
  227.500   21.573    0.278    0.366   94.570
  227.750   20.402    0.276    0.374   96.434
  228.000   18.593    0.271    0.361   97.679
  228.250   17.255    0.273    0.367  105.742
  228.500   15.139    0.277    0.371  110.704
  228.750   13.279    0.262    0.375  116.288
  229.000   11.872    0.216    0.387  121.251
  229.250   10.818    0.199    0.406  126.834
  229.500   10.621    0.203    0.412  126.838
  229.750   10.237    0.213    0.401  124.365
  230.000    9.867    0.223    0.385  124.369
  230.250   10.254    0.223    0.387  124.994
  230.500    9.341    0.215    0.399  124.998
  230.750    9.526    0.208    0.420  125.622
  231.000    9.532    0.209    0.434  123.148
  231.250   10.287    0.242    0.456  122.532
  231.500   11.971    0.261    0.446  123.157
  231.750   13.161    0.274    0.416  116.344
  232.000   15.031    0.283    0.398  106.430
  232.250   15.614    0.286    0.420  101.476
  232.500   16.541    0.283    0.432  103.961
  232.750   16.866    0.284    0.437  110.164
  233.000   16.875    0.292    0.415  103.970
  233.250   16.266    0.298    0.404   94.057
  233.500   14.820    0.289    0.399   93.442
  233.750   14.554    0.220    0.412   98.406
  234.000   15.126    0.209    0.414  128.162
  234.250   16.016    0.219    0.417  121.349
  234.500   17.951    0.253    0.417   92.840
  234.750   19.365    0.302    0.419   71.771
  235.000   21.294    0.329    0.419   58.759
  235.250   22.547    0.335    0.412   52.565
  235.500   21.327    0.330    0.406   56.909
  235.750   19.801    0.321    0.399   81.087
  236.000   18.379    0.302    0.389   92.870
  236.250   17.381    0.274    0.396   87.294
  236.500   15.836    0.262    0.392   82.341
  236.750   14.423    0.277    0.375   81.725
  237.000   12.895    0.283    0.372   95.367
  237.250   11.745    0.285    0.378   97.850
  237.500   12.208    0.298    0.379   92.896
  237.750   13.423    0.309    0.379   85.463
  238.000   14.760    0.314    0.382   84.849
  238.250   16.538    0.315    0.387   84.852
  238.500   18.530    0.321    0.381   82.378
  238.750   19.997    0.327    0.384   79.285
  239.000   20.402    0.323    0.391   83.008
  239.250   20.799    0.299    0.391   91.070
  239.500   19.306    0.292    0.389   94.793
  239.750   17.582    0.280    0.391   94.799
  240.000   16.017    0.274    0.393   94.802
  240.250   14.323    0.258    0.395   97.906
  240.500   13.801    0.246    0.395   99.150
  240.750   13.812    0.241    0.398   89.239
  241.000   15.775    0.253    0.404   83.664
  241.250   17.024    0.261    0.397   74.371
  241.500   17.684    0.274    0.383   76.856
  241.750   17.373    0.241    0.377   78.100
  242.000   16.741    0.240    0.394   77.485
  242.250   15.260    0.267    0.400   78.109
  242.500   14.709    0.287    0.410   78.115
  242.750   14.176    0.289    0.412   78.119
  243.000   13.660    0.272    0.408   80.603
  243.250   13.668    0.272    0.408   82.466
  243.500   14.748    0.284    0.410   76.272
  243.750   16.847    0.301    0.410   66.980
  244.000   17.837    0.334    0.408   58.926
  244.250   19.241    0.357    0.420   58.313
  244.500   21.968    0.361    0.413   59.557
  244.750   25.567    0.355    0.399   59.560
  245.000   26.565    0.350    0.395   64.524
  245.250   26.583    0.352    0.399   70.108
  245.500   24.222    0.353    0.405   72.591
  245.750   22.480    0.357    0.411   71.356
  246.000   18.997    0.355    0.423   74.461
  246.250   17.629    0.342    0.436   75.704
  246.500   15.473    0.322    0.424   77.570
  246.750   15.193    0.317    0.416   76.954
  247.000   14.640    0.326    0.430   78.197
  247.250   14.386    0.333    0.434   86.261
  247.500   14.943    0.336    0.432   90.603
  247.750   17.387    0.347    0.434   85.649
  248.000   19.854    0.362    0.439   75.736
  248.250   22.674    0.361    0.436   67.063
  248.500   24.462    0.324    0.426   65.209
  248.750   25.900    0.322    0.411   63.353
  249.000   27.429    0.336    0.403   59.640
  249.250   28.500    0.353    0.408   60.883
  249.500   29.628    0.357    0.408   66.467
  249.750   30.212    0.352    0.414   68.950
  250.000   30.231    0.351    0.425   68.955
  250.250   30.255    0.359    0.431   67.100
  250.500   30.280    0.361    0.409   64.007
  250.750   30.317    0.358    0.390   61.531
  251.000   30.338    0.353    0.395   62.775
  251.250   29.787    0.358    0.401   65.880
  251.500   29.265    0.369    0.404   63.405
  251.750   28.740    0.367    0.400   62.789
  252.000   28.222    0.362    0.415   61.555
  252.250   27.719    0.359    0.424   60.321
  252.500   27.241    0.359    0.435   60.324
  252.750   27.261    0.366    0.435   64.047
  253.000   27.282    0.365    0.413   68.392
  253.250   26.790    0.352    0.417   65.297
  253.500   26.805    0.356    0.430   63.443
  253.750   26.827    0.362    0.437   63.447
  254.000   26.365    0.364    0.440   65.930
  254.250   26.390    0.358    0.442   64.695
  254.500   26.411    0.344    0.411   66.560
  254.750   26.429    0.339    0.398   68.425
  255.000   25.957    0.338    0.403   69.048
  255.250   25.972    0.339    0.416   72.152
  255.500   25.503    0.341    0.422   76.496
  255.750   25.057    0.336    0.425   77.740
  256.000   25.073    0.341    0.422   77.125
  256.250   24.622    0.339    0.419   76.510
  256.500   24.645    0.336    0.411   76.515
  256.750   24.663    0.334    0.405   74.659
  257.000   24.237    0.339    0.427   76.523
  257.250   24.252    0.337    0.426   78.388
  257.500   24.265    0.337    0.428   79.632
  257.750   24.281    0.337    0.430   75.299
  258.000   23.863    0.336    0.422   72.824
  258.250   23.878    0.338    0.411   70.349
  258.500   23.898    0.337    0.405   70.353
  258.750   23.468    0.334    0.404   72.219
  259.000   23.044    0.332    0.404   72.842
  259.250   23.061    0.331    0.421   74.085
  259.500   22.657    0.331    0.433   73.471
  259.750   22.250    0.326    0.440   70.996
  260.000   22.273    0.316    0.426   74.100
  260.250   21.870    0.316    0.402   72.245
  260.500   21.482    0.324    0.402   70.390
  260.750   20.709    0.331    0.441   71.635
  261.000   20.335    0.324    0.459   73.499
  261.250   19.598    0.324    0.461   75.984
  261.500   17.852    0.333    0.452   78.468
  261.750   15.370    0.336    0.440   82.810
