~VERSION INFORMATION
 VERS.                 2.0:   CWLS LOG ASCII STANDARD -VERSION 2.0
 WRAP.                  NO:   ONE LINE PER DEPTH STEP
~WELL INFORMATION BLOCK
#MNEM.UNIT           DATA                    DESCRIPTION OF MNEMONIC
#---------    -------------------            -------------------------------
# Generated from Intellog Unique Number	CX_WELLS/WELL/3834
WELL.         PAN AM VENARENT                : Well_name    - WELL
LOC .         00/16-05-087-07W4/0            : Location     - LOCATION
UWI .         00/16-05-087-07W400            : Uwi          - UNIQUE WELL ID
ENTR.         T                              : Entered      - ENTERED BY
SRVC.         SCHLUMBERGER                   : Scn          - SERVICE COMPANY
STRT.F        150                            : top_depth    - START DEPTH
STOP.F        770.079                        : bot_depth    - STOP DEPTH
STEP.F        0.82                           : increment    - STEP LENGTH
 NULL. -999.2500:NULL Value
~CURVE INFORMATION BLOCK
#MNEM UNIT       ERCB CURVE CODE    CURVE DESCRIPTION
#-----------   ------------------   ----------------------------------
DEPT.F        00 001 00 00         : DEPTH        - DEPTH
GR  .API      00 310 00 00         : GR           - GAMMA RAY
NPHI.V/V      00 330 00 00         : PHIN         - NEUTRON POROSITY (SANDSTONE)
ILD .OHMM     00 120 00 00         : RESD         - DEEP RESISTIVITY (DIL)
~PARAMETER INFORMATION
#MNEM.UNIT           DATA             DESCRIPTION OF MNEMONIC
#---------         -----------     ------------------------------
GL  .F        1517                 : gl           - GROUND LEVEL ELEVATION
EREF.F        1527                 : kb           - ELEVATION OF DEPTH REFERENCE
DATM.F        1527                 : datum        - DATUM ELEVATION
TDD .F        800                  : tdd          - TOTAL DEPTH DRILLER
RUN .         ONE                  : Run          - RUN NUMBER
ENG .         BILL                 : Engineer     - RECORDING ENGINEER
WIT .         JIM                  : Witness      - WITNESSED BY
MUD .         GEL                  : Mud_type     - MUD TYPE
MATR.         SANDSTONE            : Logunit      - NEUTRON MATRIX
TMAX.F        66.4                 : BHT          - MAXIMUM RECORDED TEMPERATURE
BHTD.F        800                  : BHTDEP       - MAXIMUM RECORDED TEMPERATURE
MATR.         1                    : LOGUNIT      - NEUTRON MATRIX
RMT .F        50                   : MDTP         - TEMPERATURE OF MUD
NEUT.         1                    : NEUTRON      - NEUTRON TYPE
RESI.         6                    : RESIST       - RESISTIVITY TYPE
RMC .OHMM     6                    : RMC          - RESISTIVITY OF MUD CAKE
RMF .OHMM     2.6                  : RMF          - RESISTIVITY OF MUD FILTRATE
SUFT.F        39.2                 : SUFT         - SURFACE TEMPERATURE
~A  DEPTH       GR     PHIN     RESD
# ...
  505.971   63.079    0.381   39.784
  506.791   50.347    0.386   41.767
  507.612   44.576    0.385   43.931
  508.432   38.805    0.381   46.456
  509.252   42.327    0.372   47.358
  510.072   47.599    0.361   49.523
  510.892   45.879    0.343   53.124
  511.713   43.019    0.310   56.906
  512.533   38.419    0.343   56.013
  513.353   37.279    0.367   54.400
  514.173   35.579    0.378   50.089
  514.993   35.610    0.369   46.678
  515.814   34.500    0.346   42.008
  516.634   33.941    0.324   38.416
  517.454   33.981    0.319   34.285
  518.274   37.503    0.347   29.616
  519.094   49.157    0.374   26.564
  519.915   50.917    0.380   24.055
  520.735   53.849    0.383   24.957
  521.555   65.502    0.385   25.684
  522.375   69.013    0.390   25.148
  523.196   71.945    0.391   23.534
  524.016   59.803    0.379   22.822
  524.836   58.673    0.355   22.646
  525.656   59.304    0.344   23.191
  526.476   59.325    0.357   23.917
  527.297   58.806    0.358   23.922
  528.117   58.826    0.352   23.571
  528.937   57.706    0.346   23.576
  529.757   57.157    0.341   23.581
  530.577   56.597    0.346   23.584
  531.398   54.897    0.371   23.770
  532.218   56.098    0.375   23.778
  533.038   58.450    0.398   23.781
  533.858   56.740    0.394   24.145
  534.678   46.338    0.370   24.871
  535.499   44.628    0.370   25.776
  536.319   45.829    0.369   26.680
  537.139   49.341    0.356   27.764
  537.959   54.603    0.346   30.827
  538.780   60.455    0.339   33.712
  539.600   59.325    0.344   30.480
  540.420   54.705    0.361   27.427
  541.240   45.463    0.385   23.296
  542.060   47.234    0.390   31.033
  542.881   66.419    0.385   36.254
  543.701   82.124    0.382   39.677
  544.521   72.872    0.387   42.379
  545.341   56.089    0.391   45.622
  546.161   45.107    0.391   48.145
  546.982   45.127    0.387   46.352
  547.802   44.588    0.383   43.839
  548.622   44.039    0.375   34.315
  549.442   40.599    0.370   15.977
  550.262   38.329    0.369   13.646
  551.083   39.499    0.364   12.392
  551.903   44.761    0.361   11.319
  552.723   55.825    0.358   10.606
  553.543   61.087    0.365   10.429
  554.364   65.178    0.376   10.078
  555.184   69.870    0.384   10.082
  556.004   69.891    0.384   10.448
  556.824   69.931    0.381   10.453
  557.644   71.132    0.385   10.101
  558.465   73.483    0.390   10.104
  559.285   76.425    0.398   10.290
  560.105   78.196    0.406   10.473
  560.925   84.618    0.394   11.199
  561.745   87.549    0.368   12.642
  562.566   81.799    0.392   13.727
  563.386   71.387    0.408   13.915
  564.206   61.555    0.418   13.918
  565.026   59.265    0.414   13.927
  565.846   56.416    0.411   13.930
  566.667   58.176    0.410   13.577
  567.487   64.008    0.408   13.221
  568.307   60.568    0.403   12.329
  569.127   49.006    0.397   12.156
  569.948   48.447    0.395   12.697
  570.768   46.747    0.385   17.198
  571.588   49.098    0.384   19.722
  572.408   53.780    0.381   29.978
  573.228   60.202    0.385   38.795
  574.049   61.983    0.390   44.556
  574.869   50.421    0.391   43.122
  575.689   48.712    0.377   41.148
  576.509   46.992    0.364   37.199
  577.329   41.811    0.358   32.348
  578.150   39.521    0.351   19.047
  578.970   42.463    0.343   17.433
  579.790   45.394    0.332   16.181
  580.610   50.076    0.322   15.286
  581.430   53.007    0.347   14.395
  582.251   60.589    0.370   14.398
  583.071   66.442    0.390   14.584
  583.891   67.622    0.395   15.310
  584.711   68.823    0.399   16.034
  585.531   68.864    0.399   16.759
  586.352   67.745    0.400   18.382
  587.172   65.454    0.401   19.466
  587.992   62.025    0.396   20.731
  588.812   60.305    0.391   21.635
  589.633   57.435    0.382   25.417
  590.453   53.984    0.377   33.335
  591.273   51.114    0.387   39.275
  592.093   45.944    0.396   43.236
  592.913   44.224    0.387   51.334
  593.734   41.364    0.382   55.656
  594.554   39.084    0.388   59.618
  595.374   38.525    0.393   60.522
  596.194   37.415    0.402   61.427
  597.014   36.275    0.405   64.490
  597.835   33.996    0.396   65.216
  598.655   31.136    0.386   64.501
  599.475   28.276    0.371   63.067
  600.295   27.136    0.360   62.173
  601.115   25.436    0.354   59.662
  601.936   24.317    0.353   57.149
  602.756   24.347    0.356   52.658
  603.576   24.388    0.362   42.953
  604.396   25.009    0.367   34.328
  605.217   26.780    0.376   30.017
  606.037   29.131    0.373   25.167
  606.857   33.233    0.370   22.294
  607.677   37.324    0.374   16.187
  608.497   42.586    0.376   12.056
  609.318   48.418    0.379   11.162
  610.138   56.001    0.382    9.550
  610.958   58.952    0.383    9.016
  611.778   60.143    0.388    9.023
  612.598   61.334    0.387    9.026
  613.419   64.855    0.368    9.032
  614.239   67.797    0.375    9.398
  615.059   64.916    0.381    9.764
  615.879   57.996    0.384    9.947
  616.699   53.965    0.368   10.854
  617.520   51.675    0.361   11.757
  618.340   51.726    0.365   13.560
  619.160   54.647    0.375   15.724
  619.980   55.268    0.387   14.650
  620.801   51.238    0.393   11.240
  621.621   47.218    0.381    9.626
  622.441   46.098    0.377    8.014
  623.261   53.090    0.383    7.661
  624.081   61.253    0.388    8.024
  624.902   63.614    0.393   10.008
  625.722   63.075    0.398   11.451
  626.542   59.625    0.400   13.076
  627.362   48.053    0.387   14.161
  628.182   42.862    0.369   13.266
  629.003   40.582    0.357   11.295
  629.823   46.994    0.358    9.501
  630.643   51.086    0.369    8.247
  631.463   58.668    0.385    7.714
  632.283   63.930    0.395    7.720
  633.104   68.022    0.396    7.725
  633.924   66.322    0.400    7.730
  634.744   62.882    0.404    8.638
  635.564   61.172    0.405    9.001
  636.385   58.892    0.405   10.085
  637.205   59.513    0.392   11.170
  638.025   56.633    0.376   12.433
  638.845   53.763    0.375   11.360
  639.665   48.582    0.376    9.928
  640.486   45.712    0.377    9.032
  641.306   42.282    0.378    7.780
  642.126   44.043    0.383    8.146
  642.946   50.465    0.387    8.870
  643.766   53.397    0.382    9.594
  644.587   58.659    0.384    9.959
  645.407   58.129    0.386   10.507
  646.227   56.409    0.385   10.870
  647.047   55.870    0.386   11.056
  647.867   57.061    0.386   10.522
  648.688   59.422    0.385    9.988
  649.508   60.043    0.385   10.174
  650.328   60.074    0.394   12.516
  651.148   59.544    0.402   25.289
  651.969   58.995    0.410   29.969
  652.789   56.125    0.406   14.330
  653.609   52.664    0.396   25.125
  654.429   41.102    0.381   33.763
  655.249   35.912    0.363   36.646
  656.070   31.301    0.355   38.988
  656.890   31.922    0.341   40.433
  657.710   33.123    0.352   44.215
  658.530   30.263    0.378   50.873
  659.350   27.963    0.392   57.894
  660.171   25.103    0.398   56.280
  660.991   28.035    0.369   55.927
  661.811   38.518    0.364   57.192
  662.631   42.039    0.363   55.936
  663.451   44.981    0.364   53.965
  664.272   43.271    0.371   53.072
  665.092   41.561    0.381   54.335
  665.912   36.971    0.372   53.620
  666.732   34.671    0.345   49.489
  667.552   32.961    0.337   45.180
  668.373   30.681    0.341   41.768
  669.193   28.391    0.348   36.199
  670.013   25.531    0.356   29.372
  670.833   23.832    0.356   24.701
  671.654   23.282    0.353   22.189
  672.474   22.173    0.353   18.238
  673.294   21.613    0.356   12.130
  674.114   22.824    0.361   12.854
  674.934   26.906    0.359   12.141
  675.755   39.150    0.352   11.067
  676.575   40.900    0.364   10.534
  677.395   53.704    0.358   11.078
  678.215   75.790    0.349   15.401
  679.035   81.632    0.359   16.483
  679.856   82.242    0.363   20.986
  680.676   62.548    0.368   24.228
  681.496   51.567    0.372   32.506
  682.316   49.277    0.370   39.163
  683.136   45.246    0.369   44.744
