~VERSION INFORMATION
 VERS.                 2.0:   CWLS LOG ASCII STANDARD -VERSION 2.0
 WRAP.                  NO:   ONE LINE PER DEPTH STEP
~WELL INFORMATION BLOCK
#MNEM.UNIT           DATA                    DESCRIPTION OF MNEMONIC
#---------    -------------------            -------------------------------
# Generated from Intellog Unique Number	CS_73_76/WELL/852
WELL.         WAINCO OIL & GAS LIMITED       : Well_name    - WELL
LOC .         00/11-31-073-12W4/0            : Location     - LOCATION
UWI .         00/11-31-073-12W4/0            : Uwi          - UNIQUE WELL ID
ENTR.         SP                             : Entered      - ENTERED BY
SRVC.         SCHLUMBERGER                   : Scn          - SERVICE COMPANY
STRT.M        295                            : top_depth    - START DEPTH
STOP.M        513                            : bot_depth    - STOP DEPTH
STEP.M        0.25                           : increment    - STEP LENGTH
 NULL. -999.2500:NULL Value
~CURVE INFORMATION BLOCK
#MNEM UNIT       ERCB CURVE CODE    CURVE DESCRIPTION
#-----------   ------------------   ----------------------------------
DEPT.M        00 001 00 00         : DEPTH        - DEPTH
ILD .OHMM     00 120 00 00         : RESD         - DEEP RESISTIVITY (DIL)
DPHI.V/V      00 890 00 00         : PHID         - DENSITY POROSITY (LIMESTONE)
NPHI.V/V      00 330 00 00         : PHIN         - NEUTRON POROSITY (LIMESTONE)
GR  .API      00 310 00 00         : GR           - GAMMA RAY
~PARAMETER INFORMATION
#MNEM.UNIT           DATA             DESCRIPTION OF MNEMONIC
#---------         -----------     ------------------------------
GL  .M        657                  : gl           - GROUND LEVEL ELEVATION
EREF.M        660                  : kb           - ELEVATION OF DEPTH REFERENCE
DATM.M        657                  : datum        - DATUM ELEVATION
TDD .M        524                  : tdd          - TOTAL DEPTH DRILLER
RUN .         ONE                  : Run          - RUN NUMBER
ENG .         BILL                 : Engineer     - RECORDING ENGINEER
WIT .         JIM                  : Witness      - WITNESSED BY
MUD .         GEL                  : Mud_type     - MUD TYPE
MATR.         LIMESTONE            : Logunit      - NEUTRON MATRIX
TMAX.C        13                   : BHT          - MAXIMUM RECORDED TEMPERATURE
BHTD.M        524                  : BHTDEP       - MAXIMUM RECORDED TEMPERATURE
MATR.         1                    : LOGUNIT      - NEUTRON MATRIX
RMT .C        25                   : MDTP         - TEMPERATURE OF MUD
NEUT.         1                    : NEUTRON      - NEUTRON TYPE
RESI.         0                    : RESIST       - RESISTIVITY TYPE
RMC .OHMM     0.25                 : RMC          - RESISTIVITY OF MUD CAKE
RMF .OHMM     0.25                 : RMF          - RESISTIVITY OF MUD FILTRATE
SUFT.C        15                   : SUFT         - SURFACE TEMPERATURE
~A  DEPTH     RESD     PHID     PHIN       GR
  295.000    3.143    0.326    1.030   92.541
  295.250    3.203    0.314    0.493   90.131
  295.500    3.455    0.274    0.481   88.327
  295.750    3.589    0.152    0.475   93.174
  296.000    3.871    0.144    0.492   94.394
  296.250    3.946    0.153    0.517   94.399
  296.500    3.874    0.176    0.533   93.200
  296.750    3.804    0.219    0.541   91.999
  297.000    3.597    0.223    0.551   93.822
  297.250    3.532    0.230    0.568   96.860
  297.500    3.341    0.229    0.580   98.075
  297.750    3.280    0.236    0.577   99.899
  298.000    3.281    0.227    0.568  102.327
  298.250    3.221    0.219    0.552  105.963
  298.500    3.163    0.236    0.562  105.371
  298.750    3.164    0.240    0.572  102.960
  299.000    3.166    0.249    0.577  101.152
  299.250    3.167    0.257    0.569   96.325
  299.500    3.168    0.253    0.563   92.703
  299.750    3.170    0.244    0.566   90.897
  300.000    3.171    0.231    0.572   92.119
  300.250    3.233    0.224    0.577   93.334
  300.500    3.234    0.227    0.566   95.158
  300.750    3.236    0.233    0.552   96.379
  301.000    3.177    0.234    0.545   95.177
  301.250    3.178    0.230    0.533   91.559
  301.500    3.301    0.211    0.516   88.542
  301.750    4.061    0.194    0.490   84.921
  302.000    4.902    0.209    0.468   81.301
  302.250    5.386    0.243    0.449   77.076
  302.500    6.380    0.316    0.444   73.456
  302.750    7.557    0.425    0.404   65.602
  303.000    9.295    0.457    0.311   57.750
  303.250   11.010    0.467    0.255   52.316
  303.500   12.800    0.418    0.217   48.090
  303.750   14.604    0.414    0.189   47.497
  304.000   16.353    0.405    0.178   47.504
  304.250   16.985    0.397    0.186   51.141
  304.500   16.369    0.396    0.228   54.780
  304.750   15.772    0.397    0.252   58.416
  305.000   14.100    0.381    0.277   63.868
  305.250   13.083    0.378    0.308   68.720
  305.500   11.266    0.364    0.334   69.936
  305.750   10.454    0.346    0.350   72.364
  306.000    9.171    0.322    0.369   74.793
  306.250    8.199    0.305    0.390   74.195
  306.500    7.899    0.260    0.405   69.975
  306.750    7.756    0.227    0.422   69.376
  307.000    7.475    0.200    0.428   69.389
  307.250    7.339    0.212    0.437   70.004
  307.500    7.206    0.235    0.445   70.611
  307.750    6.944    0.258    0.445   78.489
  308.000    6.817    0.252    0.443   80.912
  308.250    6.569    0.239    0.447   85.759
  308.500    6.449    0.225    0.452   91.213
  308.750    6.100    0.222    0.459   97.881
  309.000    5.988    0.213    0.464  100.308
  309.250    5.771    0.208    0.452  100.916
  309.500    5.666    0.208    0.448   99.716
  309.750    5.563    0.208    0.446  102.751
  310.000    5.462    0.223    0.452  100.947
  310.250    5.363    0.219    0.471   98.535
  310.500    5.365    0.242    0.491   94.310
  310.750    5.268    0.256    0.477   91.293
  311.000    5.472    0.264    0.458   88.882
  311.250    5.902    0.287    0.437   88.290
  311.500    6.245    0.297    0.421   90.717
  311.750    6.736    0.297    0.428   96.774
  312.000    6.996    0.298    0.432   99.805
  312.250    7.268    0.287    0.439  102.840
  312.500    7.549    0.278    0.435   94.986
  312.750    7.695    0.267    0.411   87.131
  313.000    7.994    0.264    0.397   76.862
  313.250    8.305    0.264    0.371   69.614
  313.500    8.464    0.277    0.352   64.781
  313.750    8.959    0.299    0.326   56.323
  314.000    9.484    0.318    0.243   48.468
  314.250    9.486    0.335    0.230   44.242
  314.500    9.313    0.342    0.253   46.670
  314.750    8.644    0.297    0.341   53.335
  315.000    7.875    0.280    0.380   55.761
  315.250    7.587    0.268    0.412   60.611
  315.500    7.310    0.252    0.439   63.040
  315.750    6.786    0.242    0.449   64.863
  316.000    6.537    0.249    0.457   69.107
  316.250    6.301    0.236    0.450   73.956
  316.500    6.185    0.231    0.443   76.382
  316.750    6.073    0.236    0.433   79.415
  317.000    5.963    0.241    0.427   81.237
  317.250    5.746    0.236    0.440   81.850
  317.500    5.536    0.227    0.448   84.280
  317.750    5.236    0.216    0.456   86.104
  318.000    5.140    0.204    0.467   87.323
  318.250    4.953    0.209    0.458   88.539
  318.500    4.863    0.232    0.468   89.154
  318.750    4.776    0.241    0.474   87.956
  319.000    4.777    0.244    0.475   87.358
  319.250    4.691    0.247    0.467   86.764
  319.500    4.692    0.245    0.458   86.770
  319.750    4.695    0.237    0.455   87.383
  320.000    4.786    0.236    0.451   90.423
  320.250    4.788    0.238    0.457   91.639
  320.500    4.702    0.238    0.460   92.250
  320.750    4.704    0.236    0.455   88.026
  321.000    4.618    0.229    0.449   81.382
  321.250    4.534    0.239    0.445   76.551
  321.500    4.536    0.253    0.442   74.747
  321.750    4.624    0.266    0.442   74.757
  322.000    4.714    0.271    0.444   77.182
  322.250    4.806    0.263    0.446   84.451
  322.500    4.807    0.242    0.447   89.302
  322.750    4.809    0.249    0.447   91.124
  323.000    4.812    0.239    0.450   91.735
  323.250    4.814    0.228    0.446   91.745
  323.500    4.816    0.222    0.441   91.148
  323.750    5.003    0.215    0.437   89.947
  324.000    5.396    0.227    0.434   86.326
  324.250    5.604    0.254    0.433   80.290
  324.500    5.933    0.284    0.436   76.066
  324.750    6.047    0.307    0.445   79.701
  325.000    6.164    0.300    0.464   91.204
  325.250    5.830    0.277    0.486   99.078
  325.500    5.617    0.247    0.504  102.711
  325.750    5.117    0.216    0.520  109.978
  326.000    4.749    0.191    0.538  113.619
  326.250    4.490    0.197    0.544  114.230
  326.500    4.408    0.205    0.538  113.636
  326.750    4.329    0.219    0.525  113.038
  327.000    4.331    0.230    0.503  112.443
  327.250    4.670    0.239    0.496  111.849
  327.500    5.231    0.246    0.480  110.042
  327.750    5.640    0.251    0.468  105.215
  328.000    5.969    0.251    0.448  102.802
  328.250    6.438    0.259    0.427   96.767
  328.500    7.075    0.264    0.418   94.957
  328.750    7.349    0.264    0.435   91.941
  329.000    7.491    0.272    0.458   88.928
  329.250    7.636    0.281    0.467   86.517
  329.500    7.498    0.292    0.470   84.106
  329.750    7.224    0.285    0.478   92.583
  330.000    6.833    0.279    0.498   99.248
  330.250    6.462    0.269    0.508  103.491
  330.500    6.226    0.261    0.519  106.523
  330.750    6.113    0.271    0.503  108.949
  331.000    6.116    0.256    0.495  115.613
  331.250    6.234    0.237    0.481  119.249
  331.500    6.475    0.239    0.470  116.235
  331.750    6.601    0.240    0.462  105.962
  332.000    6.858    0.245    0.456   95.689
  332.250    6.990    0.264    0.451   86.020
  332.500    7.261    0.268    0.440   78.166
  332.750    7.403    0.277    0.432   83.016
  333.000    7.406    0.275    0.426   85.445
  333.250    7.408    0.277    0.432   88.480
  333.500    7.274    0.262    0.438   90.906
  333.750    7.010    0.244    0.445   93.939
  334.000    6.882    0.226    0.454   97.575
  334.250    6.757    0.208    0.455  100.609
  334.500    6.512    0.212    0.453   97.596
  334.750    6.514    0.219    0.450   95.184
  335.000    6.395    0.226    0.461   93.376
  335.250    6.280    0.247    0.465   95.805
  335.500    6.282    0.252    0.463   98.235
  335.750    6.404    0.250    0.448  100.665
  336.000    6.779    0.255    0.418   97.649
  336.250    7.175    0.256    0.382   91.005
  336.500    7.593    0.245    0.319   84.361
  336.750    8.503    0.221    0.287   80.739
  337.000    8.831    0.189    0.259   77.120
  337.250    9.174    0.110    0.259   80.758
  337.500    9.351    0.096    0.297   83.789
  337.750    9.181    0.187    0.335   88.034
  338.000    8.362    0.225    0.434   90.463
  338.250    7.617    0.236    0.475   92.891
