~VERSION INFORMATION
 VERS.                 2.0:   CWLS LOG ASCII STANDARD -VERSION 2.0
 WRAP.                  NO:   ONE LINE PER DEPTH STEP
~WELL INFORMATION BLOCK
#MNEM.UNIT           DATA                    DESCRIPTION OF MNEMONIC
#---------    -------------------            -------------------------------
# Generated from Intellog Unique Number	CS_77_79/WELL/958
WELL.         AMOCO CANADA PETROLEUM         : Well_name    - WELL
LOC .         00/10-22-077-09W4/0            : Location     - LOCATION
UWI .         00/10-22-077-09W4/0            : Uwi          - UNIQUE WELL ID
ENTR.         SP                             : Entered      - ENTERED BY
SRVC.         SCHLUMBERGER                   : Scn          - SERVICE COMPANY
STRT.M        158.496                        : top_depth    - START DEPTH
STOP.M        383.746                        : bot_depth    - STOP DEPTH
STEP.M        0.25                           : increment    - STEP LENGTH
 NULL. -999.2500:NULL Value
~CURVE INFORMATION BLOCK
#MNEM UNIT       ERCB CURVE CODE    CURVE DESCRIPTION
#-----------   ------------------   ----------------------------------
DEPT.M        00 001 00 00         : DEPTH        - DEPTH
GR  .API      00 310 00 00         : GR           - GAMMA RAY
DPHI.V/V      00 890 00 00         : PHID         - DENSITY POROSITY (SANDSTONE)
NPHI.V/V      00 330 00 00         : PHIN         - NEUTRON POROSITY (SANDSTONE)
ILD .OHMM     00 120 00 00         : RESD         - DEEP RESISTIVITY (DIL)
~PARAMETER INFORMATION
#MNEM.UNIT           DATA             DESCRIPTION OF MNEMONIC
#---------         -----------     ------------------------------
GL  .M        583.387              : gl           - GROUND LEVEL ELEVATION
EREF.M        586.13               : kb           - ELEVATION OF DEPTH REFERENCE
DATM.M        583.387              : datum        - DATUM ELEVATION
TDD .M        393.192              : tdd          - TOTAL DEPTH DRILLER
RUN .         ONE                  : Run          - RUN NUMBER
ENG .         BILL                 : Engineer     - RECORDING ENGINEER
WIT .         JIM                  : Witness      - WITNESSED BY
MUD .         GEL                  : Mud_type     - MUD TYPE
MATR.         SANDSTONE            : Logunit      - NEUTRON MATRIX
TMAX.C        17.7778              : BHT          - MAXIMUM RECORDED TEMPERATURE
BHTD.M        393.192              : BHTDEP       - MAXIMUM RECORDED TEMPERATURE
MATR.         1                    : LOGUNIT      - NEUTRON MATRIX
RMT .C        25                   : MDTP         - TEMPERATURE OF MUD
NEUT.         1                    : NEUTRON      - NEUTRON TYPE
RESI.         0                    : RESIST       - RESISTIVITY TYPE
RMC .OHMM     0.25                 : RMC          - RESISTIVITY OF MUD CAKE
RMF .OHMM     0.25                 : RMF          - RESISTIVITY OF MUD FILTRATE
SUFT.C        15                   : SUFT         - SURFACE TEMPERATURE
~A  DEPTH       GR     PHID     PHIN     RESD
# ...
  288.996   69.519    0.337    0.459    7.712
  289.246   69.945    0.335    0.463    7.465
  289.496   69.301    0.334    0.461    7.403
  289.746   68.589    0.340    0.458    7.192
  289.996   69.698    0.338    0.455    7.083
  290.246   71.105    0.342    0.453    7.067
  290.496   70.208    0.338    0.450    7.058
  290.746   67.797    0.335    0.449    6.932
  290.996   67.177    0.332    0.463    6.894
  291.246   70.417    0.330    0.473    6.819
  291.496   71.604    0.335    0.480    6.819
  291.746   71.222    0.346    0.486    6.823
  291.996   69.799    0.352    0.493    6.819
  292.246   67.535    0.356    0.480    6.959
  292.496   65.876    0.346    0.463    6.946
  292.746   66.512    0.343    0.452    7.069
  292.996   69.220    0.341    0.449    7.079
  293.246   70.378    0.339    0.446    7.082
  293.496   70.144    0.344    0.444    7.096
  293.746   66.500    0.342    0.446    6.946
  293.996   69.137    0.338    0.450    6.961
  294.246   68.854    0.336    0.455    6.862
  294.496   67.130    0.332    0.456    6.797
  294.746   67.202    0.339    0.445    6.713
  294.996   68.233    0.346    0.462    6.796
  295.246   68.439    0.338    0.467    6.836
  295.496   70.052    0.331    0.468    6.842
  295.746   70.820    0.331    0.450    6.840
  295.996   70.132    0.337    0.438    6.829
  296.246   71.213    0.329    0.454    6.608
  296.496   70.792    0.324    0.467    6.545
  296.746   68.785    0.319    0.470    6.484
  296.996   67.322    0.323    0.467    6.483
  297.246   66.099    0.326    0.459    6.484
  297.496   67.084    0.335    0.451    6.485
  297.746   68.386    0.334    0.449    6.571
  297.996   70.359    0.336    0.448    6.594
  298.246   72.323    0.322    0.449    6.731
  298.496   73.349    0.319    0.449    6.532
  298.746   73.629    0.308    0.444    6.338
  298.996   74.102    0.300    0.438    6.264
  299.246   73.877    0.321    0.439    6.135
  299.496   72.133    0.321    0.449    6.145
  299.746   71.178    0.335    0.460    6.235
  299.996   69.934    0.337    0.464    6.379
  300.246   68.601    0.341    0.452    6.507
  300.496   68.097    0.328    0.446    6.487
  300.746   67.575    0.338    0.455    6.635
  300.996   68.639    0.345    0.466    6.624
  301.246   72.285    0.345    0.463    6.634
  301.496   73.264    0.338    0.450    6.462
  301.746   72.162    0.327    0.457    6.391
  301.996   71.883    0.338    0.458    6.194
  302.246   71.065    0.339    0.460    6.144
  302.496   72.695    0.328    0.469    6.050
  302.746   71.721    0.325    0.458    6.109
  302.996   71.471    0.333    0.450    6.173
  303.246   71.887    0.337    0.445    6.369
  303.496   72.818    0.341    0.451    6.528
  303.746   74.443    0.347    0.456    6.519
  303.996   74.256    0.350    0.458    6.446
  304.246   75.797    0.336    0.460    6.283
  304.496   77.308    0.330    0.458    6.177
  304.746   78.274    0.335    0.446    6.068
  304.996   80.432    0.323    0.441    5.948
  305.246   86.465    0.308    0.443    5.855
  305.496   92.650    0.291    0.453    5.851
  305.746   97.944    0.271    0.462    5.849
  305.996  101.795    0.269    0.464    5.850
  306.246  101.911    0.260    0.467    5.853
  306.496   95.388    0.265    0.478    5.858
  306.746   92.414    0.271    0.469    6.054
  306.996   89.761    0.264    0.455    6.094
  307.246   87.865    0.276    0.451    6.421
  307.496   85.654    0.273    0.458    6.615
  307.746   81.102    0.258    0.447    6.820
  307.996   77.805    0.264    0.444    7.030
  308.246   77.330    0.265    0.451    7.262
  308.496   79.044    0.250    0.456    7.334
  308.746   80.501    0.242    0.448    7.314
  308.996   81.267    0.229    0.446    7.474
  309.246   81.226    0.222    0.460    7.303
  309.496   81.190    0.234    0.467    7.199
  309.746   80.899    0.258    0.469    7.132
  309.996   81.208    0.262    0.469    7.056
  310.246   81.165    0.256    0.470    7.179
  310.496   81.320    0.253    0.478    7.374
  310.746   82.311    0.276    0.480    7.451
  310.996   84.901    0.290    0.457    7.693
  311.246   86.808    0.261    0.444    7.730
  311.496   91.460    0.237    0.431    7.733
  311.746   95.704    0.221    0.438    7.671
  311.996  100.050    0.237    0.448    7.443
  312.246  102.884    0.228    0.451    6.997
  312.496  104.583    0.234    0.465    6.550
  312.746  105.499    0.225    0.474    5.727
  312.996  105.914    0.236    0.485    5.342
  313.246  107.404    0.240    0.493    4.687
  313.496  109.586    0.235    0.516    4.304
  313.746  111.172    0.239    0.523    4.052
  313.996  111.132    0.226    0.508    3.932
  314.246  107.248    0.226    0.503    3.931
  314.496  105.772    0.234    0.493    4.161
  314.746  108.487    0.245    0.472    4.643
  314.996  112.395    0.217    0.454    5.144
  315.246  110.621    0.206    0.438    5.846
  315.496  108.043    0.225    0.432    6.823
  315.746  107.019    0.231    0.429    7.618
  315.996  106.019    0.201    0.420    7.508
  316.246  102.645    0.180    0.417    7.189
  316.496   99.125    0.159    0.456    6.454
  316.746   97.425    0.189    0.471    5.596
  316.996   96.832    0.206    0.472    4.406
  317.246  100.242    0.214    0.456    3.936
  317.496  101.428    0.230    0.502    3.269
  317.746  100.971    0.253    0.535    2.760
  317.996  100.002    0.274    0.562    2.463
  318.246   99.024    0.290    0.564    2.266
  318.496   98.039    0.279    0.538    2.125
  318.746   97.101    0.276    0.534    2.101
  318.996   95.414    0.286    0.544    2.080
  319.246   94.518    0.287    0.548    2.110
  319.496   92.581    0.289    0.554    2.115
  319.746   92.624    0.284    0.573    2.160
  319.996   98.406    0.275    0.572    2.182
  320.246  102.132    0.265    0.569    2.238
  320.496  103.724    0.261    0.568    2.322
  320.746  105.673    0.250    0.565    2.435
  320.996  105.425    0.241    0.551    2.729
  321.246  104.873    0.224    0.525    3.036
  321.496  105.741    0.218    0.463    3.491
  321.746  107.341    0.213    0.461    4.112
  321.996  107.296    0.208    0.467    4.860
  322.246  105.023    0.199    0.468    5.525
  322.496  101.729    0.188    0.468    5.843
  322.746   99.109    0.176    0.408    6.319
  322.996   97.892    0.162    0.421    6.680
  323.246  100.037    0.141    0.436    6.742
  323.496  104.520    0.155    0.447    6.341
  323.746  107.989    0.177    0.456    5.438
  323.996  107.121    0.188    0.464    4.784
  324.246  109.087    0.211    0.470    4.312
  324.496  110.299    0.198    0.472    4.161
  324.746  111.749    0.197    0.471    4.035
  324.996  111.968    0.195    0.472    4.005
  325.246  110.624    0.214    0.476    3.971
  325.496  110.521    0.225    0.482    3.970
  325.746  112.119    0.214    0.506    3.969
  325.996  113.004    0.211    0.514    3.969
  326.246  113.202    0.198    0.508    3.894
  326.496  112.120    0.193    0.503    3.878
  326.746  111.731    0.208    0.499    3.832
  326.996  111.712    0.219    0.516    3.761
  327.246  111.696    0.223    0.531    3.673
  327.496  111.723    0.213    0.527    3.630
  327.746  111.018    0.207    0.520    3.523
  327.996  111.057    0.212    0.514    3.507
  328.246  111.083    0.215    0.504    3.658
  328.496  109.979    0.204    0.491    4.278
  328.746  107.270    0.193    0.491    5.278
  328.996  102.156    0.175    0.475    7.221
  329.246   94.628    0.127    0.398   10.168
  329.496   88.269    0.101    0.322   13.129
  329.746   81.287    0.088    0.333   14.547
  329.996   83.680    0.116    0.345   16.677
  330.246   80.683    0.269    0.339   17.857
  330.496   77.739    0.293    0.327   18.624
  330.746   76.157    0.296    0.342   18.580
  330.996   75.793    0.282    0.363   18.603
  331.246   76.686    0.264    0.379   18.071
  331.496   76.826    0.241    0.394   17.519
  331.746   78.120    0.230    0.408   16.705
  331.996   82.201    0.223    0.418   16.117
  332.246   85.304    0.214    0.399   15.474
