~VERSION INFORMATION
 VERS.                 2.0:   CWLS LOG ASCII STANDARD -VERSION 2.0
 WRAP.                  NO:   ONE LINE PER DEPTH STEP
~WELL INFORMATION BLOCK
#MNEM.UNIT           DATA                    DESCRIPTION OF MNEMONIC
#---------    -------------------            -------------------------------
# Generated from Intellog Unique Number	CW_73_75/WELL/1050
WELL.         TRICENT ET AL MITSUE 12-08     : Well_name    - WELL
LOC .         00/12-08-074-05W5/0            : Location     - LOCATION
UWI .         00/12-08-074-05W5/0            : Uwi          - UNIQUE WELL ID
ENTR.         JAYE                           : Entered      - ENTERED BY
SRVC.         SCHLUMBERGER                   : Scn          - SERVICE COMPANY
DATE.         11 JAN 84                      : Date         - LOG DATE
STRT.M        360                            : top_depth    - START DEPTH
STOP.M        590                            : bot_depth    - STOP DEPTH
STEP.M        0.25                           : increment    - STEP LENGTH
 NULL. -999.2500:NULL Value
~CURVE INFORMATION BLOCK
#MNEM UNIT       ERCB CURVE CODE    CURVE DESCRIPTION
#-----------   ------------------   ----------------------------------
DEPT.M        00 001 00 00         : DEPTH        - DEPTH
CALI.MM       00 280 01 00         : CAL          - CALIPER
GR  .API      00 310 00 00         : GR           - GAMMA RAY
NPHI.V/V      00 330 00 00         : PHIN         - NEUTRON POROSITY (SANDSTONE)
DPHI.V/V      00 890 00 00         : PHID         - DENSITY POROSITY (SANDSTONE)
ILD .OHMM     00 120 00 00         : RESD         - DEEP RESISTIVITY (DIL)
~PARAMETER INFORMATION
#MNEM.UNIT           DATA             DESCRIPTION OF MNEMONIC
#---------         -----------     ------------------------------
GL  .M        596.5                : gl           - GROUND LEVEL ELEVATION
EREF.M        600.65               : kb           - ELEVATION OF DEPTH REFERENCE
DATM.M        596.5                : datum        - DATUM ELEVATION
TDD .M        1689                 : tdd          - TOTAL DEPTH DRILLER
RUN .         ONE                  : Run          - RUN NUMBER
ENG .         GAGGINO              : Engineer     - RECORDING ENGINEER
WIT .         EARLE                : Witness      - WITNESSED BY
BASE.         EDM                  : Branch       - HOME BASE OF LOGGING UNIT
MUD .         GEL CHEM             : Mud_type     - MUD TYPE
MATR.         SANDSTONE            : Logunit      - NEUTRON MATRIX
TMAX.C        53                   : BHT          - MAXIMUM RECORDED TEMPERATURE
BHTD.M        1689.5               : BHTDEP       - MAXIMUM RECORDED TEMPERATURE
RMT .C        15                   : MDTP         - TEMPERATURE OF MUD
MUDD.KG/M     1130                 : MWT          - MUD DENSITY
NEUT.         1                    : NEUTRON      - NEUTRON TYPE
RESI.         0                    : RESIST       - RESISTIVITY TYPE
RM  .OHMM     0.618                : RM           - RESISTIVITY OF MUD
RMC .OHMM     0                    : RMC          - RESISTIVITY OF MUD CAKE
RMF .OHMM     1.15                 : RMF          - RESISTIVITY OF MUD FILTRATE
SUFT.C        0                    : SUFT         - SURFACE TEMPERATURE
~A  DEPTH      CAL       GR     PHIN     PHID     RESD
  360.000  168.529   65.986    0.594    0.413    1.648
  360.250  189.649   61.411    0.605    0.460    1.685
  360.500  135.836   58.135    0.594    0.445    1.713
  360.750  119.955   55.845    0.585    0.414    1.755
  361.000  109.360   51.765    0.576    0.411    1.825
  361.250  142.295   53.425    0.569    0.444    1.887
  361.500  158.335   56.012    0.565    0.435    1.933
  361.750  131.365   60.265    0.559    0.376    1.987
  362.000  133.723   63.654    0.551    0.342    2.031
  362.250  186.354   68.895    0.546    0.313    2.031
  362.500  163.114   74.074    0.538    0.293    2.015
  362.750  128.370   79.624    0.529    0.279    1.962
  363.000  313.038   79.618    0.529    0.294    1.892
  363.250  299.542   70.970    0.557    0.310    1.884
  363.500  372.483   66.582    0.630    0.334    1.945
  363.750  432.158   62.810    0.645    0.355    2.041
  364.000  441.357   58.113    0.627    0.368    2.114
  364.250  421.228   60.267    0.606    0.378    2.211
  364.500  401.720   63.595    0.581    0.367    2.269
  364.750  366.874   67.663    0.563    0.352    2.329
  365.000  341.249   70.002    0.550    0.340    2.354
  365.250  347.444   62.343    0.537    0.378    2.362
  365.500  358.303   59.682    0.554    0.429    2.357
  365.750  355.483   59.368    0.652    0.457    2.369
  366.000  329.653   58.683    0.717    0.498    2.404
  366.250  358.649   53.677    0.739    0.529    2.328
  366.500  578.866   46.573    0.727    0.596    2.288
  366.750  563.296   36.752    0.710    0.651    2.392
  367.000  535.083   32.487    0.681    0.680    2.627
  367.250  490.805   35.382    0.655    0.718    2.901
  367.500  453.574   42.907    0.596    0.768    3.294
  367.750  345.554   62.283    0.565    0.799    4.157
  368.000  274.224   71.475    0.533    0.792    5.467
  368.250  279.280   65.173    0.505    0.249    6.769
  368.500  288.066   54.611    0.482    0.190    7.574
  368.750  291.878   43.804    0.445    0.121    8.162
  369.000  285.843   34.724    0.231    0.155    7.372
  369.250  290.068   29.656    0.233    0.216    6.546
  369.500  281.029   28.292    0.268    0.213    5.957
  369.750  271.988   27.607    0.309    0.195    5.057
  370.000  269.062   27.540    0.283    0.194    4.341
  370.250  261.991   30.003    0.276    0.217    3.762
  370.500  256.267   37.096    0.301    0.263    3.224
  370.750  269.718   42.707    0.331    0.307    2.863
  371.000  286.484   44.244    0.358    0.376    2.519
  371.250  290.401   49.176    0.391    0.395    2.296
  371.500  294.831   56.454    0.517    0.407    2.194
  371.750  302.377   55.645    0.614    0.485    2.116
  372.000  398.638   53.109    0.646    0.532    2.080
  372.250  386.382   55.140    0.673    0.563    2.127
  372.500  371.230   59.270    0.658    0.621    2.411
  372.750  363.951   59.078    0.608    0.664    2.914
  373.000  418.652   60.616    0.558    0.687    3.601
  373.250  382.144   66.597    0.511    0.673    4.168
  373.500  314.029   66.591    0.465    0.235    4.277
  373.750  264.465   64.610    0.434    0.247    3.907
  374.000  266.410   58.679    0.423    0.266    3.206
  374.250  260.373   52.130    0.407    0.312    2.506
  374.500  254.030   52.309    0.443    0.432    2.192
  374.750  261.573   55.698    0.472    0.464    2.566
  375.000  286.631   54.828    0.574    0.503    3.425
  375.250  360.401   53.464    0.555    0.540    4.241
  375.500  280.367   52.347    0.506    0.580    4.477
  375.750  256.815   53.637    0.447    0.284    4.222
  376.000  242.801   57.026    0.393    0.281    3.849
  376.250  240.290   60.045    0.372    0.273    3.805
  376.500  243.376   62.199    0.387    0.268    4.100
  376.750  254.650   62.070    0.417    0.270    4.410
  377.000  261.363   58.978    0.462    0.284    4.585
  377.250  259.058   56.565    0.463    0.298    4.635
  377.500  241.313   59.028    0.450    0.285    4.634
  377.750  242.016   60.318    0.460    0.266    4.571
  378.000  248.416   58.151    0.473    0.275    4.578
  378.250  249.950   53.640    0.466    0.304    4.698
  378.500  242.671   50.670    0.437    0.301    4.741
  378.750  239.537   53.196    0.423    0.290    4.677
  379.000  238.996   60.906    0.445    0.269    4.520
  379.250  238.558   56.023    0.465    0.246    4.152
  379.500  238.428   52.191    0.467    0.264    3.491
  379.750  239.652   59.839    0.454    0.319    2.765
  380.000  241.702   61.191    0.435    0.319    2.165
  380.250  248.831   55.568    0.476    0.343    1.941
  380.500  287.155   49.945    0.520    0.530    2.010
  380.750  554.737   52.531    0.664    0.651    2.224
  381.000  478.226   60.550    0.640    0.546    2.545
  381.250  446.072   75.544    0.604    0.505    3.024
  381.500  381.377   78.377    0.549    0.342    3.600
  381.750  372.959   78.495    0.558    0.293    4.174
  382.000  340.806   71.081    0.538    0.270    4.697
  382.250  316.425   65.458    0.514    0.285    5.158
  382.500  310.807   58.169    0.492    0.296    5.537
  382.750  272.643   54.151    0.484    0.298    5.736
  383.000  284.849   55.749    0.446    0.297    5.777
  383.250  270.210   55.065    0.461    0.341    5.699
  383.500  254.746   49.565    0.477    0.369    5.549
  383.750  242.181   42.090    0.489    0.348    5.433
  384.000  236.251   36.344    0.501    0.328    5.391
  384.250  232.497   31.955    0.512    0.320    5.399
  384.500  231.536   32.690    0.367    0.321    5.447
  384.750  231.932   32.375    0.366    0.321    5.486
  385.000  231.596   30.826    0.370    0.325    5.567
  385.250  230.640   34.153    0.373    0.328    5.628
  385.500  229.477   42.728    0.359    0.322    5.700
  385.750  229.557   50.438    0.360    0.310    5.677
  386.000  230.881   58.456    0.372    0.296    5.506
  386.250  231.688   61.968    0.392    0.283    5.154
  386.500  232.805   64.061    0.421    0.289    4.699
  386.750  234.958   64.487    0.441    0.288    3.981
  387.000  237.527   63.740    0.416    0.274    3.329
  387.250  251.184   63.550    0.393    0.498    3.128
  387.500  302.775   59.346    0.439    0.573    3.138
  387.750  369.705   56.192    0.478    0.614    3.401
  388.000  386.368   55.754    0.509    0.587    3.584
  388.250  358.050   58.526    0.534    0.523    4.194
  388.500  322.891   63.335    0.526    0.343    4.773
  388.750  297.268   68.267    0.505    0.341    4.917
  389.000  280.974   67.459    0.507    0.317    4.680
  389.250  259.079   61.836    0.493    0.289    4.315
  389.500  237.292   54.484    0.481    0.283    4.039
  389.750  237.995   53.306    0.443    0.276    4.130
  390.000  239.837   58.917    0.430    0.271    4.467
  390.250  241.574   61.504    0.421    0.268    4.832
  390.500  238.547   61.065    0.445    0.276    4.949
  390.750  234.793   72.231    0.455    0.300    4.694
  391.000  236.220   73.646    0.425    0.304    4.239
  391.250  239.618   69.689    0.401    0.299    3.990
  391.500  244.776   74.004    0.384    0.274    4.662
  391.750  248.485   70.541    0.405    0.277    4.884
  392.000  250.016   66.647    0.432    0.286    4.658
  392.250  245.535   64.666    0.419    0.298    4.328
  392.500  243.336   69.228    0.406    0.294    4.043
  392.750  248.702   70.024    0.440    0.275    4.003
  393.000  258.730   67.179    0.445    0.270    3.927
  393.250  266.271   65.691    0.422    0.286    3.803
  393.500  269.463   65.006    0.403    0.310    3.532
  393.750  266.640   66.976    0.400    0.322    3.096
  394.000  261.956   69.377    0.424    0.348    2.698
  394.250  264.208   66.717    0.480    0.427    2.356
  394.500  270.095   59.428    0.524    0.526    2.184
  394.750  283.234   51.706    0.558    0.522    2.403
  395.000  285.803   54.910    0.572    0.489    2.866
  395.250  288.578   61.755    0.587    0.463    3.741
  395.500  299.438   62.181    0.576    0.434    4.572
  395.750  286.771   58.102    0.553    0.404    4.936
  396.000  259.904   51.985    0.530    0.371    4.999
  396.250  241.431   49.262    0.505    0.340    4.988
