~VERSION INFORMATION
 VERS.                 2.0:   CWLS LOG ASCII STANDARD -VERSION 2.0
 WRAP.                  NO:   ONE LINE PER DEPTH STEP
~WELL INFORMATION BLOCK
#MNEM.UNIT           DATA                    DESCRIPTION OF MNEMONIC
#---------    -------------------            -------------------------------
# Generated from Intellog Unique Number	CW_73_75/WELL/3023
WELL.         RANGER ET AL MARTEN H 11-15    : Well_name    - WELL
LOC .         00/11-15-073-23W4/0            : Location     - LOCATION
UWI .         00/11-15-073-23W4/0            : Uwi          - UNIQUE WELL ID
ENTR.         JJ                             : Entered      - ENTERED BY
SRVC.         SCHLUMBERGER                   : Scn          - SERVICE COMPANY
DATE.         13 NOV 70                      : Date         - LOG DATE
STRT.M        502.92                         : top_depth    - START DEPTH
STOP.M        697.92                         : bot_depth    - STOP DEPTH
STEP.M        0.25                           : increment    - STEP LENGTH
 NULL. -999.2500:NULL Value
~CURVE INFORMATION BLOCK
#MNEM UNIT       ERCB CURVE CODE    CURVE DESCRIPTION
#-----------   ------------------   ----------------------------------
DEPT.M        00 001 00 00         : DEPTH        - DEPTH
DPHI.V/V      00 890 00 00         : PHID         - DENSITY POROSITY (SANDSTONE)
GR  .API      00 310 00 00         : GR           - GAMMA RAY
CALI.MM       00 280 01 00         : CAL          - CALIPER
NPHI.V/V      00 330 00 00         : PHIN         - NEUTRON POROSITY (SANDSTONE)
ILD .OHMM     00 120 00 00         : RESD         - DEEP RESISTIVITY (DIL)
~PARAMETER INFORMATION
#MNEM.UNIT           DATA             DESCRIPTION OF MNEMONIC
#---------         -----------     ------------------------------
GL  .M        717.499              : gl           - GROUND LEVEL ELEVATION
EREF.M        720.547              : kb           - ELEVATION OF DEPTH REFERENCE
DATM.M        720.547              : datum        - DATUM ELEVATION
TDD .M        701.04               : tdd          - TOTAL DEPTH DRILLER
RUN .         ONE                  : Run          - RUN NUMBER
ENG .         SLADEN               : Engineer     - RECORDING ENGINEER
WIT .         BROWN                : Witness      - WITNESSED BY
BASE.         EDMONTON             : Branch       - HOME BASE OF LOGGING UNIT
MUD .         GEL CHEM-LCM         : Mud_type     - MUD TYPE
MATR.         SANDSTONE            : Logunit      - NEUTRON MATRIX
TMAX.C        20                   : BHT          - MAXIMUM RECORDED TEMPERATURE
BHTD.M        701.345              : BHTDEP       - MAXIMUM RECORDED TEMPERATURE
RMT .C        7.22222              : MDTP         - TEMPERATURE OF MUD
MUDD.KG/M     1068                 : MWT          - MUD DENSITY
NEUT.         0                    : NEUTRON      - NEUTRON TYPE
RESI.         0                    : RESIST       - RESISTIVITY TYPE
RM  .OHMM     2.13                 : RM           - RESISTIVITY OF MUD
RMC .OHMM     0                    : RMC          - RESISTIVITY OF MUD CAKE
RMF .OHMM     2.91                 : RMF          - RESISTIVITY OF MUD FILTRATE
SUFT.C        5                    : SUFT         - SURFACE TEMPERATURE
~A  DEPTH     PHID       GR      CAL     PHIN     RESD
# ...
  612.420    0.161   83.369  158.477    0.285    8.462
  612.670    0.170   86.380  157.876    0.265    8.418
  612.920    0.161   87.919  157.899    0.266    8.261
  613.170    0.174   89.524  157.920    0.266    8.009
  613.420    0.172   87.943  158.143    0.260    7.795
  613.670    0.168   87.834  158.889    0.272    7.582
  613.920    0.171   90.353  161.603    0.283    7.234
  614.170    0.178   88.284  164.107    0.277    6.876
  614.420    0.187   88.848  165.164    0.260    6.624
  614.670    0.192   90.205  164.768    0.261    6.547
  614.920    0.171   89.237  164.373    0.282    6.567
  615.170    0.165   88.209  163.773    0.299    6.578
  615.420    0.170   88.894  163.895    0.292    6.598
  615.670    0.166   88.294  163.918    0.278    6.586
  615.920    0.165   89.896  164.040    0.272    6.566
  616.170    0.171   95.047  164.686    0.277    6.569
  616.420    0.182   93.652  164.708    0.280    6.573
  616.670    0.181   87.792  164.825    0.293    6.600
  616.920    0.171   86.091  164.955    0.294    6.660
  617.170    0.161   87.631  165.595    0.295    6.712
  617.420    0.143   89.234  165.613    0.296    6.676
  617.670    0.142   90.469  165.740    0.275    6.447
  617.920    0.154   92.378  165.761    0.289    6.234
  618.170    0.172   94.042  165.780    0.295    6.037
  618.420    0.178   95.643  166.007    0.268    5.809
  618.670    0.163   92.536  166.024    0.255    5.612
  618.920    0.141   88.754  166.254    0.253    5.295
  619.170    0.126   86.197  166.268    0.268    5.170
  619.420    0.142   89.023  165.878    0.282    5.246
  619.670    0.162   88.975  166.100    0.282    5.530
  619.920    0.178   80.971  166.536    0.280    6.047
  620.170    0.194   83.676  166.040    0.279    6.684
  620.420    0.200   84.788  165.749    0.274    7.282
  620.670    0.186   86.574  165.875    0.281    7.694
  620.920    0.187   85.546  165.996    0.294    7.754
  621.170    0.170   83.355  166.639    0.303    7.677
  621.420    0.177   86.368  166.864    0.282    7.569
  621.670    0.152   87.416  165.640    0.280    7.348
  621.920    0.168   89.202  161.311    0.285    7.168
  622.170    0.171   91.416  154.287    0.275    6.996
  622.420    0.171   88.614  153.894    0.275    6.942
  622.670    0.179   88.809  162.097    0.281    6.939
  622.920    0.186   91.024  165.018    0.293    6.942
  623.170    0.186   91.586  165.346    0.287    6.906
  623.420    0.186   88.967  165.371    0.274    6.950
  623.670    0.179   91.977  165.288    0.271    6.913
  623.920    0.169   90.153  165.204    0.270    6.925
  624.170    0.153   89.554  165.225    0.267    6.896
  624.420    0.141   88.648  165.765    0.271    6.844
  624.670    0.146   86.886  166.195    0.288    6.808
  624.920    0.158   85.919  166.528    0.277    6.795
  625.170    0.171   86.726  166.026    0.259    6.735
  625.420    0.191   86.676  160.142    0.265    6.698
  625.670    0.214   82.591  154.051    0.263    6.670
  625.920    0.218   81.807  147.237    0.264    6.665
  626.170    0.186   82.676  143.938    0.270    6.717
  626.420    0.153   79.812  149.448    0.291    6.881
  626.670    0.135   75.237  154.959    0.311    7.359
  626.920    0.156   70.659  151.974    0.282    7.843
  627.170    0.171   67.858  154.688    0.264    8.215
  627.420    0.158   70.869  151.810    0.259    8.532
  627.670    0.153   71.980  149.755    0.253    8.504
  627.920    0.166   74.868  146.465    0.244    8.227
  628.170    0.176   77.508  143.997    0.266    7.806
  628.420    0.178   80.701  147.641    0.269    7.320
  628.670    0.182   83.894  156.568    0.286    6.979
  628.920    0.184   86.905  163.218    0.310    6.774
  629.170    0.177   93.339  165.835    0.308    6.730
  629.420    0.166   91.943  166.370    0.277    6.677
  629.670    0.154   88.163  166.387    0.270    6.616
  629.920    0.146   90.743  166.098    0.272    6.596
  630.170    0.155   93.998  166.220    0.283    6.552
  630.420    0.172   93.704  166.344    0.273    6.524
  630.670    0.174   96.529  165.948    0.262    6.495
  630.920    0.170  100.579  165.970    0.266    6.499
  631.170    0.167   96.738  165.577    0.274    6.438
  631.420    0.163   94.363  164.665    0.281    6.410
  631.670    0.156   91.989  163.752    0.301    6.430
  631.920    0.144   92.001  161.080    0.283    6.570
  632.170    0.141   96.295  159.232    0.272    6.798
  632.420    0.171   96.674  156.767    0.263    7.251
  632.670    0.170   90.142  155.232    0.257    7.640
  632.920    0.168   84.709  153.287    0.257    7.988
  633.170    0.170   80.192  151.444    0.253    8.305
  633.420    0.187   87.792  149.501    0.244    8.525
  633.670    0.185   91.717  148.275    0.269    8.713
  633.920    0.171   92.707  146.640    0.252    8.756
  634.170    0.180   93.270  146.551    0.247    8.480
  634.420    0.172   93.649  148.227    0.243    8.211
  634.670    0.131   93.110  151.045    0.257    7.965
  634.920    0.091   81.193  154.275    0.249    8.274
  635.170    0.050   60.530  156.780    0.253    9.946
  635.420    0.014   51.915  156.802    0.232   11.946
  635.670    0.010   54.435  157.238    0.158   15.030
  635.920    0.043   62.522  159.639    0.144   17.680
  636.170    0.061   69.324  163.490    0.158   18.630
  636.420    0.073   76.556  165.276    0.147   15.827
  636.670    0.090   80.971  165.814    0.137   11.901
  636.920    0.111   85.205  165.828    0.206    9.026
  637.170    0.128   87.969  166.162    0.262    8.364
  637.420    0.159   88.652  166.082    0.260    7.550
  637.670    0.143   78.448  166.202    0.258    7.120
  637.920    0.141   82.681  165.909    0.277    7.044
  638.170    0.145   85.385  165.933    0.267    7.145
  638.420    0.147   90.413  166.160    0.262    7.212
  638.670    0.142   93.975  165.970    0.252    7.320
  638.920    0.146   91.293  165.786    0.252    7.371
  639.170    0.148   90.021  165.491    0.256    7.392
  639.420    0.140   93.091  165.516    0.249    7.403
  639.670    0.139   93.899  165.117    0.259    7.431
  639.920    0.148   94.155  162.754    0.270    7.434
  640.170    0.145   94.228  159.045    0.280    7.390
  640.420    0.138   93.445  159.045    0.265    7.441
  640.670    0.143   86.788  159.045    0.262    7.638
  640.920    0.129   79.521  162.947    0.258    7.978
  641.170    0.110   76.109  163.790    0.255    8.423
  641.420    0.103   82.481  158.835    0.248    8.571
  641.670    0.141   84.388  155.129    0.226    8.631
  641.920    0.139   84.584  157.221    0.213    8.578
  642.170    0.132   87.103  159.413    0.247    8.189
  642.420    0.138   89.319  163.162    0.272    7.671
  642.670    0.126   88.350  163.912    0.256    7.515
  642.920    0.118   86.283  163.309    0.265    7.792
  643.170    0.107   87.395  161.985    0.283    7.980
  643.420    0.101   93.708  160.967    0.266    8.111
  643.670    0.117   97.025  158.811    0.240    8.203
  643.920    0.141   98.382  156.345    0.225    8.119
  644.170    0.152   98.823  154.604    0.219    7.810
  644.420    0.155   96.815  154.527    0.266    7.428
  644.670    0.144   91.382  154.754    0.253    6.984
  644.920    0.163   92.372  157.047    0.243    6.794
  645.170    0.157   90.306  159.344    0.258    6.477
  645.420    0.149   87.381  159.365    0.258    6.416
  645.670    0.145   87.085  158.660    0.266    6.412
  645.920    0.130   86.854  157.746    0.252    6.480
  646.170    0.121   83.378  156.218    0.241    6.652
  646.420    0.115   78.680  158.826    0.240    7.042
  646.670    0.117   83.096  160.189    0.250    7.293
  646.920    0.158   89.347  161.658    0.234    5.846
  647.170    0.210   97.984  162.198    0.240    4.983
  647.420    0.222  103.012  161.909    0.306    3.928
  647.670    0.208   91.585  161.306    0.355    3.266
  647.920    0.190   89.762  159.875    0.357    2.829
  648.170    0.184   97.237  155.753    0.338    2.600
  648.420    0.177   99.087  153.496    0.384    2.435
  648.670    0.179   99.401  153.513    0.359    2.455
