~VERSION INFORMATION
 VERS.                 2.0:   CWLS LOG ASCII STANDARD -VERSION 2.0
 WRAP.                  NO:   ONE LINE PER DEPTH STEP
~WELL INFORMATION BLOCK
#MNEM.UNIT           DATA                    DESCRIPTION OF MNEMONIC
#---------    -------------------            -------------------------------
# Generated from Intellog Unique Number	CW_76_78/WELL/2818
WELL.         SCURRY ATKINSON MCMULLEN 11-30 : Well_name    - WELL
LOC .         00/11-30-077-25W4/0            : Location     - LOCATION
UWI .         00/11-30-077-25W4/0            : Uwi          - UNIQUE WELL ID
ENTR.         JJ                             : Entered      - ENTERED BY
SRVC.         SCHLUMBERGER                   : Scn          - SERVICE COMPANY
DATE.         26 FEB 74                      : Date         - LOG DATE
STRT.M        435.864                        : top_depth    - START DEPTH
STOP.M        563.864                        : bot_depth    - STOP DEPTH
STEP.M        0.25                           : increment    - STEP LENGTH
 NULL. -999.2500:NULL Value
~CURVE INFORMATION BLOCK
#MNEM UNIT       ERCB CURVE CODE    CURVE DESCRIPTION
#-----------   ------------------   ----------------------------------
DEPT.M        00 001 00 00         : DEPTH        - DEPTH
DELT.US/F     00 520 00 00         : DELT         - SONIC TRAVEL TIME
GR  .API      00 310 00 00         : GR           - GAMMA RAY
CALI.MM       00 280 01 00         : CAL          - CALIPER
ILD .OHMM     00 120 00 00         : RESD         - DEEP RESISTIVITY (DIL)
~PARAMETER INFORMATION
#MNEM.UNIT           DATA             DESCRIPTION OF MNEMONIC
#---------         -----------     ------------------------------
GL  .M        648.005              : gl           - GROUND LEVEL ELEVATION
EREF.M        651.967              : kb           - ELEVATION OF DEPTH REFERENCE
DATM.M        648.005              : datum        - DATUM ELEVATION
TDD .M        566.014              : tdd          - TOTAL DEPTH DRILLER
RUN .         ONE                  : Run          - RUN NUMBER
ENG .         BOYKO                : Engineer     - RECORDING ENGINEER
BASE.         EDM                  : Branch       - HOME BASE OF LOGGING UNIT
MUD .         GEL CHEM             : Mud_type     - MUD TYPE
MATR.         SANDSTONE            : Logunit      - NEUTRON MATRIX
TMAX.C        23.3333              : BHT          - MAXIMUM RECORDED TEMPERATURE
BHTD.M        566.014              : BHTDEP       - MAXIMUM RECORDED TEMPERATURE
RMT .C        17.7778              : MDTP         - TEMPERATURE OF MUD
MUDD.KG/M     1140                 : MWT          - MUD DENSITY
NEUT.         1                    : NEUTRON      - NEUTRON TYPE
RESI.         0                    : RESIST       - RESISTIVITY TYPE
RM  .OHMM     2.28                 : RM           - RESISTIVITY OF MUD
RMC .OHMM     0                    : RMC          - RESISTIVITY OF MUD CAKE
RMF .OHMM     2.2                  : RMF          - RESISTIVITY OF MUD FILTRATE
SUFT.C        5                    : SUFT         - SURFACE TEMPERATURE
~A  DEPTH     DELT       GR      CAL     RESD
  435.864  341.171   69.263  202.194   17.253
  436.114  325.022   67.053  206.497   16.855
  436.364  296.767   67.498  209.861   15.779
  436.614  364.603   72.569  200.378   15.541
  436.864  374.540   75.541  193.512   15.440
  437.114  378.033   71.731  199.797   15.433
  437.364  371.250   70.695  205.667   15.402
  437.614  369.862   75.826  201.196   15.379
  437.864  371.863   80.402  191.191   15.270
  438.114  366.836   72.706  191.633   15.055
  438.364  370.523   69.819  198.024   14.865
  438.614  377.922   77.234  201.180   14.499
  438.864  380.831   86.375  202.452   14.206
  439.114  381.984   82.871  203.208   13.856
  439.364  381.317   81.158  205.210   13.546
  439.614  380.124   84.191  209.931   13.085
  439.864  378.740   88.152  204.108   12.855
  440.114  377.226   84.402  202.040   12.632
  440.364  379.878   86.574  203.626   12.379
  440.614  385.258   91.149  210.539   12.260
  440.864  386.801   84.070  216.620   12.062
  441.114  382.292   76.620  212.047   11.888
  441.364  378.108   76.386  205.381   11.793
  441.614  372.500   82.257  200.809   11.595
  441.864  362.529   78.570  204.386   11.469
  442.114  377.733   73.772  211.821   11.311
  442.364  381.944   77.301  215.076   11.216
  442.614  375.286   78.920  209.461   11.123
  442.864  357.184   77.942  203.526   11.100
  443.114  339.731   72.219  197.181   11.046
  443.364  319.351   67.544  194.589   11.008
  443.614  304.760   66.140  193.044   10.969
  443.864  321.266   66.215  192.439   10.946
  444.114  353.253   68.757  195.281   10.924
  444.364  367.354   71.171  198.748   10.901
  444.614  379.172   75.810  202.950   10.878
  444.864  383.518   80.510  206.622   10.856
  445.114  384.339   79.785  211.346   10.825
  445.364  385.431   77.823  210.841   10.802
  445.614  391.397   81.967  217.756   10.724
  445.864  390.600   83.336  211.412   10.685
  446.114  384.401   81.685  206.937   10.575
  446.364  387.959   78.736  202.681   10.489
  446.614  385.406   74.496  200.298   10.410
  446.864  380.053   71.301  198.229   10.236
  447.114  375.739   68.415  197.521   10.142
  447.364  378.583   66.513  196.917   10.016
  447.614  377.787   64.614  196.833    9.929
  447.864  366.508   68.758  192.261    9.811
  448.114  362.199   70.190  193.017    9.709
  448.364  352.813   67.983  197.419    9.622
  448.614  335.685   63.001  199.532    9.528
  448.864  312.963   60.236  196.731    9.481
  449.114  327.256   62.038  192.469    9.451
  449.364  358.726   64.641  191.239    9.444
  449.614  377.378   67.491  187.503    9.445
  449.864  363.307   62.322  180.107    9.663
  450.114  338.698   63.261  171.773    9.863
  450.364  334.451   66.480  179.315   10.136
  450.614  363.514   68.097  188.005   10.640
  450.864  305.140   69.405  191.367   11.216
  451.114  369.982   71.083  189.299   11.600
  451.364  371.201   75.783  185.564   12.256
  451.614  375.212   76.658  187.886   12.601
  451.864  372.262   75.437  194.168   12.841
  452.114  371.076   81.308  210.066   12.954
  452.364  370.279   90.820  206.955   12.980
  452.614  370.650   84.544  199.662   12.957
  452.864  372.584   78.946  192.165   12.927
  453.114  377.252   77.412  194.277   12.904
  453.364  381.331   79.153  204.639   12.914
  453.614  377.737   82.743  211.238   12.987
  453.864  364.640   79.857  210.737   13.060
  454.114  288.442   71.974  207.420   13.165
  454.364  243.534   62.306  207.958   13.222
  454.614  232.262   58.184  209.025   13.144
  454.864  267.765   62.329  208.628   12.802
  455.114  321.549   69.375  209.698   12.333
  455.364  311.121   71.485  210.553   11.808
  455.614  305.961   73.163  213.085   11.657
  455.864  293.125   74.964  211.952   11.395
  456.114  304.102   76.269  200.590   11.182
  456.364  316.513   78.440  189.645   11.095
  456.614  333.604   80.304  201.155   11.008
  456.864  338.658   80.994  209.844   10.946
  457.114  341.310   78.233  195.453   10.875
  457.364  349.683   78.245  192.448   10.845
  457.614  355.390   82.512  202.601   10.887
  457.864  358.038   83.882  200.742   10.904
  458.114  359.906   84.079  209.533   10.882
  458.364  361.059   87.855  195.875   10.851
  458.614  362.078   78.493  204.670   10.772
  458.864  363.491   82.146  206.151   10.662
  459.114  364.712   88.757  209.935   10.496
  459.364  366.576   85.439  212.775   10.330
  459.614  369.423   81.998  214.780   10.227
  459.864  372.791   86.575  212.818   10.077
  460.114  373.031   93.313  208.558   10.022
  460.364  365.338   94.431  207.951    9.865
  460.614  363.365   91.546  213.716    9.779
  460.864  368.421   85.083  206.849    9.740
  461.114  360.524   80.469  194.650    9.717
  461.364  294.028   71.909  194.463    9.822
  461.614  271.369   68.963  202.627   10.294
  461.864  316.889   74.956  202.022   10.838
  462.114  343.091   83.913  195.986   11.614
  462.364  362.394   84.110  204.780   12.309
  462.614  364.392   81.535  197.805   13.172
  462.864  364.440   80.312  202.008   14.578
  463.114  359.927   77.735  203.802   15.489
  463.364  358.936   76.576  204.457   17.087
  463.614  361.648   78.254  204.786   17.519
  463.864  366.121   81.782  203.452   17.951
  464.114  367.467   84.630  202.423   18.320
  464.364  367.648   82.053  202.239   18.664
  464.614  369.904   84.287  204.346   18.801
  464.864  373.855   87.013  216.274   18.883
  465.114  339.618   77.835  204.182   19.012
  465.364  308.698   71.002  194.805   19.261
  465.614  272.832   64.847  194.617   19.501
  465.864  252.191   65.169  201.113   19.790
  466.114  264.533   69.868  207.086   20.015
  466.364  278.567   72.779  207.736   19.985
  466.614  294.879   71.129  209.638   19.564
  466.864  295.509   70.401  208.509   18.640
  467.114  301.088   70.229  205.504   17.197
  467.364  312.648   70.425  196.333   16.098
  467.614  330.197   72.226  195.209   16.141
  467.864  328.553   74.398  201.180   17.333
  468.114  302.771   75.521  206.007   18.630
  468.364  287.526   65.851  207.597   19.248
  468.614  273.649   65.986  208.662   19.953
  468.864  276.171   68.095  209.097   19.612
  469.114  311.025   74.462  208.912   15.973
  469.364  337.876   78.914  207.051   14.474
  469.614  352.623   83.431  199.137   13.143
  469.864  352.281   85.664  208.035   12.818
  470.114  340.027   86.352  213.382   12.773
  470.364  336.954   86.428  213.413   13.119
  470.614  337.389   84.283  212.696   13.617
  470.864  337.311   79.669  211.569   14.083
  471.114  335.666   75.549  210.028   14.325
  471.364  329.207   77.105  208.585   14.536
  471.614  315.265   78.288  203.694   14.187
  471.864  314.465   74.908  195.779   13.687
  472.114  330.256   76.033  190.375   13.202
  472.364  348.454   78.819  189.455   12.630
  472.614  346.093   78.400  189.162   12.177
  472.864  340.742   76.563  189.912   11.852
  473.114  339.813   78.672  189.936   11.759
  473.364  356.773   82.079  188.598   11.962
  473.614  353.178   78.082  189.871   12.156
  473.864  348.343   76.489  195.324   12.127
  474.114  348.778   75.456  191.898   12.529
  474.364  355.984   75.590  187.117   12.803
  474.614  359.218   77.394  193.612   12.717
  474.864  359.852   79.007  201.675   12.201
  475.114  364.258   81.183  209.216   11.749
  475.364  371.655   82.303  213.206   11.352
  475.614  358.755   87.433  200.388   10.868
  475.864  337.528   93.552  197.586   10.471
  476.114  336.404   90.604  195.307   10.018
  476.364  367.223   81.490  193.658    9.502
  476.614  376.768   78.048  197.026    8.785
  476.864  380.264   82.193  198.817    8.788
  477.114  375.430   85.723  193.410    9.182
  477.364  367.606   81.847  192.804    9.920
  477.614  338.963   69.464  193.143   11.344
  477.864  306.156   64.174  193.374   15.437
  478.114  288.117   60.611  193.706   12.015
  478.364  280.552   59.326  194.048   23.727
  478.614  277.865   62.116  194.375   28.874
  478.864  271.145   57.935  200.139   32.258
  479.114  262.083   54.368  196.926   33.479
