~VERSION INFORMATION
 VERS.                 2.0:   CWLS LOG ASCII STANDARD -VERSION 2.0
 WRAP.                  NO:   ONE LINE PER DEPTH STEP
~WELL INFORMATION BLOCK
#MNEM.UNIT           DATA                    DESCRIPTION OF MNEMONIC
#---------    -------------------            -------------------------------
# Generated from Intellog Unique Number	CW_70_72/WELL/1076
NULL.         -999.25                        : NULL_VALUE
WELL.         CABRE ET AK NUTSYE 16-27       : Well_name    - WELL              
LOC .         16-27-071-03W5                 : Location     - LOCATION          
UWI .         00/16-27-071-03W5/0            : Uwi          - UNIQUE WELL ID    
ENTR.         JAYE                           : Entered      - ENTERED BY        
SRVC.         COMPUTALOG                     : Scn          - SERVICE COMPANY   
DATE.         19 NOV 85                      : Date         - LOG DATE          
STRT.M        440                            : top_depth    - START DEPTH       
STOP.M        650                            : bot_depth    - STOP DEPTH        
STEP.M        0.25                           : increment    - STEP LENGTH       
~CURVE INFORMATION BLOCK
#MNEM UNIT       ERCB CURVE CODE    CURVE DESCRIPTION
#-----------   ------------------   ----------------------------------
DEPT.M        00 001 00 00         : DEPTH        - DEPTH                       
DPHI.V/V      00 890 00 00         : PHID         - DENSITY POROSITY (SANDSTONE)
NPHI.V/V      00 330 00 00         : PHIN         - NEUTRON POROSITY (SANDSTONE)
GR  .API      00 310 00 00         : GR           - GAMMA RAY                   
CALI.MM       00 280 01 00         : CAL          - CALIPER                     
ILD .OHMM     00 120 00 00         : RESD         - DEEP RESISTIVITY (DIL)      
~PARAMETER INFORMATION       
#MNEM.UNIT           DATA             DESCRIPTION OF MNEMONIC
#---------         -----------     ------------------------------
GL  .M        635.2                : gl           - GROUND LEVEL ELEVATION      
EREF.M        638.78               : kb           - ELEVATION OF DEPTH REFERENCE
DATM.M        635.2                : datum        - DATUM ELEVATION             
TDD .M        660                  : tdd          - TOTAL DEPTH DRILLER         
RUN .         ONE                  : Run          - RUN NUMBER                  
ENG .         AHLOY                : Engineer     - RECORDING ENGINEER          
WIT .         BLOTT                : Witness      - WITNESSED BY                
BASE.         EDMONTON             : Branch       - HOME BASE OF LOGGING UNIT   
MUD .         GEL CHEN             : Mud_type     - MUD TYPE                    
MATR.         SANDSTONE            : Logunit      - NEUTRON MATRIX              
TMAX.C        27                   : BHT          - MAXIMUM RECORDED TEMPERATURE
BHTD.M        659.1                : BHTDEP       - MAXIMUM RECORDED TEMPERATURE
RMT .C        16.7                 : MDTP         - TEMPERATURE OF MUD          
MUDD.KG/M     1140                 : MWT          - MUD DENSITY                 
NEUT.         1                    : NEUTRON      - NEUTRON TYPE                
RESI.         0                    : RESIST       - RESISTIVITY TYPE            
RM  .OHMM     3                    : RM           - RESISTIVITY OF MUD          
RMC .OHMM     3.7                  : RMC          - RESISTIVITY OF MUD CAKE     
RMF .OHMM     3.2                  : RMF          - RESISTIVITY OF MUD FILTRATE 
SUFT.C        0                    : SUFT         - SURFACE TEMPERATURE         
~A  DEPTH     PHID     PHIN       GR      CAL     RESD
# ...
  586.000    0.189    0.395  100.822  161.537    4.501
  586.250    0.195    0.397  100.646  161.879    4.577
  586.500    0.184    0.387  104.966  161.691    4.670
  586.750    0.143    0.374  120.938  161.607    4.802
  587.000    0.103    0.368  109.300  161.522    5.198
  587.250    0.101    0.363   98.359  161.233    5.691
  587.500    0.124    0.358   85.898  161.148    5.896
  587.750    0.139    0.347   89.650  160.964    5.492
  588.000    0.145    0.349   95.615  160.983    4.906
  588.250    0.142    0.364   96.769  161.005    4.408
  588.500    0.134    0.388   98.874  160.925    4.059
  588.750    0.127    0.386  101.862  160.951    3.883
  589.000    0.132    0.376  103.524  160.974    3.865
  589.250    0.146    0.384  102.209  160.783    3.886
  589.500    0.151    0.397  100.198  161.023    3.936
  589.750    0.151    0.395   98.562  161.043    3.985
  590.000    0.149    0.390   97.374  161.068    4.036
  590.250    0.149    0.380  100.238  160.981    4.049
  590.500    0.153    0.371  104.051  161.113    4.069
  590.750    0.157    0.380  101.975  161.454    4.074
  591.000    0.163    0.388   98.634  161.583    4.065
  591.250    0.171    0.386   95.292  161.602    4.030
  591.500    0.181    0.378   92.201  161.839    3.960
  591.750    0.188    0.370   99.054  161.862    3.876
  592.000    0.181    0.388  106.668  161.888    3.821
  592.250    0.168    0.401  106.301  161.699    3.726
  592.500    0.166    0.403  102.834  161.720    3.639
  592.750    0.164    0.393   99.619  161.743    3.515
  593.000    0.156    0.393   98.048  161.768    3.433
  593.250    0.146    0.396   98.252  161.790    3.444
  593.500    0.150    0.397   98.077  162.024    3.596
  593.750    0.162    0.407   97.015  162.473    3.945
  594.000    0.170    0.390   95.698  163.131    4.344
  594.250    0.164    0.371   92.989  163.361    4.838
  594.500    0.176    0.347   87.557  158.109    5.317
  594.750    0.208    0.320   74.527  153.592    5.755
  595.000    0.278    0.297   67.892  152.562    6.363
  595.250    0.305    0.280   64.802  152.372    6.642
  595.500    0.308    0.276   63.297  152.396    6.857
  595.750    0.304    0.278   65.907  152.419    6.983
  596.000    0.308    0.277   67.441  152.445    7.113
  596.250    0.313    0.275   63.402  152.466    7.315
  596.500    0.303    0.273   63.227  152.383    7.436
  596.750    0.260    0.270   64.570  152.197    7.501
  597.000    0.246    0.267   65.155  151.375    7.426
  597.250    0.243    0.262   63.332  151.082    7.323
  597.500    0.202    0.257   59.673  152.371    6.682
  597.750    0.185    0.269   59.244  156.933    6.140
  598.000    0.238    0.280   63.755  154.846    5.361
  598.250    0.271    0.295   66.998  152.232    4.672
  598.500    0.299    0.309   69.292  151.198    4.197
  598.750    0.299    0.324   71.460  151.013    3.895
  599.000    0.298    0.339   72.675  151.139    3.704
  599.250    0.297    0.352   73.259  152.746    3.550
  599.500    0.291    0.368   72.196  154.140    3.589
  599.750    0.283    0.366   70.311  155.430    3.641
  600.000    0.269    0.360   68.807  151.865    3.695
  600.250    0.254    0.350   67.805  150.096    3.742
  600.500    0.270    0.350   67.124  149.591    3.754
  600.750    0.279    0.372   67.138  149.301    3.751
  601.000    0.287    0.393   67.026  149.321    3.713
  601.250    0.287    0.395   67.861  149.450    3.634
  601.500    0.280    0.374   68.256  149.792    3.549
  601.750    0.267    0.363   65.547  150.235    3.428
  602.000    0.246    0.354   63.852  150.894    3.388
  602.250    0.262    0.371   63.802  151.127    3.450
  602.500    0.304    0.383   64.893  151.676    3.713
  602.750    0.282    0.374   65.352  151.913    4.354
  603.000    0.199    0.307   64.540  152.781    5.263
  603.250    0.144    0.275   62.465  154.072    6.146
  603.500    0.103    0.230   60.516  155.678    6.782
  603.750    0.065    0.204   57.492  157.071    7.080
  604.000    0.053    0.192   55.034  159.207    6.995
  604.250    0.091    0.198   54.922  157.962    6.321
  604.500    0.171    0.216   55.696  155.874    5.509
  604.750    0.231    0.235   57.356  154.631    4.967
  605.000    0.246    0.253   61.422  153.918    4.429
  605.250    0.231    0.275   62.830  153.415    4.086
  605.500    0.228    0.296   62.593  153.226    3.864
  605.750    0.237    0.315   63.301  153.355    3.732
  606.000    0.243    0.334   65.721  153.273    3.653
  606.250    0.250    0.349   67.381  153.297    3.610
  606.500    0.260    0.362   64.927  153.318    3.607
  606.750    0.259    0.375   65.447  153.449    3.610
  607.000    0.258    0.388   67.741  153.580    3.602
  607.250    0.262    0.393   68.958  153.706    3.592
  607.500    0.267    0.382   69.035  153.727    3.597
  607.750    0.276    0.374   68.607  153.750    3.615
  608.000    0.284    0.382   67.607  153.777    3.661
  608.250    0.283    0.377   67.937  153.798    3.701
  608.500    0.273    0.371   68.395  153.821    3.741
  608.750    0.254    0.370   68.852  154.055    3.782
  609.000    0.249    0.376   69.372  154.290    3.853
  609.250    0.250    0.382   69.829  154.314    3.916
  609.500    0.246    0.376   70.287  154.441    3.981
  609.750    0.240    0.366   70.871  154.253    4.009
  610.000    0.240    0.365   70.504  154.173    4.069
  610.250    0.243    0.378   70.138  153.985    4.096
  610.500    0.242    0.377   69.519  154.006    4.142
  610.750    0.234    0.369   69.660  153.821    4.162
  611.000    0.221    0.355   69.991  153.738    4.167
  611.250    0.216    0.345   69.941  153.762    4.181
  611.500    0.224    0.337   71.288  153.788    4.194
  611.750    0.235    0.371   72.948  153.701    4.222
  612.000    0.244    0.390   74.863  153.304    4.229
  612.250    0.247    0.375   76.329  153.010    4.226
  612.500    0.237    0.362   79.511  153.459    4.223
  612.750    0.238    0.359   81.805  154.113    4.228
  613.000    0.244    0.376   80.868  155.403    4.225
  613.250    0.243    0.378   81.009  156.902    4.279
  613.500    0.236    0.375   80.454  159.777    4.367
  613.750    0.236    0.368   78.252  162.121    4.718
  614.000    0.231    0.352   76.618  162.882    5.030
  614.250    0.211    0.335   72.579  163.223    5.362
  614.500    0.168    0.315   65.121  164.726    5.556
  614.750    0.146    0.301   63.109  166.128    5.637
  615.000    0.179    0.309   69.204  166.887    5.549
  615.250    0.209    0.326   76.244  166.483    5.399
  615.500    0.206    0.339   80.311  165.347    5.205
  615.750    0.198    0.347   79.692  163.894    5.104
  616.000    0.190    0.346   78.377  162.756    5.110
  616.250    0.179    0.341   77.821  161.198    5.295
  616.500    0.167    0.330   76.888  160.795    5.581
  616.750    0.155    0.322   76.710  161.135    5.950
  617.000    0.143    0.317   77.420  161.582    6.283
  617.250    0.138    0.314   78.573  161.814    6.611
  617.500    0.139    0.311   82.957  162.264    6.758
  617.750    0.147    0.313   89.050  162.497    6.614
  618.000    0.148    0.324   97.296  162.730    6.150
  618.250    0.145    0.335  103.325  163.597    5.883
  618.500    0.139    0.348  107.583  162.567    5.724
  618.750    0.128    0.358  100.630  160.796    5.763
  619.000    0.115    0.354   93.489  159.237    6.064
  619.250    0.095    0.340   86.474  158.308    6.614
  619.500    0.101    0.326   85.728  156.012    7.256
  619.750    0.117    0.310   80.994  155.611    7.960
  620.000    0.112    0.303   75.877  155.636    8.699
  620.250    0.079    0.296   70.256  156.822    8.809
  620.500    0.091    0.283   77.172  158.109    7.960
  620.750    0.124    0.288   85.166  159.083    7.110
  621.000    0.142    0.317   87.965  159.950    6.424
  621.250    0.146    0.344   90.069  161.135    5.609
  621.500    0.138    0.369   91.920  162.321    5.116
  621.750    0.125    0.369   92.886  162.979    4.884
  622.000    0.119    0.368   93.151  163.418    4.790
  622.250    0.136    0.367   93.545  163.337    4.777
