~VERSION INFORMATION
 VERS.                 2.0:   CWLS LOG ASCII STANDARD -VERSION 2.0
 WRAP.                  NO:   ONE LINE PER DEPTH STEP
~WELL INFORMATION BLOCK
#MNEM.UNIT           DATA                    DESCRIPTION OF MNEMONIC
#---------    -------------------            -------------------------------
# Generated from Intellog Unique Number	CS_77_79/WELL/994
WELL.         HB DOME LEISMER                : Well_name    - WELL
LOC .         00/11-11-078-11W4/0            : Location     - LOCATION
UWI .         00/11-11-078-11W4/0            : Uwi          - UNIQUE WELL ID
ENTR.         JHS                            : Entered      - ENTERED BY
SRVC.         SCHLUMBERGER                   : Scn          - SERVICE COMPANY
STRT.M        310                            : top_depth    - START DEPTH
STOP.M        495                            : bot_depth    - STOP DEPTH
STEP.M        0.25                           : increment    - STEP LENGTH
 NULL. -999.2500:NULL Value
~CURVE INFORMATION BLOCK
#MNEM UNIT       ERCB CURVE CODE    CURVE DESCRIPTION
#-----------   ------------------   ----------------------------------
DEPT.M        00 001 00 00         : DEPTH        - DEPTH
DPHI.V/V      00 890 00 00         : PHID         - DENSITY POROSITY (LIMESTONE)
NPHI.V/V      00 330 00 00         : PHIN         - NEUTRON POROSITY (LIMESTONE)
GR  .API      00 310 00 00         : GR           - GAMMA RAY
ILD .OHMM     00 120 00 00         : RESD         - DEEP RESISTIVITY (DIL)
~PARAMETER INFORMATION
#MNEM.UNIT           DATA             DESCRIPTION OF MNEMONIC
#---------         -----------     ------------------------------
GL  .M        683.78               : gl           - GROUND LEVEL ELEVATION
EREF.M        687.98               : kb           - ELEVATION OF DEPTH REFERENCE
DATM.M        687.98               : datum        - DATUM ELEVATION
TDD .M        598                  : tdd          - TOTAL DEPTH DRILLER
RUN .         ONE                  : Run          - RUN NUMBER
ENG .         BILL                 : Engineer     - RECORDING ENGINEER
WIT .         JIM                  : Witness      - WITNESSED BY
MUD .         GEL                  : Mud_type     - MUD TYPE
MATR.         LIMESTONE            : Logunit      - NEUTRON MATRIX
TMAX.C        24.4                 : BHT          - MAXIMUM RECORDED TEMPERATURE
BHTD.M        598                  : BHTDEP       - MAXIMUM RECORDED TEMPERATURE
MATR.         1                    : LOGUNIT      - NEUTRON MATRIX
RMT .C        25                   : MDTP         - TEMPERATURE OF MUD
NEUT.         1                    : NEUTRON      - NEUTRON TYPE
RESI.         0                    : RESIST       - RESISTIVITY TYPE
RMC .OHMM     0.25                 : RMC          - RESISTIVITY OF MUD CAKE
RMF .OHMM     0.25                 : RMF          - RESISTIVITY OF MUD FILTRATE
SUFT.C        15                   : SUFT         - SURFACE TEMPERATURE
~A  DEPTH     PHID     PHIN       GR     RESD
# ...
  353.500    0.276    0.503   81.256    5.853
  353.750    0.268    0.519   83.703    4.761
  354.000    0.267    0.514   84.921    4.176
  354.250    0.267    0.509   84.294    4.101
  354.500    0.258    0.517   84.290    3.665
  354.750    0.261    0.530   82.436    3.668
  355.000    0.265    0.540   79.352    3.740
  355.250    0.259    0.551   75.038    4.035
  355.500    0.254    0.531   72.570    4.272
  355.750    0.268    0.504   71.332    4.696
  356.000    0.300    0.495   68.248    5.361
  356.250    0.302    0.484   62.704    6.599
  356.500    0.310    0.466   57.777    8.122
  356.750    0.305    0.457   54.079    9.447
  357.000    0.298    0.438   50.996   10.989
  357.250    0.311    0.423   49.142   12.782
  357.500    0.342    0.444   49.746   14.055
  357.750    0.346    0.456   57.728   14.064
  358.000    0.346    0.444   65.709   13.301
  358.250    0.327    0.442   69.385   12.113
  358.500    0.299    0.459   72.450   10.624
  358.750    0.294    0.513   75.514    8.974
  359.000    0.324    0.551   78.577    8.330
  359.250    0.325    0.506   84.101    8.655
  359.500    0.300    0.490   87.164    8.992
  359.750    0.277    0.491   81.007   10.264
  360.000    0.243    0.418   73.006   11.716
  360.250    0.262    0.389   61.932   12.642
  360.500    0.316    0.433   66.837   12.413
  360.750    0.325    0.477   66.828   11.521
  361.000    0.310    0.504   68.045   10.691
  361.250    0.302    0.512   70.496    9.922
  361.500    0.289    0.507   70.483    8.541
  361.750    0.266    0.501   74.165    7.080
  362.000    0.240    0.502   79.686    5.652
  362.250    0.238    0.517   80.906    4.686
  362.500    0.248    0.532   81.510    4.110
  362.750    0.242    0.521   81.502    3.886
  363.000    0.237    0.516   82.723    3.817
  363.250    0.234    0.524   85.170    3.819
  363.500    0.235    0.533   90.079    3.894
  363.750    0.248    0.538   93.139    3.897
  364.000    0.239    0.544   91.900    3.899
  364.250    0.235    0.548   89.433    3.902
  364.500    0.247    0.545   85.118    3.904
  364.750    0.264    0.524   80.805    4.133
  365.000    0.260    0.510   78.955    4.718
  365.250    0.239    0.511   78.330    5.386
  365.500    0.231    0.537   74.632    6.034
  365.750    0.258    0.555   69.703    6.634
  366.000    0.279    0.496   71.537    7.432
  366.250    0.282    0.469   73.371    8.017
  366.500    0.297    0.474   72.132    8.815
  366.750    0.297    0.489   73.350    8.820
  367.000    0.282    0.456   78.260    7.450
  367.250    0.257    0.442   84.397    5.414
  367.500    0.239    0.505   88.691    4.660
  367.750    0.239    0.558   90.523    4.324
  368.000    0.243    0.587   90.515    4.091
  368.250    0.237    0.504   86.816    4.093
  368.500    0.227    0.476   83.117    4.173
  368.750    0.240    0.462   82.494    4.337
  369.000    0.247    0.478   85.558    4.258
  369.250    0.254    0.510   88.620    4.103
  369.500    0.268    0.525   85.535    3.880
  369.750    0.280    0.568   87.986    3.601
  370.000    0.272    0.556   89.206    3.537
  370.250    0.263    0.538   90.423    3.606
  370.500    0.265    0.527   94.718    3.677
  370.750    0.279    0.540   95.936    3.679
  371.000    0.296    0.577   91.008    3.546
  371.250    0.299    0.586   90.998    3.417
  371.500    0.293    0.602   92.835    3.292
  371.750    0.285    0.615   95.280    3.173
  372.000    0.279    0.615   94.658    3.116
  372.250    0.271    0.600   92.805    3.118
  372.500    0.274    0.593   90.950    3.179
  372.750    0.287    0.595   87.867    3.303
  373.000    0.304    0.604   84.169    3.432
  373.250    0.316    0.582   80.471    3.773
  373.500    0.293    0.525   78.613    4.226
  373.750    0.263    0.485   77.375    4.916
  374.000    0.255    0.472   74.909    6.166
  374.250    0.268    0.486   71.210    7.039
  374.500    0.303    0.517   68.740    7.737
  374.750    0.292    0.475   71.802    8.193
  375.000    0.272    0.460   77.942    8.355
  375.250    0.245    0.472   82.235    8.205
  375.500    0.260    0.485   84.065    8.208
  375.750    0.273    0.479   81.600    8.060
  376.000    0.266    0.470   77.284    7.915
  376.250    0.270    0.465   78.507    7.922
  376.500    0.270    0.474   77.265    7.925
  376.750    0.267    0.468   76.028    7.931
  377.000    0.273    0.469   76.018    8.087
  377.250    0.267    0.482   77.238    8.092
  377.500    0.253    0.476   80.299    8.097
  377.750    0.246    0.459   81.519    8.102
  378.000    0.245    0.455   80.893    7.957
  378.250    0.242    0.482   79.042    7.960
  378.500    0.245    0.502   79.033    7.967
  378.750    0.251    0.519   79.020    7.972
  379.000    0.262    0.507   77.782    7.976
  379.250    0.270    0.483   78.386    7.981
  379.500    0.249    0.470   78.993    7.987
  379.750    0.237    0.484   75.908    8.143
  380.000    0.233    0.501   70.981    7.997
  380.250    0.226    0.470   74.660    8.001
  380.500    0.207    0.445   80.181    7.711
  380.750    0.223    0.470   82.015    7.430
  381.000    0.231    0.493   83.234    7.027
  381.250    0.218    0.486   83.226    6.646
  381.500    0.218    0.477   80.757    6.650
  381.750    0.228    0.466   79.518    6.655
  382.000    0.239    0.466   81.965    6.659
  382.250    0.249    0.509   83.187    6.663
  382.500    0.252    0.504   83.176    6.542
  382.750    0.239    0.487   83.781    6.304
  383.000    0.237    0.479   84.385    5.962
  383.250    0.260    0.499   82.531    5.431
  383.500    0.280    0.544   83.136    4.502
  383.750    0.273    0.555   88.659    3.527
  384.000    0.273    0.560   93.567    2.979
  384.250    0.294    0.580   93.556    2.469
  384.500    0.290    0.564   84.326    2.380
  384.750    0.275    0.549   81.240    2.427
  385.000    0.268    0.560   81.848    2.474
  385.250    0.270    0.572   81.222    2.571
  385.500    0.274    0.540   79.368    2.722
  385.750    0.259    0.503   78.743    3.350
  386.000    0.251    0.466   76.274    3.971
  386.250    0.258    0.460   77.495    4.706
  386.500    0.296    0.451   78.096    5.685
  386.750    0.294    0.452   74.402    6.489
  387.000    0.291    0.476   71.933    7.136
  387.250    0.289    0.486   73.150    7.275
  387.500    0.252    0.462   71.298    7.012
  387.750    0.198    0.453   65.754    6.630
  388.000    0.231    0.478   66.359    6.271
  388.250    0.278    0.466   71.883    6.157
  388.500    0.276    0.464   78.020    6.161
  388.750    0.277    0.472   84.155    6.165
  389.000    0.251    0.481   78.614    6.527
  389.250    0.149    0.508   60.778    7.592
  389.500    0.000    0.269   47.859   10.075
  389.750    0.001    0.166   43.547   12.877
  390.000    0.026    0.170   44.766   15.263
  390.250    0.186    0.287   53.975   16.781
  390.500    0.246    0.354   60.728   15.869
  390.750    0.305    0.416   65.636   12.433
  391.000    0.318    0.464   69.314    9.925
  391.250    0.316    0.463   69.919    8.543
  391.500    0.310    0.454   68.066    7.929
  391.750    0.311    0.459   66.826    7.935
  392.000    0.316    0.469   67.431    8.090
  392.250    0.311    0.479   64.961    8.728
  392.500    0.299    0.474   61.877    9.778
  392.750    0.289    0.463   61.866   10.353
  393.000    0.277    0.450   61.856   10.756
  393.250    0.276    0.444   61.231   10.967
  393.500    0.286    0.447   60.609   10.977
  393.750    0.294    0.458   58.140   10.984
  394.000    0.292    0.462   56.285   10.783
  394.250    0.290    0.469   56.891   10.589
  394.500    0.291    0.478   58.722   10.398
  394.750    0.309    0.484   60.558   10.022
  395.000    0.308    0.470   61.163    9.841
  395.250    0.303    0.465   60.539    9.847
  395.500    0.306    0.467   60.528    9.668
  395.750    0.324    0.470   58.676    9.317
  396.000    0.336    0.472   53.747    8.648
  396.250    0.347    0.477   50.050    8.178
  396.500    0.352    0.479   48.808    7.882
  396.750    0.360    0.470   51.257    7.453
