~VERSION INFORMATION
 VERS.                 2.0:   CWLS LOG ASCII STANDARD -VERSION 2.0
 WRAP.                  NO:   ONE LINE PER DEPTH STEP
~WELL INFORMATION BLOCK
#MNEM.UNIT           DATA                    DESCRIPTION OF MNEMONIC
#---------    -------------------            -------------------------------
# Generated from Intellog Unique Number	CS_69_70/WELL/870
WELL.         ET AL HEART LAKE               : Well_name    - WELL
LOC .         00/10-21-069-09W4/0            : Location     - LOCATION
UWI .         00/10-21-069-09W4/0            : Uwi          - UNIQUE WELL ID
ENTR.         SP                             : Entered      - ENTERED BY
SRVC.         SCHLUMBERGER                   : Scn          - SERVICE COMPANY
STRT.M        375                            : top_depth    - START DEPTH
STOP.M        590                            : bot_depth    - STOP DEPTH
STEP.M        0.25                           : increment    - STEP LENGTH
 NULL. -999.2500:NULL Value
~CURVE INFORMATION BLOCK
#MNEM UNIT       ERCB CURVE CODE    CURVE DESCRIPTION
#-----------   ------------------   ----------------------------------
DEPT.M        00 001 00 00         : DEPTH        - DEPTH
GR  .API      00 310 00 00         : GR           - GAMMA RAY
NPHI.V/V      00 330 00 00         : PHIN         - NEUTRON POROSITY (LIMESTONE)
DPHI.V/V      00 890 00 00         : PHID         - DENSITY POROSITY (LIMESTONE)
ILD .OHMM     00 120 00 00         : RESD         - DEEP RESISTIVITY (DIL)
~PARAMETER INFORMATION
#MNEM.UNIT           DATA             DESCRIPTION OF MNEMONIC
#---------         -----------     ------------------------------
GL  .M        706.23               : gl           - GROUND LEVEL ELEVATION
EREF.M        709                  : kb           - ELEVATION OF DEPTH REFERENCE
DATM.M        706.23               : datum        - DATUM ELEVATION
TDD .M        600                  : tdd          - TOTAL DEPTH DRILLER
RUN .         ONE                  : Run          - RUN NUMBER
ENG .         BILL                 : Engineer     - RECORDING ENGINEER
WIT .         JIM                  : Witness      - WITNESSED BY
MUD .         GEL                  : Mud_type     - MUD TYPE
MATR.         LIMESTONE            : Logunit      - NEUTRON MATRIX
TMAX.C        17.7                 : BHT          - MAXIMUM RECORDED TEMPERATURE
BHTD.M        600                  : BHTDEP       - MAXIMUM RECORDED TEMPERATURE
MATR.         1                    : LOGUNIT      - NEUTRON MATRIX
RMT .C        25                   : MDTP         - TEMPERATURE OF MUD
NEUT.         1                    : NEUTRON      - NEUTRON TYPE
RESI.         0                    : RESIST       - RESISTIVITY TYPE
RMC .OHMM     0.25                 : RMC          - RESISTIVITY OF MUD CAKE
RMF .OHMM     0.25                 : RMF          - RESISTIVITY OF MUD FILTRATE
SUFT.C        15                   : SUFT         - SURFACE TEMPERATURE
~A  DEPTH       GR     PHIN     PHID     RESD
# ...
  549.000   55.559    0.317    0.250    7.631
  549.250   62.266    0.305    0.230    7.227
  549.500   67.559    0.316    0.214    7.000
  549.750   74.206    0.314    0.199    6.974
  550.000   79.929    0.313    0.189    6.949
  550.250   87.498    0.318    0.193    6.924
  550.500   95.311    0.319    0.203    6.898
  550.750  102.940    0.320    0.192    6.834
  551.000  108.848    0.333    0.184    6.771
  551.250  115.617    0.353    0.180    6.658
  551.500  117.283    0.384    0.185    6.364
  551.750  100.077    0.376    0.189    6.377
  552.000   87.050    0.347    0.207    5.994
  552.250   73.470    0.323    0.239    5.528
  552.500   66.899    0.333    0.257    4.590
  552.750   61.127    0.339    0.271    4.470
  553.000   55.846    0.348    0.278    4.202
  553.250   67.287    0.316    0.253    4.178
  553.500   81.557    0.325    0.230    4.299
  553.750   93.243    0.355    0.203    4.447
  554.000  102.287    0.375    0.179    4.741
  554.250  105.243    0.391    0.172    5.141
  554.500  103.651    0.396    0.167    5.420
  554.750   98.432    0.379    0.163    5.618
  555.000   91.738    0.380    0.182    5.747
  555.250   84.613    0.379    0.215    5.748
  555.500   79.886    0.375    0.247    5.630
  555.750   77.187    0.368    0.273    5.164
  556.000   73.075    0.360    0.290    4.376
  556.250   63.430    0.353    0.296    3.880
  556.500   55.506    0.352    0.297    3.389
  556.750   50.349    0.357    0.303    3.120
  557.000   48.756    0.358    0.309    2.921
  557.250   46.304    0.354    0.308    2.782
  557.500   43.605    0.347    0.304    2.710
  557.750   50.067    0.340    0.309    2.655
  558.000   61.261    0.334    0.300    2.645
  558.250   75.961    0.344    0.290    2.616
  558.500   75.353    0.360    0.281    2.596
  558.750   68.843    0.372    0.279    2.597
  559.000   63.070    0.385    0.282    2.602
  559.250   58.097    0.364    0.291    2.612
  559.500   56.505    0.343    0.312    2.612
  559.750   59.708    0.326    0.314    2.613
  560.000   59.592    0.333    0.304    2.637
  560.250   58.860    0.346    0.294    2.653
  560.500   58.928    0.353    0.292    2.668
  560.750   53.771    0.354    0.300    2.683
  561.000   53.655    0.350    0.305    2.689
  561.250   63.312    0.342    0.297    2.699
  561.500   77.274    0.333    0.292    2.710
  561.750   90.743    0.349    0.283    2.720
  562.000   95.914    0.371    0.291    2.762
  562.250   88.297    0.382    0.303    2.846
  562.500   84.430    0.360    0.270    3.018
  562.750   92.060    0.343    0.178    3.334
  563.000   98.645    0.331    0.158    3.847
  563.250  101.417    0.335    0.154    4.541
  563.500  102.777    0.348    0.162    5.036
  563.750  103.397    0.350    0.175    5.410
  564.000  103.404    0.355    0.173    5.747
  564.250  107.099    0.371    0.169    5.968
  564.500  112.393    0.379    0.172    6.070
  564.750  116.149    0.393    0.181    5.981
  565.000  117.015    0.410    0.195    5.925
  565.250  102.513    0.417    0.207    5.632
  565.500   81.372    0.381    0.216    5.435
  565.750   70.682    0.359    0.230    5.254
  566.000   66.078    0.345    0.251    5.108
  566.250   64.055    0.341    0.266    4.893
  566.500   68.120    0.336    0.272    4.642
  566.750   79.622    0.328    0.234    4.802
  567.000   95.735    0.322    0.172    5.053
  567.250  104.840    0.317    0.120    5.377
  567.500  110.686    0.326    0.116    5.701
  567.750  107.987    0.349    0.139    5.865
  568.000   99.511    0.371    0.152    5.921
  568.250  106.034    0.358    0.161    5.877
  568.500  114.032    0.342    0.164    5.452
  568.750  116.927    0.379    0.148    5.330
  569.000   99.659    0.402    0.147    5.202
  569.250   80.547    0.381    0.202    5.232
  569.500   68.811    0.355    0.219    5.223
  569.750   66.420    0.336    0.206    5.145
  570.000   71.898    0.319    0.199    5.069
  570.250   73.994    0.308    0.204    5.022
  570.500   74.616    0.310    0.200    4.901
  570.750   76.651    0.319    0.196    4.865
  571.000   78.748    0.320    0.210    4.829
  571.250   79.614    0.328    0.225    4.757
  571.500   79.744    0.340    0.231    4.722
  571.750   80.551    0.336    0.211    4.678
  572.000   81.479    0.320    0.198    4.652
  572.250   77.981    0.320    0.211    4.618
  572.500   70.671    0.325    0.227    4.636
  572.750   76.150    0.317    0.207    4.707
  573.000   83.717    0.312    0.174    4.788
  573.250   90.671    0.311    0.152    4.842
  573.500   93.381    0.318    0.152    4.880
  573.750   88.470    0.330    0.174    4.880
  574.000   85.218    0.350    0.191    4.862
  574.250   83.011    0.367    0.202    4.808
  574.500   82.158    0.371    0.126    4.755
  574.750   79.643    0.332    0.076    4.728
  575.000   75.285    0.314    0.089    4.702
  575.250   77.936    0.349    0.170    4.598
  575.500   82.490    0.366    0.201    4.572
  575.750   89.751    0.371    0.193    4.573
  576.000   96.704    0.371    0.164    4.625
  576.250  103.473    0.372    0.150    4.740
  576.500  109.012    0.384    0.134    4.978
  576.750  108.588    0.398    0.155    5.348
  577.000  101.095    0.409    0.166    5.450
  577.250   95.753    0.388    0.168    5.481
  577.500   93.668    0.370    0.179    5.380
  577.750   93.183    0.353    0.175    5.260
  578.000   95.712    0.341    0.153    5.153
  578.250   96.823    0.345    0.149    5.086
  578.500   98.244    0.354    0.170    5.067
  578.750   98.926    0.359    0.186    5.039
  579.000   96.659    0.367    0.196    5.012
  579.250   94.206    0.370    0.202    4.956
  579.500   92.429    0.366    0.204    4.892
  579.750   90.591    0.366    0.212    4.756
  580.000   93.610    0.368    0.221    4.572
  580.250  101.548    0.366    0.207    4.454
  580.500  109.483    0.363    0.188    4.446
  580.750  119.941    0.364    0.169    4.514
  581.000  123.697    0.396    0.154    4.617
  581.250  118.293    0.419    0.144    4.714
  581.500  115.902    0.438    0.145    4.896
  581.750  113.204    0.424    0.142    5.074
  582.000  105.403    0.389    0.137    5.339
  582.250  103.073    0.330    0.142    5.565
  582.500  108.245    0.340    0.147    5.779
  582.750  111.201    0.358    0.139    5.979
  583.000   98.912    0.377    0.160    6.059
  583.250   93.693    0.359    0.190    6.094
  583.500   97.573    0.346    0.191    6.095
  583.750  102.682    0.338    0.165    6.027
  584.000  107.361    0.351    0.153    5.994
  584.250  111.116    0.370    0.160    5.961
  584.500  103.070    0.369    0.192    5.582
  584.750   90.965    0.397    0.186    5.437
  585.000   90.481    0.404    0.249    5.081
  585.250   87.782    0.392    0.262    4.274
  585.500   77.768    0.404    0.252    3.241
  585.750   65.233    0.419    0.272    2.567
  586.000   52.145    0.297    0.295    2.789
  586.250   37.582    0.257    0.095    3.411
  586.500   26.215    0.221    0.033    4.550
  586.750   15.648    0.185    0.024    6.680
  587.000   10.183    0.158    0.035    9.409
  587.250    9.821    0.155    0.049   13.918
  587.500   11.181    0.165    0.060   19.976
  587.750   11.801    0.176    0.067   23.180
  588.000   12.668    0.185    0.062   20.864
  588.250   14.088    0.195    0.064   19.065
  588.500   15.571    0.203    0.076   18.362
  588.750   16.868    0.213    0.083   17.786
  589.000   17.181    0.221    0.092   17.490
  589.250   14.114    0.218    0.084   17.723
  589.500   12.768    0.207    0.074   18.967
  589.750   12.467    0.196    0.064   20.146
  590.000   12.965    0.186    0.065   21.119
