~VERSION INFORMATION
 VERS.                 2.0:   CWLS LOG ASCII STANDARD -VERSION 2.0
 WRAP.                  NO:   ONE LINE PER DEPTH STEP
~WELL INFORMATION BLOCK
#MNEM.UNIT           DATA                    DESCRIPTION OF MNEMONIC
#---------    -------------------            -------------------------------
# Generated from Intellog Unique Number	CS_73_76/WELL/3232
WELL.         HOME OIL COMPANY LIMITED       : Well_name    - WELL
LOC .         00/10-08-076-06W4/0            : Location     - LOCATION
UWI .         00/10-08-076-06W4/0            : Uwi          - UNIQUE WELL ID
ENTR.         SP                             : Entered      - ENTERED BY
SRVC.         SCHLUMBERGER                   : Scn          - SERVICE COMPANY
STRT.M        173.736                        : top_depth    - START DEPTH
STOP.M        412.986                        : bot_depth    - STOP DEPTH
STEP.M        0.25                           : increment    - STEP LENGTH
 NULL. -999.2500:NULL Value
~CURVE INFORMATION BLOCK
#MNEM UNIT       ERCB CURVE CODE    CURVE DESCRIPTION
#-----------   ------------------   ----------------------------------
DEPT.M        00 001 00 00         : DEPTH        - DEPTH
GR  .API      00 310 00 00         : GR           - GAMMA RAY
DPHI.V/V      00 890 00 00         : PHID         - DENSITY POROSITY (SANDSTONE)
NPHI.V/V      00 330 00 00         : PHIN         - NEUTRON POROSITY (SANDSTONE)
ILD .OHMM     00 120 00 00         : RESD         - DEEP RESISTIVITY (DIL)
~PARAMETER INFORMATION
#MNEM.UNIT           DATA             DESCRIPTION OF MNEMONIC
#---------         -----------     ------------------------------
GL  .M        580.278              : gl           - GROUND LEVEL ELEVATION
EREF.M        584.119              : kb           - ELEVATION OF DEPTH REFERENCE
DATM.M        580.278              : datum        - DATUM ELEVATION
TDD .M        389.23               : tdd          - TOTAL DEPTH DRILLER
RUN .         ONE                  : Run          - RUN NUMBER
ENG .         BILL                 : Engineer     - RECORDING ENGINEER
WIT .         JIM                  : Witness      - WITNESSED BY
MUD .         GEL                  : Mud_type     - MUD TYPE
MATR.         SANDSTONE            : Logunit      - NEUTRON MATRIX
TMAX.C        16.6667              : BHT          - MAXIMUM RECORDED TEMPERATURE
BHTD.M        389.23               : BHTDEP       - MAXIMUM RECORDED TEMPERATURE
MATR.         1                    : LOGUNIT      - NEUTRON MATRIX
RMT .C        25                   : MDTP         - TEMPERATURE OF MUD
NEUT.         1                    : NEUTRON      - NEUTRON TYPE
RESI.         0                    : RESIST       - RESISTIVITY TYPE
RMC .OHMM     0.25                 : RMC          - RESISTIVITY OF MUD CAKE
RMF .OHMM     0.25                 : RMF          - RESISTIVITY OF MUD FILTRATE
SUFT.C        15                   : SUFT         - SURFACE TEMPERATURE
~A  DEPTH       GR     PHID     PHIN     RESD
# ...
  304.236   75.455    0.250    0.436    7.483
  304.486   74.406    0.261    0.437    7.714
  304.736   73.027    0.273    0.441    8.420
  304.986   72.593    0.254    0.446    9.974
  305.236   71.131    0.217    0.428   12.365
  305.486   66.725    0.167    0.294   16.803
  305.736   63.161   -0.005    0.162   20.866
  305.986   61.166    0.001    0.169   14.178
  306.236   59.922    0.013    0.290   10.006
  306.486   66.002    0.135    0.332    8.819
  306.736   77.195    0.176    0.373    8.136
  306.986   84.362    0.212    0.405    7.626
  307.236   87.615    0.222    0.435    6.958
  307.486   91.260    0.229    0.447    6.101
  307.736   93.967    0.225    0.454    5.308
  307.986   93.656    0.221    0.450    4.640
  308.236   97.323    0.224    0.453    4.178
  308.486   99.460    0.214    0.466    3.860
  308.736  101.117    0.201    0.474    3.862
  308.986  100.999    0.198    0.482    4.098
  309.236  104.132    0.212    0.496    4.454
  309.486  101.960    0.221    0.487    5.136
  309.736   99.589    0.228    0.468    5.572
  309.986   93.746    0.237    0.454    6.329
  310.236   93.218    0.237    0.445    6.858
  310.486   91.273    0.236    0.440    7.233
  310.736   87.729    0.237    0.432    7.348
  310.986   84.977    0.240    0.426    7.341
  311.236   83.268    0.244    0.421    7.523
  311.486   82.222    0.239    0.431    7.990
  311.736   79.475    0.213    0.439    8.894
  311.986   74.980    0.192    0.428    9.412
  312.236   70.701    0.144    0.402    9.407
  312.486   70.408    0.163    0.343    9.165
  312.736   73.600    0.193    0.377    8.711
  312.986   73.305    0.221    0.432    8.474
  313.236   76.575    0.239    0.447    8.040
  313.486   77.793    0.247    0.450    7.667
  313.736   79.051    0.247    0.456    7.213
  313.986   81.841    0.240    0.450    6.790
  314.236   83.226    0.241    0.440    6.269
  314.486   84.440    0.248    0.445    6.148
  314.736   87.282    0.254    0.449    6.656
  314.986   89.263    0.253    0.448    6.959
  315.236   89.844    0.251    0.444    7.172
  315.486   88.013    0.248    0.452    7.392
  315.736   86.071    0.247    0.462    7.437
  315.986   83.290    0.246    0.473    6.749
  316.236   82.005    0.245    0.482    6.126
  316.486   79.692    0.260    0.473    6.031
  316.736   75.964    0.271    0.471    5.897
  316.986   72.395    0.285    0.484    5.912
  317.236   69.612    0.290    0.485    5.979
  317.486   69.403    0.292    0.472    6.037
  317.736   70.885    0.300    0.470    6.246
  317.986   72.525    0.306    0.475    6.255
  318.236   74.163    0.299    0.476    6.257
  318.486   75.109    0.293    0.473    5.788
  318.736   76.139    0.290    0.446    5.555
  318.986   76.439    0.286    0.439    5.494
  319.236   75.684    0.291    0.442    5.540
  319.486   77.256    0.287    0.444    6.017
  319.736   80.015    0.273    0.445    6.264
  319.986   85.742    0.237    0.448    6.508
  320.236   89.924    0.210    0.459    6.103
  320.486   92.290    0.206    0.462    5.835
  320.736   93.013    0.198    0.463    5.814
  320.986   96.716    0.198    0.465    5.940
  321.236   95.994    0.204    0.466    5.932
  321.486   96.027    0.197    0.468    5.934
  321.736   98.433    0.189    0.471    5.937
  321.986   98.356    0.181    0.472    5.854
  322.236   97.388    0.191    0.459    5.873
  322.486   97.729    0.201    0.438    5.941
  322.736   97.706    0.211    0.433    6.062
  322.986   97.774    0.205    0.447    6.055
  323.236  100.032    0.201    0.460    6.056
  323.486  101.399    0.201    0.473    6.054
  323.736  102.286    0.202    0.483    6.042
  323.986  105.415    0.201    0.486    5.846
  324.236  106.019    0.201    0.497    5.843
  324.486  104.147    0.207    0.494    5.849
  324.736  101.105    0.206    0.496    6.037
  324.986   98.057    0.204    0.471    6.179
  325.236   96.466    0.200    0.453    6.302
  325.486   96.350    0.195    0.454    6.309
  325.736   93.538    0.199    0.462    6.169
  325.986   91.549    0.204    0.471    6.186
  326.236   91.507    0.183    0.464    5.984
  326.486   92.314    0.139    0.451    5.916
  326.736   93.296    0.117    0.430    5.646
  326.986   94.278    0.161    0.421    5.270
  327.236   95.221    0.192    0.428    4.801
  327.486   95.067    0.192    0.441    4.095
  327.736   96.535    0.190    0.462    3.514
  327.986   95.654    0.214    0.489    3.146
  328.236   93.679    0.240    0.512    2.900
  328.486   91.034    0.254    0.531    2.746
  328.736   92.142    0.276    0.549    2.669
  328.986   95.847    0.247    0.568    2.585
  329.236   95.329    0.240    0.583    2.578
  329.486   91.532    0.231    0.580    2.527
  329.736   90.064    0.234    0.573    2.499
  329.986   93.113    0.233    0.560    2.479
  330.236   95.118    0.255    0.546    2.524
  330.486   94.439    0.269    0.560    2.551
  330.736   95.494    0.244    0.578    2.290
  330.986  100.844    0.241    0.571    2.419
  331.236  101.550    0.235    0.549    2.563
  331.486  101.172    0.226    0.537    2.846
  331.736  101.219    0.215    0.534    3.106
  331.986  100.445    0.206    0.544    3.594
  332.236  100.548    0.192    0.484    4.275
  332.486   98.225    0.175    0.475    4.698
  332.736   97.414    0.172    0.481    5.335
  332.986   97.500    0.196    0.471    5.748
  333.236   96.510    0.176    0.458    6.071
  333.486   95.523    0.147    0.455    6.090
  333.736   94.089    0.110    0.441    6.010
  333.986   93.767    0.066    0.421    5.682
  334.236   98.450    0.105    0.399    5.235
  334.486  102.764    0.167    0.415    4.943
  334.736  103.304    0.170    0.432    4.571
  334.986   99.787    0.179    0.450    4.451
  335.236   98.575    0.191    0.461    4.405
  335.486   98.418    0.183    0.459    4.287
  335.736   98.597    0.202    0.475    4.217
  335.986   99.592    0.195    0.474    4.005
  336.236  100.596    0.175    0.478    3.879
  336.486  101.575    0.185    0.485    3.644
  336.736  102.183    0.175    0.487    3.439
  336.986  103.550    0.171    0.503    3.090
  337.236  103.952    0.162    0.510    2.868
  337.486  103.766    0.165    0.498    2.596
  337.736  103.402    0.186    0.485    2.446
  337.986  101.834    0.191    0.497    2.216
  338.236  100.438    0.204    0.503    2.115
  338.486  101.614    0.199    0.485    1.960
  338.736  101.489    0.229    0.503    1.899
  338.986  103.111    0.232    0.526    1.897
  339.236  102.913    0.201    0.541    1.956
  339.486  101.795    0.205    0.536    2.070
  339.736  102.912    0.211    0.531    2.294
  339.986  103.960    0.208    0.543    2.648
  340.236  104.029    0.190    0.542    2.916
  340.486  103.251    0.174    0.530    3.346
  340.736  101.707    0.178    0.518    3.657
  340.986   99.614    0.184    0.528    3.961
  341.236   96.578    0.180    0.541    4.672
  341.486   92.103    0.205    0.553    5.580
  341.736   86.544    0.236    0.531    7.020
  341.986   80.308    0.266    0.540    9.063
  342.236   72.062    0.300    0.549   11.592
  342.486   61.314    0.319    0.547   14.167
  342.736   49.633    0.314    0.456   16.997
  342.986   46.295    0.293    0.425   20.123
  343.236   54.188    0.287    0.418   23.342
  343.486   65.171    0.261    0.413   24.110
  343.736  107.348    0.248    0.405   21.918
  343.986  128.794    0.247    0.416   19.992
  344.236  130.447    0.240    0.429   18.501
  344.486  118.390    0.231    0.420   18.324
  344.736   99.535    0.230    0.402   18.292
  344.986   81.319    0.202    0.378   19.187
  345.236   69.684    0.188    0.362   21.619
  345.486   63.891    0.210    0.377   24.552
  345.736   59.689    0.222    0.389   28.405
  345.986   53.190    0.225    0.393   30.078
  346.236   46.656    0.238    0.388   34.105
  346.486   44.845    0.239    0.380   39.472
  346.736   50.230    0.240    0.363   45.790
  346.986   48.042    0.251    0.362   51.506
  347.236   45.277    0.254    0.372   61.310
  347.486   44.727    0.251    0.390   69.650
