~VERSION INFORMATION
 VERS.                 2.0:   CWLS LOG ASCII STANDARD -VERSION 2.0
 WRAP.                  NO:   ONE LINE PER DEPTH STEP
~WELL INFORMATION BLOCK
#MNEM.UNIT           DATA                    DESCRIPTION OF MNEMONIC
#---------    -------------------            -------------------------------
# Generated from Intellog Unique Number	CS_67_68/WELL/853
WELL.         CHIEFTAIN DEVELOPMENT          : Well_name    - WELL
LOC .         00/13-09-068-11W4/0            : Location     - LOCATION
UWI .         00/13-09-068-11W4/0            : Uwi          - UNIQUE WELL ID
ENTR.         SP                             : Entered      - ENTERED BY
SRVC.         SCHLUMBERGER                   : Scn          - SERVICE COMPANY
STRT.M        255                            : top_depth    - START DEPTH
STOP.M        485                            : bot_depth    - STOP DEPTH
STEP.M        0.25                           : increment    - STEP LENGTH
 NULL. -999.2500:NULL Value
~CURVE INFORMATION BLOCK
#MNEM UNIT       ERCB CURVE CODE    CURVE DESCRIPTION
#-----------   ------------------   ----------------------------------
DEPT.M        00 001 00 00         : DEPTH        - DEPTH
ILD .OHMM     00 120 00 00         : RESD         - DEEP RESISTIVITY (DIL)
DPHI.V/V      00 890 00 00         : PHID         - DENSITY POROSITY (LIMESTONE)
NPHI.V/V      00 330 00 00         : PHIN         - NEUTRON POROSITY (LIMESTONE)
GR  .API      00 310 00 00         : GR           - GAMMA RAY
~PARAMETER INFORMATION
#MNEM.UNIT           DATA             DESCRIPTION OF MNEMONIC
#---------         -----------     ------------------------------
GL  .M        599                  : gl           - GROUND LEVEL ELEVATION
EREF.M        602                  : kb           - ELEVATION OF DEPTH REFERENCE
DATM.M        599                  : datum        - DATUM ELEVATION
TDD .M        494                  : tdd          - TOTAL DEPTH DRILLER
RUN .         ONE                  : Run          - RUN NUMBER
ENG .         BILL                 : Engineer     - RECORDING ENGINEER
WIT .         JIM                  : Witness      - WITNESSED BY
MUD .         GEL                  : Mud_type     - MUD TYPE
MATR.         LIMESTONE            : Logunit      - NEUTRON MATRIX
TMAX.C        22                   : BHT          - MAXIMUM RECORDED TEMPERATURE
BHTD.M        494                  : BHTDEP       - MAXIMUM RECORDED TEMPERATURE
MATR.         1                    : LOGUNIT      - NEUTRON MATRIX
RMT .C        25                   : MDTP         - TEMPERATURE OF MUD
NEUT.         1                    : NEUTRON      - NEUTRON TYPE
RESI.         0                    : RESIST       - RESISTIVITY TYPE
RMC .OHMM     0.25                 : RMC          - RESISTIVITY OF MUD CAKE
RMF .OHMM     0.25                 : RMF          - RESISTIVITY OF MUD FILTRATE
SUFT.C        15                   : SUFT         - SURFACE TEMPERATURE
~A  DEPTH     RESD     PHID     PHIN       GR
# ...
  385.500    3.741    0.214    0.382   98.622
  385.750    3.818    0.208    0.383   99.695
  386.000    3.847    0.204    0.395  100.097
  386.250    3.791    0.199    0.404  100.320
  386.500    3.708    0.194    0.411  100.604
  386.750    3.654    0.189    0.386  101.797
  387.000    3.634    0.185    0.374  103.475
  387.250    3.682    0.191    0.377  104.304
  387.500    3.724    0.200    0.386  104.162
  387.750    3.711    0.208    0.386  102.014
  388.000    3.704    0.200    0.380  100.721
  388.250    3.705    0.189    0.382  100.032
  388.500    3.705    0.179    0.389  100.432
  388.750    3.727    0.176    0.390  102.297
  389.000    3.762    0.182    0.386  104.398
  389.250    3.804    0.187    0.380  104.865
  389.500    3.841    0.198    0.379  103.932
  389.750    3.848    0.204    0.391  102.576
  390.000    3.849    0.209    0.393  101.705
  390.250    3.835    0.210    0.385  103.746
  390.500    3.758    0.203    0.383  105.427
  390.750    3.676    0.197    0.383  107.711
  391.000    3.622    0.193    0.393  109.209
  391.250    3.663    0.194    0.396  110.220
  391.500    3.760    0.189    0.382  110.198
  391.750    3.838    0.182    0.375  111.330
  392.000    3.940    0.175    0.401  111.004
  392.250    4.014    0.184    0.415  109.467
  392.500    4.075    0.191    0.425  111.509
  392.750    4.121    0.190    0.430  113.064
  393.000    4.122    0.188    0.422  112.925
  393.250    4.077    0.189    0.409  111.751
  393.500    3.965    0.194    0.404  110.940
  393.750    3.723    0.197    0.401  109.645
  394.000    3.431    0.201    0.399  107.621
  394.250    3.145    0.209    0.403  105.838
  394.500    2.872    0.217    0.404  104.847
  394.750    2.550    0.227    0.398  103.913
  395.000    2.385    0.238    0.390  103.161
  395.250    2.273    0.250    0.427  102.841
  395.500    2.146    0.203    0.454  103.363
  395.750    2.087    0.176    0.458  104.922
  396.000    2.049    0.172    0.443  106.418
  396.250    2.115    0.168    0.432  108.035
  396.500    2.204    0.176    0.423  108.745
  396.750    2.361    0.192    0.416  106.357
  397.000    2.502    0.211    0.425  104.696
  397.250    2.631    0.228    0.433  104.494
  397.500    2.746    0.245    0.418  102.591
  397.750    2.855    0.254    0.436  100.809
  398.000    2.915    0.245    0.421  100.543
  398.250    2.975    0.230    0.406  101.556
  398.500    3.043    0.217    0.413  103.413
  398.750    3.083    0.209    0.421  104.547
  399.000    3.072    0.207    0.411  104.709
  399.250    2.983    0.206    0.405  103.169
  399.500    2.912    0.217    0.402  100.723
  399.750    2.765    0.228    0.404   97.302
  400.000    2.639    0.234    0.415   95.035
  400.250    2.520    0.238    0.421   92.765
  400.500    2.384    0.252    0.431   91.288
  400.750    2.345    0.259    0.434   89.994
  401.000    2.285    0.247    0.419   88.454
  401.250    2.210    0.258    0.410   86.674
  401.500    2.165    0.272    0.402   83.434
  401.750    2.114    0.289    0.389   80.380
  402.000    2.056    0.308    0.382   76.896
  402.250    2.007    0.313    0.388   75.540
  402.500    1.974    0.312    0.393   75.575
  402.750    1.960    0.313    0.395   76.286
  403.000    1.957    0.311    0.388   76.630
  403.250    1.961    0.314    0.380   76.662
  403.500    1.961    0.331    0.371   76.882
  403.750    1.976    0.339    0.368   77.046
  404.000    2.097    0.345    0.361   77.094
  404.250    2.502    0.355    0.347   77.921
  404.500    3.134    0.348    0.330   79.783
  404.750    3.781    0.314    0.288   81.825
  405.000    5.422    0.242    0.235   82.533
  405.250    8.534    0.099    0.207   80.510
  405.500   11.640    0.007    0.183   72.595
  405.750   17.390   -0.002    0.169   69.540
  406.000   19.408   -0.003    0.160   67.877
  406.250   15.881    0.003    0.175   69.557
  406.500   11.139    0.026    0.199   71.416
  406.750    6.621    0.061    0.232   73.159
  407.000    4.984    0.098    0.278   76.839
  407.250    4.139    0.191    0.315   79.973
  407.500    3.696    0.209    0.341   82.260
  407.750    3.407    0.203    0.360   84.244
  408.000    3.216    0.197    0.371   85.498
  408.250    3.152    0.197    0.370   87.234
  408.500    3.071    0.199    0.373   89.338
  408.750    3.004    0.203    0.368   91.566
  409.000    2.960    0.210    0.361   94.458
  409.250    2.933    0.212    0.367   96.561
  409.500    2.934    0.214    0.380   97.147
  409.750    2.961    0.207    0.385   96.519
  410.000    3.000    0.199    0.363   95.284
  410.250    3.029    0.191    0.354   93.928
  410.500    3.046    0.186    0.357   93.360
  410.750    3.058    0.188    0.360   94.006
  411.000    3.070    0.198    0.372   95.260
  411.250    3.059    0.208    0.379   96.633
  411.500    3.059    0.222    0.388   97.705
  411.750    3.071    0.221    0.393   98.597
  412.000    3.072    0.215    0.389   99.541
  412.250    3.066    0.216    0.382   99.829
  412.500    3.067    0.215    0.379   99.442
  412.750    3.090    0.217    0.377   97.602
  413.000    3.119    0.226    0.377   96.003
  413.250    3.160    0.222    0.379   96.526
  413.500    3.191    0.212    0.380   97.781
  413.750    3.197    0.207    0.388   99.458
  414.000    3.191    0.206    0.394  101.436
  414.250    3.162    0.217    0.385  102.209
  414.500    3.139    0.226    0.378  102.856
  414.750    3.116    0.220    0.373  102.957
  415.000    3.071    0.208    0.376  103.176
  415.250    3.037    0.200    0.386  103.340
  415.500    3.021    0.196    0.385  103.501
  415.750    3.005    0.196    0.388  102.387
  416.000    3.022    0.199    0.397  100.726
  416.250    3.033    0.199    0.408  100.705
  416.500    3.056    0.192    0.407  100.260
  416.750    3.091    0.187    0.415  100.418
  417.000    3.103    0.193    0.428  102.036
  417.250    3.109    0.197    0.423  104.138
  417.500    3.087    0.201    0.418  106.363
  417.750    3.008    0.213    0.423  108.289
  418.000    2.824    0.228    0.445  110.635
  418.250    2.583    0.242    0.462  111.889
  418.500    2.381    0.232    0.474  111.442
  418.750    2.231    0.221    0.478  111.300
  419.000    2.154    0.220    0.445  112.250
  419.250    2.049    0.231    0.463  112.897
  419.500    1.986    0.243    0.488  110.325
  419.750    1.892    0.259    0.508  108.666
  420.000    1.820    0.274    0.522  110.587
  420.250    1.741    0.257    0.511  112.326
  420.500    1.709    0.230    0.488  113.216
  420.750    1.678    0.218    0.466  112.466
  421.000    1.672    0.224    0.459  111.717
  421.250    1.678    0.228    0.437  108.477
  421.500    1.710    0.222    0.420  105.967
  421.750    1.782    0.219    0.419  105.948
  422.000    1.905    0.211    0.415  107.506
  422.250    2.056    0.197    0.408  107.058
  422.500    2.282    0.182    0.405  103.881
  422.750    2.538    0.167    0.403  101.372
  423.000    2.923    0.149    0.397   99.892
  423.250    3.190    0.133    0.384   99.509
  423.500    3.398    0.182    0.378   99.547
  423.750    3.482    0.181    0.373   99.346
  424.000    3.450    0.172    0.365   97.805
  424.250    3.350    0.173    0.368   97.296
  424.500    3.258    0.191    0.375   97.947
  424.750    3.216    0.192    0.382   98.715
  425.000    3.235    0.185    0.389   99.301
  425.250    3.321    0.180    0.392   98.794
  425.500    3.415    0.178    0.396   97.072
  425.750    3.551    0.180    0.388   95.106
  426.000    3.854    0.190    0.362   93.509
  426.250    4.222    0.071    0.325   90.636
  426.500    4.457    0.052    0.305   85.211
  426.750    4.855    0.104    0.291   82.461
  427.000    5.172    0.125    0.333   85.775
  427.250    5.439    0.136    0.377   92.857
  427.500    5.360    0.141    0.385   97.147
  427.750    4.680    0.145    0.396   99.009
  428.000    4.118    0.158    0.404   99.832
  428.250    3.725    0.165    0.410  100.423
  428.500    3.498    0.165    0.399  100.462
  428.750    3.346    0.165    0.393   99.591
