~VERSION INFORMATION
 VERS.                 2.0:   CWLS LOG ASCII STANDARD -VERSION 2.0
 WRAP.                  NO:   ONE LINE PER DEPTH STEP
~WELL INFORMATION BLOCK
#MNEM.UNIT           DATA                    DESCRIPTION OF MNEMONIC
#---------    -------------------            -------------------------------
# Generated from Intellog Unique Number	CS_71_72/WELL/896
WELL.         SUN CALLING LAKE               : Well_name    - WELL
LOC .         00/11-10-072-18W4/0            : Location     - LOCATION
UWI .         00/11-10-072-18W4/0            : Uwi          - UNIQUE WELL ID
ENTR.         SP                             : Entered      - ENTERED BY
SRVC.         SCHLUMBERGER                   : Scn          - SERVICE COMPANY
STRT.M        285                            : top_depth    - START DEPTH
STOP.M        465                            : bot_depth    - STOP DEPTH
STEP.M        0.25                           : increment    - STEP LENGTH
 NULL. -999.2500:NULL Value
~CURVE INFORMATION BLOCK
#MNEM UNIT       ERCB CURVE CODE    CURVE DESCRIPTION
#-----------   ------------------   ----------------------------------
DEPT.M        00 001 00 00         : DEPTH        - DEPTH
ILD .OHMM     00 120 00 00         : RESD         - DEEP RESISTIVITY (DIL)
DPHI.V/V      00 890 00 00         : PHID         - DENSITY POROSITY (LIMESTONE)
NPHI.V/V      00 330 00 00         : PHIN         - NEUTRON POROSITY (LIMESTONE)
GR  .API      00 310 00 00         : GR           - GAMMA RAY
~PARAMETER INFORMATION
#MNEM.UNIT           DATA             DESCRIPTION OF MNEMONIC
#---------         -----------     ------------------------------
GL  .M        598                  : gl           - GROUND LEVEL ELEVATION
EREF.M        598.6                : kb           - ELEVATION OF DEPTH REFERENCE
DATM.M        598                  : datum        - DATUM ELEVATION
TDD .M        486                  : tdd          - TOTAL DEPTH DRILLER
RUN .         ONE                  : Run          - RUN NUMBER
ENG .         BILL                 : Engineer     - RECORDING ENGINEER
WIT .         JIM                  : Witness      - WITNESSED BY
MUD .         GEL                  : Mud_type     - MUD TYPE
MATR.         LIMESTONE            : Logunit      - NEUTRON MATRIX
TMAX.C        27.8                 : BHT          - MAXIMUM RECORDED TEMPERATURE
BHTD.M        486                  : BHTDEP       - MAXIMUM RECORDED TEMPERATURE
MATR.         1                    : LOGUNIT      - NEUTRON MATRIX
RMT .C        25                   : MDTP         - TEMPERATURE OF MUD
NEUT.         1                    : NEUTRON      - NEUTRON TYPE
RESI.         0                    : RESIST       - RESISTIVITY TYPE
RMC .OHMM     0.25                 : RMC          - RESISTIVITY OF MUD CAKE
RMF .OHMM     0.25                 : RMF          - RESISTIVITY OF MUD FILTRATE
SUFT.C        15                   : SUFT         - SURFACE TEMPERATURE
~A  DEPTH     RESD     PHID     PHIN       GR
# ...
  415.500    9.622    0.030    0.185   55.994
  415.750   12.014    0.035    0.173   54.794
  416.000   14.457    0.046    0.185   54.813
  416.250   16.157    0.068    0.248   56.650
  416.500   10.376    0.097    0.275   63.354
  416.750    7.725    0.153    0.338   67.019
  417.000    6.078    0.226    0.370   68.243
  417.250    5.245    0.267    0.420   69.479
  417.500    4.697    0.287    0.443   70.102
  417.750    4.129    0.299    0.453   70.123
  418.000    4.055    0.310    0.458   70.749
  418.250    4.133    0.297    0.467   71.374
  418.500    4.211    0.290    0.462   71.996
  418.750    4.292    0.274    0.453   73.230
  419.000    4.293    0.267    0.448   74.460
  419.250    4.295    0.274    0.445   76.300
  419.500    4.141    0.281    0.449   76.923
  419.750    4.067    0.287    0.451   76.939
  420.000    3.995    0.288    0.451   74.535
  420.250    3.996    0.280    0.457   73.338
  420.500    3.998    0.270    0.467   73.962
  420.750    4.074    0.285    0.472   75.802
  421.000    4.151    0.283    0.466   77.031
  421.250    4.309    0.271    0.456   77.658
  421.500    4.391    0.264    0.450   78.896
  421.750    4.643    0.271    0.449   79.513
  422.000    4.911    0.265    0.447   80.143
  422.250    4.912    0.260    0.456   79.549
  422.500    5.006    0.272    0.461   79.565
  422.750    4.916    0.281    0.467   82.622
  423.000    4.918    0.288    0.470   84.461
  423.250    4.742    0.279    0.458   85.082
  423.500    4.657    0.276    0.450   83.281
  423.750    4.408    0.274    0.445   82.690
  424.000    4.250    0.274    0.453   84.534
  424.250    4.174    0.287    0.457   86.371
  424.500    4.099    0.277    0.458   86.997
  424.750    4.025    0.277    0.468   87.016
  425.000    3.953    0.271    0.480   87.031
  425.250    3.955    0.260    0.498   90.085
  425.500    3.884    0.251    0.513   93.141
  425.750    3.745    0.269    0.552   94.370
  426.000    3.610    0.266    0.589   94.391
  426.250    3.481    0.277    0.551   94.406
  426.500    3.418    0.275    0.539   93.818
  426.750    3.549    0.280    0.545   93.230
  427.000    3.616    0.251    0.549   93.857
  427.250    3.686    0.215    0.554   94.479
  427.500    3.619    0.268    0.558   95.711
  427.750    3.554    0.275    0.552   96.339
  428.000    3.491    0.268    0.540   96.356
  428.250    3.428    0.272    0.540   96.374
  428.500    3.494    0.281    0.542   95.781
  428.750    3.627    0.274    0.539   93.981
  429.000    3.765    0.276    0.541   93.389
  429.250    3.837    0.264    0.533   92.798
  429.500    3.983    0.236    0.513   92.822
  429.750    4.134    0.222    0.495   92.835
  430.000    4.213    0.206    0.480   94.670
  430.250    4.293    0.192    0.481   98.333
  430.500    4.375    0.213    0.491   98.959
  430.750    4.627    0.219    0.502   98.975
  431.000    4.715    0.222    0.495  102.032
  431.250    4.804    0.229    0.474  104.476
  431.500    4.896    0.217    0.459  105.711
  431.750    4.989    0.174    0.439  104.515
  432.000    5.084    0.168    0.433  101.492
  432.250    5.278    0.173    0.441   96.048
  432.500    5.378    0.184    0.434   90.600
  432.750    5.480    0.188    0.436   85.754
  433.000    5.689    0.178    0.440   76.059
  433.250    6.016    0.163    0.417   73.038
  433.500    6.244    0.144    0.395   71.230
  433.750    6.484    0.188    0.384   73.678
  434.000    6.485    0.220    0.383   77.346
  434.250    6.487    0.241    0.396   79.791
  434.500    6.490    0.228    0.404   81.626
  434.750    6.375    0.219    0.407   84.073
  435.000    6.262    0.219    0.403   86.524
  435.250    6.149    0.211    0.406   88.972
  435.500    6.039    0.209    0.420   90.808
  435.750    6.040    0.196    0.432   93.261
  436.000    5.933    0.184    0.442   95.103
  436.250    5.935    0.180    0.440   95.725
  436.500    5.937    0.190    0.433   96.347
  436.750    6.050    0.197    0.435   93.329
  437.000    6.166    0.177    0.438   92.130
  437.250    6.169    0.163    0.438   94.577
  437.500    6.171    0.147    0.433   94.596
  437.750    6.175    0.169    0.425   94.004
  438.000    6.176    0.171    0.416   94.631
  438.250    6.178    0.166    0.411   96.474
  438.500    6.181    0.171    0.414   97.706
  438.750    6.183    0.186    0.425   97.719
  439.000    6.186    0.176    0.431   95.314
  439.250    6.189    0.170    0.429   95.324
  439.500    6.192    0.165    0.435   95.950
  439.750    6.193    0.171    0.433   98.400
  440.000    6.197    0.164    0.429  100.847
  440.250    6.199    0.158    0.437  101.469
  440.500    6.201    0.156    0.439  100.276
  440.750    6.320    0.169    0.426   99.682
  441.000    6.323    0.178    0.408  102.129
  441.250    6.325    0.194    0.401  104.577
  441.500    6.327    0.206    0.413  106.418
  441.750    6.448    0.195    0.426  108.260
  442.000    6.450    0.207    0.438  107.666
  442.250    6.573    0.231    0.428  106.476
  442.500    6.456    0.215    0.419  105.271
  442.750    6.459    0.207    0.430  103.470
  443.000    6.461    0.202    0.434  101.666
  443.250    6.464    0.198    0.429   99.859
  443.500    6.466    0.207    0.419   98.054
  443.750    6.469    0.212    0.417   96.862
  444.000    6.471    0.186    0.419   95.660
  444.250    6.356    0.177    0.425   94.468
  444.500    6.242    0.180    0.432   93.877
  444.750    6.129    0.181    0.438   94.497
  445.000    5.802    0.202    0.444   95.126
  445.250    5.391    0.216    0.438   96.966
  445.500    4.827    0.213    0.455  101.238
  445.750    4.243    0.222    0.485  104.292
  446.000    3.401    0.254    0.517  104.911
  446.250    2.829    0.284    0.529  104.323
  446.500    2.628    0.266    0.522  106.768
  446.750    2.354    0.253    0.511  108.001
  447.000    2.399    0.243    0.507  105.595
  447.250    2.632    0.226    0.508  102.573
  447.500    2.996    0.182    0.497   97.732
  447.750    3.539    0.136    0.467   93.496
  448.000    4.259    0.113    0.433   89.869
  448.250    5.126    0.093    0.387   92.925
  448.500    5.623    0.076    0.375   97.192
  448.750    6.170    0.131    0.400  100.855
  449.000    6.405    0.184    0.415  103.301
  449.250    5.952    0.200    0.429  103.328
  449.500    5.738    0.188    0.440  103.339
  449.750    5.431    0.178    0.445  102.145
  450.000    5.334    0.190    0.450  100.335
  450.250    5.336    0.183    0.441   97.924
  450.500    5.643    0.172    0.420   93.690
  450.750    5.967    0.153    0.388   89.459
  451.000    6.193    0.135    0.382   90.690
  451.250    6.671    0.144    0.384   90.101
  451.500    6.798    0.143    0.388   94.369
  451.750    6.087    0.135    0.409  101.070
  452.000    5.157    0.163    0.441  105.949
  452.250    4.058    0.186    0.460  108.997
  452.500    3.771    0.213    0.487  112.666
  452.750    3.503    0.226    0.509  112.683
  453.000    3.138    0.212    0.516  112.088
  453.250    3.081    0.193    0.507  107.249
  453.500    3.026    0.185    0.500  106.053
  453.750    3.027    0.186    0.499  106.072
  454.000    3.084    0.190    0.495  106.691
  454.250    3.385    0.189    0.487  104.888
  454.500    3.579    0.152    0.475   98.834
  454.750    3.927    0.134    0.438   96.418
  455.000    4.152    0.120    0.431   98.873
  455.250    4.391    0.111    0.447  101.921
  455.500    4.643    0.149    0.462  104.976
  455.750    4.732    0.162    0.477  101.351
  456.000    4.821    0.136    0.455   99.547
  456.250    4.913    0.148    0.449   98.963
  456.500    5.292    0.174    0.448   98.366
  456.750    5.915    0.185    0.437   92.311
  457.000    6.490    0.194    0.408   78.361
  457.250    7.253    0.207    0.370   67.447
  457.500    8.569    0.253    0.329   60.782
  457.750    9.754    0.256    0.309   60.798
  458.000   11.958    0.241    0.303   63.859
  458.250   14.660    0.235    0.314   67.521
  458.500   15.788    0.222    0.321   71.790
  458.750   16.695    0.215    0.340   74.240
