~VERSION INFORMATION
 VERS.                 2.0:   CWLS LOG ASCII STANDARD -VERSION 2.0
 WRAP.                  NO:   ONE LINE PER DEPTH STEP
~WELL INFORMATION BLOCK
#MNEM.UNIT           DATA                    DESCRIPTION OF MNEMONIC
#---------    -------------------            -------------------------------
# Generated from Intellog Unique Number	CS_71_72/WELL/885
WELL.         TEE PEE PETROLEUMS             : Well_name    - WELL
LOC .         00/11-04-071-18W4/0            : Location     - LOCATION
UWI .         00/11-04-071-18W4/0            : Uwi          - UNIQUE WELL ID
ENTR.         SP                             : Entered      - ENTERED BY
SRVC.         SCHLUMBERGER                   : Scn          - SERVICE COMPANY
STRT.M        295.656                        : top_depth    - START DEPTH
STOP.M        520.906                        : bot_depth    - STOP DEPTH
STEP.M        0.25                           : increment    - STEP LENGTH
 NULL. -999.2500:NULL Value
~CURVE INFORMATION BLOCK
#MNEM UNIT       ERCB CURVE CODE    CURVE DESCRIPTION
#-----------   ------------------   ----------------------------------
DEPT.M        00 001 00 00         : DEPTH        - DEPTH
GR  .API      00 310 00 00         : GR           - GAMMA RAY
DPHI.V/V      00 890 00 00         : PHID         - DENSITY POROSITY (SANDSTONE)
NPHI.V/V      00 330 00 00         : PHIN         - NEUTRON POROSITY (SANDSTONE)
ILD .OHMM     00 120 00 00         : RESD         - DEEP RESISTIVITY (DIL)
~PARAMETER INFORMATION
#MNEM.UNIT           DATA             DESCRIPTION OF MNEMONIC
#---------         -----------     ------------------------------
GL  .M        575.462              : gl           - GROUND LEVEL ELEVATION
EREF.M        579.12               : kb           - ELEVATION OF DEPTH REFERENCE
DATM.M        575.462              : datum        - DATUM ELEVATION
TDD .M        543.154              : tdd          - TOTAL DEPTH DRILLER
RUN .         ONE                  : Run          - RUN NUMBER
ENG .         BILL                 : Engineer     - RECORDING ENGINEER
WIT .         JIM                  : Witness      - WITNESSED BY
MUD .         GEL                  : Mud_type     - MUD TYPE
MATR.         SANDSTONE            : Logunit      - NEUTRON MATRIX
TMAX.C        24.4444              : BHT          - MAXIMUM RECORDED TEMPERATURE
BHTD.M        543.154              : BHTDEP       - MAXIMUM RECORDED TEMPERATURE
MATR.         1                    : LOGUNIT      - NEUTRON MATRIX
RMT .C        25                   : MDTP         - TEMPERATURE OF MUD
NEUT.         1                    : NEUTRON      - NEUTRON TYPE
RESI.         0                    : RESIST       - RESISTIVITY TYPE
RMC .OHMM     0.25                 : RMC          - RESISTIVITY OF MUD CAKE
RMF .OHMM     0.25                 : RMF          - RESISTIVITY OF MUD FILTRATE
SUFT.C        15                   : SUFT         - SURFACE TEMPERATURE
~A  DEPTH       GR     PHID     PHIN     RESD
# ...
  382.656   74.031    0.372    0.449    3.599
  382.906   75.752    0.376    0.445    3.629
  383.156   77.103    0.364    0.450    3.668
  383.406   77.921    0.366    0.455    3.690
  383.656   77.924    0.373    0.450    3.726
  383.906   77.173    0.371    0.450    3.741
  384.156   75.680    0.369    0.452    3.741
  384.406   74.610    0.367    0.453    3.739
  384.656   73.990    0.367    0.460    3.701
  384.906   75.122    0.373    0.459    3.671
  385.156   76.838    0.379    0.441    3.641
  385.406   78.520    0.373    0.430    3.594
  385.656   77.828    0.366    0.430    3.570
  385.906   76.974    0.354    0.446    3.573
  386.156   77.568    0.350    0.459    3.601
  386.406   79.464    0.349    0.455    3.629
  386.656   80.989    0.352    0.448    3.690
  386.906   80.515    0.347    0.444    3.704
  387.156   81.836    0.354    0.441    3.716
  387.406   85.101    0.343    0.453    3.723
  387.656   87.704    0.354    0.472    3.757
  387.906   88.749    0.334    0.490    3.801
  388.156   85.436    0.317    0.493    3.862
  388.406   80.051    0.315    0.486    3.921
  388.656   74.744    0.318    0.484    4.012
  388.906   69.879    0.316    0.480    4.104
  389.156   64.695    0.302    0.466    4.223
  389.406   64.368    0.283    0.440    4.327
  389.656   71.176    0.274    0.438    4.426
  389.906   74.353    0.287    0.464    4.461
  390.156   76.926    0.310    0.484    4.421
  390.406   78.654    0.316    0.499    4.322
  390.656   78.513    0.309    0.509    4.241
  390.906   78.106    0.317    0.498    4.177
  391.156   80.197    0.314    0.478    4.095
  391.406   82.163    0.317    0.467    4.019
  391.656   83.848    0.314    0.471    3.987
  391.906   85.021    0.310    0.504    3.982
  392.156   85.753    0.319    0.510    3.985
  392.406   85.076    0.312    0.506    3.985
  392.656   79.376    0.303    0.512    3.998
  392.906   76.567    0.304    0.512    4.002
  393.156   78.974    0.307    0.494    4.009
  393.406   80.880    0.303    0.484    4.005
  393.656   81.872    0.303    0.492    4.009
  393.906   81.219    0.303    0.496    4.003
  394.156   80.882    0.304    0.489    3.984
  394.406   80.737    0.305    0.492    3.966
  394.656   80.417    0.304    0.474    3.953
  394.906   79.956    0.316    0.460    3.951
  395.156   78.466    0.316    0.452    3.944
  395.406   75.597    0.310    0.448    3.941
  395.656   74.415    0.307    0.446    3.928
  395.906   76.813    0.304    0.459    3.930
  396.156   78.065    0.299    0.470    3.907
  396.406   77.866    0.309    0.480    3.892
  396.656   75.131    0.318    0.486    3.878
  396.906   74.372    0.323    0.480    3.865
  397.156   75.507    0.335    0.467    3.828
  397.406   76.460    0.341    0.462    3.804
  397.656   78.264    0.330    0.465    3.796
  397.906   74.775    0.325    0.467    3.760
  398.156   73.167    0.326    0.474    3.729
  398.406   72.496    0.338    0.477    3.698
  398.656   72.481    0.335    0.467    3.665
  398.906   72.743    0.338    0.465    3.635
  399.156   73.402    0.348    0.476    3.599
  399.406   74.942    0.343    0.483    3.579
  399.656   77.038    0.328    0.483    3.545
  399.906   76.273    0.308    0.470    3.527
  400.156   77.885    0.326    0.461    3.485
  400.406   79.891    0.337    0.467    3.481
  400.656   82.339    0.347    0.477    3.463
  400.906   84.801    0.340    0.484    3.444
  401.156   83.880    0.347    0.475    3.440
  401.406   74.724    0.339    0.455    3.464
  401.656   70.499    0.323    0.436    3.569
  401.906   73.499    0.329    0.418    3.727
  402.156   73.349    0.337    0.409    3.972
  402.406   70.455    0.233    0.368    4.241
  402.656   69.192    0.195    0.312    4.543
  402.906   71.730    0.155    0.291    4.940
  403.156   74.535    0.141    0.314    5.282
  403.406   77.558    0.158    0.354    5.501
  403.656   80.036    0.194    0.386    5.481
  403.906   81.460    0.241    0.416    5.237
  404.156   81.481    0.280    0.436    4.887
  404.406   80.302    0.311    0.462    4.516
  404.656   79.971    0.334    0.484    4.276
  404.906   80.553    0.317    0.474    4.057
  405.156   81.836    0.310    0.468    3.892
  405.406   84.947    0.302    0.469    3.771
  405.656   89.031    0.298    0.468    3.667
  405.906   92.267    0.298    0.462    3.617
  406.156   95.997    0.314    0.463    3.499
  406.406  101.261    0.323    0.472    3.416
  406.656  108.625    0.304    0.483    2.981
  406.906  111.983    0.269    0.498    2.697
  407.156  111.216    0.275    0.508    2.459
  407.406  109.539    0.301    0.533    2.229
  407.656  109.663    0.284    0.554    2.107
  407.906  109.803    0.293    0.567    2.017
  408.156  110.210    0.314    0.565    2.037
  408.406  110.165    0.279    0.550    2.220
  408.656  108.917    0.266    0.534    2.544
  408.906  105.248    0.254    0.522    2.890
  409.156  103.558    0.254    0.494    3.308
  409.406  100.709    0.267    0.484    3.646
  409.656   97.361    0.262    0.492    3.859
  409.906   98.403    0.257    0.490    3.970
  410.156   95.440    0.247    0.471    4.079
  410.406   92.650    0.235    0.458    4.149
  410.656   93.757    0.226    0.449    4.244
  410.906  100.106    0.226    0.445    4.329
  411.156  105.098    0.235    0.449    4.390
  411.406  107.132    0.246    0.452    4.421
  411.656  104.633    0.253    0.452    4.442
  411.906   99.490    0.251    0.449    4.456
  412.156   97.941    0.240    0.445    4.463
  412.406   99.389    0.235    0.439    4.459
  412.656  100.713    0.236    0.435    4.469
  412.906  103.136    0.250    0.445    4.453
  413.156  104.475    0.257    0.456    4.411
  413.406  105.018    0.264    0.468    4.381
  413.656  101.898    0.269    0.472    4.320
  413.906  100.383    0.271    0.469    4.260
  414.156  101.087    0.265    0.464    4.224
  414.406  100.118    0.255    0.456    4.200
  414.656   97.184    0.254    0.449    4.188
  414.906   92.772    0.260    0.453    4.165
  415.156   88.810    0.266    0.461    4.222
  415.406   84.903    0.251    0.463    4.303
  415.656   82.711    0.226    0.461    4.481
  415.906   79.280    0.209    0.455    4.853
  416.156   74.522    0.190    0.444    5.717
  416.406   69.504    0.112    0.426    6.938
  416.656   65.121    0.093    0.350    7.629
  416.906   77.196    0.121    0.296    8.094
  417.156   93.939    0.179    0.334    8.108
  417.406  101.489    0.225    0.382    7.304
  417.656  103.382    0.263    0.417    6.010
  417.906   95.590    0.291    0.459    4.981
  418.156   77.442    0.240    0.471    4.304
  418.406   69.234    0.176    0.456    4.181
  418.656   64.814    0.127    0.404    4.564
  418.906   65.451    0.158    0.363    5.128
  419.156   70.173    0.191    0.343    5.583
  419.406   72.051    0.215    0.387    5.920
  419.656   72.705    0.234    0.420    5.631
  419.906   74.101    0.255    0.436    4.801
  420.156   75.664    0.277    0.447    4.269
  420.406   75.836    0.284    0.447    4.037
  420.656   75.765    0.268    0.443    3.990
  420.906   75.701    0.257    0.438    4.043
  421.156   76.177    0.250    0.431    4.101
  421.406   77.909    0.246    0.436    4.140
  421.656   82.668    0.261    0.435    4.195
  421.906   86.239    0.272    0.430    4.237
  422.156   85.322    0.279    0.434    4.304
  422.406   85.724    0.280    0.431    4.330
  422.656   88.145    0.280    0.429    4.361
  422.906   87.617    0.287    0.432    4.362
  423.156   85.919    0.298    0.438    4.308
  423.406   83.724    0.295    0.444    4.237
  423.656   81.590    0.280    0.447    4.181
  423.906   79.728    0.279    0.448    4.121
  424.156   79.994    0.297    0.447    4.080
  424.406   81.944    0.285    0.443    4.042
  424.656   84.310    0.274    0.426    4.021
  424.906   84.116    0.274    0.423    4.009
  425.156   83.409    0.283    0.435    3.985
  425.406   83.051    0.293    0.442    3.960
  425.656   83.501    0.300    0.449    4.047
  425.906   84.153    0.282    0.432    4.033
