~VERSION INFORMATION
 VERS.                 2.0:   CWLS LOG ASCII STANDARD -VERSION 2.0
 WRAP.                  NO:   ONE LINE PER DEPTH STEP
~WELL INFORMATION BLOCK
#MNEM.UNIT           DATA                    DESCRIPTION OF MNEMONIC
#---------    -------------------            -------------------------------
# Generated from Intellog Unique Number	CS_71_72/WELL/892
WELL.         MURPHY OIL COMPANY             : Well_name    - WELL
LOC .         00/11-09-071-11W4/0            : Location     - LOCATION
UWI .         00/11-09-071-11W4/0            : Uwi          - UNIQUE WELL ID
ENTR.         SP                             : Entered      - ENTERED BY
SRVC.         SCHLUMBERGER                   : Scn          - SERVICE COMPANY
STRT.M        270                            : top_depth    - START DEPTH
STOP.M        465                            : bot_depth    - STOP DEPTH
STEP.M        0.25                           : increment    - STEP LENGTH
 NULL. -999.2500:NULL Value
~CURVE INFORMATION BLOCK
#MNEM UNIT       ERCB CURVE CODE    CURVE DESCRIPTION
#-----------   ------------------   ----------------------------------
DEPT.M        00 001 00 00         : DEPTH        - DEPTH
ILD .OHMM     00 120 00 00         : RESD         - DEEP RESISTIVITY (DIL)
DPHI.V/V      00 890 00 00         : PHID         - DENSITY POROSITY (LIMESTONE)
NPHI.V/V      00 330 00 00         : PHIN         - NEUTRON POROSITY (LIMESTONE)
GR  .API      00 310 00 00         : GR           - GAMMA RAY
~PARAMETER INFORMATION
#MNEM.UNIT           DATA             DESCRIPTION OF MNEMONIC
#---------         -----------     ------------------------------
GL  .M        612.9                : gl           - GROUND LEVEL ELEVATION
EREF.M        616.6                : kb           - ELEVATION OF DEPTH REFERENCE
DATM.M        612.9                : datum        - DATUM ELEVATION
TDD .M        480                  : tdd          - TOTAL DEPTH DRILLER
RUN .         ONE                  : Run          - RUN NUMBER
ENG .         BILL                 : Engineer     - RECORDING ENGINEER
WIT .         JIM                  : Witness      - WITNESSED BY
MUD .         GEL                  : Mud_type     - MUD TYPE
MATR.         LIMESTONE            : Logunit      - NEUTRON MATRIX
TMAX.C        26                   : BHT          - MAXIMUM RECORDED TEMPERATURE
BHTD.M        480                  : BHTDEP       - MAXIMUM RECORDED TEMPERATURE
MATR.         1                    : LOGUNIT      - NEUTRON MATRIX
RMT .C        25                   : MDTP         - TEMPERATURE OF MUD
NEUT.         1                    : NEUTRON      - NEUTRON TYPE
RESI.         0                    : RESIST       - RESISTIVITY TYPE
RMC .OHMM     0.25                 : RMC          - RESISTIVITY OF MUD CAKE
RMF .OHMM     0.25                 : RMF          - RESISTIVITY OF MUD FILTRATE
SUFT.C        15                   : SUFT         - SURFACE TEMPERATURE
~A  DEPTH     RESD     PHID     PHIN       GR
# ...
  313.500    7.715    0.343    0.354   63.658
  313.750    7.734    0.331    0.338   61.590
  314.000    7.723    0.331    0.331   66.062
  314.250    7.799    0.341    0.342   69.800
  314.500    7.818    0.350    0.351   73.232
  314.750    7.734    0.347    0.362   77.033
  315.000    7.272    0.333    0.377   79.485
  315.250    6.877    0.312    0.366   82.734
  315.500    6.627    0.294    0.356   85.005
  315.750    6.668    0.279    0.348   86.726
  316.000    6.721    0.267    0.344   87.653
  316.250    6.787    0.257    0.342   87.726
  316.500    6.946    0.245    0.353   85.902
  316.750    7.081    0.242    0.367   83.774
  317.000    7.151    0.247    0.375   82.076
  317.250    7.061    0.252    0.374   82.328
  317.500    6.791    0.258    0.363   86.252
  317.750    6.544    0.254    0.354   89.377
  318.000    6.176    0.245    0.351   92.686
  318.250    5.874    0.232    0.352   96.118
  318.500    5.767    0.216    0.372   99.000
  318.750    5.868    0.223    0.389  100.110
  319.000    6.050    0.236    0.379   99.448
  319.250    6.226    0.252    0.361   92.862
  319.500    6.407    0.268    0.354   91.404
  319.750    6.556    0.269    0.360   91.842
  320.000    6.621    0.263    0.364   91.303
  320.250    6.687    0.257    0.366   88.442
  320.500    6.804    0.253    0.368   84.175
  320.750    7.028    0.293    0.365   77.038
  321.000    7.453    0.309    0.359   72.037
  321.250    7.904    0.320    0.353   70.766
  321.500    8.303    0.319    0.347   70.714
  321.750    8.706    0.314    0.342   74.390
  322.000    8.976    0.312    0.337   78.740
  322.250    9.133    0.302    0.347   81.133
  322.500    9.103    0.291    0.358   83.040
  322.750    9.040    0.281    0.364   83.538
  323.000    8.993    0.271    0.358   81.958
  323.250    8.963    0.282    0.352   76.348
  323.500    8.970    0.298    0.348   73.060
  323.750    8.956    0.307    0.347   70.259
  324.000    8.977    0.309    0.341   71.064
  324.250    8.998    0.304    0.330   74.802
  324.500    9.019    0.295    0.326   78.050
  324.750    9.023    0.292    0.318   80.993
  325.000    9.027    0.279    0.311   83.999
  325.250    9.031    0.265    0.308   85.413
  325.500    9.053    0.247    0.311   87.197
  325.750    9.074    0.234    0.313   88.184
  326.000    9.078    0.233    0.311   87.706
  326.250    9.083    0.242    0.315   84.844
  326.500    9.002    0.248    0.328   82.166
  326.750    8.872    0.254    0.338   82.544
  327.000    8.469    0.250    0.344   84.082
  327.250    8.191    0.244    0.335   86.292
  327.500    7.938    0.241    0.328   89.723
  327.750    7.620    0.242    0.328   93.951
  328.000    7.275    0.246    0.337   97.809
  328.250    6.997    0.245    0.343  102.160
  328.500    6.654    0.239    0.339  103.147
  328.750    6.582    0.240    0.342   99.613
  329.000    6.760    0.247    0.353   83.982
  329.250    7.075    0.268    0.365   77.578
  329.500    7.718    0.282    0.379   75.082
  329.750    8.277    0.297    0.391   73.260
  330.000    8.744    0.310    0.401   72.537
  330.250    9.308    0.326    0.399   71.754
  330.500    9.872    0.337    0.385   71.461
  330.750   10.081    0.343    0.371   71.532
  331.000   10.239    0.342    0.363   71.847
  331.250   10.263    0.338    0.369   71.856
  331.500   10.191    0.335    0.391   71.869
  331.750   10.120    0.332    0.403   71.877
  332.000   10.068    0.331    0.393   71.704
  332.250   10.034    0.333    0.381   71.104
  332.500   10.001    0.338    0.376   70.747
  332.750   10.006    0.340    0.376   70.391
  333.000   10.106    0.342    0.381   70.774
  333.250   10.206    0.343    0.375   70.840
  333.500   10.345    0.342    0.370   70.797
  333.750   10.567    0.340    0.366   70.617
  334.000   10.752    0.336    0.374   66.472
  334.250   10.961    0.330    0.384   64.834
  334.500   11.174    0.326    0.390   64.906
  334.750   11.391    0.319    0.381   65.895
  335.000   11.678    0.315    0.370   65.598
  335.250   12.109    0.310    0.358   64.447
  335.500   12.460    0.305    0.355   64.581
  335.750   13.041    0.287    0.368   65.508
  336.000   13.726    0.238    0.376   62.403
  336.250   14.258    0.181    0.256   57.218
  336.500   14.866    0.160    0.226   52.769
  336.750   15.676    0.226    0.214   54.184
  337.000   16.530    0.268    0.254   58.353
  337.250   17.630    0.306    0.297   60.805
  337.500   16.208    0.321    0.321   63.442
  337.750   14.164    0.325    0.334   64.674
  338.000   12.449    0.342    0.331   64.990
  338.250   11.619    0.359    0.330   64.023
  338.500   11.301    0.370    0.328   60.673
  338.750   11.138    0.360    0.324   57.935
  339.000   11.040    0.352    0.318   56.052
  339.250   11.065    0.352    0.315   54.902
  339.500   11.280    0.352    0.329   53.934
  339.750   11.587    0.352    0.340   53.089
  340.000   11.723    0.350    0.348   51.999
  340.250   11.817    0.347    0.346   50.911
  340.500   11.867    0.346    0.332   50.372
  340.750   11.918    0.346    0.325   51.603
  341.000   11.879    0.346    0.328   53.691
  341.250   11.863    0.348    0.342   56.023
  341.500   11.779    0.349    0.349   55.972
  341.750   11.718    0.350    0.353   51.156
  342.000   11.701    0.354    0.350   48.600
  342.250   11.641    0.356    0.348   50.688
  342.500   11.625    0.353    0.353   53.205
  342.750   11.608    0.348    0.355   55.601
  343.000   11.901    0.344    0.347   56.403
  343.250   12.293    0.339    0.344   56.778
  343.500   12.818    0.335    0.343   55.079
  343.750   13.239    0.329    0.349   53.869
  344.000   13.574    0.325    0.355   53.511
  344.250   13.759    0.321    0.358   53.582
  344.500   13.870    0.320    0.357   54.937
  344.750   13.876    0.322    0.345   56.231
  345.000   13.780    0.326    0.333   56.241
  345.250   13.555    0.329    0.323   55.640
  345.500   13.309    0.333    0.320   54.980
  345.750   13.043    0.339    0.324   54.623
  346.000   12.879    0.342    0.334   53.900
  346.250   12.812    0.340    0.345   52.872
  346.500   12.818    0.334    0.350   52.577
  346.750   13.092    0.331    0.353   52.222
  347.000   13.422    0.328    0.348   51.621
  347.250   13.606    0.326    0.338   51.508
  347.500   13.715    0.325    0.333   50.909
  347.750   13.747    0.325    0.330   50.798
  348.000   13.780    0.326    0.332   50.748
  348.250   13.812    0.322    0.336   50.576
  348.500   13.747    0.322    0.339   50.707
  348.750   13.723    0.324    0.337   51.205
  349.000   13.577    0.329    0.338   51.828
  349.250   13.505    0.336    0.344   52.265
  349.500   13.310    0.335    0.350   52.522
  349.750   13.019    0.334    0.353   53.204
  350.000   12.759    0.332    0.355   52.968
  350.250   12.480    0.336    0.354   52.550
  350.500   12.231    0.340    0.349   52.257
  350.750   11.898    0.338    0.347   52.449
  351.000   11.681    0.337    0.352   52.644
  351.250   11.491    0.340    0.356   52.959
  351.500   11.303    0.345    0.351   52.481
  351.750   11.266    0.354    0.345   51.208
  352.000   11.252    0.358    0.343   49.569
  352.250   11.256    0.360    0.346   48.541
  352.500   11.304    0.362    0.353   49.835
  352.750   11.720    0.362    0.358   51.678
  353.000   12.617    0.359    0.362   53.216
  353.250   13.429    0.358    0.368   53.288
  353.500   14.082    0.357    0.373   52.873
  353.750   14.089    0.366    0.376   52.393
  354.000   13.859    0.372    0.377   51.855
  354.250   13.180    0.364    0.377   52.233
  354.500   12.606    0.358    0.375   52.610
  354.750   12.169    0.352    0.370   52.740
  355.000   11.926    0.346    0.363   52.567
  355.250   11.777    0.343    0.359   50.868
  355.500   11.627    0.343    0.357   50.143
  355.750   11.459    0.351    0.359   49.238
  356.000   11.422    0.357    0.356   49.066
  356.250   11.406    0.358    0.349   49.690
  356.500   11.411    0.355    0.345   50.186
  356.750   11.269    0.351    0.347   51.297
