~VERSION INFORMATION
 VERS.                 2.0:   CWLS LOG ASCII STANDARD -VERSION 2.0
 WRAP.                  NO:   ONE LINE PER DEPTH STEP
~WELL INFORMATION BLOCK
#MNEM.UNIT           DATA                    DESCRIPTION OF MNEMONIC
#---------    -------------------            -------------------------------
# Generated from Intellog Unique Number	CW_70_72/WELL/1038
NULL.         -999.25                        : NULL_VALUE
WELL.         LANDBANK ET AL SPURFIELD 10-15 : Well_name    - WELL              
LOC .         10-15-072-02W5                 : Location     - LOCATION          
UWI .         00/10-15-072-02W5/0            : Uwi          - UNIQUE WELL ID    
ENTR.         JAYE                           : Entered      - ENTERED BY        
SRVC.         SCHLUMBERGER                   : Scn          - SERVICE COMPANY   
DATE.         6 MAR 83                       : Date         - LOG DATE          
STRT.M        375                            : top_depth    - START DEPTH       
STOP.M        590                            : bot_depth    - STOP DEPTH        
STEP.M        0.25                           : increment    - STEP LENGTH       
~CURVE INFORMATION BLOCK
#MNEM UNIT       ERCB CURVE CODE    CURVE DESCRIPTION
#-----------   ------------------   ----------------------------------
DEPT.M        00 001 00 00         : DEPTH        - DEPTH                       
DPHI.V/V      00 890 00 00         : PHID         - DENSITY POROSITY (SANDSTONE)
NPHI.V/V      00 330 00 00         : PHIN         - NEUTRON POROSITY (SANDSTONE)
GR  .API      00 310 00 00         : GR           - GAMMA RAY                   
CALI.MM       00 280 01 00         : CAL          - CALIPER                     
ILD .OHMM     00 120 00 00         : RESD         - DEEP RESISTIVITY (DIL)      
~PARAMETER INFORMATION       
#MNEM.UNIT           DATA             DESCRIPTION OF MNEMONIC
#---------         -----------     ------------------------------
GL  .M        589.3                : gl           - GROUND LEVEL ELEVATION      
EREF.M        593                  : kb           - ELEVATION OF DEPTH REFERENCE
DATM.M        589.3                : datum        - DATUM ELEVATION             
TDD .M        622                  : tdd          - TOTAL DEPTH DRILLER         
RUN .         ONE                  : Run          - RUN NUMBER                  
ENG .         DUNLOP               : Engineer     - RECORDING ENGINEER          
WIT .         SMITH                : Witness      - WITNESSED BY                
BASE.         EDM                  : Branch       - HOME BASE OF LOGGING UNIT   
MUD .         CHEM GEL             : Mud_type     - MUD TYPE                    
MATR.         SANDSTONE            : Logunit      - NEUTRON MATRIX              
TMAX.C        35.6                 : BHT          - MAXIMUM RECORDED TEMPERATURE
BHTD.M        622.2                : BHTDEP       - MAXIMUM RECORDED TEMPERATURE
RMT .C        21.1                 : MDTP         - TEMPERATURE OF MUD          
MUDD.KG/M     1140                 : MWT          - MUD DENSITY                 
NEUT.         1                    : NEUTRON      - NEUTRON TYPE                
RESI.         0                    : RESIST       - RESISTIVITY TYPE            
RM  .OHMM     5.6                  : RM           - RESISTIVITY OF MUD          
RMC .OHMM     0                    : RMC          - RESISTIVITY OF MUD CAKE     
RMF .OHMM     6.48                 : RMF          - RESISTIVITY OF MUD FILTRATE 
SUFT.C        32                   : SUFT         - SURFACE TEMPERATURE         
~A  DEPTH     PHID     PHIN       GR      CAL     RESD
# ...
  521.000    0.144    0.374   96.338  184.645    7.050
  521.250    0.158    0.404   96.053  186.137    7.197
  521.500    0.157    0.397   96.449  187.728    6.643
  521.750    0.147    0.398   95.353  189.429    5.962
  522.000    0.153    0.398   93.388  190.713    5.483
  522.250    0.172    0.382   95.465  192.411    5.061
  522.500    0.175    0.399   97.850  194.008    4.742
  522.750    0.162    0.406   98.995  195.288    4.733
  523.000    0.149    0.404   96.969  196.466    4.752
  523.250    0.150    0.400   95.499  197.854    4.734
  523.500    0.157    0.389   94.901  199.448    4.833
  523.750    0.152    0.381   95.546  200.636    5.017
  524.000    0.146    0.387   97.063  201.606    5.160
  524.250    0.147    0.371   99.138  202.367    5.297
  524.500    0.151    0.357  102.271  202.924    5.407
  524.750    0.146    0.360  100.493  203.176    5.428
  525.000    0.144    0.382   98.404  203.009    5.298
  525.250    0.149    0.402   98.240  202.740    5.201
  525.500    0.143    0.410  100.566  202.987    5.058
  525.750    0.139    0.401   98.290  202.920    4.864
  526.000    0.147    0.389   96.323  202.445    4.837
  526.250    0.144    0.393   96.471  201.756    4.856
  526.500    0.130    0.403   97.366  200.248    4.865
  526.750    0.152    0.412   98.758  198.522    4.866
  527.000    0.160    0.423   99.155  196.177    4.830
  527.250    0.161    0.412   97.378  193.939    4.768
  527.500    0.156    0.400   94.356  192.632    4.526
  527.750    0.144    0.387   91.209  191.637    4.434
  528.000    0.132    0.368   88.062  191.055    4.586
  528.250    0.118    0.338   82.179  191.405    4.923
  528.500    0.103    0.290   82.888  193.001    5.305
  528.750    0.151    0.332   92.859  194.182    5.791
  529.000    0.163    0.362   96.738  195.258    6.310
  529.250    0.174    0.360   99.125  196.541    6.649
  529.500    0.178    0.376  106.049  197.930    6.800
  529.750    0.178    0.409  115.647  199.215    6.300
  530.000    0.175    0.413  112.627  200.498    5.666
  530.250    0.167    0.402  108.235  201.259    5.038
  530.500    0.155    0.397  105.090  201.819    4.556
  530.750    0.142    0.392  104.865  202.794    4.237
  531.000    0.145    0.387  105.386  203.666    4.075
  531.250    0.155    0.380  106.157  204.426    4.105
  531.500    0.161    0.374  107.423  205.613    4.262
  531.750    0.162    0.383   99.242  205.960    4.441
  532.000    0.159    0.387   95.722  206.412    4.593
  532.250    0.155    0.375   96.305  206.349    4.759
  532.500    0.155    0.368   91.853  206.290    4.903
  532.750    0.158    0.380   84.666  206.538    5.071
  533.000    0.164    0.371   87.114  206.262    5.177
  533.250    0.161    0.358   94.910  205.786    5.304
  533.500    0.146    0.363  102.456  205.305    5.465
  533.750    0.137    0.377   95.395  204.625    5.642
  534.000    0.125    0.354   89.263  203.729    5.791
  534.250    0.139    0.332   90.034  202.739    6.001
  534.500    0.137    0.353   93.911  202.053    6.103
  534.750    0.127    0.363   93.811  201.672    6.172
  535.000    0.134    0.367   96.011  201.611    6.277
  535.250    0.133    0.365  102.688  201.343    6.325
  535.500    0.136    0.355  104.576  200.759    6.325
  535.750    0.141    0.354  102.301  200.388    6.291
  536.000    0.138    0.355  100.708  200.220    6.186
  536.250    0.134    0.354   95.076  199.950    6.061
  536.500    0.130    0.353   97.586  199.986    5.884
  536.750    0.136    0.356  101.091  199.409    5.797
  537.000    0.144    0.376  101.739  199.139    5.798
  537.250    0.145    0.369  103.814  198.871    5.853
  537.500    0.143    0.354  108.624  198.077    5.886
  537.750    0.159    0.363  104.795  197.596    5.876
  538.000    0.173    0.354   95.617  197.119    5.778
  538.250    0.175    0.340   83.083  196.849    5.736
  538.500    0.158    0.336   75.710  196.785    5.641
  538.750    0.163    0.328   74.117  197.244    5.694
  539.000    0.179    0.320   72.711  197.695    5.933
  539.250    0.167    0.309   67.763  198.357    6.334
  539.500    0.175    0.297   65.549  199.019    6.749
  539.750    0.184    0.317   71.665  199.482    7.535
  540.000    0.187    0.343   76.041  199.828    8.195
  540.250    0.186    0.340   81.162  199.968    8.797
  540.500    0.184    0.329   83.987  200.738    9.409
  540.750    0.191    0.330   77.730  201.093   10.233
  541.000    0.170    0.364   72.780  201.748   10.623
  541.250    0.162    0.360   75.043  201.793    9.842
  541.500    0.189    0.359   78.610  202.040    9.136
  541.750    0.201    0.358   79.256  202.076    8.753
  542.000    0.198    0.353   78.907  202.122    8.278
  542.250    0.197    0.345   80.859  202.156    7.916
  542.500    0.186    0.335   79.701  202.200    7.655
  542.750    0.180    0.332   79.353  202.342    7.403
  543.000    0.173    0.328   79.874  201.965    7.200
  543.250    0.174    0.327   81.765  200.871    7.107
  543.500    0.175    0.344   83.281  199.770    7.003
  543.750    0.147    0.320   81.128  199.081    6.887
  544.000    0.130    0.304   77.921  198.088    6.697
  544.250    0.117    0.292   75.335  196.579    6.525
  544.500    0.105    0.279   75.731  195.368    6.394
  544.750    0.078    0.265   83.774  193.649    6.311
  545.000    0.078    0.276   92.749  192.132    6.347
  545.250    0.104    0.306  101.167  190.829    6.651
  545.500    0.124    0.324  106.164  189.214    7.260
  545.750    0.115    0.345  100.344  187.178    7.971
  546.000    0.104    0.349   87.376  183.797    9.049
  546.250    0.079    0.313   75.961  181.872    9.952
  546.500    0.041    0.238   71.322  181.498   11.049
  546.750    0.072    0.250   80.052  181.847   10.198
  547.000    0.096    0.304   87.969  182.925    8.786
  547.250    0.126    0.364   90.483  184.108    7.755
  547.500    0.141    0.377   90.691  186.115    7.212
  547.750    0.144    0.375   91.338  187.915    7.656
  548.000    0.137    0.368   92.170  189.514    8.563
  548.250    0.144    0.366   95.425  190.797    9.577
  548.500    0.138    0.371   94.519  191.556    9.795
  548.750    0.127    0.364   88.262  192.425    9.024
  549.000    0.111    0.356   88.536  193.403    8.100
  549.250    0.121    0.349   89.182  193.853    6.991
  549.500    0.111    0.341   83.611  194.413    6.322
  549.750    0.092    0.323   80.774  194.557    5.990
  550.000    0.089    0.322   84.966  194.803    5.946
  550.250    0.108    0.325   87.912  194.739    5.980
  550.500    0.119    0.335   90.297  194.574    6.093
  550.750    0.130    0.366   86.591  194.614    6.243
  551.000    0.114    0.372   86.179  194.860    6.326
  551.250    0.103    0.356   88.068  194.801    6.494
  551.500    0.102    0.348   91.575  194.321    6.629
  551.750    0.100    0.345   88.739  193.845    6.767
  552.000    0.091    0.322   86.090  193.676    6.869
  552.250    0.081    0.305   86.425  193.507    6.934
  552.500    0.089    0.303   88.315  193.031    6.896
  552.750    0.099    0.310   91.447  192.759    6.987
  553.000    0.110    0.315   96.257  192.178    6.949
  553.250    0.122    0.317   95.661  191.080    6.911
  553.500    0.124    0.310   93.260  190.495    6.898
  553.750    0.111    0.305   90.425  189.919    6.990
  554.000    0.092    0.296   87.650  189.446    7.082
  554.250    0.075    0.288   84.939  189.169    7.162
  554.500    0.088    0.285   88.507  189.311    7.284
  554.750    0.104    0.310   91.701  189.046    7.492
  555.000    0.099    0.313   91.291  188.666    7.619
  555.250    0.085    0.295   89.636  188.604    7.734
  555.500    0.078    0.275   93.080  188.435    7.793
  555.750    0.071    0.294   95.839  187.869    7.985
  556.000    0.062    0.302   88.352  187.698    8.212
  556.250    0.046    0.294   93.588  187.729    8.461
  556.500    0.071    0.284  100.698  187.664    8.621
  556.750    0.105    0.291  109.053  187.703    8.784
  557.000    0.124    0.314  104.291  187.955    8.901
  557.250    0.130    0.340   99.156  189.030    8.935
