~VERSION INFORMATION
 VERS.                 2.0:   CWLS LOG ASCII STANDARD -VERSION 2.0
 WRAP.                  NO:   ONE LINE PER DEPTH STEP
~WELL INFORMATION BLOCK
#MNEM.UNIT           DATA                    DESCRIPTION OF MNEMONIC
#---------    -------------------            -------------------------------
# Generated from Intellog Unique Number	CS_69_70/WELL/885
NULL.         -999.25                        : NULL_VALUE
WELL.         CDN HOMSTEAD ET AL HEART       : Well_name    - WELL              
LOC .         00/11-05-070-09W4/0            : Location     - LOCATION          
UWI .         00/11-05-070-09W4/0            : Uwi          - UNIQUE WELL ID    
ENTR.         SP                             : Entered      - ENTERED BY        
SRVC.         SCHLUMBERGER                   : Scn          - SERVICE COMPANY   
STRT.M        320                            : top_depth    - START DEPTH       
STOP.M        545                            : bot_depth    - STOP DEPTH        
STEP.M        0.25                           : increment    - STEP LENGTH       
~CURVE INFORMATION BLOCK
#MNEM UNIT       ERCB CURVE CODE    CURVE DESCRIPTION
#-----------   ------------------   ----------------------------------
DEPT.M        00 001 00 00         : DEPTH        - DEPTH                       
ILD .OHMM     00 120 00 00         : RESD         - DEEP RESISTIVITY (DIL)      
DPHI.V/V      00 890 00 00         : PHID         - DENSITY POROSITY (LIMESTONE)
NPHI.V/V      00 330 00 00         : PHIN         - NEUTRON POROSITY (LIMESTONE)
GR  .API      00 310 00 00         : GR           - GAMMA RAY                   
~PARAMETER INFORMATION       
#MNEM.UNIT           DATA             DESCRIPTION OF MNEMONIC
#---------         -----------     ------------------------------
GL  .M        659.4                : gl           - GROUND LEVEL ELEVATION      
EREF.M        662.75               : kb           - ELEVATION OF DEPTH REFERENCE
DATM.M        659.4                : datum        - DATUM ELEVATION             
TDD .M        570.4                : tdd          - TOTAL DEPTH DRILLER         
RUN .         ONE                  : Run          - RUN NUMBER                  
ENG .         BILL                 : Engineer     - RECORDING ENGINEER          
WIT .         JIM                  : Witness      - WITNESSED BY                
MUD .         GEL                  : Mud_type     - MUD TYPE                    
MATR.         LIMESTONE            : Logunit      - NEUTRON MATRIX              
TMAX.C        25                   : BHT          - MAXIMUM RECORDED TEMPERATURE
BHTD.M        570.4                : BHTDEP       - MAXIMUM RECORDED TEMPERATURE
MATR.         1                    : LOGUNIT      - NEUTRON MATRIX              
RMT .C        25                   : MDTP         - TEMPERATURE OF MUD          
NEUT.         1                    : NEUTRON      - NEUTRON TYPE                
RESI.         0                    : RESIST       - RESISTIVITY TYPE            
RMC .OHMM     0.25                 : RMC          - RESISTIVITY OF MUD CAKE     
RMF .OHMM     0.25                 : RMF          - RESISTIVITY OF MUD FILTRATE 
SUFT.C        15                   : SUFT         - SURFACE TEMPERATURE         
~A  DEPTH     RESD     PHID     PHIN       GR
# ...
  494.000    6.495    0.317    0.402   80.510
  494.250    6.717    0.251    0.412   76.563
  494.500    6.920    0.224    0.409   73.767
  494.750    7.025    0.212    0.412   73.215
  495.000    6.999    0.224    0.420   73.936
  495.250    6.909    0.223    0.419   75.020
  495.500    6.594    0.234    0.413   75.862
  495.750    6.098    0.238    0.421   76.644
  496.000    5.587    0.231    0.410   77.243
  496.250    5.006    0.228    0.397   77.358
  496.500    4.823    0.226    0.404   76.927
  496.750    4.621    0.245    0.402   75.223
  497.000    4.621    0.258    0.391   75.216
  497.250    4.797    0.252    0.383   79.817
  497.500    5.073    0.231    0.377   87.328
  497.750    5.335    0.210    0.382   94.900
  498.000    5.621    0.198    0.397   96.409
  498.250    5.879    0.196    0.398   88.945
  498.500    5.945    0.198    0.384   81.056
  498.750    5.968    0.191    0.372   76.867
  499.000    5.924    0.195    0.381   76.011
  499.250    5.772    0.219    0.387   74.367
  499.500    5.623    0.231    0.394   74.421
  499.750    5.603    0.212    0.395   74.961
  500.000    5.805    0.180    0.381   71.983
  500.250    6.015    0.169    0.357   70.521
  500.500    6.151    0.163    0.340   74.152
  500.750    6.220    0.158    0.331   79.844
  501.000    6.267    0.153    0.331   84.082
  501.250    6.279    0.140    0.329   88.198
  501.500    6.210    0.116    0.329   92.495
  501.750    6.107    0.139    0.349   95.702
  502.000    5.917    0.162    0.378   93.452
  502.250    5.544    0.170    0.370   87.079
  502.500    5.079    0.171    0.356   80.282
  502.750    4.715    0.184    0.342   72.212
  503.000    4.484    0.199    0.333   66.810
  503.250    4.475    0.208    0.334   64.075
  503.500    4.628    0.220    0.341   61.704
  503.750    4.931    0.177    0.329   65.152
  504.000    5.119    0.151    0.317   77.029
  504.250    5.081    0.151    0.337   89.876
  504.500    4.859    0.187    0.360   87.807
  504.750    4.386    0.205    0.378   83.617
  505.000    3.922    0.218    0.377   79.730
  505.250    3.661    0.230    0.376   76.631
  505.500    3.554    0.235    0.370   74.321
  505.750    3.601    0.232    0.369   71.950
  506.000    3.794    0.232    0.381   70.549
  506.250    4.042    0.232    0.373   86.426
  506.500    4.142    0.230    0.352   94.544
  506.750    4.236    0.220    0.343   98.963
  507.000    4.212    0.213    0.346   96.167
  507.250    4.135    0.216    0.354   91.612
  507.500    3.788    0.229    0.354   88.636
  507.750    3.344    0.224    0.362   85.294
  508.000    3.098    0.251    0.370   82.984
  508.250    2.996    0.265    0.373   81.341
  508.500    2.930    0.255    0.374   80.122
  508.750    2.925    0.264    0.377   95.999
  509.000    2.925    0.251    0.364  108.603
  509.250    2.941    0.246    0.357  111.385
  509.500    2.953    0.244    0.357  111.196
  509.750    2.947    0.252    0.358  110.341
  510.000    2.920    0.250    0.361  107.788
  510.250    2.888    0.245    0.368  101.901
  510.500    2.819    0.240    0.378  102.257
  510.750    2.767    0.248    0.373   94.126
  511.000    2.736    0.256    0.365   84.177
  511.250    2.762    0.260    0.358   78.775
  511.500    2.862    0.267    0.361   90.226
  511.750    3.061    0.274    0.371  101.193
  512.000    3.249    0.265    0.379   96.458
  512.250    3.553    0.251    0.367   87.720
  512.500    3.915    0.235    0.356   80.499
  512.750    4.281    0.239    0.382   73.823
  513.000    4.622    0.210    0.392   68.966
  513.250    4.824    0.197    0.374   65.443
  513.500    4.989    0.188    0.363   68.044
  513.750    4.989    0.174    0.356   77.010
  514.000    4.898    0.181    0.359   81.429
  514.250    4.843    0.201    0.368   79.785
  514.500    4.862    0.213    0.372   78.990
  514.750    5.028    0.221    0.373   82.318
  515.000    5.288    0.211    0.360   86.857
  515.250    5.655    0.178    0.352   89.762
  515.500    5.826    0.142    0.349   91.938
  515.750    5.969    0.128    0.354   93.386
  516.000    5.903    0.130    0.359   93.743
  516.250    5.614    0.148    0.365   93.493
  516.500    4.965    0.177    0.376   92.879
  516.750    4.713    0.188    0.377   91.480
  517.000    4.399    0.190    0.376   90.382
  517.250    4.068    0.203    0.374   70.671
  517.500    3.876    0.220    0.374   60.964
  517.750    3.804    0.234    0.365   52.834
  518.000    3.805    0.215    0.339   44.824
  518.250    3.869    0.118    0.311   45.423
  518.500    4.311    0.094    0.293   51.176
  518.750    4.376    0.173    0.332   58.384
  519.000    4.645    0.197    0.348   75.656
  519.250    5.080    0.152    0.355   91.837
  519.500    5.274    0.131    0.363   93.043
  519.750    5.650    0.138    0.362   89.216
  520.000    5.800    0.136    0.338   85.692
  520.250    6.066    0.145    0.317   83.261
  520.500    6.077    0.143    0.300   81.012
  520.750    6.066    0.136    0.294   79.611
  521.000    6.010    0.131    0.293   80.696
  521.250    5.834    0.133    0.304   81.780
  521.500    5.695    0.142    0.316   78.014
  521.750    5.621    0.164    0.328   74.006
  522.000    5.601    0.161    0.328   71.150
  522.250    5.803    0.162    0.308   69.749
  522.500    5.957    0.154    0.294   75.137
  522.750    5.902    0.140    0.305   79.071
  523.000    5.708    0.136    0.318   80.885
  523.250    5.142    0.169    0.327   79.968
  523.500    4.836    0.196    0.336   77.354
  523.750    5.010    0.219    0.343   76.863
  524.000    5.259    0.235    0.341   86.375
  524.250    5.604    0.240    0.327   98.736
  524.500    5.893    0.135    0.343  102.670
  524.750    5.872    0.102    0.374  104.360
  525.000    5.802    0.139    0.412  108.649
  525.250    5.922    0.103    0.417  108.373
  525.500    5.662    0.098    0.409  102.799
  525.750    5.610    0.109    0.385   94.967
  526.000    5.495    0.142    0.345   86.649
  526.250    5.393    0.150    0.331   81.930
  526.500    5.353    0.143    0.326   79.462
  526.750    5.353    0.145    0.338   79.612
  527.000    5.423    0.147    0.344   80.187
  527.250    5.484    0.166    0.341   83.382
  527.500    5.587    0.147    0.343   86.513
  527.750    5.713    0.136    0.350   83.803
  528.000    5.842    0.146    0.352   80.722
  528.250    5.974    0.154    0.351   78.925
  528.500    6.075    0.166    0.343   79.623
  528.750    6.086    0.152    0.330   82.148
  529.000    6.097    0.141    0.326   84.975
  529.250    6.074    0.133    0.325   87.734
  529.500    6.051    0.117    0.337   89.050
  529.750    6.029    0.118    0.344   89.872
  530.000    6.017    0.120    0.343   88.924
  530.250    6.006    0.120    0.339   89.191
  530.500    5.983    0.120    0.345   90.254
  530.750    5.972    0.120    0.349   90.593
  531.000    5.916    0.113    0.350   90.739
  531.250    5.872    0.105    0.342   90.404
  531.500    5.860    0.129    0.335   88.910
  531.750    5.860    0.146    0.346   88.023
  532.000    5.904    0.118    0.353   88.904
  532.250    5.981    0.111    0.356   88.869
  532.500    6.071    0.119    0.354   89.624
  532.750    6.150    0.123    0.345   92.152
  533.000    6.161    0.125    0.340   95.042
  533.250    6.150    0.121    0.341   98.109
  533.500    6.127    0.117    0.354  100.029
  533.750    6.092    0.122    0.366  101.216
  534.000    6.058    0.123    0.368  101.063
  534.250    5.979    0.118    0.366  100.357
  534.500    5.912    0.124    0.363  100.802
  534.750    5.857    0.118    0.358  101.204
  535.000    5.780    0.104    0.365  101.843
  535.250    5.748    0.115    0.354  101.990
  535.500    5.716    0.136    0.347  100.192
  535.750    5.694    0.126    0.358   97.114
  536.000    5.662    0.127    0.371   95.987
  536.250    5.620    0.128    0.385   96.257
  536.500    5.526    0.103    0.384   94.942
  536.750    5.195    0.115    0.370   92.108
  537.000    4.786    0.115    0.362   90.433
  537.250    4.254    0.107    0.378   94.602
