~VERSION INFORMATION
 VERS.                 2.0:   CWLS LOG ASCII STANDARD -VERSION 2.0
 WRAP.                  NO:   ONE LINE PER DEPTH STEP
~WELL INFORMATION BLOCK
#MNEM.UNIT           DATA                    DESCRIPTION OF MNEMONIC
#---------    -------------------            -------------------------------
# Generated from Intellog Unique Number	CW_70_72/WELL/2908
NULL.         -999.25                        : NULL_VALUE
WELL.         NOVALTA RICHMOND               : Well_name    - WELL              
LOC .         16-01-070-20W4                 : Location     - LOCATION          
UWI .         00/16-01-070-20W4/0            : Uwi          - UNIQUE WELL ID    
ENTR.         MAX                            : Entered      - ENTERED BY        
SRVC.         WELEX                          : Scn          - SERVICE COMPANY   
DATE.         04 OCT 85                      : Date         - LOG DATE
STRT.M        325                            : top_depth    - START DEPTH       
STOP.M        490                            : bot_depth    - STOP DEPTH        
STEP.M        0.25                           : increment    - STEP LENGTH       
~CURVE INFORMATION BLOCK
#MNEM UNIT       ERCB CURVE CODE    CURVE DESCRIPTION
#-----------   ------------------   ----------------------------------
DEPT.M        00 001 00 00         : DEPTH        - DEPTH                       
ILD .OHMM     00 120 00 00         : RESD         - DEEP RESISTIVITY (DIL)      
NPHI.V/V      00 330 00 00         : PHIN         - NEUTRON POROSITY (SANDSTONE)
DPHI.V/V      00 890 00 00         : PHID         - DENSITY POROSITY (SANDSTONE)
CALI.MM       00 280 01 00         : CAL          - CALIPER                     
GR  .API      00 310 00 00         : GR           - GAMMA RAY                   
~PARAMETER INFORMATION       
#MNEM.UNIT           DATA             DESCRIPTION OF MNEMONIC
#---------         -----------     ------------------------------
GL  .M        577.31               : gl           - GROUND LEVEL ELEVATION      
EREF.M        580.3                : kb           - ELEVATION OF DEPTH REFERENCE
DATM.M        577.31               : datum        - DATUM ELEVATION             
TDD .M        555.8                : tdd          - TOTAL DEPTH DRILLER         
RUN .         ONE                  : Run          - RUN NUMBER                  
ENG .         BILL                 : Engineer     - RECORDING ENGINEER          
WIT .         JIM                  : Witness      - WITNESSED BY                
MUD .         GEL                  : Mud_type     - MUD TYPE                    
MATR.         SANDSTONE            : Logunit      - NEUTRON MATRIX              
TMAX.C        25                   : BHT          - MAXIMUM RECORDED TEMPERATURE
BHTD.M        555.8                : BHTDEP       - MAXIMUM RECORDED TEMPERATURE
RMT .C        19                   : MDTP         - TEMPERATURE OF MUD          
MUDD.KG/M     1160                 : MWT          - MUD DENSITY                 
NEUT.         1                    : NEUTRON      - NEUTRON TYPE                
RESI.         0                    : RESIST       - RESISTIVITY TYPE            
RM  .OHMM     4.5                  : RM           - RESISTIVITY OF MUD          
RMC .OHMM     3.5                  : RMC          - RESISTIVITY OF MUD CAKE     
RMF .OHMM     4.4                  : RMF          - RESISTIVITY OF MUD FILTRATE 
SUFT.C        -20                  : SUFT         - SURFACE TEMPERATURE         
~A  DEPTH     RESD     PHIN     PHID      CAL       GR
# ...
  471.000    4.253    0.357    0.193  173.339   90.840
  471.250    3.842    0.377    0.172  174.301   90.825
  471.500    3.196    0.396    0.193  174.771   93.487
  471.750    3.050    0.407    0.226  176.727   98.228
  472.000    3.132    0.426    0.261  180.665  103.563
  472.250    3.759    0.447    0.262  183.612  105.332
  472.500    4.428    0.430    0.229  184.078   99.668
  472.750    4.590    0.410    0.211  180.092   92.218
  473.000    5.120    0.396    0.193  174.612   87.444
  473.250    5.355    0.361    0.199  173.100   88.320
  473.500    5.301    0.376    0.204  173.077   87.115
  473.750    5.153    0.374    0.199  174.033   86.804
  474.000    4.873    0.357    0.227  175.004   89.465
  474.250    4.737    0.375    0.196  173.489   93.611
  474.500    4.647    0.381    0.107  173.463   97.163
  474.750    4.559    0.379    0.150  174.923  103.688
  475.000    4.597    0.395    0.199  175.888  102.186
  475.250    4.721    0.413    0.226  176.358   99.790
  475.500    4.982    0.398    0.210  178.806   97.394
  475.750    5.260    0.371    0.207  180.270   97.082
  476.000    5.502    0.355    0.200  179.253   91.419
  476.250    5.915    0.359    0.193  174.762   85.161
  476.500    6.187    0.369    0.176  173.256   83.356
  476.750    6.531    0.355    0.157  173.725   84.236
  477.000    6.769    0.347    0.157  174.690   85.112
  477.250    6.580    0.352    0.141  175.157   85.691
  477.500    5.999    0.353    0.141  175.623   87.162
  477.750    5.176    0.375    0.168  175.600   89.525
  478.000    4.150    0.389    0.199  176.070   92.185
  478.250    3.421    0.404    0.221  179.017   95.440
  478.500    3.034    0.435    0.226  182.952   99.289
  478.750    2.895    0.472    0.219  184.911  102.839
  479.000    2.866    0.488    0.226  185.873  101.339
  479.250    2.917    0.506    0.231  185.352  101.619
  479.500    3.193    0.435    0.218  183.839  102.794
  479.750    3.434    0.391    0.202  181.336  102.184
  480.000    3.692    0.442    0.148  179.824   92.352
  480.250    3.897    0.415    0.197  180.293   95.908
  480.500    3.894    0.379    0.226  180.766   94.999
  480.750    3.784    0.378    0.201  181.232   95.877
  481.000    3.679    0.384    0.174  181.210   99.429
  481.250    3.679    0.421    0.179  180.682   97.630
  481.500    3.571    0.408    0.183  180.656  102.072
  481.750    3.538    0.447    0.191  180.627  105.625
  482.000    3.567    0.448    0.212  180.106  104.124
  482.250    3.567    0.419    0.221  178.600   99.052
  482.500    3.658    0.443    0.233  176.589  103.199
  482.750    3.899    0.441    0.210  175.572  107.347
  483.000    4.388    0.419    0.175  175.546   99.897
  483.250    4.548    0.389    0.068  175.028   87.990
  483.500    4.461    0.379    0.034  175.494   85.594
  483.750    4.219    0.399    0.096  176.955   92.121
  484.000    3.990    0.430    0.208  181.385  106.970
  484.250    3.879    0.458    0.215  181.851  110.522
  484.500    3.947    0.446    0.198  181.832  111.696
  484.750    4.091    0.423    0.191  181.310  110.491
  485.000    4.357    0.401    0.193  180.783  105.422
  485.250    4.393    0.396    0.207  180.760  110.161
  485.500    4.350    0.406    0.207  180.734  109.551
  485.750    4.190    0.398    0.173  181.207   98.535
  486.000    3.999    0.434    0.142  179.196   91.086
  486.250    3.887    0.427    0.157  181.145  104.450
  486.500    4.028    0.448    0.184  183.105  116.029
  486.750    4.213    0.430    0.199  183.079  117.500
  487.000    4.448    0.435    0.201  181.570  108.566
  487.250    4.871    0.400    0.143  179.555  105.278
  487.500    5.792    0.379    0.128  178.050  105.560
  487.750    8.349    0.323    0.092  177.522   94.842
  488.000   10.020    0.301    0.068  177.502   87.691
  488.250   10.675    0.282    0.025  177.470   80.834
  488.500   10.187    0.280    0.037  177.447   83.498
  488.750    9.633    0.286    0.066  176.926   94.480
  489.000    7.796    0.327    0.106  176.401  118.845
  489.250    7.173    0.337    0.145  176.871  123.586
  489.500    6.537    0.340    0.143  177.344  125.352
  489.750    6.533    0.335    0.130  175.825  127.120
  490.000    7.024    0.328    0.124  174.313  125.323
