~VERSION INFORMATION
 VERS.                 2.0:   CWLS LOG ASCII STANDARD -VERSION 2.0
 WRAP.                  NO:   ONE LINE PER DEPTH STEP
~WELL INFORMATION BLOCK
#MNEM.UNIT           DATA                    DESCRIPTION OF MNEMONIC
#---------    -------------------            -------------------------------
# Generated from Intellog Unique Number	CW_76_78/WELL/1029
WELL.         PETROMK ET AL MARTENCK 11-32   : Well_name    - WELL
LOC .         00/11-32-077-05W5/0            : Location     - LOCATION
UWI .         00/11-32-077-05W5/0            : Uwi          - UNIQUE WELL ID
ENTR.         JAYE                           : Entered      - ENTERED BY
SRVC.         SCHLUMBERGER                   : Scn          - SERVICE COMPANY
DATE.         5 MAR 79                       : Date         - LOG DATE
STRT.M        385                            : top_depth    - START DEPTH
STOP.M        595                            : bot_depth    - STOP DEPTH
STEP.M        0.25                           : increment    - STEP LENGTH
 NULL. -999.2500:NULL Value
~CURVE INFORMATION BLOCK
#MNEM UNIT       ERCB CURVE CODE    CURVE DESCRIPTION
#-----------   ------------------   ----------------------------------
DEPT.M        00 001 00 00         : DEPTH        - DEPTH
ILD .OHMM     00 120 00 00         : RESD         - DEEP RESISTIVITY (DIL)
DPHI.V/V      00 890 00 00         : PHID         - DENSITY POROSITY (SANDSTONE)
NPHI.V/V      00 330 00 00         : PHIN         - NEUTRON POROSITY (SANDSTONE)
GR  .API      00 310 00 00         : GR           - GAMMA RAY
CALI.MM       00 280 01 00         : CAL          - CALIPER
~PARAMETER INFORMATION
#MNEM.UNIT           DATA             DESCRIPTION OF MNEMONIC
#---------         -----------     ------------------------------
GL  .M        684.5                : gl           - GROUND LEVEL ELEVATION
EREF.M        688.5                : kb           - ELEVATION OF DEPTH REFERENCE
DATM.M        684.5                : datum        - DATUM ELEVATION
TDD .M        1896                 : tdd          - TOTAL DEPTH DRILLER
RUN .         ONE                  : Run          - RUN NUMBER
BASE.         EDM                  : Branch       - HOME BASE OF LOGGING UNIT
MATR.         SANDSTONE            : Logunit      - NEUTRON MATRIX
TMAX.C        22.2                 : BHT          - MAXIMUM RECORDED TEMPERATURE
BHTD.M        1896.3               : BHTDEP       - MAXIMUM RECORDED TEMPERATURE
RMT .C        22.2                 : MDTP         - TEMPERATURE OF MUD
MUDD.KG/M     0                    : MWT          - MUD DENSITY
NEUT.         1                    : NEUTRON      - NEUTRON TYPE
RESI.         0                    : RESIST       - RESISTIVITY TYPE
RM  .OHMM     0.0791               : RM           - RESISTIVITY OF MUD
RMC .OHMM     0                    : RMC          - RESISTIVITY OF MUD CAKE
RMF .OHMM     0.0851               : RMF          - RESISTIVITY OF MUD FILTRATE
SUFT.C        4.5                  : SUFT         - SURFACE TEMPERATURE
~A  DEPTH     RESD     PHID     PHIN       GR      CAL
# ...
  421.500   33.279   -0.011    0.759   37.453  221.120
  421.750   22.725   -0.016    0.762   41.209  222.806
  422.000   24.669   -0.012    0.755   44.970  225.628
  422.250   55.184   -0.003    0.774   45.500  228.656
  422.500   20.249    0.084    0.812   47.583  224.456
  422.750   11.877    0.117    0.850   50.785  218.606
  423.000   10.731    0.214    0.884   51.566  219.155
  423.250   12.089    0.221    0.983   51.539  220.736
  423.500   12.953    0.215    0.997   50.896  221.186
  423.750   10.826    0.233    1.005   49.942  219.565
  424.000    9.049    0.259    1.019   48.982  216.397
  424.250    9.607    0.273    1.034   48.273  212.610
  424.500   10.505    0.268    1.024   48.249  210.889
  424.750   11.595    0.266    1.017   49.030  211.233
  425.000   12.658    0.286    1.013   50.182  212.919
  425.250   12.997    0.277    1.005   53.567  213.056
  425.500   11.066    0.267    0.990   54.038  212.985
  425.750    9.814    0.281    0.990   51.966  212.916
  426.000    9.674    0.283    1.003   49.707  212.847
  426.250   10.156    0.277    1.014   48.874  212.778
  426.500   10.803    0.280    1.050   47.423  212.404
  426.750   10.868    0.287    1.025   44.170  212.642
  427.000    9.532    0.284    1.005   40.547  212.883
  427.250    7.923    0.278    1.028   39.964  213.017
  427.500    6.988    0.287    1.017   40.558  213.255
  427.750    7.323    0.291    1.007   43.016  214.325
  428.000    8.577    0.297    1.002   43.176  214.978
  428.250    9.897    0.291    1.017   42.654  208.815
  428.500   10.391    0.293    1.032   41.886  207.816
  428.750    8.621    0.299    1.029   43.594  207.335
  429.000    8.219    0.302    1.020   43.384  207.573
  429.250    9.022    0.299    1.006   43.542  208.023
  429.500   10.239    0.300    0.995   44.385  208.262
  429.750    9.963    0.283    0.985   45.043  208.507
  430.000    8.174    0.288    0.975   44.335  208.643
  430.250    6.571    0.275    0.987   43.194  208.984
  430.500    6.950    0.279    0.985   42.049  209.326
  430.750    7.888    0.305    0.992   39.667  209.670
  431.000    9.153    0.309    0.997   39.704  209.703
  431.250   10.047    0.287    0.983   41.537  209.839
  431.500    9.996    0.277    0.970   41.574  209.874
  431.750    6.967    0.288    0.993   41.055  210.012
  432.000    7.733    0.289    0.987   39.538  210.766
  432.250    9.522    0.279    0.994   39.202  211.420
  432.500    9.248    0.277    0.993   39.551  212.074
  432.750    7.644    0.288    0.993   39.711  212.106
  433.000    6.605    0.280    1.005   39.560  211.626
  433.250    6.309    0.284    1.015   39.352  210.936
  433.500    6.116    0.289    1.014   39.325  209.730
  433.750    6.199    0.299    1.004   39.236  208.628
  434.000    7.220    0.302    1.022   39.272  207.323
  434.250    7.609    0.299    1.035   39.557  206.940
  434.500    6.502    0.302    1.049   40.460  206.664
  434.750    6.627    0.300    1.052   43.413  206.905
  435.000    7.981    0.297    1.033   42.829  207.357
  435.250   10.802    0.309    1.009   40.322  208.006
  435.500    9.335    0.298    1.010   39.304  208.249
  435.750    6.689    0.307    1.017   39.031  207.773
  436.000    6.272    0.325    1.017   39.133  207.285
  436.250    7.026    0.311    1.035   39.228  206.694
  436.500    8.620    0.307    1.026   39.637  206.420
  436.750   10.420    0.302    1.013   40.602  206.246
  437.000   11.165    0.298    1.014   41.942  206.279
  437.250    9.042    0.295    1.017   40.675  206.006
  437.500    7.529    0.301    1.014   39.657  205.317
  437.750    6.995    0.296    1.003   39.451  205.867
  438.000    6.985    0.288    1.001   39.545  206.830
  438.250    7.320    0.296    0.995   39.893  207.381
  438.500    7.671    0.298    0.984   40.299  207.621
  438.750    7.760    0.290    0.983   40.585  207.860
  439.000    8.042    0.289    0.989   41.239  207.897
  439.250    8.795    0.302    0.994   39.416  207.824
  439.500    9.268    0.299    0.989   39.023  207.755
  439.750    8.069    0.305    0.981   39.056  207.685
  440.000    8.409    0.294    0.969   39.277  207.824
  440.250    9.333    0.285    0.969   40.739  208.164
  440.500    8.247    0.280    0.981   41.334  208.306
  440.750    7.193    0.277    0.993   42.921  208.446
  441.000    6.670    0.281    1.006   41.780  208.475
  441.250    6.454    0.294    0.993   41.695  208.406
  441.500    6.713    0.293    1.010   43.280  208.852
  441.750    7.140    0.292    1.025   44.805  209.711
  442.000    7.130    0.275    1.008   42.422  211.918
  442.250    6.208    0.284    1.006   41.776  213.083
  442.500    6.421    0.295    1.022   42.001  213.324
  442.750    7.180    0.294    1.031   42.964  213.357
  443.000    8.074    0.283    1.016   43.684  212.875
  443.250    6.116    0.279    0.993   42.665  212.288
  443.500    4.953    0.289    0.984   43.756  210.774
  443.750    3.753    0.303    0.999   47.081  209.672
  444.000    3.448    0.270    0.994   49.970  210.949
  444.250    3.949    0.218    0.982   57.389  213.353
  444.500    5.037    0.212    0.991   69.150  218.756
  444.750    6.237    0.212    1.023   79.177  224.263
  445.000    6.058    0.199    1.051   76.481  230.082
  445.250    6.128    0.192    1.070   70.996  231.560
  445.500    5.997    0.169    0.988   59.493  225.398
  445.750    5.468    0.173    0.969   62.880  221.404
  446.000    6.013    0.219    1.020   74.581  228.148
  446.250    7.309    0.204    1.038   80.944  236.962
  446.500    7.152    0.195    1.035   81.415  242.159
  446.750    6.319    0.215    1.022   80.893  243.435
  447.000    5.625    0.203    1.012   80.556  243.258
  447.250    4.980    0.224    1.024   80.657  243.087
  447.500    4.450    0.257    1.009   79.636  247.353
  447.750    4.218    0.268    1.027   80.232  257.613
  448.000    4.166    0.293    1.114   79.647  267.145
  448.250    4.230    0.307    1.152   78.754  279.674
  448.500    4.086    0.281    1.112   77.738  250.793
  448.750    4.452    0.228    1.066   79.261  229.864
  449.000    4.752    0.212    1.016   83.701  225.043
  449.250    4.925    0.203    0.990   91.058  231.895
  449.500    5.095    0.228    1.014   90.722  228.417
  449.750    4.857    0.230    1.050   86.229  231.651
  450.000    4.563    0.237    1.065   84.842  230.139
  450.250    4.871    0.228    1.049   84.633  227.486
  450.500    5.366    0.226    1.039   83.981  232.475
  450.750    4.867    0.246    1.028   82.717  223.525
  451.000    4.090    0.236    1.001   79.898  220.357
  451.250    4.115    0.247    0.984   76.708  224.424
  451.500    4.140    0.232    1.028   79.228  229.617
  451.750    3.219    0.215    1.076   86.025  238.634
  452.000    2.621    0.239    1.114   91.275  246.209
  452.250    2.103    0.260    1.170   91.249  251.093
  452.500    2.002    0.244    1.174   90.538  252.160
  452.750    2.218    0.241    1.123   89.706  244.552
  453.000    2.461    0.231    1.070   85.524  240.148
  453.250    2.778    0.240    1.064   81.157  236.260
  453.500    3.112    0.231    1.068   81.008  232.056
  453.750    3.372    0.240    1.063   76.329  226.410
  454.000    3.834    0.267    1.055   66.812  222.003
  454.250    4.311    0.270    1.044   56.116  215.945
  454.500    4.688    0.280    1.043   51.935  212.363
  454.750    4.536    0.287    1.051   52.036  211.471
  455.000    4.238    0.288    1.045   53.373  212.639
  455.250    4.170    0.278    1.031   55.457  214.120
  455.500    4.242    0.271    1.040   57.291  214.253
  455.750    4.299    0.275    1.052   58.817  213.359
  456.000    4.341    0.285    1.046   59.970  213.293
  456.250    4.319    0.275    1.023   56.222  214.255
  456.500    4.297    0.270    1.023   54.087  215.318
  456.750    4.332    0.273    1.051   54.060  215.664
  457.000    4.334    0.275    1.071   54.096  215.599
  457.250    4.368    0.278    1.053   54.012  214.807
  457.500    4.354    0.261    1.032   53.554  214.217
  457.750    4.324    0.258    1.003   53.341  213.630
