~VERSION INFORMATION
 VERS.                 2.0:   CWLS LOG ASCII STANDARD -VERSION 2.0
 WRAP.                  NO:   ONE LINE PER DEPTH STEP
~WELL INFORMATION BLOCK
#MNEM.UNIT           DATA                    DESCRIPTION OF MNEMONIC
#---------    -------------------            -------------------------------
# Generated from Intellog Unique Number	CS_77_79/WELL/1024
WELL.         DOME COWPAR                    : Well_name    - WELL
LOC .         00/16-11-079-03W4/0            : Location     - LOCATION
UWI .         00/16-11-079-03W4/0            : Uwi          - UNIQUE WELL ID
ENTR.         JHS                            : Entered      - ENTERED BY
SRVC.         SCHLUMBERGER                   : Scn          - SERVICE COMPANY
STRT.M        120                            : top_depth    - START DEPTH
STOP.M        360                            : bot_depth    - STOP DEPTH
STEP.M        0.25                           : increment    - STEP LENGTH
 NULL. -999.2500:NULL Value
~CURVE INFORMATION BLOCK
#MNEM UNIT       ERCB CURVE CODE    CURVE DESCRIPTION
#-----------   ------------------   ----------------------------------
DEPT.M        00 001 00 00         : DEPTH        - DEPTH
DPHI.V/V      00 890 00 00         : PHID         - DENSITY POROSITY (LIMESTONE)
NPHI.V/V      00 330 00 00         : PHIN         - NEUTRON POROSITY (LIMESTONE)
GR  .API      00 310 00 00         : GR           - GAMMA RAY
ILD .OHMM     00 120 00 00         : RESD         - DEEP RESISTIVITY (DIL)
RHOB.KG/M3    00 350 00 00         : DENS         - BULK DENSITY
~PARAMETER INFORMATION
#MNEM.UNIT           DATA             DESCRIPTION OF MNEMONIC
#---------         -----------     ------------------------------
GL  .M        525.3                : gl           - GROUND LEVEL ELEVATION
EREF.M        528.7                : kb           - ELEVATION OF DEPTH REFERENCE
DATM.M        528.7                : datum        - DATUM ELEVATION
TDD .M        365                  : tdd          - TOTAL DEPTH DRILLER
RUN .         ONE                  : Run          - RUN NUMBER
ENG .         BILL                 : Engineer     - RECORDING ENGINEER
WIT .         JIM                  : Witness      - WITNESSED BY
MUD .         GEL                  : Mud_type     - MUD TYPE
MATR.         LIMESTONE            : Logunit      - NEUTRON MATRIX
TMAX.C        24                   : BHT          - MAXIMUM RECORDED TEMPERATURE
BHTD.M        365                  : BHTDEP       - MAXIMUM RECORDED TEMPERATURE
MATR.         1                    : LOGUNIT      - NEUTRON MATRIX
RMT .C        25                   : MDTP         - TEMPERATURE OF MUD
NEUT.         1                    : NEUTRON      - NEUTRON TYPE
RESI.         0                    : RESIST       - RESISTIVITY TYPE
RMC .OHMM     0.25                 : RMC          - RESISTIVITY OF MUD CAKE
RMF .OHMM     0.25                 : RMF          - RESISTIVITY OF MUD FILTRATE
SUFT.C        15                   : SUFT         - SURFACE TEMPERATURE
~A  DEPTH     PHID     PHIN       GR     RESD     DENS
# ...
  302.500    0.286    0.305   55.384    2.103 2221.540
  302.750    0.304    0.310   48.055    2.064 2190.360
  303.000    0.323    0.323   43.777    1.917 2157.090
  303.250    0.316    0.319   40.717    1.848 2169.520
  303.500    0.298    0.304   44.368    1.781 2200.630
  303.750    0.294    0.303   53.502    1.782 2206.830
  304.000    0.298    0.310   53.492    1.749 2200.570
  304.250    0.306    0.322   53.484    1.750 2186.000
  304.500    0.321    0.325   57.739    1.718 2161.040
  304.750    0.344    0.331   55.902    1.687 2121.550
  305.000    0.349    0.326   44.306    1.656 2113.210
  305.250    0.321    0.327   42.467    1.626 2160.940
  305.500    0.305    0.330   47.336    1.627 2187.900
  305.750    0.325    0.330   55.862    1.627 2154.640
  306.000    0.345    0.324   60.728    1.598 2119.300
  306.250    0.325    0.316   51.574    1.569 2154.570
  306.500    0.315    0.324   41.198    1.540 2171.150
  306.750    0.313    0.327   49.723    1.512 2175.270
  307.000    0.312    0.320   45.445    1.485 2177.310
  307.250    0.315    0.327   37.510    1.485 2171.050
  307.500    0.321    0.325   44.814    1.458 2160.630
  307.750    0.309    0.324   45.412    1.459 2181.360
  308.000    0.299    0.336   47.234    1.459 2197.940
  308.250    0.301    0.319   47.225    1.459 2195.830
  308.500    0.306    0.313   42.947    1.460 2187.490
  308.750    0.312    0.310   39.885    1.487 2177.070
  309.000    0.315    0.304   40.488    1.515 2170.810
  309.250    0.320    0.297   46.574    1.573 2162.460
  309.500    0.314    0.307   50.833    1.694 2172.820
  309.750    0.289    0.308   51.430    1.859 2216.400
  310.000    0.234    0.306   61.177    1.930 2309.820
  310.250    0.274    0.309   69.093    1.826 2241.250
  310.500    0.309    0.301   66.035    1.728 2180.990
  310.750    0.326    0.292   43.466    1.605 2151.880
  311.000    0.319    0.291   34.919    1.518 2164.300
  311.250    0.322    0.292   37.955    1.437 2160.120
  311.500    0.322    0.300   37.948    1.385 2160.080
  311.750    0.311    0.296   42.814    1.385 2178.740
  312.000    0.299    0.296   39.147    1.438 2199.480
  312.250    0.293    0.307   36.088    1.492 2209.820
  312.500    0.290    0.329   41.566    1.578 2213.940
  312.750    0.282    0.336   50.092    1.700 2228.440
  313.000    0.280    0.320   58.618    1.831 2230.490
  313.250    0.288    0.317   71.412    1.797 2218.000
  313.500    0.308    0.301   73.231    1.701 2182.650
  313.750    0.301    0.294   53.709    1.670 2195.080
  314.000    0.291    0.288   44.554    1.580 2211.670
  314.250    0.283    0.282   36.008    1.523 2226.170
  314.500    0.283    0.281   37.826    1.523 2226.120
  314.750    0.288    0.285   45.132    1.552 2217.780
  315.000    0.292    0.279   44.511    1.581 2211.520
  315.250    0.300    0.288   42.672    1.611 2196.950
  315.500    0.322    0.292   42.664    1.673 2159.540
  315.750    0.328    0.311   45.701    1.673 2149.120
  316.000    0.309    0.321   47.523    1.673 2182.320
  316.250    0.289    0.305   45.071    1.674 2215.500
  316.500    0.284    0.294   42.623    1.674 2223.770
  316.750    0.282    0.297   44.443    1.674 2227.900
  317.000    0.278    0.301   46.870    1.675 2234.100
  317.250    0.278    0.298   45.029    1.675 2234.060
  317.500    0.282    0.280   44.412    1.676 2227.800
  317.750    0.275    0.275   47.451    1.676 2240.220
  318.000    0.289    0.283   47.441    1.708 2215.260
  318.250    0.294    0.295   43.772    1.708 2206.930
  318.500    0.295    0.301   40.101    1.708 2204.810
  318.750    0.299    0.321   41.311    1.741 2198.550
  319.000    0.306    0.319   46.180    1.774 2186.060
  319.250    0.309    0.308   47.997    1.841 2181.870
  319.500    0.283    0.302   49.814    1.911 2225.450
  319.750    0.265    0.286   52.857    1.947 2256.570
  320.000    0.257    0.276   58.945    1.912 2271.070
  320.250    0.269    0.288   65.033    1.843 2250.260
  320.500    0.302    0.308   70.509    1.776 2194.160
  320.750    0.325    0.297   66.232    1.681 2154.660
  321.000    0.319    0.285   44.880    1.590 2165.020
  321.250    0.308    0.292   43.651    1.477 2183.660
  321.500    0.305    0.310   49.737    1.424 2187.790
  321.750    0.308    0.305   52.167    1.424 2183.600
  322.000    0.305    0.303   46.670    1.424 2187.720
  322.250    0.280    0.304   43.002    1.451 2231.300
  322.500    0.299    0.314   44.820    1.479 2198.040
  322.750    0.322    0.322   52.128    1.535 2158.550
  323.000    0.324    0.315   60.044    1.653 2156.440
  323.250    0.316    0.301   58.813    1.814 2168.860
  323.500    0.264    0.295   66.119    1.990 2258.130
  323.750    0.229    0.307   72.206    2.028 2318.320
  324.000    0.244    0.332   76.466    2.105 2293.370
  324.250    0.287    0.346   68.528    2.185 2218.560
  324.500    0.233    0.331   59.374    2.185 2311.990
  324.750    0.213    0.317   77.655    2.068 2345.180
  325.000    0.230    0.323   75.815    1.851 2316.080
  325.250    0.289    0.332   67.270    1.751 2216.350
  325.500    0.287    0.337   76.405    1.688 2218.380
  325.750    0.298    0.336   84.322    1.597 2199.670
  326.000    0.317    0.348   70.288    1.483 2168.480
  326.250    0.313    0.331   53.204    1.484 2174.680
  326.500    0.306    0.326   54.415    1.457 2187.110
  326.750    0.296    0.335   66.599    1.457 2203.680
  327.000    0.301    0.350   73.296    1.458 2195.340
  327.250    0.326    0.335   56.213    1.458 2151.700
  327.500    0.324    0.327   43.399    1.405 2155.820
  327.750    0.316    0.318   43.999    1.380 2170.330
  328.000    0.313    0.319   40.939    1.380 2174.440
  328.250    0.325    0.305   37.883    1.355 2153.640
  328.500    0.325    0.317   35.433    1.330 2153.590
  328.750    0.333    0.328   35.422    1.331 2141.110
  329.000    0.335    0.339   36.023    1.307 2136.910
  329.250    0.330    0.324   39.061    1.307 2145.190
  329.500    0.327    0.317   40.270    1.332 2151.380
  329.750    0.328    0.340   39.041    1.357 2149.270
  330.000    0.330    0.330   36.592    1.357 2145.090
  330.250    0.333    0.318   39.631    1.357 2140.910
  330.500    0.329    0.312   44.498    1.358 2147.100
  330.750    0.310    0.323   46.316    1.358 2180.300
  331.000    0.305    0.315   42.647    1.358 2188.570
  331.250    0.294    0.320   39.591    1.384 2207.230
  331.500    0.284    0.326   40.187    1.384 2223.800
  331.750    0.289    0.312   39.568    1.385 2215.460
  332.000    0.305    0.306   37.729    1.385 2188.430
  332.250    0.317    0.320   34.671    1.385 2167.630
  332.500    0.327    0.312   35.880    1.360 2150.990
  332.750    0.328    0.306   38.920    1.361 2148.870
  333.000    0.332    0.310   35.859    1.361 2142.610
  333.250    0.333    0.322   30.973    1.336 2140.490
  333.500    0.327    0.328   24.866    1.337 2150.840
  333.750    0.314    0.315   32.782    1.337 2173.660
  334.000    0.308    0.312   33.382    1.313 2184.000
  334.250    0.322    0.329   30.934    1.313 2159.050
  334.500    0.332    0.332   27.873    1.313 2142.390
  334.750    0.336    0.334   34.571    1.313 2136.130
  335.000    0.343    0.326   40.049    1.338 2123.640
  335.250    0.349    0.299   36.990    1.339 2113.230
  335.500    0.349    0.287   30.881    1.314 2113.180
  335.750    0.347    0.316   29.043    1.291 2117.310
  336.000    0.343    0.322   30.863    1.267 2123.510
  336.250    0.342    0.342   39.388    1.244 2125.550
  336.500    0.335    0.355   46.695    1.244 2137.980
  336.750    0.338    0.330   45.465    1.268 2131.710
  337.000    0.325    0.324   35.699    1.292 2154.520
  337.250    0.234    0.342   33.250    1.341 2310.250
  337.500    0.258    0.350   54.581    1.418 2268.680
  337.750    0.269    0.336   63.716    1.527 2249.950
  338.000    0.247    0.337   77.731    1.676 2287.300
  338.250    0.263    0.333   83.206    1.805 2260.270
  338.500    0.313    0.321   72.832    1.945 2175.080
  338.750    0.320    0.320   55.750    1.981 2162.590
