~VERSION INFORMATION
 VERS.                 2.0:   CWLS LOG ASCII STANDARD -VERSION 2.0
 WRAP.                  NO:   ONE LINE PER DEPTH STEP
~WELL INFORMATION BLOCK
#MNEM.UNIT           DATA                    DESCRIPTION OF MNEMONIC
#---------    -------------------            -------------------------------
# Generated from Intellog Unique Number	CS_77_79/WELL/1008
WELL.         PCI PCEJ CHARD                 : Well_name    - WELL
LOC .         00/11-33-079-07W4/0            : Location     - LOCATION
UWI .         00/11-33-079-07W4/0            : Uwi          - UNIQUE WELL ID
ENTR.         JHS                            : Entered      - ENTERED BY
SRVC.         SCHLUMBERGER                   : Scn          - SERVICE COMPANY
STRT.M        140                            : top_depth    - START DEPTH
STOP.M        380                            : bot_depth    - STOP DEPTH
STEP.M        0.25                           : increment    - STEP LENGTH
 NULL. -999.2500:NULL Value
~CURVE INFORMATION BLOCK
#MNEM UNIT       ERCB CURVE CODE    CURVE DESCRIPTION
#-----------   ------------------   ----------------------------------
DEPT.M        00 001 00 00         : DEPTH        - DEPTH
DPHI.V/V      00 890 00 00         : PHID         - DENSITY POROSITY (LIMESTONE)
NPHI.V/V      00 330 00 00         : PHIN         - NEUTRON POROSITY (LIMESTONE)
GR  .API      00 310 00 00         : GR           - GAMMA RAY
ILD .OHMM     00 120 00 00         : RESD         - DEEP RESISTIVITY (DIL)
RHOB.KG/M3    00 350 00 00         : DENS         - BULK DENSITY
~PARAMETER INFORMATION
#MNEM.UNIT           DATA             DESCRIPTION OF MNEMONIC
#---------         -----------     ------------------------------
GL  .M        589.9                : gl           - GROUND LEVEL ELEVATION
EREF.M        593.55               : kb           - ELEVATION OF DEPTH REFERENCE
DATM.M        593.55               : datum        - DATUM ELEVATION
TDD .M        406                  : tdd          - TOTAL DEPTH DRILLER
RUN .         ONE                  : Run          - RUN NUMBER
ENG .         BILL                 : Engineer     - RECORDING ENGINEER
WIT .         JIM                  : Witness      - WITNESSED BY
MUD .         GEL                  : Mud_type     - MUD TYPE
MATR.         LIMESTONE            : Logunit      - NEUTRON MATRIX
TMAX.C        23                   : BHT          - MAXIMUM RECORDED TEMPERATURE
BHTD.M        406                  : BHTDEP       - MAXIMUM RECORDED TEMPERATURE
MATR.         1                    : LOGUNIT      - NEUTRON MATRIX
RMT .C        25                   : MDTP         - TEMPERATURE OF MUD
NEUT.         1                    : NEUTRON      - NEUTRON TYPE
RESI.         0                    : RESIST       - RESISTIVITY TYPE
RMC .OHMM     0.25                 : RMC          - RESISTIVITY OF MUD CAKE
RMF .OHMM     0.25                 : RMF          - RESISTIVITY OF MUD FILTRATE
SUFT.C        15                   : SUFT         - SURFACE TEMPERATURE
~A  DEPTH     PHID     PHIN       GR     RESD     DENS
# ...
  249.500    0.274    0.587   92.806    3.637    0.000
  249.750    0.281    0.588   92.208    3.638    0.000
  250.000    0.284    0.596   94.658    3.708    0.000
  250.250    0.286    0.610   94.060    3.851    0.000
  250.500    0.285    0.603   88.582    4.000    0.000
  250.750    0.269    0.584   90.424    3.926    0.000
  251.000    0.255    0.569   91.655    3.853    0.000
  251.250    0.264    0.586   90.446    3.781    0.000
  251.500    0.280    0.598   92.897    3.782    0.000
  251.750    0.289    0.596   93.520    3.854    0.000
  252.000    0.296    0.607   92.309    4.003    0.000
  252.250    0.310    0.610   91.102    4.318    0.000
  252.500    0.318    0.596   88.673    4.570    0.000
  252.750    0.321    0.547   85.637    4.746    0.000
  253.000    0.336    0.531   81.990    4.571    0.000
  253.250    0.363    0.589   80.170    4.403    0.000
  253.500    0.374    0.601   80.186    4.083    0.000
  253.750    0.360    0.564   82.633    3.716    0.000
  254.000    0.317    0.570   87.522    3.579    0.000
  254.250    0.289    0.590   91.192    3.447    0.000
  254.500    0.283    0.580   94.254    3.447    0.000
  254.750    0.290    0.590   94.875    3.448    0.000
  255.000    0.309    0.574   93.668    3.514    0.000
  255.250    0.325    0.566   91.849    3.650    0.000
  255.500    0.348    0.575   90.030    3.936    0.000
  255.750    0.369    0.600   82.725    4.327    0.000
  256.000    0.374    0.609   79.077    4.939    0.000
  256.250    0.365    0.580   79.698    5.531    0.000
  256.500    0.306    0.517   74.221    6.314    0.000
  256.750    0.275    0.512   69.964    7.484    0.000
  257.000    0.273    0.512   70.586    8.226    0.000
  257.250    0.291    0.502   70.597    8.383    0.000
  257.500    0.310    0.483   69.389    8.545    0.000
  257.750    0.323    0.474   68.793    8.386    0.000
  258.000    0.353    0.512   70.636    7.925    0.000
  258.250    0.374    0.491   70.033    7.633    0.000
  258.500    0.331    0.456   68.826    7.491    0.000
  258.750    0.322    0.472   67.010    7.929    0.000
  259.000    0.414    0.575   66.413    8.552    0.000
  259.250    0.459    0.584   67.638    9.947    0.000
  259.500    0.364    0.517   70.090   11.142    0.000
  259.750    0.317    0.487   70.710   12.480    0.000
  260.000    0.314    0.478   70.722   12.962    0.000
  260.250    0.317    0.468   72.565   12.964    0.000
  260.500    0.302    0.460   71.356   12.485    0.000
  260.750    0.297    0.478   68.927   12.025    0.000
  261.000    0.300    0.491   66.500   11.802    0.000
  261.250    0.307    0.481   64.073   11.803    0.000
  261.500    0.313    0.469   64.692   11.805    0.000
  261.750    0.313    0.469   66.537   12.032    0.000
  262.000    0.304    0.471   67.155   12.033    0.000
  262.250    0.295    0.464   67.776   12.035    0.000
  262.500    0.288    0.464   65.959   12.266    0.000
  262.750    0.292    0.455   64.751   12.268    0.000
  263.000    0.290    0.447   67.204   12.040    0.000
  263.250    0.296    0.459   68.430   11.817    0.000
  263.500    0.301    0.490   69.663   11.381    0.000
  263.750    0.297    0.481   69.674   11.169    0.000
  264.000    0.287    0.490   69.079   10.758    0.000
  264.250    0.291    0.483   68.480   10.167    0.000
  264.500    0.298    0.454   70.317    9.792    0.000
  264.750    0.291    0.446   73.378    9.430    0.000
  265.000    0.287    0.449   71.560    9.083    0.000
  265.250    0.308    0.464   67.912    8.747    0.000
  265.500    0.426    0.494   64.876    8.267    0.000
  265.750    0.530    0.532   67.328    7.962    0.000
  266.000    0.515    0.513   69.166    7.525    0.000
  266.250    0.494    0.500   65.519    7.111    0.000
  266.500    0.527    0.516   61.261    6.849    0.000
  266.750    0.574    0.570   65.544    6.596    0.000
  267.000    0.535    0.565   66.773    6.234    0.000
  267.250    0.474    0.563   69.225    6.004    0.000
  267.500    0.425    0.571   72.284    5.893    0.000
  267.750    0.402    0.558   75.345    5.893    0.000
  268.000    0.403    0.555   71.700    6.007    0.000
  268.250    0.427    0.577   68.659    6.008    0.000
  268.500    0.453    0.588   70.502    5.786    0.000
  268.750    0.468    0.563   72.953    5.366    0.000
  269.000    0.419    0.553   76.620    4.792    0.000
  269.250    0.381    0.545   82.730    4.280    0.000
  269.500    0.363    0.550   86.399    3.750    0.000
  269.750    0.360    0.604   89.460    3.413    0.000
  270.000    0.369    0.612   88.865    3.048    0.000
  270.250    0.382    0.596   87.655    3.049    0.000
  270.500    0.371    0.582   87.668    3.166    0.000
  270.750    0.343    0.571   84.629    3.683    0.000
  271.000    0.333    0.603   80.980    4.620    0.000
  271.250    0.386    0.614   74.893    5.795    0.000
  271.500    0.372    0.592   66.978    6.869    0.000
  271.750    0.351    0.480   62.720    7.550    0.000
  272.000    0.340    0.462   65.783    8.298    0.000
  272.250    0.328    0.499   70.062    8.784    0.000
  272.500    0.322    0.513   73.732    8.785    0.000
  272.750    0.335    0.505   74.353    8.953    0.000
  273.000    0.273    0.540   72.534    9.657    0.000
  273.250    0.133    0.306   64.010   10.221    0.000
  273.500    0.070    0.290   59.143   10.222    0.000
  273.750    0.144    0.352   63.422   10.033    0.000
  274.000    0.221    0.409   76.849    9.662    0.000
  274.250    0.284    0.480   80.520    8.468    0.000
  274.500    0.292    0.474   76.263    7.853    0.000
  274.750    0.277    0.465   78.103    7.422    0.000
  275.000    0.269    0.546   83.602    7.014    0.000
  275.250    0.276    0.534   89.103    6.755    0.000
  275.500    0.291    0.523   87.897    6.757    0.000
  275.750    0.287    0.515   87.907    6.886    0.000
  276.000    0.290    0.498   89.748    6.759    0.000
  276.250    0.291    0.481   88.537    6.759    0.000
  276.500    0.294    0.481   84.280    6.269    0.000
  276.750    0.308    0.529   84.902    5.814    0.000
  277.000    0.314    0.540   81.864    5.000    0.000
  277.250    0.329    0.552   80.661    4.219    0.000
  277.500    0.374    0.601   83.106    3.561    0.000
  277.750    0.417    0.622   89.218    2.894    0.000
  278.000    0.414    0.632   89.838    2.584    0.000
  278.250    0.391    0.635   87.411    2.397    0.000
  278.500    0.373    0.634   86.204    2.352    0.000
  278.750    0.429    0.625   86.215    2.397    0.000
  279.000    0.435    0.616   84.396    2.537    0.000
  279.250    0.406    0.605   83.798    2.789    0.000
  279.500    0.380    0.596   82.589    3.008    0.000
  279.750    0.346    0.585   77.721    3.306    0.000
  280.000    0.327    0.555   80.171    3.919    0.000
  280.250    0.327    0.543   78.965    4.390    0.000
  280.500    0.353    0.560   75.316    4.917    0.000
  280.750    0.366    0.548   78.989    5.303    0.000
  281.000    0.333    0.525   82.046    6.168    0.000
  281.250    0.315    0.512   79.009    7.041    0.000
  281.500    0.306    0.494   75.971    7.738    0.000
  281.750    0.315    0.462   79.646    8.505    0.000
  282.000    0.337    0.425   82.702    9.348    0.000
  282.250    0.355    0.394   85.763    9.894    0.000
  282.500    0.369    0.382   77.846    9.711    0.000
  282.750    0.359    0.416   74.810    9.353    0.000
  283.000    0.328    0.480   79.089    8.512    0.000
  283.250    0.306    0.496   77.883    7.602    0.000
  283.500    0.300    0.506   78.502    7.460    0.000
  283.750    0.303    0.519   82.174    7.322    0.000
  284.000    0.300    0.519   84.012    7.462    0.000
  284.250    0.289    0.511   84.024    7.606    0.000
  284.500    0.281    0.483   83.426    7.899    0.000
  284.750    0.284    0.460   82.831    7.753    0.000
  285.000    0.281    0.475   82.232    7.902    0.000
  285.250    0.273    0.484   82.240    8.054    0.000
  285.500    0.271    0.459   82.255    8.055    0.000
  285.750    0.279    0.451   85.314    8.056    0.000
