~VERSION INFORMATION
 VERS.                 2.0:   CWLS LOG ASCII STANDARD -VERSION 2.0
 WRAP.                  NO:   ONE LINE PER DEPTH STEP
~WELL INFORMATION BLOCK
#MNEM.UNIT           DATA                    DESCRIPTION OF MNEMONIC
#---------    -------------------            -------------------------------
# Generated from Intellog Unique Number	CW_70_72/WELL/1045
NULL.         -999.25                        : NULL_VALUE
WELL.         SUNDANCE MCMORGAN SMITH 10-31  : Well_name    - WELL              
LOC .         10-31-072-24W4                 : Location     - LOCATION          
UWI .         00/10-31-072-24W4/0            : Uwi          - UNIQUE WELL ID    
ENTR.         JAYE                           : Entered      - ENTERED BY        
SRVC.         SCHLUMBERGER                   : Scn          - SERVICE COMPANY   
DATE.         20 JAN 74                      : Date         - LOG DATE          
STRT.M        399.288                        : top_depth    - START DEPTH       
STOP.M        655.288                        : bot_depth    - STOP DEPTH        
STEP.M        0.25                           : increment    - STEP LENGTH       
~CURVE INFORMATION BLOCK
#MNEM UNIT       ERCB CURVE CODE    CURVE DESCRIPTION
#-----------   ------------------   ----------------------------------
DEPT.M        00 001 00 00         : DEPTH        - DEPTH                       
CALI.MM       00 280 01 00         : CAL          - CALIPER                     
GR  .API      00 310 00 00         : GR           - GAMMA RAY                   
DPHI.V/V      00 890 00 00         : PHID         - DENSITY POROSITY (SANDSTONE)
NPHI.V/V      00 330 00 00         : PHIN         - NEUTRON POROSITY (SANDSTONE)
ILD .OHMM     00 120 00 00         : RESD         - DEEP RESISTIVITY (DIL)      
~PARAMETER INFORMATION       
#MNEM.UNIT           DATA             DESCRIPTION OF MNEMONIC
#---------         -----------     ------------------------------
GL  .M        648.767              : gl           - GROUND LEVEL ELEVATION      
EREF.M        651.815              : kb           - ELEVATION OF DEPTH REFERENCE
DATM.M        648.767              : datum        - DATUM ELEVATION             
TDD .M        664.464              : tdd          - TOTAL DEPTH DRILLER         
RUN .         ONE                  : Run          - RUN NUMBER                  
ENG .         WOON                 : Engineer     - RECORDING ENGINEER          
WIT .         TIEFENBACH           : Witness      - WITNESSED BY                
BASE.         EDM                  : Branch       - HOME BASE OF LOGGING UNIT   
MUD .         GEL CHEM             : Mud_type     - MUD TYPE                    
MATR.         SANDSTONE            : Logunit      - NEUTRON MATRIX              
TMAX.C        30                   : BHT          - MAXIMUM RECORDED TEMPERATURE
BHTD.M        663.55               : BHTDEP       - MAXIMUM RECORDED TEMPERATURE
RMT .C        15.5556              : MDTP         - TEMPERATURE OF MUD          
MUDD.KG/M     1080                 : MWT          - MUD DENSITY                 
NEUT.         1                    : NEUTRON      - NEUTRON TYPE                
RESI.         0                    : RESIST       - RESISTIVITY TYPE            
RM  .OHMM     5.63                 : RM           - RESISTIVITY OF MUD          
RMC .OHMM     0                    : RMC          - RESISTIVITY OF MUD CAKE     
RMF .OHMM     6.8                  : RMF          - RESISTIVITY OF MUD FILTRATE 
SUFT.C        -17.7778             : SUFT         - SURFACE TEMPERATURE         
~A  DEPTH      CAL       GR     PHID     PHIN     RESD
# ...
  545.288  167.305   85.456    0.127    0.270    8.062
  545.538  167.052   87.617    0.092    0.301    8.449
  545.788  167.218   87.589    0.041    0.327    9.219
  546.038  167.478   83.248   -0.010    0.312   10.530
  546.288  167.948   77.689    0.032    0.335   12.316
  546.538  168.109   73.526    0.060    0.346   14.145
  546.788  168.157   68.937    0.084    0.369   15.349
  547.038  168.215   66.239    0.067    0.399   16.413
  547.288  168.480   64.449    0.095    0.416   17.746
  547.538  168.642   69.466    0.125    0.414   15.266
  547.788  168.703   71.142    0.160    0.369   13.718
  548.038  168.768   68.076    0.152    0.317   11.500
  548.288  169.236   67.867    0.147    0.309   10.242
  548.538  169.805   70.939    0.126    0.372    9.867
  548.788  170.279   74.560    0.086    0.421   10.439
  549.038  170.743   79.458    0.070    0.454   11.472
  549.288  170.702   80.283    0.123    0.459   12.982
  549.538  168.392   75.028    0.138    0.453   13.732
  549.788  166.181   69.468    0.158    0.443   13.952
  550.038  165.930   66.097    0.138    0.433   12.654
  550.288  165.673   69.109    0.171    0.425   10.944
  550.538  164.912   77.654    0.167    0.444    9.728
  550.788  160.443   84.009    0.168    0.442    8.600
  551.038  162.044   85.323    0.160    0.415    7.843
  551.288  164.675   85.235    0.141    0.392    7.530
  551.538  166.787   86.061    0.138    0.397    7.510
  551.788  167.462   89.314    0.132    0.409    7.758
  552.038  166.075   89.776    0.163    0.417    8.070
  552.288  164.899   86.468    0.178    0.422    8.411
  552.538  163.929   85.224    0.159    0.428    8.768
  552.788  163.572   85.134    0.161    0.430    8.907
  553.038  163.326   85.839    0.140    0.424    8.645
  553.288  162.972   89.397    0.182    0.418    8.345
  553.538  162.614   89.797    0.178    0.410    8.188
  553.788  162.358   90.193    0.172    0.398    8.198
  554.038  162.313   91.932    0.170    0.401    8.374
  554.288  162.269   92.088    0.163    0.411    8.540
  554.538  162.126   86.040    0.158    0.393    8.644
  554.788  161.873   82.064    0.149    0.366    8.670
  555.038  161.827   83.311    0.160    0.321    8.696
  555.288  161.884   84.925    0.152    0.249    8.722
  555.538  161.836   85.264    0.128    0.240    8.946
  555.788  162.002   82.138    0.044    0.267    9.186
  556.038  163.189   76.941    0.011    0.299    9.987
  556.288  165.716   72.844   -0.018    0.294   11.199
  556.538  167.316   69.291   -0.011    0.280   13.390
  556.788  167.586   62.940    0.041    0.291   16.667
  557.038  167.744   56.773    0.043    0.330   20.522
  557.288  167.700   52.307    0.026    0.362   24.313
  557.538  166.214   54.286    0.015    0.395   28.233
  557.788  164.621   55.657    0.084    0.410   29.266
  558.038  164.368   55.445    0.110    0.410   24.225
  558.288  164.633   56.941    0.138    0.418   18.842
  558.538  165.921   63.297    0.150    0.425   15.509
  558.788  166.704   75.489    0.170    0.419   13.074
  559.038  166.969   83.063    0.181    0.411   10.899
  559.288  165.893   88.145    0.179    0.408    8.619
  559.538  164.200   91.945    0.160    0.416    7.619
  559.788  164.773   95.203    0.153    0.427    7.051
  560.038  168.329   97.426    0.143    0.436    6.719
  560.288  169.212   98.614    0.114    0.440    6.545
  560.538  169.473   97.676    0.112    0.421    6.553
  560.788  169.224   96.069    0.145    0.407    6.658
  561.038  168.763   94.643    0.157    0.410    6.788
  561.288  168.714   94.435    0.143    0.418    6.973
  561.538  169.088   95.013    0.117    0.408    7.228
  561.788  169.335   95.901    0.095    0.399    7.385
  562.038  169.088   97.879    0.138    0.402    7.475
  562.288  168.728   97.611    0.136    0.412    7.497
  562.538  168.587   97.096    0.112    0.408    7.533
  562.788  168.552   97.374    0.116    0.401    7.810
  563.038  168.400   98.985    0.132    0.391    8.081
  563.288  168.453  100.178    0.153    0.381    8.499
  563.538  168.298  100.759    0.128    0.368    9.240
  563.788  168.263   98.848    0.102    0.386    9.953
  564.038  168.324   96.510    0.090    0.418   10.702
  564.288  168.580   94.355    0.105    0.427   11.614
  564.538  168.639   90.013    0.145    0.411   12.443
  564.788  168.902   81.415    0.161    0.390   13.136
  565.038  169.683   73.727    0.172    0.376   14.050
  565.288  169.844   76.252    0.194    0.363   14.429
  565.538  170.108   79.081    0.189    0.376   14.367
  565.788  168.516   82.884    0.149    0.368   14.150
  566.038  166.509   85.410    0.119    0.325   14.322
  566.288  165.748   86.965    0.070    0.288   14.793
  566.538  164.266   87.726    0.031    0.368   15.306
  566.788  162.875   87.884    0.003    0.410   15.751
  567.038  162.629   84.879    0.056    0.434   15.918
  567.288  164.024   77.983    0.103    0.426   14.755
  567.538  164.485   71.512    0.135    0.393   13.286
  567.788  167.124   64.251    0.145    0.379   11.767
  568.038  166.869   69.814    0.141    0.396   10.253
  568.288  164.356   76.841    0.130    0.418    9.331
  568.538  163.994   82.771    0.096    0.415    8.176
  568.788  164.670   87.727    0.133    0.413    7.498
  569.038  165.140   87.945    0.150    0.418    7.289
  569.288  165.405   84.516    0.129    0.415    7.231
  569.538  165.261   84.185    0.134    0.410    7.212
  569.788  165.113   87.560    0.113    0.412    7.039
  570.038  165.269   86.257    0.122    0.396    6.586
  570.288  165.330   86.901    0.143    0.367    5.623
  570.538  164.972   90.764    0.140    0.397    4.099
  570.788  164.932   89.158    0.118    0.401    4.206
  571.038  164.773   85.118    0.113    0.397    4.432
  571.288  164.523   81.440    0.127    0.390    4.749
  571.538  164.384   79.835    0.139    0.399    5.059
  571.788  164.235   82.421    0.132    0.414    5.684
  572.038  165.012   85.129    0.103    0.392    6.421
  572.288  166.923   87.231    0.084    0.396    7.149
  572.538  169.545   89.758    0.143    0.404    7.617
  572.788  170.639   91.981    0.133    0.408    5.357
  573.038  171.519   92.987    0.128    0.397    5.096
  573.288  172.403   93.387    0.122    0.385    5.694
  573.538  171.638   93.846    0.114    0.382    6.551
  573.788  168.088   94.609    0.129    0.381    7.214
  574.038  165.368   94.765    0.120    0.366    7.157
  574.288  166.957   91.636    0.101    0.347    5.212
  574.538  168.263   90.151    0.106    0.348    5.624
  574.788  169.351   86.113    0.089    0.356    6.003
  575.038  168.892   85.113    0.072    0.369    6.443
  575.288  168.330   89.217    0.040    0.380    7.006
  575.538  167.768   89.983    0.058    0.380    7.436
  575.788  166.904   90.929    0.079    0.377    7.736
  576.038  164.902   90.841    0.077    0.375    7.932
  576.288  164.235   93.002    0.115    0.374    7.956
  576.538  166.449   93.948    0.141    0.371    7.951
  576.788  167.541   90.276    0.152    0.378    8.035
  577.038  167.085   84.472    0.162    0.404    8.118
  577.288  166.625   84.384    0.157    0.487    8.112
  577.538  166.273   88.004    0.138    0.512    7.844
  577.788  166.538   83.600    0.126    0.497    7.434
  578.038  169.064   85.394    0.132    0.477    6.905
  578.288  174.682   88.225    0.160    0.492    5.663
  578.538  170.932   91.057    0.161    0.515    4.357
  578.788  165.123   94.253    0.153    0.487    3.775
  579.038  164.664   99.515    0.143    0.435    3.205
  579.288  164.098  105.266    0.115    0.370    2.658
  579.538  163.847  110.101    0.086    0.367    2.459
  579.788  163.287  111.534    0.059    0.383    2.554
  580.038  163.239  112.359    0.037    0.388    2.736
  580.288  163.918  113.670    0.037    0.400    3.114
  580.538  165.105  112.181    0.108    0.416    3.442
  580.788  166.197  105.282    0.093    0.430    3.889
  581.038  167.488  100.092    0.079    0.414    4.227
  581.288  168.269   94.593    0.088    0.404    4.537
  581.538  168.632   97.666    0.133    0.394    4.808
