~VERSION INFORMATION
 VERS.                 2.0:   CWLS LOG ASCII STANDARD -VERSION 2.0
 WRAP.                  NO:   ONE LINE PER DEPTH STEP
~WELL INFORMATION BLOCK
#MNEM.UNIT           DATA                    DESCRIPTION OF MNEMONIC
#---------    -------------------            -------------------------------
# Generated from Intellog Unique Number	CW_70_72/WELL/1037
NULL.         -999.25                        : NULL_VALUE
WELL.         SULPETRO SMITH 10-15           : Well_name    - WELL              
LOC .         10-15-071-26W4                 : Location     - LOCATION          
UWI .         00/10-15-071-26W4/0            : Uwi          - UNIQUE WELL ID    
ENTR.         JAYE                           : Entered      - ENTERED BY        
SRVC.         SCHLUMBERGER                   : Scn          - SERVICE COMPANY   
DATE.         24 FEB 72                      : Date         - LOG DATE          
STRT.M        426.11                         : top_depth    - START DEPTH       
STOP.M        685.86                         : bot_depth    - STOP DEPTH        
STEP.M        0.25                           : increment    - STEP LENGTH       
~CURVE INFORMATION BLOCK
#MNEM UNIT       ERCB CURVE CODE    CURVE DESCRIPTION
#-----------   ------------------   ----------------------------------
DEPT.M        00 001 00 00         : DEPTH        - DEPTH                       
DPHI.V/V      00 890 00 00         : PHID         - DENSITY POROSITY (SANDSTONE)
NPHI.V/V      00 330 00 00         : PHIN         - NEUTRON POROSITY (SANDSTONE)
GR  .API      00 310 00 00         : GR           - GAMMA RAY                   
CALI.MM       00 280 01 00         : CAL          - CALIPER                     
ILD .OHMM     00 120 00 00         : RESD         - DEEP RESISTIVITY (DIL)      
~PARAMETER INFORMATION       
#MNEM.UNIT           DATA             DESCRIPTION OF MNEMONIC
#---------         -----------     ------------------------------
GL  .M        617.22               : gl           - GROUND LEVEL ELEVATION      
EREF.M        620.573              : kb           - ELEVATION OF DEPTH REFERENCE
DATM.M        617.22               : datum        - DATUM ELEVATION             
TDD .M        701.04               : tdd          - TOTAL DEPTH DRILLER         
RUN .         ONE                  : Run          - RUN NUMBER                  
ENG .         ASHTON               : Engineer     - RECORDING ENGINEER          
WIT .         DRUMMOND             : Witness      - WITNESSED BY                
BASE.         LLOYD                : Branch       - HOME BASE OF LOGGING UNIT   
MUD .         CHEM GEL             : Mud_type     - MUD TYPE                    
MATR.         SANDSTONE            : Logunit      - NEUTRON MATRIX              
TMAX.C        26.6667              : BHT          - MAXIMUM RECORDED TEMPERATURE
BHTD.M        701.04               : BHTDEP       - MAXIMUM RECORDED TEMPERATURE
RMT .C        15.5556              : MDTP         - TEMPERATURE OF MUD          
MUDD.KG/M     1224                 : MWT          - MUD DENSITY                 
NEUT.         1                    : NEUTRON      - NEUTRON TYPE                
RESI.         0                    : RESIST       - RESISTIVITY TYPE            
RM  .OHMM     3.04                 : RM           - RESISTIVITY OF MUD          
RMC .OHMM     2.3                  : RMC          - RESISTIVITY OF MUD CAKE     
RMF .OHMM     2.66                 : RMF          - RESISTIVITY OF MUD FILTRATE 
SUFT.C        0                    : SUFT         - SURFACE TEMPERATURE         
~A  DEPTH     PHID     PHIN       GR      CAL     RESD
# ...
  645.110    0.138    0.344  119.853  188.811    6.967
  645.360    0.149    0.350  110.342  188.850    7.564
  645.610    0.127    0.323  105.543  188.584    8.519
  645.860    0.118    0.292  101.353  188.204   10.317
  646.110    0.095    0.284   91.909  188.049   11.534
  646.360    0.102    0.300   75.986  188.103   12.529
  646.610    0.044    0.262   71.670  187.930   13.627
  646.860   -0.002    0.227   78.542  187.557   12.126
  647.110   -0.011    0.179   86.572  187.811   10.697
  647.360    0.022    0.240   93.930  187.858    9.402
  647.610    0.057    0.295  106.117  187.798    8.211
  647.860    0.133    0.326  107.489  187.746    8.013
  648.110    0.099    0.361   97.984  187.580    8.547
  648.360    0.077    0.267  102.284  187.524    8.930
  648.610    0.056    0.258  106.159  187.049    8.478
  648.860    0.079    0.280   99.955  186.675    8.606
  649.110    0.069    0.297   90.266  186.102    9.339
  649.360    0.055    0.296   89.497  185.940    9.475
  649.610    0.045    0.258  113.354  186.387    9.023
  649.860    0.090    0.306  129.204  187.580    7.761
  650.110    0.164    0.358  137.849  188.971    6.919
  650.360    0.161    0.387  130.848  190.358    5.633
  650.610    0.142    0.384  126.226  191.743    5.205
  650.860    0.132    0.413  120.510  192.310    5.405
  651.110    0.145    0.381  113.511  192.041    5.724
  651.360    0.117    0.366   97.833  190.323    6.186
  651.610    0.177    0.344   78.182  188.614    7.189
  651.860    0.232    0.319   76.250  183.270    7.818
  652.110    0.219    0.308   78.047  181.660    8.058
  652.360    0.196    0.301   80.154  180.571    7.685
  652.610    0.212    0.298   82.747  177.306    7.202
  652.860    0.220    0.306   85.642  173.826    6.774
  653.110    0.218    0.303   89.272  173.046    6.258
  653.360    0.215    0.294   93.456  174.023    5.862
  653.610    0.178    0.288  101.426  176.653    5.561
  653.860    0.190    0.281  111.780  180.005    5.348
  654.110    0.177    0.274  120.483  184.605    5.365
  654.360    0.161    0.264   99.367  187.542    5.453
  654.610    0.136    0.252   87.170  187.176    5.423
  654.860    0.160    0.295   75.647  184.627    5.018
  655.110    0.175    0.307   71.760  182.195    4.416
  655.360    0.174    0.293   72.705  181.096    3.956
  655.610    0.195    0.284   74.739  180.606    3.941
  655.860    0.174    0.270   76.297  180.562    4.173
  656.110    0.126    0.262   77.548  180.502    4.269
  656.360    0.175    0.277   78.983  180.656    4.032
  656.610    0.193    0.283   84.015  180.381    3.652
  656.860    0.218    0.292   86.793  179.916    3.295
  657.110    0.216    0.296   90.240  179.129    3.082
  657.360    0.201    0.293   94.421  177.409    3.107
  657.610    0.194    0.290   99.944  175.701    3.164
  657.860    0.182    0.290  105.475  174.289    3.292
  658.110    0.155    0.292  115.459  174.443    3.556
  658.360    0.127    0.296  126.607  177.076    3.986
  658.610    0.109    0.306  117.772  182.185    4.567
  658.860    0.090    0.331  105.515  186.577    5.181
  659.110    0.071    0.358  111.285  185.794    5.563
  659.360    0.131    0.353  115.710  185.117    5.231
  659.610    0.153    0.358  114.271  185.255    4.588
  659.860    0.155    0.339  117.962  185.204    4.232
  660.110    0.134    0.295  125.382  185.247    4.312
  660.360    0.122    0.278  128.955  185.805    4.862
  660.610    0.126    0.287  124.030  186.369    4.911
  660.860    0.119    0.297  114.279  186.725    4.507
  661.110    0.105    0.307   93.896  185.215    4.007
  661.360    0.100    0.314   79.865  182.050    3.611
  661.610    0.130    0.299   74.576  178.786    3.318
  661.860    0.121    0.267   74.297  176.140    3.454
  662.110    0.090    0.241   79.762  175.766    3.789
  662.360    0.071    0.216   94.026  177.883    4.411
  662.610    0.097    0.196   98.511  180.825    5.270
  662.860    0.114    0.218  100.429  180.034    5.351
  663.110    0.104    0.221  102.657  179.872    5.066
  663.360    0.071    0.220  105.618  180.851    5.123
  663.610    0.087    0.228  109.617  182.863    5.553
  663.860    0.103    0.239  118.258  185.698    5.705
  664.110    0.075    0.267  116.696  191.022    4.944
  664.360    0.059    0.336  101.385  189.720    4.182
  664.610    0.080    0.339   89.066  183.248    3.515
  664.860    0.074    0.278   93.245  180.083    3.310
  665.110    0.133    0.265   95.594  179.819    3.398
  665.360    0.155    0.252   96.842  181.514    3.606
  665.610    0.143    0.243  100.292  183.010    4.021
  665.860    0.113    0.236  105.941  184.087    4.300
  666.110    0.110    0.244  108.961  183.823    4.357
  666.360    0.133    0.255  106.784  180.452    4.350
  666.610    0.136    0.252  108.888  181.732    4.336
  666.860    0.107    0.254  114.110  185.503    4.281
  667.110    0.078    0.267  121.102  188.653    4.203
  667.360    0.085    0.285  129.254  189.624    4.013
  667.610    0.049    0.354  134.963  188.840    3.760
  667.860    0.055    0.387  134.500  188.465    3.420
  668.110    0.089    0.405  126.950  188.313    3.214
  668.360    0.095    0.350  127.829  188.253    3.279
  668.610    0.114    0.296  129.871  188.081    4.035
  668.860    0.106    0.326  127.820  188.239    4.569
  669.110    0.093    0.348  126.012  188.074    4.689
  669.360    0.116    0.347  123.838  188.112    4.651
  669.610    0.057    0.315  119.650  188.164    4.461
  669.860    0.023    0.339  116.070  188.092    4.065
  670.110   -0.058    0.410  130.762  188.038    3.637
  670.360    0.085    0.435  139.527  188.071    3.193
  670.610    0.109    0.427  142.242  188.127    3.194
  670.860    0.124    0.430  141.901  188.384    3.577
  671.110    0.122    0.428  142.111  188.523    3.912
  671.360    0.094    0.413  145.679  188.569    4.319
  671.610    0.099    0.382  147.047  188.715    4.534
  671.860    0.089    0.388  146.342  188.971    4.472
  672.110    0.096    0.425  148.325  189.010    4.131
  672.360    0.121    0.449  147.800  188.958    3.783
  672.610    0.088    0.451  140.065  188.997    3.681
  672.860    0.068    0.422  136.855  189.039    4.056
  673.110    0.079    0.380  137.914  189.091    4.128
  673.360    0.042    0.353  139.834  189.238    3.605
  673.610    0.012    0.375  141.878  189.589    3.121
  673.860    0.030    0.408  145.023  190.040    2.971
  674.110    0.038    0.446  146.575  190.302    3.171
  674.360    0.124    0.459  142.143  189.104    3.705
  674.610    0.062    0.459  133.733  187.797    3.372
  674.860    0.051    0.458  131.316  187.225    2.913
  675.110    0.022    0.456  135.862  187.057    2.604
  675.360   -0.007    0.451  140.718  187.104    2.629
  675.610    0.063    0.441  139.459  187.451    2.797
  675.860    0.052    0.410  142.054  187.601    3.140
  676.110    0.077    0.432  143.790  188.066    3.539
  676.360    0.103    0.423  140.515  188.409    3.063
  676.610    0.097    0.454  135.900  188.560    2.579
  676.860    0.045    0.455  138.308  188.813    2.493
  677.110    0.048    0.424  140.229  189.071    3.074
  677.360    0.086    0.417  141.110  189.114    4.141
  677.610    0.109    0.436  142.296  189.056    3.705
  677.860    0.105    0.451  139.818  188.478    2.482
  678.110    0.122    0.458  134.895  188.834    1.887
  678.360    0.096    0.457  133.880  189.391    2.071
  678.610    0.075    0.458  135.435  189.427    2.533
  678.860    0.091    0.459  135.399  189.379    2.956
  679.110    0.090    0.461  135.548  189.105    3.227
  679.360    0.070    0.462  133.985  188.532    3.300
  679.610    0.072    0.461  128.510  188.260    3.190
  679.860    0.112    0.459  115.156  187.683    3.032
  680.110    0.124    0.456  103.511  186.909    2.882
  680.360    0.104    0.441   71.152  185.814    2.788
  680.610    0.097    0.340   56.389  183.780    2.773
  680.860    0.067    0.279   55.438  180.208    2.933
  681.110    0.122    0.206   69.763  174.979    3.396
  681.360    0.165    0.247   90.932  172.743    3.945
