~VERSION INFORMATION
 VERS.                 2.0:   CWLS LOG ASCII STANDARD -VERSION 2.0
 WRAP.                  NO:   ONE LINE PER DEPTH STEP
~WELL INFORMATION BLOCK
#MNEM.UNIT           DATA                    DESCRIPTION OF MNEMONIC
#---------    -------------------            -------------------------------
# Generated from Intellog Unique Number	CW_70_72/WELL/3032
NULL.         -999.25                        : NULL_VALUE
WELL.         DECALTA ET AL SMITH 11-27      : Well_name    - WELL              
LOC .         11-27-070-01W5                 : Location     - LOCATION          
UWI .         00/11-27-070-01W5/0            : Uwi          - UNIQUE WELL ID    
ENTR.         JAYE                           : Entered      - ENTERED BY        
SRVC.         SCHLUMBERGER                   : Scn          - SERVICE COMPANY   
DATE.         7 FEB 78                       : Date         - LOG DATE          
STRT.M        384.048                        : top_depth    - START DEPTH       
STOP.M        634.048                        : bot_depth    - STOP DEPTH        
STEP.M        0.25                           : increment    - STEP LENGTH       
~CURVE INFORMATION BLOCK
#MNEM UNIT       ERCB CURVE CODE    CURVE DESCRIPTION
#-----------   ------------------   ----------------------------------
DEPT.M        00 001 00 00         : DEPTH        - DEPTH                       
ILD .OHMM     00 120 00 00         : RESD         - DEEP RESISTIVITY (DIL)      
CALI.MM       00 280 01 00         : CAL          - CALIPER                     
GR  .API      00 310 00 00         : GR           - GAMMA RAY                   
NPHI.V/V      00 330 00 00         : PHIN         - NEUTRON POROSITY (SANDSTONE)
DPHI.V/V      00 890 00 00         : PHID         - DENSITY POROSITY (SANDSTONE)
~PARAMETER INFORMATION       
#MNEM.UNIT           DATA             DESCRIPTION OF MNEMONIC
#---------         -----------     ------------------------------
GL  .M        559.918              : gl           - GROUND LEVEL ELEVATION      
EREF.M        562.966              : kb           - ELEVATION OF DEPTH REFERENCE
DATM.M        559.918              : datum        - DATUM ELEVATION             
TDD .M        642.214              : tdd          - TOTAL DEPTH DRILLER         
RUN .         ONE                  : Run          - RUN NUMBER                  
ENG .         GUNN                 : Engineer     - RECORDING ENGINEER          
WIT .         WALLGREN             : Witness      - WITNESSED BY                
BASE.         EDM                  : Branch       - HOME BASE OF LOGGING UNIT   
MUD .         GEL CHEM             : Mud_type     - MUD TYPE                    
MATR.         SANDSTONE            : Logunit      - NEUTRON MATRIX              
TMAX.C        -17.7778             : BHT          - MAXIMUM RECORDED TEMPERATURE
BHTD.M        641.604              : BHTDEP       - MAXIMUM RECORDED TEMPERATURE
RMT .C        15.5556              : MDTP         - TEMPERATURE OF MUD          
MUDD.KG/M     1152                 : MWT          - MUD DENSITY                 
NEUT.         1                    : NEUTRON      - NEUTRON TYPE                
RESI.         0                    : RESIST       - RESISTIVITY TYPE            
RM  .OHMM     2.61                 : RM           - RESISTIVITY OF MUD          
RMC .OHMM     0.25                 : RMC          - RESISTIVITY OF MUD CAKE     
RMF .OHMM     1.93                 : RMF          - RESISTIVITY OF MUD FILTRATE 
SUFT.C        -17.7778             : SUFT         - SURFACE TEMPERATURE         
~A  DEPTH     RESD      CAL       GR     PHIN     PHID
# ...
  530.048    2.177  157.565   77.604    0.451    0.262
  530.298    2.190  157.777   76.550    0.457    0.255
  530.548    2.207  157.778   77.047    0.461    0.280
  530.798    2.224  158.725   77.296    0.464    0.269
  531.048    2.254  158.412   75.250    0.449    0.269
  531.298    2.332  158.098   73.514    0.433    0.285
  531.548    2.386  157.995   73.019    0.454    0.289
  531.798    2.524  157.471   74.385    0.447    0.288
  532.048    2.611  156.632   75.006    0.429    0.284
  532.298    2.573  156.004   73.084    0.410    0.271
  532.548    2.485  155.060   72.154    0.416    0.261
  532.798    2.408  153.696   71.473    0.407    0.251
  533.048    2.378  151.597   71.474    0.398    0.254
  533.298    2.352  151.073   71.847    0.412    0.272
  533.548    2.353  151.285   72.654    0.423    0.282
  533.798    2.358  152.127   74.702    0.420    0.302
  534.048    2.372  153.809   77.619    0.425    0.294
  534.298    2.382  154.966   76.813    0.438    0.265
  534.548    2.401  156.018   73.961    0.448    0.265
  534.798    2.442  156.860   73.031    0.433    0.278
  535.048    2.493  157.177   72.040    0.431    0.275
  535.298    2.584  157.494   71.048    0.435    0.257
  535.548    2.684  157.495   69.560    0.434    0.273
  535.798    2.855  157.182   68.382    0.433    0.259
  536.048    2.915  156.868   67.515    0.440    0.243
  536.298    3.032  156.660   66.957    0.447    0.255
  536.548    3.154  156.241   66.400    0.440    0.249
  536.798    3.426  155.928   65.967    0.427    0.239
  537.048    3.485  155.614   65.968    0.413    0.229
  537.298    3.659  155.301   67.334    0.421    0.223
  537.548    3.341  155.408   67.769    0.424    0.233
  537.798    4.133  155.619   65.909    0.425    0.230
  538.048    4.430  155.831   66.840    0.415    0.216
  538.298    4.625  155.832   68.330    0.400    0.236
  538.548    4.375  156.884   65.849    0.381    0.232
  538.798    3.113  157.832   66.285    0.356    0.202
  539.048    3.016  157.833   69.450    0.358    0.176
  539.298    2.733  157.204   73.421    0.380    0.166
  539.548    2.404  155.420   76.337    0.402    0.236
  539.798    2.257  155.002   78.013    0.437    0.246
  540.048    2.254  154.688   79.503    0.427    0.249
  540.298    2.345  154.480   77.270    0.410    0.257
  540.548    2.458  154.376   77.272    0.425    0.267
  540.798    2.445  153.957   79.195    0.435    0.269
  541.048    2.396  153.749   79.941    0.441    0.243
  541.298    2.396  153.856   79.322    0.446    0.241
  541.548    2.371  153.962   77.896    0.452    0.250
  541.798    2.430  153.334   76.408    0.445    0.259
  542.048    2.609  152.705   78.270    0.434    0.279
  542.298    2.760  153.232   80.814    0.435    0.274
  542.548    2.909  153.759   82.986    0.430    0.257
  542.798    2.938  155.967   81.871    0.439    0.249
  543.048    2.933  156.493   80.507    0.450    0.254
  543.298    2.940  156.600   80.756    0.445    0.263
  543.548    2.935  154.606   84.355    0.431    0.274
  543.798    2.925  149.355   87.210    0.438    0.260
  544.048    2.916  145.260   87.831    0.451    0.235
  544.298    2.900  142.740   84.792    0.449    0.215
  544.548    2.880  141.796   80.388    0.455    0.227
  544.798    2.870  146.735   82.375    0.467    0.239
  545.048    2.914  150.203   84.609    0.455    0.240
  545.298    3.060  154.197   85.726    0.433    0.225
  545.548    3.634  158.190   84.859    0.417    0.210
  545.798    3.997  158.507   82.254    0.396    0.191
  546.048    4.590  158.193   80.642    0.376    0.178
  546.298    4.590  157.880   81.760    0.365    0.166
  546.548    6.088  159.457   83.064    0.353    0.152
  546.798    6.320  162.400   83.251    0.357    0.136
  547.048    6.736  164.083   81.949    0.352    0.126
  547.298    6.601  165.240   82.694    0.343    0.106
  547.548    5.861  165.451   83.688    0.327    0.095
  547.798    5.023  164.087   85.302    0.325    0.105
  548.048    4.257  161.462   89.211    0.332    0.120
  548.298    3.765  157.682   93.926    0.356    0.158
  548.548    3.615  155.478   97.277    0.371    0.194
  548.798    3.768  155.165   99.139    0.390    0.166
  549.048    3.876  155.166  101.311    0.389    0.181
  549.298    3.885  155.168  105.159    0.388    0.189
  549.548    3.886  155.169  110.743    0.386    0.189
  549.798    3.917  155.907  114.342    0.382    0.152
  550.048    4.029  156.748  111.737    0.379    0.133
  550.298    4.541  158.536  108.698    0.387    0.172
  550.548    5.128  160.323  104.233    0.390    0.186
  550.798    6.835  161.691   97.782    0.376    0.150
  551.048    7.864  162.532   85.748    0.356    0.138
  551.298    8.135  163.270   79.856    0.367    0.128
  551.548    7.696  163.796   74.088    0.381    0.107
  551.798    7.375  164.638   81.098    0.350    0.065
  552.048    6.646  164.955   94.251    0.317    0.036
  552.298    6.217  165.272  101.882    0.313    0.073
  552.548    5.794  165.483  109.762    0.371    0.116
  552.798    5.573  164.960  111.686    0.378    0.134
  553.048    5.670  164.646  109.329    0.375    0.139
  553.298    5.811  164.648  104.057    0.386    0.151
  553.548    5.944  165.700  101.453    0.392    0.128
  553.798    6.230  167.277   99.344    0.393    0.113
  554.048    5.982  168.644   96.678    0.389    0.121
  554.298    5.462  168.961   98.168    0.372    0.131
  554.548    5.294  168.648  102.821    0.357    0.136
  554.798    5.684  168.649  104.559    0.358    0.087
  555.048    6.371  167.916  100.404    0.390    0.122
  555.298    7.168  167.602   95.876    0.386    0.122
  555.548    7.624  167.185   94.326    0.358    0.115
  555.798    8.096  167.080   92.714    0.338    0.087
  556.048    7.242  166.977   88.187    0.323    0.064
  556.298    5.935  166.768   89.925    0.322    0.047
  556.548    5.338  166.560   93.089    0.344    0.101
  556.798    4.874  166.036   99.046    0.361    0.091
  557.048    4.637  165.722  103.265    0.387    0.099
  557.298    4.493  164.884  106.740    0.391    0.128
  557.548    4.420  164.255  108.602    0.390    0.160
  557.798    4.430  164.572  108.603    0.388    0.145
  558.048    4.490  164.573  107.673    0.389    0.144
  558.298    4.619  164.891  108.605    0.400    0.153
  558.548    5.016  165.417  110.157    0.411    0.163
  558.798    5.497  165.734  110.592    0.393    0.133
  559.048    6.070  165.734  108.298    0.381    0.133
  559.298    6.579  165.527  105.259    0.367    0.128
  559.548    6.844  165.423  100.669    0.357    0.104
  559.798    6.859  165.423   96.017    0.368    0.072
  560.048    6.722  164.376   93.103    0.361    0.051
  560.298    6.253  163.433   97.384    0.332    0.039
  560.548    5.688  162.383  103.527    0.321    0.074
  560.798    5.291  160.284  108.614    0.336    0.096
  561.048    5.215  159.130  113.020    0.352    0.127
  561.298    5.226  158.081  116.122    0.390    0.147
  561.548    5.297  155.982  110.788    0.387    0.127
  561.798    5.339  154.513  107.253    0.373    0.121
  562.048    5.311  156.405  103.532    0.363    0.130
  562.298    5.273  161.240  108.062    0.356    0.104
  562.548    5.275  162.607  107.939    0.354    0.092
  562.798    5.296  163.028  107.319    0.355    0.155
  563.048    5.308  163.450  110.856    0.361    0.148
  563.298    5.300  163.872  115.944    0.372    0.128
  563.548    5.312  163.979  121.714    0.378    0.114
  563.798    5.394  163.980  128.911    0.387    0.120
  564.048    5.436  164.192  130.525    0.398    0.134
  564.298    5.417  163.984  114.397    0.410    0.133
  564.548    5.030  163.880  103.852    0.365    0.136
  564.798    4.008  163.147  105.590    0.354    0.133
  565.048    3.083  163.253  109.127    0.343    0.118
  565.298    2.613  163.990  114.215    0.368    0.136
  565.548    2.231  165.672  117.565    0.408    0.152
  565.798    2.029  167.250  119.242    0.486    0.170
  566.048    1.888  170.297  119.552    0.504    0.201
  566.298    1.850  174.711  123.958    0.480    0.176
