~VERSION INFORMATION
 VERS.                 2.0:   CWLS LOG ASCII STANDARD -VERSION 2.0
 WRAP.                  NO:   ONE LINE PER DEPTH STEP
~WELL INFORMATION BLOCK
#MNEM.UNIT           DATA                    DESCRIPTION OF MNEMONIC
#---------    -------------------            -------------------------------
# Generated from Intellog Unique Number	CW_70_72/WELL/1030
WELL.         SUNDANCE ET AL CALL 10-01      : Well_name    - WELL              
NULL.         -999.25                        : NULL_VALUE
LOC .         10-01-072-23W4                 : Location     - LOCATION          
UWI .         00/10-01-072-23W4/0            : Uwi          - UNIQUE WELL ID    
ENTR.         JAYE                           : Entered      - ENTERED BY        
SRVC.         SCHLUMBERGER                   : Scn          - SERVICE COMPANY   
DATE.         15 FEB 77                      : Date         - LOG DATE          
STRT.M        399.288                        : top_depth    - START DEPTH       
STOP.M        624.788                        : bot_depth    - STOP DEPTH        
STEP.M        0.25                           : increment    - STEP LENGTH       
~CURVE INFORMATION BLOCK
#MNEM UNIT       ERCB CURVE CODE    CURVE DESCRIPTION
#-----------   ------------------   ----------------------------------
DEPT.M        00 001 00 00         : DEPTH        - DEPTH                       
DPHI.V/V      00 890 00 00         : PHID         - DENSITY POROSITY (SANDSTONE)
NPHI.V/V      00 330 00 00         : PHIN         - NEUTRON POROSITY (SANDSTONE)
GR  .API      00 310 00 00         : GR           - GAMMA RAY                   
CALI.MM       00 280 01 00         : CAL          - CALIPER                     
ILD .OHMM     00 120 00 00         : RESD         - DEEP RESISTIVITY (DIL)      
~PARAMETER INFORMATION       
#MNEM.UNIT           DATA             DESCRIPTION OF MNEMONIC
#---------         -----------     ------------------------------
GL  .M        641.452              : gl           - GROUND LEVEL ELEVATION      
EREF.M        645.262              : kb           - ELEVATION OF DEPTH REFERENCE
DATM.M        641.452              : datum        - DATUM ELEVATION             
TDD .M        640.08               : tdd          - TOTAL DEPTH DRILLER         
RUN .         ONE                  : Run          - RUN NUMBER                  
ENG .         PIMM                 : Engineer     - RECORDING ENGINEER          
WIT .         CHRISTERSEN          : Witness      - WITNESSED BY                
BASE.         EDM                  : Branch       - HOME BASE OF LOGGING UNIT   
MUD .         GEL                  : Mud_type     - MUD TYPE                    
MATR.         SANDSTONE            : Logunit      - NEUTRON MATRIX              
TMAX.C        31.6667              : BHT          - MAXIMUM RECORDED TEMPERATURE
BHTD.M        639.775              : BHTDEP       - MAXIMUM RECORDED TEMPERATURE
RMT .C        13.3333              : MDTP         - TEMPERATURE OF MUD          
MUDD.KG/M     1104                 : MWT          - MUD DENSITY                 
NEUT.         1                    : NEUTRON      - NEUTRON TYPE                
RESI.         0                    : RESIST       - RESISTIVITY TYPE            
RM  .OHMM     5.52                 : RM           - RESISTIVITY OF MUD          
RMC .OHMM     0                    : RMC          - RESISTIVITY OF MUD CAKE     
RMF .OHMM     5.54                 : RMF          - RESISTIVITY OF MUD FILTRATE 
SUFT.C        0                    : SUFT         - SURFACE TEMPERATURE         
~A  DEPTH     PHID     PHIN       GR      CAL     RESD
# ...
  472.288    0.343    0.430   43.743  165.067    2.860
  472.538    0.334    0.437   45.572  164.853    2.860
  472.788    0.319    0.442   47.707  164.744    2.845
  473.038    0.340    0.432   49.231  164.220    2.819
  473.288    0.343    0.418   48.555  164.110    2.813
  473.538    0.328    0.424   49.224  163.999    2.829
  473.788    0.321    0.430   51.358  164.305    2.829
  474.038    0.316    0.426   54.165  165.126    2.835
  474.288    0.328    0.425   52.023  165.637    2.850
  474.538    0.336    0.423   51.041  166.044    2.872
  474.788    0.324    0.420   52.443  165.933    2.914
  475.038    0.321    0.417   54.577  165.927    2.947
  475.288    0.323    0.413   56.285  165.921    2.980
  475.538    0.328    0.411   58.114  165.915    3.018
  475.788    0.326    0.414   60.248  165.910    3.075
  476.038    0.315    0.433   62.383  165.695    3.161
  476.288    0.299    0.441   64.396  165.586    3.238
  476.538    0.291    0.444   67.080  165.371    3.341
  476.788    0.280    0.429   69.826  165.158    3.492
  477.038    0.272    0.415   71.411  165.048    3.664
  477.288    0.274    0.409   67.680  165.041    3.858
  477.538    0.277    0.403   64.682  165.035    4.048
  477.788    0.270    0.392   64.068  165.030    4.334
  478.038    0.246    0.379   66.141  164.817    4.665
  478.288    0.201    0.347   69.436  165.121    5.154
  478.538    0.149    0.252   72.366  166.563    5.897
  478.788    0.109    0.239   72.056  168.004    6.923
  479.038    0.071    0.225   68.448  169.654    8.559
  479.288    0.089    0.220   67.528  169.854    9.490
  479.538    0.083    0.228   67.768  169.538    9.993
  479.788    0.084    0.246   69.169  168.703    9.811
  480.038    0.107    0.269   71.732  167.559    9.667
  480.288    0.127    0.295   73.866  163.311    9.579
  480.538    0.160    0.335   72.641  160.201    9.509
  480.788    0.185    0.341   68.604  164.126    9.097
  481.038    0.191    0.328   68.723  166.913    8.281
  481.288    0.173    0.329   71.835  165.872    6.950
  481.538    0.179    0.348   75.742  164.934    5.953
  481.788    0.204    0.364   79.342  164.204    5.194
  482.038    0.231    0.403   81.966  163.369    4.860
  482.288    0.292    0.473   83.857  163.467    4.557
  482.538    0.336    0.486   85.197  164.702    4.360
  482.788    0.316    0.458   86.415  166.454    4.217
  483.038    0.299    0.453   87.450  168.206    4.072
  483.288    0.286    0.455   88.302  168.613    3.954
  483.538    0.268    0.467   90.620  167.987    3.860
  483.788    0.263    0.466   93.610  166.947    3.748
  484.038    0.280    0.450   91.101  165.699    3.666
  484.288    0.301    0.438   84.621  165.174    3.613
  484.538    0.327    0.443   74.841  165.168    3.626
  484.788    0.317    0.445   72.149  165.265    3.882
  485.038    0.305    0.442   71.840  165.466    4.081
  485.288    0.291    0.426   75.808  165.148    4.172
  485.538    0.276    0.407   79.103  164.521    4.141
  485.788    0.272    0.424   82.154  163.998    4.096
  486.038    0.301    0.450   85.206  163.681    4.096
  486.288    0.301    0.447   90.578  163.570    4.157
  486.538    0.276    0.432   95.584  163.462    4.242
  486.788    0.267    0.436   99.736  164.282    4.345
  487.038    0.250    0.447  103.215  165.621    4.426
  487.288    0.246    0.448  105.716  167.270    4.501
  487.538    0.241    0.446  105.040  168.609    4.542
  487.788    0.240    0.457  103.509  169.741    4.593
  488.038    0.236    0.478  104.910  170.873    4.661
  488.288    0.228    0.484  107.473  171.797    4.739
  488.538    0.230    0.498  110.524  172.617    4.810
  488.788    0.236    0.515  111.253  172.715    4.837
  489.038    0.248    0.534  111.127  172.605    4.757
  489.288    0.262    0.542  112.834  172.598    4.493
  489.538    0.252    0.542  113.136  173.421    4.189
  489.788    0.234    0.534  112.215  177.346    4.075
  490.038    0.218    0.516  112.212  175.269    4.105
  490.288    0.222    0.489  112.025  170.608    4.197
  490.538    0.247    0.469  109.943  167.705    4.323
  490.788    0.218    0.458  111.589  167.594    4.436
  491.038    0.212    0.474  111.708  168.002    4.527
  491.288    0.195    0.488  108.527  167.479    4.486
  491.538    0.203    0.498  109.562  167.989    4.292
  491.788    0.196    0.508  109.619  170.051    4.268
  492.038    0.199    0.493  106.316  170.770    4.324
  492.288    0.203    0.469  106.984  170.660    4.388
  492.538    0.215    0.451  109.180  170.136    4.478
  492.788    0.229    0.437  111.132  170.233    4.553
  493.038    0.226    0.426  111.739  170.640    4.503
  493.288    0.205    0.435  111.612  171.254    4.364
  493.538    0.183    0.449  112.709  171.870    4.114
  493.788    0.175    0.464  115.760  172.794    4.077
  494.038    0.196    0.473  116.978  173.616    4.107
  494.288    0.217    0.452  114.224  174.230    4.214
  494.538    0.207    0.446  108.783  171.844    4.325
  494.788    0.209    0.456  107.313  172.148    4.413
  495.038    0.204    0.469  105.477  174.418    4.471
  495.288    0.225    0.479  103.395  176.481    4.471
  495.538    0.249    0.479  104.124  170.577    4.438
  495.788    0.253    0.468  104.915  166.122    4.301
  496.038    0.231    0.458  104.789  165.494    4.077
  496.288    0.251    0.454  103.747  165.799    3.830
  496.538    0.250    0.461  105.454  166.517    3.671
  496.788    0.245    0.468  100.623  169.821    3.617
  497.038    0.261    0.471   94.204  171.884    3.671
  497.288    0.269    0.448   90.534  163.290    3.746
  497.538    0.248    0.428   93.829  163.904    3.916
  497.788    0.222    0.437   96.637  164.622    4.116
  498.038    0.200    0.450   97.061  165.443    4.326
  498.288    0.194    0.457   97.790  166.472    4.415
  498.538    0.216    0.464   99.130  167.293    4.271
  498.788    0.236    0.464   98.699  168.528    4.271
  499.038    0.253    0.462   94.174  168.831    4.327
  499.288    0.268    0.451   88.549  167.170    4.415
  499.538    0.280    0.438   83.474  164.577    4.448
  499.788    0.270    0.417   79.315  163.743    4.489
  500.038    0.265    0.375   75.095  163.942    4.416
  500.288    0.230    0.350   71.731  164.557    4.248
  500.538    0.206    0.349   71.666  165.379    4.102
  500.788    0.215    0.404   76.550  165.890    3.939
  501.038    0.238    0.457   80.029  166.195    3.853
  501.288    0.263    0.472   83.448  166.602    3.932
  501.538    0.264    0.466   88.637  167.112    4.102
  501.788    0.265    0.455   91.749  167.520    4.233
  502.038    0.276    0.444   92.295  168.135    4.320
  502.288    0.271    0.438   93.086  168.127    4.409
  502.538    0.270    0.441   95.343  167.604    4.524
  502.788    0.272    0.450   95.034  167.288    4.634
  503.038    0.254    0.463   96.680  166.660    4.643
  503.288    0.262    0.474   99.670  166.343    4.558
  503.538    0.274    0.468  102.965  166.647    4.401
  503.788    0.269    0.466  106.627  167.986    4.187
  504.038    0.261    0.472  106.012  170.980    4.066
  504.288    0.250    0.483  102.648  176.043    3.948
  504.538    0.266    0.479  101.117  180.796    3.819
  504.788    0.260    0.458  104.168  164.339    3.715
  505.038    0.244    0.450  108.502  165.988    3.627
  505.288    0.240    0.464  110.515  170.845    3.580
  505.538    0.239    0.486  109.351  180.253    3.600
  505.788    0.258    0.513  110.324  185.627    3.681
  506.038    0.269    0.486  113.620  190.897    3.883
  506.288    0.267    0.458  111.111  170.716    4.037
  506.538    0.235    0.447  107.624  166.571    4.330
  506.788    0.218    0.439  104.199  167.392    4.619
  507.038    0.215    0.432  102.851  168.212    4.972
  507.288    0.210    0.440  102.847  168.412    5.255
  507.538    0.200    0.439  103.271  168.408    5.333
  507.788    0.194    0.425  103.573  168.401    5.353
  508.038    0.205    0.413  101.919  168.497    5.353
  508.288    0.196    0.410  100.144  168.802    5.393
  508.538    0.198    0.412   99.835  168.795    5.575
