~VERSION INFORMATION
 VERS.                 2.0:   CWLS LOG ASCII STANDARD -VERSION 2.0
 WRAP.                  NO:   ONE LINE PER DEPTH STEP
~WELL INFORMATION BLOCK
#MNEM.UNIT           DATA                    DESCRIPTION OF MNEMONIC
#---------    -------------------            -------------------------------
# Generated from Intellog Unique Number	CS_67_68/WELL/806
WELL.         BURNT LAKE                     : Well_name    - WELL
LOC .         00/10-26-068-04W4/0            : Location     - LOCATION
UWI .         00/10-26-068-04W4/0            : Uwi          - UNIQUE WELL ID
ENTR.         SP                             : Entered      - ENTERED BY
SRVC.         SCHLUMBERGER                   : Scn          - SERVICE COMPANY
STRT.M        365                            : top_depth    - START DEPTH
STOP.M        595                            : bot_depth    - STOP DEPTH
STEP.M        0.25                           : increment    - STEP LENGTH
 NULL. -999.2500:NULL Value
~CURVE INFORMATION BLOCK
#MNEM UNIT       ERCB CURVE CODE    CURVE DESCRIPTION
#-----------   ------------------   ----------------------------------
DEPT.M        00 001 00 00         : DEPTH        - DEPTH
GR  .API      00 310 00 00         : GR           - GAMMA RAY
NPHI.V/V      00 330 00 00         : PHIN         - NEUTRON POROSITY (LIMESTONE)
DPHI.V/V      00 890 00 00         : PHID         - DENSITY POROSITY (LIMESTONE)
ILD .OHMM     00 120 00 00         : RESD         - DEEP RESISTIVITY (DIL)
~PARAMETER INFORMATION
#MNEM.UNIT           DATA             DESCRIPTION OF MNEMONIC
#---------         -----------     ------------------------------
GL  .M        731.85               : gl           - GROUND LEVEL ELEVATION
EREF.M        735.7                : kb           - ELEVATION OF DEPTH REFERENCE
DATM.M        731.85               : datum        - DATUM ELEVATION
TDD .M        600.34               : tdd          - TOTAL DEPTH DRILLER
RUN .         ONE                  : Run          - RUN NUMBER
ENG .         BILL                 : Engineer     - RECORDING ENGINEER
WIT .         JIM                  : Witness      - WITNESSED BY
MUD .         GEL                  : Mud_type     - MUD TYPE
MATR.         LIMESTONE            : Logunit      - NEUTRON MATRIX
TMAX.C        20                   : BHT          - MAXIMUM RECORDED TEMPERATURE
BHTD.M        600.34               : BHTDEP       - MAXIMUM RECORDED TEMPERATURE
MATR.         1                    : LOGUNIT      - NEUTRON MATRIX
RMT .C        25                   : MDTP         - TEMPERATURE OF MUD
NEUT.         1                    : NEUTRON      - NEUTRON TYPE
RESI.         0                    : RESIST       - RESISTIVITY TYPE
RMC .OHMM     0.25                 : RMC          - RESISTIVITY OF MUD CAKE
RMF .OHMM     0.25                 : RMF          - RESISTIVITY OF MUD FILTRATE
SUFT.C        15                   : SUFT         - SURFACE TEMPERATURE
~A  DEPTH       GR     PHIN     PHID     RESD
# ...
  539.000   74.519    0.371    0.278    6.910
  539.250   65.386    0.352    0.290    6.757
  539.500   58.932    0.352    0.293    6.644
  539.750   60.616    0.373    0.254    6.582
  540.000   68.617    0.370    0.232    6.508
  540.250   72.492    0.313    0.235    6.411
  540.500   78.672    0.357    0.273    6.211
  540.750   86.006    0.421    0.304    6.005
  541.000   89.392    0.505    0.298    5.687
  541.250   78.014    0.493    0.285    5.572
  541.500   45.676    0.390    0.286    5.827
  541.750   51.126    0.333    0.305    6.459
  542.000   55.303    0.363    0.276    6.948
  542.250   57.413    0.385    0.049    7.673
  542.500   58.246    0.225    0.043    8.223
  542.750   66.733    0.205    0.094    8.238
  543.000   74.677    0.300    0.183    8.315
  543.250   83.228    0.337    0.208    8.300
  543.500   91.839    0.360    0.220    7.995
  543.750   83.316    0.365    0.231    7.079
  544.000   72.972    0.358    0.243    6.423
  544.250   66.211    0.351    0.285    6.038
  544.500   67.045    0.345    0.310    5.849
  544.750   71.706    0.343    0.318    5.687
  545.000   75.575    0.361    0.328    5.581
  545.250   77.505    0.376    0.334    5.581
  545.500   78.886    0.392    0.325    5.634
  545.750   82.635    0.389    0.317    5.762
  546.000   86.933    0.380    0.309    6.037
  546.250   91.529    0.375    0.301    6.446
  546.500   93.582    0.371    0.295    6.870
  546.750   95.389    0.380    0.290    7.118
  547.000   96.588    0.398    0.285    7.445
  547.250   91.224    0.383    0.283    7.715
  547.500   86.226    0.374    0.272    7.860
  547.750   86.149    0.366    0.264    7.994
  548.000   82.973    0.385    0.268    8.314
  548.250   68.557    0.378    0.285    8.927
  548.500   55.297    0.383    0.300    9.027
  548.750   53.335    0.373    0.310    9.078
  549.000   51.800    0.363    0.318    8.960
  549.250   57.613    0.355    0.325    8.144
  549.500   63.430    0.355    0.305    7.403
  549.750   68.760    0.353    0.275    6.767
  550.000   74.334    0.329    0.251    6.151
  550.250   80.575    0.354    0.235    5.654
  550.500   72.114    0.377    0.265    5.325
  550.750   52.594    0.382    0.301    5.082
  551.000   49.782    0.373    0.337    4.895
  551.250   47.944    0.374    0.361    4.849
  551.500   44.708    0.386    0.368    4.858
  551.750   44.022    0.377    0.366    4.858
  552.000   48.074    0.370    0.350    4.840
  552.250   53.224    0.365    0.334    4.750
  552.500   58.735    0.360    0.323    4.715
  552.750   60.663    0.361    0.323    4.715
  553.000   59.611    0.369    0.330    4.706
  553.250   59.962    0.367    0.334    4.706
  553.500   63.650    0.362    0.338    4.715
  553.750   65.580    0.367    0.335    4.750
  554.000   65.137    0.362    0.332    4.786
  554.250   65.667    0.354    0.333    4.813
  554.500   66.987    0.365    0.337    4.822
  554.750   65.937    0.380    0.336    4.831
  555.000   65.921    0.380    0.332    4.831
  555.250   68.031    0.369    0.328    4.840
  555.500   63.944    0.368    0.324    4.867
  555.750   64.595    0.377    0.325    4.922
  556.000   66.098    0.383    0.331    5.043
  556.250   65.957    0.388    0.327    5.119
  556.500   64.482    0.385    0.332    5.255
  556.750   62.828    0.385    0.329    5.404
  557.000   64.510    0.387    0.319    5.527
  557.250   66.255    0.378    0.310    5.631
  557.500   67.456    0.384    0.319    5.674
  557.750   66.344    0.384    0.322    5.600
  558.000   62.441    0.376    0.322    5.354
  558.250   58.293    0.367    0.329    5.245
  558.500   62.589    0.363    0.342    5.264
  558.750   65.368    0.365    0.339    5.284
  559.000   66.567    0.362    0.332    5.294
  559.250   66.550    0.364    0.327    5.294
  559.500   69.569    0.381    0.324    5.324
  559.750   72.410    0.370    0.321    5.353
  560.000   74.034    0.361    0.310    5.404
  560.250   81.915    0.361    0.318    5.495
  560.500   94.050    0.357    0.293    5.641
  560.750  105.759    0.388    0.230    5.737
  561.000  111.817    0.430    0.150    5.835
  561.250  100.560    0.438    0.115    5.922
  561.500   89.183    0.419    0.204    6.171
  561.750   73.918    0.369    0.235    6.676
  562.000   64.605    0.331    0.235    7.208
  562.250   73.458    0.314    0.225    7.539
  562.500   83.224    0.334    0.215    7.930
  562.750   90.254    0.346    0.211    8.080
  563.000   95.340    0.354    0.213    8.217
  563.250   90.039    0.348    0.218    8.279
  563.500   86.313    0.339    0.220    8.310
  563.750   87.391    0.333    0.208    8.263
  564.000   91.447    0.337    0.206    8.217
  564.250   96.535    0.339    0.181    8.171
  564.500  101.741    0.335    0.152    8.125
  564.750  104.399    0.337    0.142    8.064
  565.000  102.376    0.350    0.166    8.034
  565.250   99.319    0.340    0.196    7.344
  565.500   97.788    0.333    0.207    7.275
  565.750   82.643    0.350    0.230    7.180
  566.000   75.943    0.355    0.266    7.114
  566.250   80.180    0.355    0.272    7.087
  566.500   81.196    0.352    0.250    7.047
  566.750   79.903    0.349    0.238    7.021
  567.000   85.534    0.333    0.242    7.021
  567.250   90.259    0.319    0.219    7.047
  567.500   94.434    0.362    0.181    7.100
  567.750   95.451    0.359    0.168    7.220
  568.000  101.267    0.351    0.163    7.468
  568.250  107.568    0.360    0.159    7.709
  568.500  109.556    0.361    0.153    7.973
  568.750  102.735    0.353    0.162    8.154
  569.000   95.910    0.340    0.169    8.433
  569.250   92.008    0.320    0.171    8.609
  569.500   88.956    0.321    0.169    8.821
  569.750   97.262    0.327    0.170    8.804
  570.000  107.027    0.337    0.182    8.528
  570.250  115.149    0.354    0.187    7.898
  570.500  121.511    0.382    0.184    7.523
  570.750  125.627    0.396    0.180    7.152
  571.000  127.799    0.408    0.176    6.762
  571.250  125.352    0.427    0.174    6.538
  571.500  123.754    0.437    0.186    6.417
  571.750  124.590    0.423    0.200    6.404
  572.000  116.128    0.408    0.204    6.562
  572.250  112.649    0.390    0.204    6.851
  572.500  111.236    0.387    0.204    7.328
  572.750  107.694    0.388    0.206    7.751
  573.000  101.480    0.378    0.210    8.123
  573.250  100.553    0.366    0.208    8.432
  573.500  103.393    0.360    0.153    8.737
  573.750  104.347    0.354    0.117    9.071
  574.000  110.041    0.321    0.100    9.381
  574.250  115.979    0.315    0.123    9.487
  574.500  119.790    0.336    0.150    9.173
  574.750  120.499    0.347    0.171    8.819
  575.000  121.031    0.351    0.189    8.543
  575.250  122.285    0.366    0.195    8.384
  575.500  123.486    0.379    0.193    8.337
  575.750  124.507    0.387    0.192    8.337
  576.000  123.821    0.372    0.202    8.337
  576.250  120.524    0.357    0.210    8.291
  576.500  118.260    0.347    0.217    8.198
  576.750  111.620    0.353    0.226    8.046
  577.000   99.635    0.364    0.233    7.750
  577.250   89.837    0.356    0.249    7.592
  577.500   90.667    0.347    0.267    7.410
  577.750   93.387    0.360    0.249    7.286
  578.000   95.681    0.377    0.226    7.137
  578.250   94.812    0.375    0.235    7.018
  578.500   92.548    0.360    0.235    6.966
  578.750   92.833    0.349    0.227    6.966
  579.000   92.939    0.334    0.209    6.979
  579.250   86.666    0.322    0.191    7.084
  579.500   77.292    0.334    0.212    7.137
  579.750   69.012    0.343    0.265    6.991
  580.000   60.310    0.335    0.289    6.709
  580.250   48.445    0.342    0.302    6.415
  580.500   47.517    0.354    0.307    6.249
  580.750   55.276    0.358    0.304    6.202
  581.000   60.486    0.364    0.292    6.225
  581.250   63.081    0.361    0.273    6.284
  581.500   62.884    0.356    0.255    6.343
  581.750   58.310    0.361    0.266    6.390
  582.000   54.709    0.352    0.280    6.438
  582.250   53.294    0.341    0.288    6.474
