~VERSION INFORMATION
 VERS.                 2.0:   CWLS LOG ASCII STANDARD -VERSION 2.0
 WRAP.                  NO:   ONE LINE PER DEPTH STEP
~WELL INFORMATION BLOCK
#MNEM.UNIT           DATA                    DESCRIPTION OF MNEMONIC
#---------    -------------------            -------------------------------
# Generated from Intellog Unique Number	CW_82_90/WELL/3450
WELL.         SHERRITT LIEGE 11-18           : Well_name    - WELL
LOC .         00/11-18-090-22W4/0            : Location     - LOCATION
UWI .         00/11-18-090-22W4/0            : Uwi          - UNIQUE WELL ID
ENTR.         JJ                             : Entered      - ENTERED BY
SRVC.         WESTERN ATLAS                  : Scn          - SERVICE COMPANY
DATE.         4 FEB 89                       : Date         - LOG DATE
STRT.M        80                             : top_depth    - START DEPTH
STOP.M        240                            : bot_depth    - STOP DEPTH
STEP.M        0.25                           : increment    - STEP LENGTH
 NULL. -999.2500:NULL Value
~CURVE INFORMATION BLOCK
#MNEM UNIT       ERCB CURVE CODE    CURVE DESCRIPTION
#-----------   ------------------   ----------------------------------
DEPT.M        00 001 00 00         : DEPTH        - DEPTH
DPHI.V/V      00 890 00 00         : PHID         - DENSITY POROSITY (SANDSTONE)
NPHI.V/V      00 330 00 00         : PHIN         - NEUTRON POROSITY (SANDSTONE)
GR  .API      00 310 00 00         : GR           - GAMMA RAY
CALI.MM       00 280 01 00         : CAL          - CALIPER
ILD .OHMM     00 120 00 00         : RESD         - DEEP RESISTIVITY (DIL)
~PARAMETER INFORMATION
#MNEM.UNIT           DATA             DESCRIPTION OF MNEMONIC
#---------         -----------     ------------------------------
GL  .M        510                  : gl           - GROUND LEVEL ELEVATION
EREF.M        513.9                : kb           - ELEVATION OF DEPTH REFERENCE
DATM.M        513.9                : datum        - DATUM ELEVATION
TDD .M        240                  : tdd          - TOTAL DEPTH DRILLER
RUN .         ONE                  : Run          - RUN NUMBER
ENG .         SMYTHE               : Engineer     - RECORDING ENGINEER
WIT .         WILLIAMS             : Witness      - WITNESSED BY
BASE.         MED HAT              : Branch       - HOME BASE OF LOGGING UNIT
MUD .         GEL CAUSTIC          : Mud_type     - MUD TYPE
MATR.         SANDSTONE            : Logunit      - NEUTRON MATRIX
TMAX.C        16                   : BHT          - MAXIMUM RECORDED TEMPERATURE
BHTD.M        239.7                : BHTDEP       - MAXIMUM RECORDED TEMPERATURE
RMT .C        15                   : MDTP         - TEMPERATURE OF MUD
MUDD.KG/M     1130                 : MWT          - MUD DENSITY
NEUT.         1                    : NEUTRON      - NEUTRON TYPE
RESI.         0                    : RESIST       - RESISTIVITY TYPE
RM  .OHMM     4.5                  : RM           - RESISTIVITY OF MUD
RMC .OHMM     3.9                  : RMC          - RESISTIVITY OF MUD CAKE
RMF .OHMM     0                    : RMF          - RESISTIVITY OF MUD FILTRATE
SUFT.C        5                    : SUFT         - SURFACE TEMPERATURE
~A  DEPTH     PHID     PHIN       GR      CAL     RESD
   80.000    0.393    0.341  107.472  167.423    7.557
   80.250    0.394    0.467  108.075  167.920    7.100
   80.500    0.398    0.481  104.778  169.330    6.986
   80.750    0.402    0.477  103.371  171.453    7.148
   81.000    0.408    0.451  108.968  174.589    7.618
   81.250    0.410    0.432  111.765  178.639    8.301
   81.500    0.404    0.417  105.238  182.587    9.653
   81.750    0.409    0.396  101.821  185.115   11.390
   82.000    0.426    0.347   94.442  193.431   17.851
   82.250    0.430    0.333   68.419  232.311   23.457
   82.500    0.415    0.357   52.573  257.482   28.201
   82.750    0.437    0.411   31.912  328.043   29.556
   83.000    0.467    0.408   32.210  307.216   29.520
   83.250    0.438    0.402   36.102  290.551   29.158
   83.500    0.460    0.412   42.311  286.277   29.284
   83.750    0.497    0.425   46.203  251.132   29.849
   84.000    0.525    0.431   45.466  236.194   30.374
   84.250    0.512    0.431   40.767  222.779   30.617
   84.500    0.456    0.409   39.725  216.067   31.271
   84.750    0.478    0.380   40.632  243.370   31.576
   85.000    0.541    0.334   45.073  291.693   32.188
   85.250    0.512    0.293   40.802  194.100   32.570
   85.500    0.474    0.312   32.388  185.050   32.289
   85.750    0.440    0.349   35.853  181.993   31.246
   86.000    0.372    0.337   39.989  179.849   27.562
   86.250    0.410    0.370   44.735  179.535   22.326
   86.500    0.473    0.449   48.993  168.963   19.119
   86.750    0.456    0.408   52.459  160.118   20.038
   87.000    0.411    0.329   54.950  167.925   21.672
   87.250    0.422    0.341   56.345  238.588   24.785
   87.500    0.425    0.363   56.339  251.676   28.129
   87.750    0.415    0.362   53.956  260.499   16.905
   88.000    0.391    0.369   53.279  277.243    7.372
   88.250    0.391    0.382   53.820  264.336    3.841
   88.500    0.374    0.395   56.860  220.865    3.426
   88.750    0.357    0.406   71.476  207.144    4.338
   89.000    0.345    0.398   87.614  179.514    6.186
   89.250    0.349    0.399   94.127  166.100    9.410
   89.500    0.368    0.414   87.236  164.464   13.147
   89.750    0.382    0.396   79.187  168.514   16.129
   90.000    0.400    0.373   74.124  174.596   14.280
   90.250    0.418    0.403   78.990  179.357   10.292
   90.500    0.424    0.429   87.636  173.862    9.633
   90.750    0.415    0.466   99.508  168.876    9.153
   91.000    0.399    0.502   96.883  164.090    8.409
   91.250    0.388    0.518   95.232  162.557    7.556
   91.500    0.392    0.505   99.672  161.125    7.409
   91.750    0.403    0.499  103.260  160.810    7.525
   92.000    0.407    0.516  102.218  162.726    7.613
   92.250    0.410    0.521  102.575  165.151    7.562
   92.500    0.406    0.535  104.581  167.882    7.496
   92.750    0.408    0.550  101.040  170.208    7.147
   93.000    0.411    0.565  104.079  173.344    6.592
   93.250    0.401    0.579  108.034  175.568    6.392
   93.500    0.404    0.561  104.980  179.719    6.799
   93.750    0.415    0.488   97.602  182.044    7.618
   94.000    0.407    0.496   99.179  183.049    8.631
   94.250    0.391    0.479  101.426  190.552    9.688
   94.500    0.422    0.443  102.760  195.414   10.022
   94.750    0.433    0.448  105.130  187.686    8.239
   95.000    0.436    0.488   98.483  176.607    7.175
   95.250    0.433    0.522   98.597  185.126    6.470
   95.500    0.422    0.518  107.304  190.699    5.531
   95.750    0.413    0.504  111.622  167.739    4.933
   96.000    0.436    0.496  104.670  162.956    5.076
   96.250    0.454    0.466  104.115  162.539    5.573
   96.500    0.453    0.464  109.348  163.747    6.279
   96.750    0.432    0.456  101.482  168.609    6.791
   97.000    0.410    0.445   97.272  174.892    7.482
   97.250    0.379    0.444   99.458  178.029    8.846
   97.500    0.376    0.442  101.218  178.628   11.160
   97.750    0.393    0.430   91.769  172.727   14.476
   98.000    0.448    0.381   75.616  168.554   19.962
   98.250    0.326    0.260   72.929  166.916   31.693
   98.500    0.339    0.235   72.435  168.531   42.036
   98.750    0.423    0.261   72.184  175.120   56.900
   99.000    0.493    0.288   87.592  205.166   56.201
   99.250    0.520    0.310   76.740  218.458   50.036
   99.500    0.543    0.342   67.168  211.542   30.293
   99.750    0.544    0.373   57.048  242.298   30.938
  100.000    0.478    0.358   52.289  272.038   33.837
  100.250    0.397    0.332   55.024  225.318   36.397
  100.500    0.388    0.337   55.809  198.093   31.809
  100.750    0.438    0.321   54.280  207.526   29.830
  101.000    0.452    0.321   51.227  235.541   30.634
  101.250    0.477    0.291   47.443  252.080   27.274
  101.500    0.485    0.318   46.340  215.209   23.659
  101.750    0.507    0.317   45.967  225.657   20.110
  102.000    0.524    0.317   49.129  265.959   18.105
  102.250    0.439    0.365   61.490  200.554   16.822
  102.500    0.390    0.387   70.379  185.515   15.863
  102.750    0.359    0.393   74.027  173.725   15.070
  103.000    0.328    0.372   74.508  170.363   14.667
  103.250    0.307    0.375   73.831  172.789   14.484
  103.500    0.280    0.400   73.215  170.442   14.333
  103.750    0.285    0.403   70.710  165.454   14.369
  104.000    0.305    0.365   68.876  162.193   14.621
  104.250    0.314    0.345   68.808  160.255   14.792
  104.500    0.324    0.381   67.888  158.618   15.022
  104.750    0.316    0.399   66.114  156.577   15.312
  105.000    0.303    0.405   66.352  155.652   15.611
  105.250    0.318    0.409   68.051  155.132   15.475
  105.500    0.336    0.412   72.918  155.628   15.256
  105.750    0.360    0.409   70.778  156.936   14.414
  106.000    0.343    0.406   74.184  158.856   12.928
  106.250    0.315    0.399   78.077  161.079   10.988
  106.500    0.323    0.402   81.970  162.388    8.608
  106.750    0.360    0.403   84.461  162.985    7.482
  107.000    0.383    0.416   90.486  164.092    7.900
  107.250    0.399    0.444   97.608  170.580    8.852
  107.500    0.351    0.477   87.608  162.953   10.349
  107.750    0.325    0.440   81.752  159.591   12.350
  108.000    0.302    0.399   80.041  161.305   13.409
  108.250    0.302    0.374   79.791  165.356   13.643
  108.500    0.332    0.384   76.250  169.814   13.349
  108.750    0.339    0.387   76.913  174.372   12.449
  109.000    0.324    0.378   80.197  171.214   10.235
  109.250    0.310    0.368   80.373  166.124    8.321
  109.500    0.337    0.345   76.894  165.808    7.231
  109.750    0.336    0.336   75.303  167.523    5.003
  110.000    0.312    0.370   81.388  169.747    4.261
  110.250    0.334    0.492   87.597  171.157    3.649
  110.500    0.347    0.513   94.719  171.958    3.230
  110.750    0.347    0.528   99.098  171.337    3.221
  111.000    0.345    0.524   99.701  167.061    3.370
  111.250    0.342    0.508   93.784  163.701    3.597
  111.500    0.340    0.500   89.635  167.547    3.905
  111.750    0.334    0.497   85.120  174.239    4.240
  112.000    0.325    0.485   86.271  182.757    4.768
  112.250    0.317    0.452   84.436  192.493    5.432
  112.500    0.297    0.427   88.816  196.645    6.316
  112.750    0.297    0.408   91.002  196.839    7.968
  113.000    0.322    0.377   86.793  192.461    9.509
  113.250    0.339    0.382   80.510  182.093   10.209
  113.500    0.303    0.390   74.167  172.435    9.807
  113.750    0.274    0.389   74.526  167.854    8.846
  114.000    0.305    0.402   81.526  166.320    7.245
  114.250    0.309    0.416   87.978  164.074    6.124
  114.500    0.307    0.420   93.697  162.438    5.157
  114.750    0.307    0.412   86.319  160.801    4.490
  115.000    0.311    0.416   85.338  160.587    4.188
  115.250    0.317    0.433   87.159  161.185    3.927
  115.500    0.333    0.442   90.076  162.798    3.704
  115.750    0.334    0.436   88.973  165.123    3.605
  116.000    0.318    0.439   91.343  166.536    3.580
  116.250    0.321    0.439   95.845  167.845    3.704
