~VERSION INFORMATION
 VERS.                 2.0:   CWLS LOG ASCII STANDARD -VERSION 2.0
 WRAP.                  NO:   ONE LINE PER DEPTH STEP
~WELL INFORMATION BLOCK
#MNEM.UNIT           DATA                    DESCRIPTION OF MNEMONIC
#---------    -------------------            -------------------------------
# Generated from Intellog Unique Number	CS_71_72/WELL/853
WELL.         HOL BVX UNIGAS NIXON           : Well_name    - WELL
LOC .         00/10-10-071-15W4/0            : Location     - LOCATION
UWI .         00/10-10-071-15W4/0            : Uwi          - UNIQUE WELL ID
ENTR.         SP                             : Entered      - ENTERED BY
SRVC.         SCHLUMBERGER                   : Scn          - SERVICE COMPANY
STRT.M        313.944                        : top_depth    - START DEPTH
STOP.M        517.944                        : bot_depth    - STOP DEPTH
STEP.M        0.25                           : increment    - STEP LENGTH
 NULL. -999.2500:NULL Value
~CURVE INFORMATION BLOCK
#MNEM UNIT       ERCB CURVE CODE    CURVE DESCRIPTION
#-----------   ------------------   ----------------------------------
DEPT.M        00 001 00 00         : DEPTH        - DEPTH
GR  .API      00 310 00 00         : GR           - GAMMA RAY
DPHI.V/V      00 890 00 00         : PHID         - DENSITY POROSITY (SANDSTONE)
NPHI.V/V      00 330 00 00         : PHIN         - NEUTRON POROSITY (SANDSTONE)
ILD .OHMM     00 120 00 00         : RESD         - DEEP RESISTIVITY (DIL)
~PARAMETER INFORMATION
#MNEM.UNIT           DATA             DESCRIPTION OF MNEMONIC
#---------         -----------     ------------------------------
GL  .M        620.573              : gl           - GROUND LEVEL ELEVATION
EREF.M        623.011              : kb           - ELEVATION OF DEPTH REFERENCE
DATM.M        620.573              : datum        - DATUM ELEVATION
TDD .M        523.646              : tdd          - TOTAL DEPTH DRILLER
RUN .         ONE                  : Run          - RUN NUMBER
ENG .         BILL                 : Engineer     - RECORDING ENGINEER
WIT .         JIM                  : Witness      - WITNESSED BY
MUD .         GEL                  : Mud_type     - MUD TYPE
MATR.         SANDSTONE            : Logunit      - NEUTRON MATRIX
TMAX.C        21.6667              : BHT          - MAXIMUM RECORDED TEMPERATURE
BHTD.M        523.646              : BHTDEP       - MAXIMUM RECORDED TEMPERATURE
MATR.         1                    : LOGUNIT      - NEUTRON MATRIX
RMT .C        25                   : MDTP         - TEMPERATURE OF MUD
NEUT.         1                    : NEUTRON      - NEUTRON TYPE
RESI.         0                    : RESIST       - RESISTIVITY TYPE
RMC .OHMM     0.25                 : RMC          - RESISTIVITY OF MUD CAKE
RMF .OHMM     0.25                 : RMF          - RESISTIVITY OF MUD FILTRATE
SUFT.C        15                   : SUFT         - SURFACE TEMPERATURE
~A  DEPTH       GR     PHID     PHIN     RESD
# ...
  487.944   90.197    0.195    0.383    7.917
  488.194   93.374    0.193    0.404    7.320
  488.444   96.124    0.209    0.435    6.683
  488.694   97.364    0.236    0.477    6.242
  488.944   95.254    0.276    0.496    5.944
  489.194   91.429    0.280    0.503    5.715
  489.444   90.757    0.277    0.535    5.865
  489.694   90.444    0.269    0.517    6.508
  489.944   88.966    0.253    0.497    7.542
  490.194   79.008    0.240    0.476    8.851
  490.444   71.600    0.243    0.451   10.489
  490.694   65.865    0.246    0.425   12.611
  490.944   61.729    0.199    0.411   14.604
  491.194   64.188    0.177    0.394   16.091
  491.444   66.728    0.162    0.382   15.747
  491.694   69.649    0.187    0.371   12.649
  491.944   74.603    0.192    0.376   11.073
  492.194   78.955    0.177    0.367    9.892
  492.444   81.444    0.179    0.354    9.015
  492.694   83.227    0.166    0.350    8.253
  492.944   85.950    0.159    0.361    7.597
  493.194   89.745    0.158    0.370    7.081
  493.444   89.110    0.159    0.384    6.802
  493.694   79.351    0.170    0.389    6.945
  493.944   62.234    0.188    0.381    7.607
  494.194   54.205    0.211    0.376    7.944
  494.444   47.872    0.237    0.370    8.474
  494.694   61.817    0.231    0.367    9.076
  494.944   71.877    0.216    0.367    9.561
  495.194   81.210    0.199    0.362    9.884
  495.444   87.964    0.185    0.354   10.001
  495.694   93.882    0.180    0.348    9.684
  495.944   96.980    0.185    0.357    9.234
  496.194   99.576    0.196    0.373    8.434
  496.444  100.219    0.210    0.391    8.576
  496.694   93.603    0.221    0.402    8.775
  496.944   89.368    0.220    0.407    9.065
  497.194   87.390    0.220    0.398    9.306
  497.444   89.194    0.216    0.389    9.398
  497.694   93.029    0.206    0.380    9.471
  497.944   95.423    0.208    0.407    9.356
  498.194   95.933    0.207    0.433    8.874
  498.444   93.232    0.197    0.424    8.545
  498.694   89.280    0.170    0.391    8.387
  498.944   76.560    0.140    0.377    8.438
  499.194   69.905    0.125    0.372    8.573
  499.444   64.386    0.109    0.372    8.625
  499.694   71.504    0.143    0.392    8.507
  499.944   78.136    0.150    0.419    7.849
  500.194   79.698    0.108    0.445    6.925
  500.444   74.000    0.085    0.440    6.206
  500.694   69.327    0.048    0.411    5.538
  500.944   64.117    0.215    0.454    5.220
  501.194   56.846    0.240    0.455    5.138
  501.444   53.292    0.241    0.404    5.166
  501.694   62.063    0.227    0.361    5.301
  501.944   71.202    0.210    0.360    5.437
  502.194   79.550    0.209    0.367    5.537
  502.444   87.992    0.182    0.370    5.655
  502.694   97.611    0.144    0.375    5.807
  502.944   92.858    0.137    0.382    6.074
  503.194   87.970    0.140    0.370    6.348
  503.444   84.392    0.131    0.358    6.696
  503.694   82.409    0.145    0.350    6.965
  503.944   87.615    0.158    0.342    7.033
  504.194   93.505    0.150    0.351    7.079
  504.444   95.797    0.161    0.363    7.012
  504.694   92.976    0.158    0.373    6.875
  504.944   90.248    0.147    0.373    6.658
  505.194   87.958    0.135    0.372    6.531
  505.444   90.462    0.162    0.380    6.803
  505.694   93.264    0.170    0.388    6.724
  505.944   95.631    0.163    0.396    6.648
  506.194   96.429    0.163    0.399    6.574
  506.444   96.265    0.167    0.405    6.535
  506.694   94.544    0.160    0.413    6.546
  506.944   91.484    0.186    0.417    6.828
  507.194   81.219    0.199    0.398    7.461
  507.444   73.629    0.193    0.383    7.833
  507.694   68.998    0.197    0.375    8.285
  507.944   64.479    0.201    0.383    8.613
  508.194   63.036    0.202    0.386    8.822
  508.444   62.516    0.208    0.370    8.836
  508.694   65.218    0.222    0.359    8.489
  508.944   70.929    0.211    0.352    8.007
  509.194   75.465    0.184    0.343    7.647
  509.444   80.383    0.155    0.337    7.359
  509.694   78.872    0.135    0.350    7.157
  509.944   76.159    0.120    0.365    6.998
  510.194   73.904    0.146    0.376    6.794
  510.444   75.665    0.176    0.390    6.648
  510.694   81.028    0.192    0.378    6.452
  510.944   86.264    0.179    0.370    6.301
  511.194   89.355    0.164    0.381    6.156
  511.444   91.461    0.152    0.388    6.045
  511.694   91.932    0.147    0.399    5.948
  511.944   91.160    0.154    0.385    5.853
  512.194   90.276    0.167    0.362    5.853
  512.444   88.229    0.151    0.361    5.845
  512.694   87.128    0.145    0.374    5.836
  512.944   86.621    0.156    0.390    5.830
  513.194   87.816    0.136    0.436    5.822
  513.444   87.594    0.145    0.475    5.815
  513.694   84.965    0.159    0.514    5.847
  513.944   81.787    0.154    0.503    5.884
  514.194   76.449    0.148    0.494    5.953
  514.444   71.164    0.131    0.495    6.081
  514.694   59.720    0.139    0.504    6.209
  514.944   47.079    0.145    0.493    6.430
  515.194   65.651    0.136    0.493    6.616
  515.444   80.734    0.135    0.498    6.810
  515.694   81.000    0.131    0.504    6.997
  515.944   80.933    0.100    0.489    7.060
  516.194   80.971    0.096    0.486    7.033
  516.444   81.338    0.120    0.491    6.988
  516.694   81.411    0.129    0.468    6.934
  516.944   81.491    0.131    0.272    6.907
  517.194   81.512    0.135    0.239    6.909
  517.444   81.677    0.141    0.224    6.949
  517.694   81.659    0.144    0.220    6.994
  517.944   81.719    0.153    0.222    7.048
