~VERSION INFORMATION
 VERS.                 2.0:   CWLS LOG ASCII STANDARD -VERSION 2.0
 WRAP.                  NO:   ONE LINE PER DEPTH STEP
~WELL INFORMATION BLOCK
#MNEM.UNIT           DATA                    DESCRIPTION OF MNEMONIC
#---------    -------------------            -------------------------------
# Generated from Intellog Unique Number	CN_94_101/WELL/5000
WELL.         10-02-099-13W4                 : Well_name    - WELL
LOC .         00/10-02-099-13W4/0            : Location     - LOCATION
UWI .         00/10-02-099-13W400            : Uwi          - UNIQUE WELL ID
ENTR.         TOP                            : Entered      - ENTERED BY
SRVC.         SCHLUMBERGER                   : Scn          - SERVICE COMPANY
DATE.         08/11/92                       : Date         - LOG DATE
STRT.M        375                            : top_depth    - START DEPTH
STOP.M        575                            : bot_depth    - STOP DEPTH
STEP.M        0.25                           : increment    - STEP LENGTH
 NULL. -999.2500:NULL Value
~CURVE INFORMATION BLOCK
#MNEM UNIT       ERCB CURVE CODE    CURVE DESCRIPTION
#-----------   ------------------   ----------------------------------
DEPT.M        00 001 00 00         : DEPTH        - DEPTH
GR  .API      00 310 00 00         : GR           - GAMMA RAY
ILD .OHMM     00 120 00 00         : RESD         - DEEP RESISTIVITY (DIL)
NPHI.V/V      00 330 00 00         : PHIN         - NEUTRON POROSITY (SANDSTONE)
DPHI.V/V      00 890 00 00         : PHID         - DENSITY POROSITY (SANDSTONE)
~PARAMETER INFORMATION
#MNEM.UNIT           DATA             DESCRIPTION OF MNEMONIC
#---------         -----------     ------------------------------
GL  .M        827                  : gl           - GROUND LEVEL ELEVATION
EREF.M        830                  : kb           - ELEVATION OF DEPTH REFERENCE
DATM.M        830                  : datum        - DATUM ELEVATION
TDD .M        564                  : tdd          - TOTAL DEPTH DRILLER
RUN .         ONE                  : Run          - RUN NUMBER
ENG .         BILL                 : Engineer     - RECORDING ENGINEER
WIT .         JIM                  : Witness      - WITNESSED BY
MUD .         GEL                  : Mud_type     - MUD TYPE
MATR.         SANDSTONE            : Logunit      - NEUTRON MATRIX
TMAX.C        27                   : BHT          - MAXIMUM RECORDED TEMPERATURE
BHTD.M        564                  : BHTDEP       - MAXIMUM RECORDED TEMPERATURE
RMT .C        12                   : MDTP         - TEMPERATURE OF MUD
MUDD.KG/M     1090                 : MWT          - MUD DENSITY
NEUT.         1                    : NEUTRON      - NEUTRON TYPE
RESI.         0                    : RESIST       - RESISTIVITY TYPE
RM  .OHMM     5.8                  : RM           - RESISTIVITY OF MUD
RMC .OHMM     1.8                  : RMC          - RESISTIVITY OF MUD CAKE
RMF .OHMM     5.8                  : RMF          - RESISTIVITY OF MUD FILTRATE
SUFT.C        4                    : SUFT         - SURFACE TEMPERATURE
~A  DEPTH       GR     RESD     PHIN     PHID
# ...
  549.000   41.120   27.830    0.342    0.328
  549.250   39.336   30.626    0.341    0.326
  549.500   39.400   32.449    0.338    0.328
  549.750   40.663   33.116    0.340    0.318
  550.000   41.951   32.540    0.343    0.308
  550.250   42.589   31.393    0.349    0.308
  550.500   43.864   32.052    0.355    0.313
  550.750   43.941   32.697    0.365    0.325
  551.000   45.230   35.328    0.369    0.342
  551.250   45.868   36.026    0.369    0.346
  551.500   47.755   36.781    0.372    0.352
  551.750   50.867   34.840    0.374    0.354
  552.000   53.992   34.220    0.372    0.349
  552.250   55.267   33.639    0.366    0.352
  552.500   54.095   33.067    0.365    0.354
  552.750   53.521   33.133    0.370    0.353
  553.000   53.598   33.801    0.372    0.351
  553.250   54.262   35.149    0.365    0.349
  553.500   54.288   35.871    0.359    0.347
  553.750   54.339   33.992    0.356    0.350
  554.000   53.791   32.184    0.361    0.352
  554.250   53.830   31.025    0.362    0.351
  554.500   54.532   29.932    0.367    0.349
  554.750   54.557   28.877    0.370    0.348
  555.000   54.609   28.397    0.375    0.348
  555.250   54.048   27.937    0.385    0.348
  555.500   54.113   27.960    0.392    0.347
  555.750   54.164   28.005    0.398    0.339
  556.000   53.590   28.061    0.400    0.334
  556.250   53.030   28.106    0.394    0.331
  556.500   50.659   28.684    0.389    0.329
  556.750   50.684   28.718    0.378    0.329
  557.000   51.960   29.332    0.373    0.334
  557.250   52.623   29.356    0.371    0.340
  557.500   53.287   28.857    0.369    0.349
  557.750   53.950   28.366    0.368    0.352
  558.000   52.778   27.367    0.367    0.352
  558.250   50.381   25.922    0.364    0.350
  558.500   48.622   25.482    0.358    0.349
  558.750   48.660   25.039    0.361    0.346
  559.000   49.311   25.079    0.362    0.346
  559.250   49.362   25.119    0.365    0.354
  559.500   50.638   25.170    0.372    0.346
  559.750   52.526   26.173    0.378    0.341
  560.000   53.189   27.732    0.387    0.342
  560.250   53.865   29.951    0.389    0.345
  560.500   53.942   32.335    0.393    0.352
  560.750   53.981   31.785    0.394    0.358
  561.000   54.032   30.665    0.394    0.359
  561.250   53.459   29.584    0.394    0.354
  561.500   52.898   29.081    0.396    0.348
  561.750   52.962   28.056    0.396    0.330
  562.000   53.626   27.579    0.396    0.328
  562.250   54.277   27.624    0.386    0.335
  562.500   54.940   27.154    0.375    0.342
  562.750   56.216   26.682    0.368    0.346
  563.000   56.267   26.725    0.372    0.340
  563.250   54.482   26.768    0.370    0.333
  563.500   53.922   27.329    0.373    0.337
  563.750   55.210   27.891    0.384    0.346
  564.000   55.861   30.111    0.391    0.348
  564.250   55.912   32.495    0.407    0.348
  564.500   54.739   35.095    0.417    0.358
  564.750   53.567   31.412    0.422    0.380
  565.000   56.678   27.583    0.432    0.395
  565.250   64.700   20.088    0.452    0.412
  565.500   67.825    6.060    0.465    0.415
  565.750   67.876    5.957    0.473    0.416
  566.000   67.915    6.079    0.478    0.422
  566.250   67.354    6.327    0.485    0.443
  566.500   67.418    6.452    0.504    0.438
  566.750   68.069    7.103    0.520    0.431
  567.000   68.758    7.383    0.517    0.426
  567.250   69.409    7.674    0.511    0.422
  567.500   71.296    8.138    0.508    0.417
  567.750   78.081    8.151    0.503    0.409
  568.000   87.313    8.009    0.492    0.397
  568.250   95.947    7.873    0.449    0.381
  568.500   95.985    7.457    0.434    0.371
  568.750   94.201    7.197    0.447    0.384
  569.000   93.640    6.938    0.460    0.379
  569.250   91.243    6.694    0.453    0.368
  569.500   87.622    6.340    0.438    0.357
  569.750   85.225    6.233    0.421    0.363
  570.000   87.126    6.127    0.426    0.353
  570.250  101.255    6.134    0.448    0.333
  570.500  109.875    6.030    0.444    0.308
  570.750  110.552    5.820    0.412    0.301
  571.000  111.814    5.508    0.387    0.323
  571.250  116.788    5.217    0.376    0.315
  571.500  119.887    5.129    0.365    0.271
  571.750  124.835    4.948    0.358    0.239
  572.000  129.783    4.954    0.352    0.236
  572.250  132.908    4.870    0.348    0.236
  572.500  130.511    4.879    0.348    0.233
  572.750  127.489    4.797    0.353    0.232
  573.000  118.972    4.802    0.360    0.233
  573.250  104.333    4.633    0.361    0.234
  573.500   99.501    4.644    0.365    0.232
  573.750   99.552    4.562    0.365    0.230
  574.000  100.828    4.488    0.359    0.229
  574.250  105.776    4.491    0.351    0.228
  574.500  110.099    4.499    0.340    0.221
  574.750  115.659    4.511    0.341    0.211
  575.000  119.383    4.517    0.347    0.201
