~VERSION INFORMATION
 VERS.                 2.0:   CWLS LOG ASCII STANDARD -VERSION 2.0
 WRAP.                  NO:   ONE LINE PER DEPTH STEP
~WELL INFORMATION BLOCK
#MNEM.UNIT           DATA                    DESCRIPTION OF MNEMONIC
#---------    -------------------            -------------------------------
# Generated from Intellog Unique Number	CS_77_79/WELL/1010
WELL.         MAYNARD ET AL THORNBURY        : Well_name    - WELL
LOC .         00/11-35-079-12W4/0            : Location     - LOCATION
UWI .         00/11-35-079-12W4/0            : Uwi          - UNIQUE WELL ID
ENTR.         JHS                            : Entered      - ENTERED BY
SRVC.         SCHLUMBERGER                   : Scn          - SERVICE COMPANY
STRT.M        215                            : top_depth    - START DEPTH
STOP.M        480                            : bot_depth    - STOP DEPTH
STEP.M        0.25                           : increment    - STEP LENGTH
 NULL. -999.2500:NULL Value
~CURVE INFORMATION BLOCK
#MNEM UNIT       ERCB CURVE CODE    CURVE DESCRIPTION
#-----------   ------------------   ----------------------------------
DEPT.M        00 001 00 00         : DEPTH        - DEPTH
DPHI.V/V      00 890 00 00         : PHID         - DENSITY POROSITY (LIMESTONE)
NPHI.V/V      00 330 00 00         : PHIN         - NEUTRON POROSITY (LIMESTONE)
GR  .API      00 310 00 00         : GR           - GAMMA RAY
ILD .OHMM     00 120 00 00         : RESD         - DEEP RESISTIVITY (DIL)
RHOB.KG/M3    00 350 00 00         : DENS         - BULK DENSITY
~PARAMETER INFORMATION
#MNEM.UNIT           DATA             DESCRIPTION OF MNEMONIC
#---------         -----------     ------------------------------
GL  .M        681.99               : gl           - GROUND LEVEL ELEVATION
EREF.M        685.19               : kb           - ELEVATION OF DEPTH REFERENCE
DATM.M        685.19               : datum        - DATUM ELEVATION
TDD .M        495                  : tdd          - TOTAL DEPTH DRILLER
RUN .         ONE                  : Run          - RUN NUMBER
ENG .         BILL                 : Engineer     - RECORDING ENGINEER
WIT .         JIM                  : Witness      - WITNESSED BY
MUD .         GEL                  : Mud_type     - MUD TYPE
MATR.         LIMESTONE            : Logunit      - NEUTRON MATRIX
TMAX.C        20                   : BHT          - MAXIMUM RECORDED TEMPERATURE
BHTD.M        495                  : BHTDEP       - MAXIMUM RECORDED TEMPERATURE
MATR.         1                    : LOGUNIT      - NEUTRON MATRIX
RMT .C        25                   : MDTP         - TEMPERATURE OF MUD
NEUT.         1                    : NEUTRON      - NEUTRON TYPE
RESI.         0                    : RESIST       - RESISTIVITY TYPE
RMC .OHMM     0.25                 : RMC          - RESISTIVITY OF MUD CAKE
RMF .OHMM     0.25                 : RMF          - RESISTIVITY OF MUD FILTRATE
SUFT.C        15                   : SUFT         - SURFACE TEMPERATURE
~A  DEPTH     PHID     PHIN       GR     RESD     DENS
# ...
  251.500    0.197    0.493  109.180    3.769    0.000
  251.750    0.213    0.502  105.509    3.769    0.000
  252.000    0.221    0.505  103.082    3.687    0.000
  252.250    0.222    0.503  103.726    3.688    0.000
  252.500    0.214    0.496  103.759    3.606    0.000
  252.750    0.202    0.494  105.647    3.524    0.000
  253.000    0.203    0.483  107.535    3.524    0.000
  253.250    0.201    0.476  107.564    3.525    0.000
  253.500    0.209    0.486  106.986    3.525    0.000
  253.750    0.213    0.490  107.012    3.608    0.000
  254.000    0.211    0.482  108.283    3.608    0.000
  254.250    0.211    0.485  107.079    3.609    0.000
  254.500    0.211    0.495  107.114    3.692    0.000
  254.750    0.209    0.506  108.383    3.692    0.000
  255.000    0.199    0.512  109.040    3.693    0.000
  255.250    0.200    0.523  107.218    3.693    0.000
  255.500    0.213    0.524  104.779    3.693    0.000
  255.750    0.218    0.514  102.960    3.776    0.000
  256.000    0.226    0.498  101.759    3.941    0.000
  256.250    0.235    0.473   99.939    4.024    0.000
  256.500    0.238    0.449   96.886    4.189    0.000
  256.750    0.237    0.413   88.897    4.519    0.000
  257.000    0.222    0.381   71.027    5.095    0.000
  257.250    0.192    0.382   69.209    5.507    0.000
  257.500    0.239    0.389   70.481    5.755    0.000
  257.750    0.241    0.388   70.520    5.920    0.000
  258.000    0.244    0.393   74.251    6.908    0.000
  258.250    0.278    0.402   80.457    7.896    0.000
  258.500    0.266    0.378   80.491    9.049    0.000
  258.750    0.289    0.354   77.440   10.284    0.000
  259.000    0.326    0.344   74.381   11.683    0.000
  259.250    0.337    0.342   75.652   12.507    0.000
  259.500    0.322    0.353   84.944   12.096    0.000
  259.750    0.289    0.381   91.152   10.368    0.000
  260.000    0.254    0.400   94.882    7.981    0.000
  260.250    0.233    0.415   98.619    6.665    0.000
  260.500    0.215    0.431  100.505    5.925    0.000
  260.750    0.199    0.435  103.631    5.596    0.000
  261.000    0.198    0.394  103.656    5.596    0.000
  261.250    0.211    0.301   98.141    6.091    0.000
  261.500    0.238    0.244   88.918    6.996    0.000
  261.750    0.315    0.218   80.921    9.219    0.000
  262.000    0.336    0.194   72.311   23.770    0.000
  262.250    0.363    0.171   58.149   35.246    0.000
  262.500    0.385    0.155   39.674   51.639    0.000
  262.750    0.390    0.150   39.083   63.115    0.000
  263.000    0.393    0.149   40.357   68.033    0.000
  263.250    0.395    0.154   41.623   65.574    0.000
  263.500    0.400    0.161   44.130   60.656    0.000
  263.750    0.390    0.171   45.393   54.098    0.000
  264.000    0.387    0.180   44.807   48.361    0.000
  264.250    0.386    0.199   44.850   40.984    0.000
  264.500    0.386    0.223   47.961   31.148    0.000
  264.750    0.377    0.258   53.550   25.410    0.000
  265.000    0.364    0.314   57.905   20.492    0.000
  265.250    0.367    0.378   60.402   19.020    0.000
  265.500    0.394    0.433   61.063   14.987    0.000
  265.750    0.392    0.452   60.467   14.494    0.000
  266.000    0.387    0.451   57.417   14.247    0.000
  266.250    0.371    0.442   52.518   14.330    0.000
  266.500    0.331    0.429   51.310   15.153    0.000
  266.750    0.305    0.415   50.107   15.895    0.000
  267.000    0.311    0.399   50.140   16.224    0.000
  267.250    0.330    0.399   50.182   16.389    0.000
  267.500    0.338    0.401   50.216   16.307    0.000
  267.750    0.341    0.397   50.870   16.473    0.000
  268.000    0.337    0.396   52.134   16.555    0.000
  268.250    0.330    0.405   56.489   16.391    0.000
  268.500    0.318    0.401   60.834   16.062    0.000
  268.750    0.301    0.400   66.434   15.816    0.000
  269.000    0.291    0.403   68.307   15.240    0.000
  269.250    0.286    0.406   71.435   14.582    0.000
  269.500    0.279    0.402   72.700   13.759    0.000
  269.750    0.273    0.398   73.967   12.772    0.000
  270.000    0.259    0.394   75.240   11.867    0.000
  270.250    0.244    0.394   76.503   11.127    0.000
  270.500    0.221    0.397   79.625   10.387    0.000
  270.750    0.212    0.398   82.124    9.976    0.000
  271.000    0.234    0.400   85.252    9.976    0.000
  271.250    0.236    0.409   87.748   10.059    0.000
  271.500    0.251    0.415   91.483    9.977    0.000
  271.750    0.245    0.420   95.835    9.566    0.000
  272.000    0.230    0.422  101.423    9.155    0.000
  272.250    0.219    0.422  105.165    8.826    0.000
  272.500    0.211    0.422  106.424    8.827    0.000
  272.750    0.211    0.421  105.224    9.239    0.000
  273.000    0.212    0.422   99.091   10.062    0.000
  273.250    0.233    0.424   95.419   11.462    0.000
  273.500    0.262    0.430   91.745   12.614    0.000
  273.750    0.276    0.430   84.988   14.096    0.000
  274.000    0.285    0.441   84.406   15.249    0.000
  274.250    0.298    0.435   88.759   15.908    0.000
  274.500    0.298    0.434   86.956   16.073    0.000
  274.750    0.297    0.436   86.367   15.909    0.000
  275.000    0.293    0.425   87.010   15.745    0.000
  275.250    0.285    0.421   87.049   15.416    0.000
  275.500    0.286    0.421   86.462   14.923    0.000
  275.750    0.291    0.426   86.495   14.676    0.000
  276.000    0.292    0.422   90.232   14.265    0.000
  276.250    0.284    0.420   96.436   14.101    0.000
  276.500    0.269    0.419  100.787   13.854    0.000
  276.750    0.256    0.421  103.910   13.773    0.000
  277.000    0.246    0.420  107.648   13.526    0.000
  277.250    0.234    0.416  110.768   13.115    0.000
  277.500    0.230    0.407  108.327   12.951    0.000
  277.750    0.221    0.401   99.718   12.951    0.000
  278.000    0.205    0.392   89.885   12.787    0.000
  278.250    0.202    0.387   85.589   12.458    0.000
  278.500    0.194    0.387   81.310   11.883    0.000
  278.750    0.200    0.395   85.047   11.307    0.000
  279.000    0.201    0.413   90.633   10.649    0.000
  279.250    0.184    0.423   95.600    9.662    0.000
  279.500    0.180    0.425  103.038    8.757    0.000
  279.750    0.176    0.429  109.254    8.016    0.000
  280.000    0.179    0.435  112.369    7.523    0.000
  280.250    0.191    0.448  117.337    6.865    0.000
  280.500    0.194    0.462  124.167    6.372    0.000
  280.750    0.180    0.477  125.424    6.125    0.000
  281.000    0.171    0.480  127.926    5.961    0.000
  281.250    0.167    0.481  126.122    5.879    0.000
  281.500    0.155    0.476  123.678    5.715    0.000
  281.750    0.142    0.473  121.865    5.633    0.000
  282.000    0.139    0.477  121.282    5.387    0.000
  282.250    0.132    0.480  121.921    5.222    0.000
  282.500    0.147    0.479  124.422    4.976    0.000
  282.750    0.167    0.480  129.396    4.812    0.000
  283.000    0.173    0.487  132.521    4.401    0.000
  283.250    0.181    0.503  133.176    3.743    0.000
  283.500    0.179    0.515  135.055    3.414    0.000
  283.750    0.190    0.515  136.322    3.332    0.000
  284.000    0.194    0.508  136.352    3.333    0.000
  284.250    0.193    0.479  133.928    3.580    0.000
  284.500    0.212    0.467  132.108    4.157    0.000
  284.750    0.219    0.452  129.050    4.980    0.000
  285.000    0.225    0.441  122.296    6.133    0.000
  285.250    0.241    0.431  116.770    7.615    0.000
  285.500    0.234    0.436  111.871   10.084    0.000
  285.750    0.233    0.437  108.201   12.060    0.000
  286.000    0.251    0.432  102.671   13.213    0.000
  286.250    0.258    0.431   96.536   13.625    0.000
  286.500    0.269    0.437   93.481   13.296    0.000
  286.750    0.288    0.436   92.276   12.473    0.000
  287.000    0.274    0.435   94.783   10.828    0.000
  287.250    0.254    0.443  105.314    8.524    0.000
  287.500    0.227    0.460  111.518    7.289    0.000
  287.750    0.199    0.467  115.866    6.631    0.000
