~VERSION INFORMATION
 VERS.                 2.0:   CWLS LOG ASCII STANDARD -VERSION 2.0
 WRAP.                  NO:   ONE LINE PER DEPTH STEP
~WELL INFORMATION BLOCK
#MNEM.UNIT           DATA                    DESCRIPTION OF MNEMONIC
#---------    -------------------            -------------------------------
# Generated from Intellog Unique Number	CS_77_79/WELL/946
WELL.         AMOCO B-1 LEISMER              : Well_name    - WELL
LOC .         00/10-11-078-10W4/0            : Location     - LOCATION
UWI .         00/10-11-078-10W4/0            : Uwi          - UNIQUE WELL ID
ENTR.         JHS                            : Entered      - ENTERED BY
SRVC.         SCHLUMBERGER                   : Scn          - SERVICE COMPANY
STRT.M        198.12                         : top_depth    - START DEPTH
STOP.M        429.62                         : bot_depth    - STOP DEPTH
STEP.M        0.25                           : increment    - STEP LENGTH
 NULL. -999.2500:NULL Value
~CURVE INFORMATION BLOCK
#MNEM UNIT       ERCB CURVE CODE    CURVE DESCRIPTION
#-----------   ------------------   ----------------------------------
DEPT.M        00 001 00 00         : DEPTH        - DEPTH
RHOB.KG/M3    00 350 00 00         : DENS         - BULK DENSITY
GR  .API      00 310 00 00         : GR           - GAMMA RAY
DPHI.V/V      00 890 00 00         : PHID         - DENSITY POROSITY (SANDSTONE)
NPHI.V/V      00 330 00 00         : PHIN         - NEUTRON POROSITY (SANDSTONE)
ILD .OHMM     00 120 00 00         : RESD         - DEEP RESISTIVITY (DIL)
~PARAMETER INFORMATION
#MNEM.UNIT           DATA             DESCRIPTION OF MNEMONIC
#---------         -----------     ------------------------------
GL  .M        619.354              : gl           - GROUND LEVEL ELEVATION
EREF.M        622.097              : kb           - ELEVATION OF DEPTH REFERENCE
DATM.M        622.097              : datum        - DATUM ELEVATION
TDD .M        429.768              : tdd          - TOTAL DEPTH DRILLER
RUN .         ONE                  : Run          - RUN NUMBER
ENG .         BILL                 : Engineer     - RECORDING ENGINEER
WIT .         JIM                  : Witness      - WITNESSED BY
MUD .         GEL                  : Mud_type     - MUD TYPE
MATR.         SANDSTONE            : Logunit      - NEUTRON MATRIX
TMAX.C        30                   : BHT          - MAXIMUM RECORDED TEMPERATURE
BHTD.M        429.768              : BHTDEP       - MAXIMUM RECORDED TEMPERATURE
MATR.         1                    : LOGUNIT      - NEUTRON MATRIX
RMT .C        25                   : MDTP         - TEMPERATURE OF MUD
NEUT.         1                    : NEUTRON      - NEUTRON TYPE
RESI.         0                    : RESIST       - RESISTIVITY TYPE
RMC .OHMM     0.25                 : RMC          - RESISTIVITY OF MUD CAKE
RMF .OHMM     0.25                 : RMF          - RESISTIVITY OF MUD FILTRATE
SUFT.C        15                   : SUFT         - SURFACE TEMPERATURE
~A  DEPTH     DENS       GR     PHID     PHIN     RESD
# ...
  344.120   -0.000   76.140    0.275    0.490    6.724
  344.370   -0.000   67.843    0.292    0.486    6.938
  344.620   -0.000   65.773    0.277    0.477    7.184
  344.870    0.000   67.577    0.295    0.469    7.517
  345.120    0.000   67.755    0.305    0.468    7.755
  345.370    0.000   67.307    0.290    0.482    8.015
  345.620   -0.000   68.891    0.288    0.477    8.386
  345.870   -0.000   68.947    0.259    0.475    8.832
  346.120   -0.001   66.632    0.247    0.462    9.087
  346.370    0.022   64.520    0.186    0.437    9.089
  346.620    0.256   60.929    0.130    0.321    8.797
  346.870    0.150   62.066    0.088    0.339    8.447
  347.120  -17.504   65.663    0.127    0.426    8.043
  347.370 -148.317   73.676    0.198    0.477    7.817
  347.620 2176.210   73.031    0.258    0.480    7.597
  347.870 2286.270   70.323    0.216    0.480    7.226
  348.120 2354.110   71.391    0.206    0.476    7.027
  348.370 2358.610   73.448    0.206    0.472    6.828
  348.620 2265.350   74.001    0.260    0.464    6.690
  348.870 2226.870   72.968    0.283    0.469    6.562
  349.120 2218.620   72.480    0.287    0.484    6.580
  349.370 2209.270   72.468    0.293    0.493    6.631
  349.620 2194.300   73.177    0.302    0.491    6.705
  349.870 2207.610   73.576    0.294    0.482    6.711
  350.120 2220.010   74.606    0.287    0.464    6.707
  350.370 2214.720   75.662    0.290    0.459    6.844
  350.620 2230.250   75.028    0.281    0.481    6.834
  350.870 2245.240   75.130    0.272    0.479    6.994
  351.120 2238.810   75.118    0.276    0.459    6.987
  351.370 2280.550   77.660    0.251    0.450    7.014
  351.620 2305.390   80.844    0.237    0.467    6.709
  351.870 2401.700   82.826    0.180    0.457    6.524
  352.120 2441.090   83.453    0.157    0.446    6.272
  352.370 2452.460   83.216    0.151    0.457    6.157
  352.620 2372.570   88.618    0.197    0.482    6.120
  352.870 2349.980   94.288    0.211    0.492    6.505
  353.120 2380.610   93.867    0.193    0.485    6.773
  353.370 2377.860   90.227    0.194    0.456    6.997
  353.620 2350.410   92.701    0.210    0.442    7.026
  353.870 2349.930   94.022    0.211    0.442    7.048
  354.120 2363.560   93.424    0.203    0.465    6.445
  354.370 2351.850   91.332    0.209    0.470    5.898
  354.620 2366.160   88.898    0.201    0.469    5.399
  354.870 2387.300   86.729    0.189    0.468    4.817
  355.120 2383.740   83.803    0.191    0.475    4.009
  355.370 2341.190   82.837    0.216    0.492    3.531
  355.620 2330.570   84.225    0.222    0.509    2.974
  355.870 2318.550   86.583    0.229    0.535    2.515
  356.120 2262.150   85.293    0.262    0.589    2.303
  356.370 2223.080   82.828    0.285    0.600    2.158
  356.620 2221.580   80.065    0.286    0.604    2.072
  356.870 2249.710   79.470    0.269    0.613    2.073
  357.120 2213.680   79.551    0.290    0.618    2.073
  357.370 2219.660   79.032    0.287    0.619    2.110
  357.620 2232.540   78.370    0.279    0.614    2.180
  357.870 2255.450   79.504    0.266    0.594    2.194
  358.120 2275.810   83.590    0.254    0.573    2.230
  358.370 2266.710   86.392    0.259    0.564    2.292
  358.620 2262.630   86.885    0.262    0.570    2.531
  358.870 2287.740   86.986    0.247    0.566    2.897
  359.120 2316.220   86.127    0.230    0.511    3.323
  359.370 2352.680   85.192    0.209    0.487    3.703
  359.620 2378.990   85.058    0.194    0.466    4.377
  359.870 2365.510   87.298    0.201    0.474    5.372
  360.120 2400.530   85.985    0.181    0.452    6.393
  360.370 2435.940   81.366    0.160    0.432    7.206
  360.620 2473.430   79.233    0.138    0.409    8.084
  360.870 2511.220   78.645    0.116    0.396    8.048
  361.120 2469.510   84.186    0.141    0.407    7.026
  361.370 2432.450   88.301    0.162    0.480    6.123
  361.620 2368.540   92.507    0.200    0.479    5.335
  361.870 2372.290   92.942    0.197    0.472    4.777
  362.120 2384.720   93.347    0.190    0.470    4.290
  362.370 2394.870   94.478    0.184    0.479    4.119
  362.620 2400.570   93.403    0.181    0.491    3.975
  362.870 2392.680   91.641    0.186    0.493    3.935
  363.120 2375.270   94.931    0.196    0.503    3.862
  363.370 2370.920   96.674    0.198    0.527    3.739
  363.620 2376.390   94.898    0.195    0.531    3.596
  363.870 2366.830   90.802    0.201    0.521    3.660
  364.120 2345.960   89.964    0.213    0.502    4.003
  364.370 2339.720   89.001    0.217    0.486    4.529
  364.620 2383.280   87.827    0.191    0.474    4.947
  364.870 2411.960   88.998    0.174    0.461    5.024
  365.120 2452.030   89.566    0.151    0.462    4.956
  365.370 2379.250   89.362    0.193    0.473    4.979
  365.620 2350.940   88.360    0.210    0.485    5.035
  365.870 2376.810   85.445    0.195    0.475    5.325
  366.120 2394.090   82.894    0.185    0.443    5.871
  366.370 2425.600   83.674    0.166    0.424    6.625
  366.620 2406.350   82.745    0.178    0.431    7.725
  366.870 2419.920   78.724    0.170    0.426    9.236
  367.120 2455.780   72.755    0.149    0.352   10.223
  367.370 2476.680   66.571    0.136    0.329   12.149
  367.620 2440.380   62.320    0.158    0.330   14.486
  367.870 2276.680   65.134    0.253    0.338   16.126
  368.120 2230.400   65.207    0.280    0.353   15.937
  368.370 2243.810   65.975    0.273    0.372   14.983
  368.620 2286.250   69.075    0.248    0.392   14.364
  368.870 2341.530   70.214    0.215    0.416   14.034
  369.120 2310.940   68.261    0.233    0.427   14.513
  369.370 2280.710   66.225    0.251    0.428   14.770
  369.620 2292.220   65.844    0.244    0.422   15.677
  369.870 2309.030   67.606    0.234    0.406   17.394
  370.120 2331.240   67.851    0.222    0.375   20.469
  370.370 2344.840   63.231    0.214    0.353   27.190
  370.620 2248.150   57.621    0.270    0.332   36.623
  370.870 2195.750   47.973    0.301    0.336   52.750
  371.120 2178.830   44.478    0.311    0.387   74.577
  371.370 2214.650   47.159    0.290    0.412  100.220
  371.620 2214.880   49.791    0.290    0.384  108.780
  371.870 2197.460   54.907    0.300    0.378  106.238
  372.120 2220.320   64.102    0.286    0.388   97.714
  372.370 2199.680   67.438    0.298    0.393   86.890
  372.620 2225.330   71.975    0.283    0.398   79.598
  372.870 2258.950   69.305    0.264    0.408   69.317
  373.120 2225.370   62.353    0.283    0.420   60.148
  373.370 2227.590   62.340    0.282    0.409   50.844
  373.620 2238.950   65.985    0.275    0.410   45.260
  373.870 2290.810   72.452    0.245    0.423   37.612
  374.120 2277.650   72.925    0.253    0.435   33.099
  374.370 2257.180   79.480    0.265    0.385   27.785
  374.620 2293.490   81.687    0.244    0.400   24.448
  374.870 2283.380   81.330    0.249    0.420   20.908
  375.120 2264.470   77.957    0.261    0.435   18.639
  375.370 2247.060   74.552    0.271    0.418   17.771
  375.620 2312.100   77.749    0.233    0.398   17.274
  375.870 2449.120   79.761    0.153    0.339   16.287
  376.120 2546.560   81.004    0.096    0.294   14.882
  376.370 2570.900   92.387    0.081    0.304   13.087
  376.620 2498.420  101.672    0.124    0.391   11.268
  376.870 2349.840  105.643    0.211    0.441   10.329
  377.120 2353.740  105.402    0.208    0.440   10.087
  377.370 2342.590  104.257    0.215    0.436   10.344
  377.620 2323.460   95.335    0.226    0.409   11.469
  377.870 2323.690   83.640    0.226    0.375   13.763
  378.120 2334.270   73.178    0.220    0.360   16.157
  378.370 2308.360   67.641    0.235    0.360   18.598
  378.620 2302.050   62.149    0.239    0.366   20.392
  378.870 2298.860   60.323    0.240    0.373   20.815
  379.120 2294.140   69.253    0.243    0.369   21.066
  379.370 2368.170   79.784    0.200    0.366   19.860
  379.620 2403.520   85.291    0.179    0.367   17.527
  379.870 2421.190   86.855    0.169    0.370   15.322
  380.120 2395.390   83.223    0.184    0.376   14.408
  380.370 2387.490   71.752    0.189    0.379   15.365
