~VERSION INFORMATION
 VERS.                 2.0:   CWLS LOG ASCII STANDARD -VERSION 2.0
 WRAP.                  NO:   ONE LINE PER DEPTH STEP
~WELL INFORMATION BLOCK
#MNEM.UNIT           DATA                    DESCRIPTION OF MNEMONIC
#---------    -------------------            -------------------------------
# Generated from Intellog Unique Number	CW_70_72/WELL/1031
NULL.         -999.25                        : NULL_VALUE
WELL.         SUNCOR TOMATO 10-01            : Well_name    - WELL              
LOC .         10-01-072-24W4                 : Location     - LOCATION          
UWI .         00/10-01-072-24W4/0            : Uwi          - UNIQUE WELL ID    
ENTR.         JAYE                           : Entered      - ENTERED BY        
SRVC.         COMPUTALOG                     : Scn          - SERVICE COMPANY   
DATE.         3 MAR 80                       : Date         - LOG DATE          
STRT.M        435                            : top_depth    - START DEPTH       
STOP.M        645                            : bot_depth    - STOP DEPTH        
STEP.M        0.25                           : increment    - STEP LENGTH       
~CURVE INFORMATION BLOCK
#MNEM UNIT       ERCB CURVE CODE    CURVE DESCRIPTION
#-----------   ------------------   ----------------------------------
DEPT.M        00 001 00 00         : DEPTH        - DEPTH                       
DPHI.V/V      00 890 00 00         : PHID         - DENSITY POROSITY (SANDSTONE)
NPHI.V/V      00 330 00 00         : PHIN         - NEUTRON POROSITY (SANDSTONE)
GR  .API      00 310 00 00         : GR           - GAMMA RAY                   
CALI.MM       00 280 01 00         : CAL          - CALIPER                     
ILD .OHMM     00 120 00 00         : RESD         - DEEP RESISTIVITY (DIL)      
~PARAMETER INFORMATION       
#MNEM.UNIT           DATA             DESCRIPTION OF MNEMONIC
#---------         -----------     ------------------------------
GL  .M        670.96               : gl           - GROUND LEVEL ELEVATION      
EREF.M        674.31               : kb           - ELEVATION OF DEPTH REFERENCE
DATM.M        670.96               : datum        - DATUM ELEVATION             
TDD .M        662                  : tdd          - TOTAL DEPTH DRILLER         
RUN .         ONE                  : Run          - RUN NUMBER                  
ENG .         JESIOLOWSKI          : Engineer     - RECORDING ENGINEER          
WIT .         KOKOTOTLO            : Witness      - WITNESSED BY                
BASE.         EDM                  : Branch       - HOME BASE OF LOGGING UNIT   
MUD .         GEL CHEM             : Mud_type     - MUD TYPE                    
MATR.         SANDSTONE            : Logunit      - NEUTRON MATRIX              
TMAX.C        21                   : BHT          - MAXIMUM RECORDED TEMPERATURE
BHTD.M        662                  : BHTDEP       - MAXIMUM RECORDED TEMPERATURE
RMT .C        16.6                 : MDTP         - TEMPERATURE OF MUD          
MUDD.KG/M     1140                 : MWT          - MUD DENSITY                 
NEUT.         1                    : NEUTRON      - NEUTRON TYPE                
RESI.         0                    : RESIST       - RESISTIVITY TYPE            
RM  .OHMM     6                    : RM           - RESISTIVITY OF MUD          
RMC .OHMM     0                    : RMC          - RESISTIVITY OF MUD CAKE     
RMF .OHMM     5.8                  : RMF          - RESISTIVITY OF MUD FILTRATE 
SUFT.C        0                    : SUFT         - SURFACE TEMPERATURE         
~A  DEPTH     PHID     PHIN       GR      CAL     RESD
# ...
  581.000    0.153    0.387  104.763  158.144    4.774
  581.250    0.142    0.369  105.586  158.067    4.720
  581.500    0.120    0.347   95.985  157.990    4.781
  581.750    0.108    0.311   97.366  157.811    4.926
  582.000    0.129    0.275  104.332  157.628    5.152
  582.250    0.169    0.301  109.558  157.448    5.542
  582.500    0.177    0.359  110.691  157.165    5.604
  582.750    0.166    0.328   99.600  156.784    5.357
  583.000    0.153    0.329  102.843  156.599    5.026
  583.250    0.159    0.358  109.807  156.522    4.751
  583.500    0.158    0.326  114.911  156.341    4.662
  583.750    0.154    0.295  111.080  154.710    4.653
  584.000    0.153    0.322  111.840  152.875    4.661
  584.250    0.161    0.350  122.404  151.558    4.689
  584.500    0.175    0.356  128.313  151.587    4.713
  584.750    0.162    0.358  112.012  152.544    4.740
  585.000    0.140    0.351  110.786  153.707    4.775
  585.250    0.149    0.333  109.189  154.975    4.792
  585.500    0.128    0.317  101.201  156.345    4.827
  585.750    0.151    0.303  112.322  157.611    4.837
  586.000    0.164    0.302  119.164  158.775    4.862
  586.250    0.152    0.343  115.767  159.731    4.889
  586.500    0.150    0.341  112.867  160.485    4.888
  586.750    0.154    0.324  108.725  160.819    4.897
  587.000    0.155    0.315  103.592  160.949    4.879
  587.250    0.144    0.324  108.384  160.870    4.877
  587.500    0.141    0.356  118.327  160.588    4.859
  587.750    0.152    0.399  115.118  160.512    4.858
  588.000    0.164    0.342  104.399  160.126    4.848
  588.250    0.182    0.296   99.204  159.941    4.857
  588.500    0.171    0.281   93.387  159.766    4.930
  588.750    0.141    0.278   90.672  159.891    5.023
  589.000    0.134    0.286  105.021  160.021    5.165
  589.250    0.156    0.305  113.102  159.842    5.321
  589.500    0.168    0.327  119.322  159.763    5.393
  589.750    0.169    0.375  115.865  159.686    5.380
  590.000    0.158    0.347  108.869  159.510    5.280
  590.250    0.149    0.349  105.349  159.635    5.076
  590.500    0.164    0.337  100.772  159.660    5.009
  590.750    0.153    0.332   95.824  159.900    5.048
  591.000    0.141    0.349   99.004  160.126    5.105
  591.250    0.142    0.366   98.834  160.152    5.140
  591.500    0.147    0.329   99.594  160.181    5.220
  591.750    0.148    0.316  102.650  160.210    5.246
  592.000    0.150    0.295  109.925  160.337    5.336
  592.250    0.132    0.285   97.656  160.367    5.601
  592.500    0.085    0.295  102.139  160.286    5.804
  592.750    0.093    0.315  110.841  160.107    5.868
  593.000    0.126    0.330  117.807  159.928    5.878
  593.250    0.145    0.317  121.793  159.743    5.791
  593.500    0.142    0.313  123.049  159.570    5.738
  593.750    0.146    0.304  113.076  159.387    5.746
  594.000    0.144    0.294  105.461  159.415    5.822
  594.250    0.149    0.317  102.249  159.443    5.887
  594.500    0.147    0.346   90.042  159.364    6.144
  594.750    0.094    0.365   82.116  159.283    7.085
  595.000    0.063    0.166   71.274  159.207    8.214
  595.250    0.098    0.202   85.436  159.125    9.363
  595.500    0.146    0.254   90.355  158.847   10.734
  595.750    0.174    0.282   90.184  158.869   11.589
  596.000    0.135    0.279   95.535  158.791   11.018
  596.250    0.098    0.261  100.080  158.613   10.315
  596.500    0.076    0.310   89.672  158.433    9.517
  596.750    0.031    0.356   81.250  158.150    9.081
  597.000    0.083    0.288   87.780  157.972    8.814
  597.250    0.114    0.295   94.869  157.992    8.393
  597.500    0.142    0.330   95.258  158.017    7.741
  597.750    0.137    0.332   98.189  158.048    7.101
  598.000    0.085    0.307   99.136  158.174    6.576
  598.250    0.098    0.289  102.006  158.099    6.089
  598.500    0.134    0.301  104.505  158.329    5.703
  598.750    0.148    0.314  106.319  158.465    5.369
  599.000    0.110    0.281  106.707  158.590    5.057
  599.250    0.101    0.276  105.233  158.825    5.066
  599.500    0.116    0.294  102.332  158.955    5.124
  599.750    0.127    0.335   97.944  158.981    5.200
  600.000    0.117    0.263   93.553  159.005    5.288
  600.250    0.117    0.260   94.626  158.930    5.356
  600.500    0.140    0.284   99.542  158.852    5.436
  600.750    0.135    0.314  100.736  158.882    5.487
  601.000    0.092    0.292   96.967  158.800    5.549
  601.250    0.097    0.292   99.775  158.933    5.643
  601.500    0.117    0.331  109.532  158.854    5.740
  601.750    0.122    0.314  105.143  158.781    5.825
  602.000    0.070    0.302   98.706  158.801    5.868
  602.250    0.051    0.300   97.543  161.315    5.888
  602.500    0.036    0.304   94.767  159.994    5.932
  602.750    0.023    0.285   92.798  158.471    6.192
  603.000    0.082    0.230   88.655  157.256    6.673
  603.250    0.111    0.228   98.350  156.763    7.245
  603.500    0.147    0.297  107.922  156.273    7.340
  603.750    0.105    0.315  105.953  155.990    6.811
  604.000    0.084    0.315  103.176  155.500    6.572
  604.250    0.047    0.289  100.462  155.321    6.437
  604.500    0.039    0.238   95.264  155.452    6.462
  604.750    0.096    0.228   92.923  155.575    6.581
  605.000    0.113    0.275  104.479  156.126    6.885
  605.250    0.065    0.258  101.703  156.150    7.172
  605.500    0.073    0.243  100.540  156.172    7.460
  605.750    0.115    0.311  106.140  156.198    7.416
  606.000    0.138    0.296  110.498  156.226    7.144
  606.250    0.130    0.278  114.237  156.766    6.853
  606.500    0.120    0.283  114.750  157.521    6.467
  606.750    0.121    0.295  108.748  157.648    6.148
  607.000    0.121    0.287  105.041  157.779    5.954
  607.250    0.114    0.278  102.139  157.910    5.855
  607.500    0.098    0.264   99.674  157.729    5.831
  607.750    0.102    0.269  106.825  157.653    5.812
  608.000    0.113    0.295  110.625  157.264    5.831
  608.250    0.118    0.300  107.291  157.184    5.819
  608.500    0.114    0.275  104.205  157.833    5.850
  608.750    0.062    0.254  101.118  159.408    5.916
  609.000    0.078    0.243   97.597  161.091    6.086
  609.250    0.122    0.262  100.900  162.149    6.140
  609.500    0.143    0.236  118.041  163.623    5.903
  609.750    0.178    0.325  131.024  164.789    5.285
  610.000    0.196    0.338  117.948  165.021    4.422
  610.250    0.179    0.336  118.026  164.843    3.571
  610.500    0.191    0.341  126.666  164.558    3.138
  610.750    0.207    0.369  126.495  164.277    2.727
  611.000    0.225    0.403  122.294  164.401    2.492
  611.250    0.216    0.441  117.283  164.636    2.351
  611.500    0.177    0.421  111.901  164.765    2.316
  611.750    0.075    0.354  109.001  162.932    2.477
  612.000    0.075    0.280  107.092  160.887    2.655
  612.250    0.085    0.282  103.261  159.466    2.813
  612.500    0.096    0.292  101.850  160.013    2.824
  612.750    0.106    0.279  116.322  162.211    2.709
  613.000    0.125    0.313  124.714  164.096    2.523
  613.250    0.159    0.365  124.978  166.606    2.466
  613.500    0.138    0.350  132.812  168.183    2.796
  613.750    0.125    0.332  129.663  168.106    3.290
  614.000    0.120    0.321  114.416  166.478    3.909
  614.250    0.090    0.337   96.811  164.640    4.558
  614.500    0.019    0.124   76.290  161.981    4.829
  614.750   -0.013    0.105   69.357  160.148    5.060
  615.000    0.018    0.223   84.139  159.240    5.822
  615.250    0.080    0.265  108.663  158.541    6.228
  615.500    0.066    0.308  104.211  158.052    8.296
  615.750    0.047    0.275   98.644  158.080    8.201
  616.000    0.063    0.260   95.991  158.311    7.356
  616.250    0.086    0.275  104.941  158.648    6.622
  616.500    0.101    0.322  106.944  159.189    5.873
  616.750    0.088    0.335  107.766  159.629    5.211
  617.000    0.073    0.280  102.258  159.966    4.672
  617.250    0.059    0.275  111.209  160.509    4.326
