~VERSION INFORMATION
 VERS.                 2.0:   CWLS LOG ASCII STANDARD -VERSION 2.0
 WRAP.                  NO:   ONE LINE PER DEPTH STEP
~WELL INFORMATION BLOCK
#MNEM.UNIT           DATA                    DESCRIPTION OF MNEMONIC
#---------    -------------------            -------------------------------
# Generated from Intellog Unique Number	CS_67_68/WELL/2210
WELL.         INTER-CITY GAS ET AL TWEED     : Well_name    - WELL
LOC .         00/11-36-067-13W4/0            : Location     - LOCATION
UWI .         00/11-36-067-13W4/0            : Uwi          - UNIQUE WELL ID
ENTR.         SP                             : Entered      - ENTERED BY
SRVC.         SCHLUMBERGER                   : Scn          - SERVICE COMPANY
STRT.M        304.8                          : top_depth    - START DEPTH
STOP.M        480.050                        : bot_depth    - STOP DEPTH
STEP.M        0.25                           : increment    - STEP LENGTH
 NULL. -999.2500:NULL Value
~CURVE INFORMATION BLOCK
#MNEM UNIT       ERCB CURVE CODE    CURVE DESCRIPTION
#-----------   ------------------   ----------------------------------
DEPT.M        00 001 00 00         : DEPTH        - DEPTH
CALI.MM       00 280 01 00         : CAL          - CALIPER
GR  .API      00 310 00 00         : GR           - GAMMA RAY
DPHI.V/V      00 890 00 00         : PHID         - DENSITY POROSITY (SANDSTONE)
NPHI.V/V      00 330 00 00         : PHIN         - NEUTRON POROSITY (SANDSTONE)
ILD .OHMM     00 120 00 00         : RESD         - DEEP RESISTIVITY (DIL)
~PARAMETER INFORMATION
#MNEM.UNIT           DATA             DESCRIPTION OF MNEMONIC
#---------         -----------     ------------------------------
GL  .M        587.654              : gl           - GROUND LEVEL ELEVATION
EREF.M        590.398              : kb           - ELEVATION OF DEPTH REFERENCE
DATM.M        590.398              : datum        - DATUM ELEVATION
TDD .M        478.536              : tdd          - TOTAL DEPTH DRILLER
RUN .         ONE                  : Run          - RUN NUMBER
ENG .         BILL                 : Engineer     - RECORDING ENGINEER
WIT .         JIM                  : Witness      - WITNESSED BY
MUD .         GEL                  : Mud_type     - MUD TYPE
MATR.         SANDSTONE            : Logunit      - NEUTRON MATRIX
TMAX.C        60                   : BHT          - MAXIMUM RECORDED TEMPERATURE
BHTD.M        478.536              : BHTDEP       - MAXIMUM RECORDED TEMPERATURE
MATR.         1                    : LOGUNIT      - NEUTRON MATRIX
RMT .C        25                   : MDTP         - TEMPERATURE OF MUD
NEUT.         1                    : NEUTRON      - NEUTRON TYPE
RESI.         0                    : RESIST       - RESISTIVITY TYPE
RMC .OHMM     0.25                 : RMC          - RESISTIVITY OF MUD CAKE
RMF .OHMM     0.25                 : RMF          - RESISTIVITY OF MUD FILTRATE
SUFT.C        15                   : SUFT         - SURFACE TEMPERATURE
~A  DEPTH      CAL       GR     PHID     PHIN     RESD
# ...
  414.300  156.454   79.453    0.264    0.461    2.292
  414.550  157.218   79.941    0.273    0.478    2.316
  414.800  161.264   80.949    0.276    0.481    2.330
  415.050  163.064   81.749    0.268    0.463    2.335
  415.300  164.313   82.935    0.245    0.449    2.334
  415.550  165.517   83.512    0.246    0.443    2.334
  415.800  166.021   83.256    0.256    0.443    2.317
  416.050  165.860   81.838    0.262    0.445    2.303
  416.300  165.310   79.213    0.266    0.447    2.361
  416.550  164.739   78.484    0.264    0.446    2.500
  416.800  164.230   78.585    0.258    0.453    2.705
  417.050  163.550   78.809    0.249    0.457    2.852
  417.300  162.741   78.836    0.250    0.465    2.960
  417.550  161.476   78.649    0.225    0.442    3.012
  417.800  160.467   79.169    0.196    0.394    2.996
  418.050  160.833   81.473    0.173    0.374    2.842
  418.300  162.448   83.264    0.160    0.414    2.651
  418.550  162.596   84.535    0.199    0.439    2.529
  418.800  161.410   85.569    0.225    0.456    2.516
  419.050  160.695   85.028    0.231    0.455    2.503
  419.300  161.029   85.671    0.241    0.450    2.542
  419.550  161.157   86.981    0.239    0.443    2.591
  419.800  161.236   88.950    0.239    0.437    2.645
  420.050  161.707   92.027    0.246    0.446    2.698
  420.300  162.016   95.836    0.257    0.452    2.764
  420.550  161.884   99.743    0.264    0.457    2.848
  420.800  161.346  103.077    0.256    0.459    2.998
  421.050  160.466  105.103    0.268    0.471    3.142
  421.300  160.002  107.063    0.255    0.485    3.261
  421.550  159.177  109.117    0.241    0.491    3.351
  421.800  158.390  110.827    0.229    0.487    3.385
  422.050  158.452  113.641    0.208    0.471    3.400
  422.300  160.411  117.045    0.191    0.463    3.390
  422.550  164.847  121.241    0.186    0.469    3.308
  422.800  169.246  124.884    0.190    0.469    3.092
  423.050  171.143  124.319    0.199    0.460    2.900
  423.300  172.767  123.309    0.204    0.453    2.739
  423.550  173.110  122.823    0.201    0.466    2.663
  423.800  173.108  120.941    0.195    0.488    2.771
  424.050  172.363  117.749    0.185    0.483    3.047
  424.300  171.464  115.783    0.171    0.475    3.345
  424.550  170.786  113.907    0.161    0.470    3.459
  424.800  170.832  113.418    0.182    0.461    3.451
  425.050  171.563  111.443    0.185    0.446    3.202
  425.300  173.025  111.502    0.161    0.446    2.867
  425.550  174.222  115.344    0.143    0.478    2.610
  425.800  174.045  120.583    0.189    0.512    2.393
  426.050  173.849  125.412    0.209    0.542    2.228
  426.300  173.728  127.760    0.219    0.566    2.114
  426.550  174.218  129.885    0.231    0.570    2.036
  426.800  175.156  128.981    0.226    0.574    1.986
  427.050  176.477  129.711    0.217    0.589    2.038
  427.300  176.825  131.009    0.219    0.598    2.165
  427.550  176.121  131.712    0.219    0.595    2.285
  427.800  176.044  131.011    0.229    0.575    2.442
  428.050  176.537  127.849    0.221    0.542    2.593
  428.300  177.006  124.236    0.207    0.521    2.745
  428.550  177.695  121.335    0.214    0.513    2.915
  428.800  178.393  119.358    0.201    0.507    3.100
  429.050  178.833  117.378    0.205    0.514    3.302
  429.300  178.887  119.446    0.201    0.532    3.563
  429.550  178.366  120.263    0.187    0.482    3.784
  429.800  177.141  115.795    0.174    0.455    3.983
  430.050  175.009  110.167    0.125    0.442    4.117
  430.300  173.074  106.265    0.109    0.441    4.154
  430.550  171.551  103.772    0.104    0.445    4.049
  430.800  170.680  109.039    0.140    0.447    3.915
  431.050  170.443  113.641    0.158    0.449    3.833
  431.300  170.335  116.502    0.164    0.449    3.797
  431.550  169.803  114.539    0.169    0.448    3.812
  431.800  169.066  110.734    0.178    0.446    3.850
  432.050  168.367  109.664    0.187    0.451    3.898
  432.300  167.710  110.503    0.190    0.458    4.000
  432.550  167.368  111.802    0.187    0.463    3.976
  432.800  166.772  112.370    0.178    0.468    3.990
  433.050  165.024  108.798    0.176    0.469    4.027
  433.300  163.404  107.467    0.170    0.463    4.285
  433.550  162.653  107.895    0.172    0.459    4.849
  433.800  162.274  109.276    0.178    0.461    5.700
  434.050  162.586  109.108    0.171    0.461    6.732
  434.300  162.925  105.246    0.157    0.457    8.255
  434.550  163.366   98.144    0.126    0.453    9.451
  434.800  163.521   92.394    0.086    0.427   10.085
  435.050  163.652   86.201    0.028    0.334   10.115
  435.300  164.815   76.162    0.003    0.249    8.847
  435.550  166.138   78.882   -0.000    0.237    7.506
  435.800  167.825   88.793    0.001    0.303    6.334
  436.050  168.343   99.364    0.022    0.382    5.641
  436.300  168.302  107.950    0.046    0.414    4.941
  436.550  168.262  113.135    0.086    0.423    4.490
  436.800  168.351  115.533    0.112    0.436    4.261
  437.050  168.408  115.812    0.139    0.448    4.336
  437.300  168.111  115.199    0.147    0.442    4.376
  437.550  167.378  114.839    0.157    0.431    4.410
  437.800  166.724  116.580    0.176    0.420    4.446
  438.050  166.425  117.379    0.135    0.428    4.440
  438.300  166.623  113.731    0.139    0.434    4.454
  438.550  166.978  115.327    0.169    0.431    4.537
  438.800  167.354  115.084    0.179    0.439    4.751
  439.050  167.583  115.753    0.168    0.442    5.209
  439.300  167.485  113.402    0.161    0.443    5.619
  439.550  167.260  109.015    0.149    0.436    5.791
  439.800  167.405  104.317    0.133    0.425    5.936
  440.050  167.736   97.791    0.119    0.408    5.952
  440.300  167.809  102.978    0.098    0.366    5.906
  440.550  167.014  109.456    0.108    0.411    5.745
  440.800  166.819  114.854    0.153    0.442    5.680
  441.050  166.866  113.588    0.164    0.437    5.853
  441.300  167.188  110.614    0.143    0.425    6.105
  441.550  167.320  108.010    0.124    0.416    6.039
  441.800  167.223  106.019    0.102    0.407    5.777
  442.050  166.908  106.737    0.079    0.395    5.498
  442.300  165.100  108.858    0.126    0.395    5.324
  442.550  162.776  110.314    0.171    0.411    5.201
  442.800  161.547  110.866    0.175    0.424    5.114
  443.050  162.515  108.755    0.153    0.432    5.067
  443.300  162.440  105.599    0.116    0.398    5.134
  443.550  161.687  107.446    0.103    0.381    5.315
  443.800  161.543  111.911    0.136    0.423    5.544
  444.050  162.655  111.700    0.141    0.442    5.727
  444.300  163.723  108.501    0.152    0.445    5.591
  444.550  165.394  112.340    0.185    0.438    4.577
  444.800  166.806  114.052    0.166    0.424    3.791
  445.050  168.406  113.734    0.141    0.403    3.149
  445.300  169.834  119.968    0.113    0.384    2.628
  445.550  171.492  125.909    0.137    0.484    2.236
  445.800  172.845  129.640    0.190    0.522    2.005
  446.050  174.353  128.663    0.210    0.540    2.059
  446.300  175.669  127.246    0.205    0.537    2.167
  446.550  176.022  122.621    0.195    0.550    2.261
  446.800  174.841  120.189    0.200    0.541    2.315
  447.050  171.831  121.850    0.200    0.530    2.396
  447.300  169.392  123.387    0.174    0.530    2.473
  447.550  168.336  123.215    0.147    0.531    2.569
  447.800  168.654  120.759    0.129    0.531    2.626
  448.050  169.310  117.584    0.139    0.520    2.662
  448.300  170.323  117.104    0.167    0.513    2.670
  448.550  170.705  120.570    0.186    0.515    2.677
  448.800  170.870  123.367    0.201    0.510    2.734
  449.050  169.933  124.688    0.217    0.506    2.913
  449.300  169.247  123.757    0.218    0.504    3.179
  449.550  168.964  120.275    0.201    0.502    3.446
  449.800  168.913  115.446    0.201    0.493    3.808
  450.050  167.625  112.084    0.221    0.478    4.098
  450.300  163.400  108.732    0.200    0.460    4.359
  450.550  160.696  107.000    0.143    0.441    4.559
