~VERSION INFORMATION
 VERS.                 2.0:   CWLS LOG ASCII STANDARD -VERSION 2.0
 WRAP.                  NO:   ONE LINE PER DEPTH STEP
~WELL INFORMATION BLOCK
#MNEM.UNIT           DATA                    DESCRIPTION OF MNEMONIC
#---------    -------------------            -------------------------------
# Generated from Intellog Unique Number	CS_67_68/WELL/2206
WELL.         DOME CAVALIER GRASSLAND        : Well_name    - WELL
LOC .         00/11-10-067-18W4/0            : Location     - LOCATION
UWI .         00/11-10-067-18W4/0            : Uwi          - UNIQUE WELL ID
ENTR.         SUSAN                          : Entered      - ENTERED BY
SRVC.         SCHLUMBERGER                   : Scn          - SERVICE COMPANY
STRT.M        375                            : top_depth    - START DEPTH
STOP.M        571                            : bot_depth    - STOP DEPTH
STEP.M        0.25                           : increment    - STEP LENGTH
 NULL. -999.2500:NULL Value
~CURVE INFORMATION BLOCK
#MNEM UNIT       ERCB CURVE CODE    CURVE DESCRIPTION
#-----------   ------------------   ----------------------------------
DEPT.M        00 001 00 00         : DEPTH        - DEPTH
ILD .OHMM     00 120 00 00         : RESD         - DEEP RESISTIVITY (DIL)
DPHI.V/V      00 890 00 00         : PHID         - DENSITY POROSITY (LIMESTONE)
NPHI.V/V      00 330 00 00         : PHIN         - NEUTRON POROSITY (LIMESTONE)
GR  .API      00 310 00 00         : GR           - GAMMA RAY
CALI.MM       00 280 01 00         : CAL          - CALIPER
~PARAMETER INFORMATION
#MNEM.UNIT           DATA             DESCRIPTION OF MNEMONIC
#---------         -----------     ------------------------------
GL  .M        598.39               : gl           - GROUND LEVEL ELEVATION
EREF.M        602                  : kb           - ELEVATION OF DEPTH REFERENCE
DATM.M        602                  : datum        - DATUM ELEVATION
TDD .M        574                  : tdd          - TOTAL DEPTH DRILLER
RUN .         ONE                  : Run          - RUN NUMBER
ENG .         BILL                 : Engineer     - RECORDING ENGINEER
WIT .         JIM                  : Witness      - WITNESSED BY
MUD .         GEL                  : Mud_type     - MUD TYPE
MATR.         LIMESTONE            : Logunit      - NEUTRON MATRIX
TMAX.C        24                   : BHT          - MAXIMUM RECORDED TEMPERATURE
BHTD.M        573                  : BHTDEP       - MAXIMUM RECORDED TEMPERATURE
MATR.         1                    : LOGUNIT      - NEUTRON MATRIX
RMT .C        25                   : MDTP         - TEMPERATURE OF MUD
NEUT.         1                    : NEUTRON      - NEUTRON TYPE
RESI.         0                    : RESIST       - RESISTIVITY TYPE
RMC .OHMM     0.25                 : RMC          - RESISTIVITY OF MUD CAKE
RMF .OHMM     0.25                 : RMF          - RESISTIVITY OF MUD FILTRATE
SUFT.C        15                   : SUFT         - SURFACE TEMPERATURE
~A  DEPTH     RESD     PHID     PHIN       GR      CAL
  375.000    2.200    0.222    0.399  103.310  240.337
  375.250    2.221    0.234    0.403  104.048  239.716
  375.500    2.281    0.239    0.413  101.517  239.506
  375.750    2.325    0.235    0.409   99.664  237.961
  376.000    2.352    0.221    0.395  102.190  235.695
  376.250    2.353    0.218    0.391  105.025  233.738
  376.500    2.326    0.226    0.392  106.996  232.706
  376.750    2.327    0.228    0.382  108.782  233.010
  377.000    2.327    0.225    0.382  108.657  232.800
  377.250    2.372    0.213    0.381  108.346  230.535
  377.500    2.432    0.206    0.364  113.401  227.961
  377.750    2.517    0.197    0.356  116.544  225.592
  378.000    2.630    0.190    0.356  112.779  224.664
  378.250    2.717    0.184    0.366  109.322  227.435
  378.500    2.812    0.181    0.380  107.532  229.693
  378.750    2.866    0.180    0.377  107.591  230.922
  379.000    2.927    0.179    0.368  108.637  227.834
  379.250    2.922    0.197    0.381  107.895  220.737
  379.500    2.862    0.226    0.395  104.747  214.051
  379.750    2.781    0.255    0.388  102.400  205.206
  380.000    2.719    0.281    0.392  105.297  198.418
  380.250    2.663    0.297    0.399  104.678  190.807
  380.500    2.689    0.311    0.407  102.023  184.326
  380.750    2.762    0.326    0.408   98.813  181.033
  381.000    2.815    0.329    0.389   96.467  183.085
  381.250    2.816    0.334    0.376   95.848  190.688
  381.500    2.721    0.382    0.389   96.770  197.365
  381.750    2.565    0.405    0.410   99.544  202.501
  382.000    2.378    0.403    0.376  102.440  195.096
  382.250    2.179    0.361    0.358  103.116  188.102
  382.500    1.992    0.297    0.348  101.510  183.677
  382.750    1.889    0.272    0.350   93.798  182.953
  383.000    1.784    0.249    0.342   87.813  182.333
  383.250    1.788    0.231    0.332   84.541  182.329
  383.500    1.897    0.218    0.338   90.151  183.249
  383.750    2.079    0.209    0.347   92.740  184.376
  384.000    2.300    0.202    0.355   89.222  184.578
  384.250    2.603    0.214    0.361   93.660  184.780
  384.500    2.853    0.233    0.367   98.592  185.187
  384.750    3.102    0.262    0.359  102.043  185.080
  385.000    3.205    0.281    0.348   93.283  184.664
  385.250    3.205    0.270    0.333   82.301  184.352
  385.500    3.169    0.263    0.324   76.748  183.628
  385.750    2.960    0.276    0.318   70.578  183.316
  386.000    2.661    0.288    0.318   61.200  182.592
  386.250    2.333    0.297    0.316   54.290  182.177
  386.500    2.074    0.302    0.315   47.441  181.659
  386.750    1.833    0.298    0.318   43.985  181.450
  387.000    1.699    0.295    0.326   52.803  181.754
  387.250    1.574    0.290    0.321   57.796  182.161
  387.500    1.484    0.277    0.304   60.322  182.877
  387.750    1.434    0.264    0.303   59.580  184.311
  388.000    1.432    0.258    0.317   63.093  185.438
  388.250    1.534    0.255    0.323   68.395  186.360
  388.500    1.729    0.243    0.327   73.943  187.281
  388.750    1.987    0.218    0.330   80.232  187.996
  389.000    2.337    0.186    0.331   88.371  189.123
  389.250    2.670    0.172    0.336   98.731  190.044
  389.500    3.017    0.195    0.343  101.750  190.451
  389.750    3.402    0.228    0.347   97.492  190.241
  390.000    3.828    0.240    0.349   98.230  187.769
  390.250    4.163    0.259    0.355   95.267  185.196
  390.500    4.309    0.276    0.364   89.343  182.006
  390.750    4.434    0.288    0.370   84.468  179.226
  391.000    4.512    0.257    0.365   80.765  177.783
  391.250    4.427    0.226    0.358   78.851  177.367
  391.500    4.103    0.224    0.353   83.412  176.952
  391.750    3.832    0.246    0.345   84.767  176.639
  392.000    3.491    0.260    0.339   83.901  176.224
  392.250    3.138    0.272    0.332   79.211  176.014
  392.500    2.795    0.267    0.338   75.569  176.216
  392.750    2.556    0.260    0.336   73.717  176.623
  393.000    2.355    0.256    0.328   72.728  176.723
  393.250    2.183    0.260    0.325   75.994  177.026
  393.500    2.058    0.270    0.326   79.322  177.228
  393.750    1.936    0.277    0.327   83.267  177.327
  394.000    1.900    0.280    0.329   83.635  177.322
  394.250    1.886    0.277    0.327   81.350  176.908
  394.500    1.908    0.272    0.324   75.858  176.903
  394.750    1.923    0.261    0.329   73.882  176.898
  395.000    1.938    0.255    0.339   79.616  176.793
  395.250    1.979    0.269    0.346   83.067  176.891
  395.500    2.017    0.275    0.339   85.656  176.579
  395.750    2.060    0.275    0.339   87.750  176.369
  396.000    2.084    0.269    0.343   87.624  176.365
  396.250    2.116    0.265    0.345   83.181  176.361
  396.500    2.145    0.258    0.352   82.254  176.151
  396.750    2.178    0.256    0.361   81.819  175.530
  397.000    2.208    0.259    0.342   81.323  175.012
  397.250    2.242    0.265    0.327   80.951  174.597
  397.500    2.272    0.267    0.308   80.455  174.285
  397.750    2.330    0.270    0.309   77.554  173.973
  398.000    2.370    0.272    0.313   72.987  173.557
  398.250    2.393    0.276    0.316   68.976  173.553
  398.500    2.416    0.278    0.323   66.445  173.343
  398.750    2.444    0.277    0.326   70.266  173.237
  399.000    2.417    0.282    0.323   74.334  173.438
  399.250    2.340    0.284    0.322   73.962  173.640
  399.500    2.270    0.279    0.320   68.778  173.944
  399.750    2.228    0.274    0.326   65.014  174.248
  400.000    2.228    0.278    0.334   68.095  174.963
  400.250    2.289    0.282    0.343   71.423  175.371
  400.500    2.382    0.175    0.342   73.703  175.469
  400.750    2.586    0.139    0.282   65.066  176.390
  401.000    2.888    0.114    0.186   54.146  177.209
  401.250    3.422    0.079    0.157   44.584  178.028
  401.500    4.204    0.061    0.149   38.105  178.948
  401.750    5.164    0.051    0.147   38.288  178.020
  402.000    6.441    0.148    0.162   45.193  177.193
  402.250    5.285    0.218    0.209   50.310  176.058
  402.500    4.049    0.247    0.291   60.114  175.437
  402.750    3.278    0.249    0.325   69.919  176.050
  403.000    2.908    0.244    0.337   74.110  177.794
  403.250    2.705    0.237    0.343   73.121  179.126
  403.500    2.624    0.231    0.351   74.291  180.458
  403.750    2.536    0.227    0.355   74.473  181.173
  404.000    2.484    0.217    0.343   75.149  181.683
  404.250    2.447    0.205    0.337   80.081  181.782
  404.500    2.456    0.196    0.334   84.581  181.161
  404.750    2.406    0.185    0.335   79.583  181.157
  405.000    2.361    0.171    0.344   74.646  182.181
  405.250    2.397    0.160    0.357   81.613  183.925
  405.500    2.481    0.163    0.372   85.558  185.976
  405.750    2.668    0.190    0.387   90.675  187.412
  406.000    2.873    0.209    0.408   95.298  189.155
  406.250    3.101    0.223    0.406  104.733  190.899
  406.500    3.315    0.217    0.369  114.352  191.511
  406.750    3.538    0.203    0.333  117.063  191.095
  407.000    3.753    0.222    0.310  112.496  190.886
  407.250    3.959    0.234    0.309  108.115  190.369
  407.500    4.169    0.225    0.319  111.443  190.261
  407.750    4.389    0.218    0.327  117.177  189.949
  408.000    4.534    0.222    0.333  119.642  189.431
  408.250    4.596    0.218    0.339  118.899  188.810
  408.500    4.570    0.207    0.344  116.491  187.778
  408.750    4.493    0.195    0.350  108.964  187.569
  409.000    4.384    0.183    0.355  106.125  187.256
  409.250    4.301    0.174    0.357  107.479  186.738
  409.500    4.221    0.164    0.360  108.772  186.529
  409.750    4.166    0.155    0.366  104.699  186.216
  410.000    4.072    0.149    0.380  103.956  186.314
  410.250    3.958    0.156    0.366  108.949  186.927
  410.500    3.796    0.164    0.350  112.956  187.540
  410.750    3.655    0.168    0.341  114.249  188.050
  411.000    3.512    0.171    0.343  113.938  188.354
  411.250    3.459    0.173    0.357  116.279  188.145
