~VERSION INFORMATION
 VERS.                 2.0:   CWLS LOG ASCII STANDARD -VERSION 2.0
 WRAP.                  NO:   ONE LINE PER DEPTH STEP
~WELL INFORMATION BLOCK
#MNEM.UNIT           DATA                    DESCRIPTION OF MNEMONIC
#---------    -------------------            -------------------------------
# Generated from Intellog Unique Number	CW_70_72/WELL/3023
NULL.         -999.25                        : NULL_VALUE
WELL.         CHIEFCO POR ER AL RANCH 10-23  : Well_name    - WELL              
LOC .         10-23-070-26W4                 : Location     - LOCATION          
UWI .         00/10-23-070-26W4/0            : Uwi          - UNIQUE WELL ID    
ENTR.         J                              : Entered      - ENTERED BY        
SRVC.         WESTERN ATLAS                  : Scn          - SERVICE COMPANY   
DATE.         17 JUNE 75                     : Date         - LOG DATE          
STRT.M        454.152                        : top_depth    - START DEPTH       
STOP.M        670.652                        : bot_depth    - STOP DEPTH        
STEP.M        0.25                           : increment    - STEP LENGTH       
~CURVE INFORMATION BLOCK
#MNEM UNIT       ERCB CURVE CODE    CURVE DESCRIPTION
#-----------   ------------------   ----------------------------------
DEPT.M        00 001 00 00         : DEPTH        - DEPTH                       
ILD .OHMM     00 120 00 00         : RESD         - DEEP RESISTIVITY (DIL)      
CALI.MM       00 280 01 00         : CAL          - CALIPER                     
GR  .API      00 310 00 00         : GR           - GAMMA RAY                   
NPHI.V/V      00 330 00 00         : PHIN         - NEUTRON POROSITY (SANDSTONE)
DPHI.V/V      00 890 00 00         : PHID         - DENSITY POROSITY (SANDSTONE)
~PARAMETER INFORMATION       
#MNEM.UNIT           DATA             DESCRIPTION OF MNEMONIC
#---------         -----------     ------------------------------
GL  .M        633.191              : gl           - GROUND LEVEL ELEVATION      
EREF.M        635.813              : kb           - ELEVATION OF DEPTH REFERENCE
DATM.M        633.191              : datum        - DATUM ELEVATION             
TDD .M        688.543              : tdd          - TOTAL DEPTH DRILLER         
RUN .         ONE                  : Run          - RUN NUMBER                  
ENG .         GAU-ROBERGE          : Engineer     - RECORDING ENGINEER          
WIT .         COULSON              : Witness      - WITNESSED BY                
MUD .         MUD GEL              : Mud_type     - MUD TYPE                    
MATR.         SANDSTONE            : Logunit      - NEUTRON MATRIX              
TMAX.C        27.2222              : BHT          - MAXIMUM RECORDED TEMPERATURE
BHTD.M        687.629              : BHTDEP       - MAXIMUM RECORDED TEMPERATURE
RMT .C        15.5556              : MDTP         - TEMPERATURE OF MUD          
MUDD.KG/M     1140                 : MWT          - MUD DENSITY                 
NEUT.         1                    : NEUTRON      - NEUTRON TYPE                
RESI.         0                    : RESIST       - RESISTIVITY TYPE            
RM  .OHMM     2.9                  : RM           - RESISTIVITY OF MUD          
RMC .OHMM     0.25                 : RMC          - RESISTIVITY OF MUD CAKE     
RMF .OHMM     0.25                 : RMF          - RESISTIVITY OF MUD FILTRATE 
SUFT.C        -17.7778             : SUFT         - SURFACE TEMPERATURE         
~A  DEPTH     RESD      CAL       GR     PHIN     PHID
  454.152    2.262  214.850   98.440    0.536    0.265
  454.402    2.192  213.020   96.623    0.532    0.261
  454.652    2.137  210.572   96.887    0.530    0.254
  454.902    2.122  209.042  101.977    0.520    0.244
  455.152    2.122  207.629  105.478    0.520    0.237
  455.402    2.134  207.553  106.169    0.490    0.237
  455.652    2.170  207.999  100.871    0.510    0.248
  455.902    2.207  206.380   98.632    0.518    0.250
  456.152    2.253  204.335   95.899    0.469    0.244
  456.402    2.317  193.709   87.912    0.435    0.355
  456.652    2.409  179.778   80.660    0.395    0.221
  456.902    2.537  173.493   73.406    0.367    0.246
  457.152    2.737  166.490   70.857    0.370    0.268
  457.402    2.936  162.798   72.160    0.391    0.267
  457.652    3.330  162.518   78.534    0.381    0.245
  457.902    3.475  165.143   78.004    0.366    0.249
  458.152    3.541  168.065   77.409    0.389    0.274
  458.402    3.489  173.681   81.950    0.413    0.282
  458.652    3.376  181.374   83.865    0.416    0.279
  458.902    3.154  187.096   85.778    0.411    0.256
  459.152    2.935  191.056   90.561    0.447    0.278
  459.402    2.814  190.983   96.382    0.435    0.273
  459.652    2.788  179.425   96.095    0.401    0.256
  459.902    2.799  169.009   84.261    0.407    0.282
  460.152    2.831  163.145   79.637    0.393    0.299
  460.402    2.922  162.869   78.493    0.386    0.306
  460.652    3.021  163.209   79.916    0.435    0.308
  460.902    3.141  164.171   80.304    0.466    0.366
  461.152    3.302  166.267   77.632    0.488    0.395
  461.402    3.433  167.750   73.191    0.427    0.298
  461.652    3.498  167.474   76.448    0.389    0.277
  461.902    3.499  166.573   74.267    0.375    0.285
  462.152    3.366  165.681   69.335    0.375    0.289
  462.402    3.275  165.288   66.485    0.384    0.293
  462.652    3.105  164.397   64.549    0.389    0.300
  462.902    2.911  163.804   62.917    0.387    0.300
  463.152    2.816  163.536   61.712    0.380    0.294
  463.402    2.745  163.455   62.097    0.381    0.290
  463.652    2.761  163.383   62.851    0.375    0.286
  463.902    2.792  163.722   62.682    0.376    0.283
  464.152    2.887  163.749   61.420    0.372    0.278
  464.402    2.931  164.094   60.033    0.382    0.276
  464.652    2.947  163.818   58.523    0.396    0.272
  464.902    2.937  163.738   56.344    0.401    0.289
  465.152    2.932  163.564   55.932    0.399    0.293
  465.402    2.922  162.979   57.664    0.388    0.294
  465.652    2.822  162.391   60.736    0.381    0.292
  465.902    2.745  161.485   61.366    0.377    0.284
  466.152    2.711  160.589   61.324    0.374    0.284
  466.402    2.711  160.589   63.910    0.377    0.284
  466.652    2.788  158.906   68.692    0.387    0.280
  466.902    2.926  158.817   72.376    0.398    0.280
  467.152    2.991  158.436   74.473    0.401    0.263
  467.402    3.110  158.776   77.118    0.384    0.249
  467.652    3.198  161.506   81.292    0.384    0.248
  467.902    3.211  164.433   85.709    0.399    0.239
  468.152    3.223  169.425   85.361    0.379    0.271
  468.402    3.183  174.524   80.984    0.388    0.301
  468.652    3.160  180.452   79.837    0.412    0.288
  468.902    3.126  167.552   80.713    0.376    0.253
  469.152    3.190  172.144   82.685    0.373    0.248
  469.402    3.354  174.648   93.826    0.374    0.269
  469.652    3.513  170.550   98.121    0.376    0.262
  469.902    3.693  168.090   97.589    0.377    0.267
  470.152    3.883  175.370   98.464    0.371    0.278
  470.402    3.963  181.089  101.049    0.361    0.290
  470.652    3.757  179.053  102.472    0.343    0.306
  470.902    3.408  172.979   93.815    0.339    0.256
  471.152    2.871  166.697   81.367    0.353    0.265
  471.402    2.532  166.002   75.219    0.350    0.276
  471.652    2.173  165.315   71.020    0.334    0.285
  471.902    1.920  164.320   66.638    0.333    0.290
  472.152    1.804  163.626   65.557    0.344    0.281
  472.402    1.771  163.345   71.074    0.353    0.280
  472.652    1.758  163.576   67.184    0.348    0.283
  472.902    1.772  163.318   63.410    0.331    0.288
  473.152    1.766  163.341   58.786    0.330    0.288
  473.402    1.756  163.257   60.886    0.343    0.281
  473.652    1.760  163.083   62.306    0.336    0.282
  473.902    1.806  162.803   57.501    0.331    0.283
  474.152    1.924  162.418   59.779    0.337    0.270
  474.402    2.037  161.314   73.177    0.351    0.259
  474.652    2.239  160.830   88.349    0.362    0.245
  474.902    2.443  160.962   95.397    0.359    0.241
  475.152    2.729  161.515   98.898    0.350    0.237
  475.402    3.005  162.576  105.207    0.334    0.237
  475.652    3.248  165.817  106.634    0.348    0.229
  475.902    3.530  170.611  111.966    0.360    0.226
  476.152    3.725  171.775  109.051    0.369    0.219
  476.402    3.873  170.568  105.712    0.354    0.216
  476.652    3.761  170.080  103.346    0.349    0.222
  476.902    3.281  171.247  101.347    0.365    0.240
  477.152    2.831  177.075  105.765    0.431    0.269
  477.402    2.315  181.866  112.017    0.531    0.292
  477.652    2.073  181.586  111.912    0.551    0.310
  477.902    1.870  184.618  112.483    0.567    0.327
  478.152    1.799  194.478  115.005    0.573    0.300
  478.402    1.970  198.647  118.750    0.513    0.271
  478.652    2.305  183.785  113.944    0.434    0.257
  478.902    2.556  177.300  108.282    0.434    0.278
  479.152    2.915  172.977  105.242    0.447    0.298
  479.402    3.204  167.635  100.005    0.412    0.281
  479.652    3.343  165.594   91.592    0.397    0.287
  479.902    3.319  163.761   75.114    0.369    0.293
  480.152    3.332  163.792   68.412    0.355    0.286
  480.402    3.370  166.626   73.132    0.391    0.274
  480.652    3.510  169.236   80.546    0.419    0.287
  480.902    3.718  169.473   88.691    0.436    0.292
  481.152    4.086  166.198   91.154    0.426    0.281
  481.402    4.440  163.637   90.991    0.418    0.287
  481.652    4.791  163.258   87.341    0.429    0.270
  481.902    4.765  164.846   81.311    0.418    0.247
  482.152    4.653  164.251   83.224    0.430    0.244
  482.402    4.331  162.216   86.847    0.440    0.238
  482.652    4.068  164.835   90.474    0.406    0.235
  482.902    3.737  170.862   89.879    0.395    0.220
  483.152    3.510  172.143   90.202    0.410    0.228
  483.402    3.291  170.926   94.986    0.411    0.247
  483.652    2.996  167.750   90.912    0.375    0.263
  483.902    2.841  165.195   82.683    0.365    0.269
  484.152    2.723  164.301   77.448    0.384    0.261
  484.402    2.558  164.014   73.493    0.393    0.284
  484.652    2.385  164.053   69.295    0.378    0.314
  484.902    2.257  164.491   65.525    0.377    0.288
  485.152    2.066  162.981   66.399    0.380    0.302
  485.402    1.991  162.692   65.076    0.389    0.315
  485.652    1.981  163.763   60.998    0.399    0.311
  485.902    1.985  165.237   61.260    0.408    0.306
  486.152    2.015  167.655   65.799    0.415    0.285
  486.402    2.068  168.308   71.930    0.436    0.286
  486.652    2.142  166.889   80.623    0.437    0.296
  486.902    2.207  165.054   87.913    0.414    0.294
  487.152    2.273  163.639   80.538    0.420    0.284
  487.402    2.363  163.877   84.469    0.420    0.267
  487.652    2.540  165.365   83.082    0.382    0.244
  487.902    2.849  166.324   81.450    0.356    0.238
  488.152    3.201  167.175   79.088    0.317    0.195
  488.402    3.428  166.074   75.681    0.292    0.190
  488.652    3.532  163.825   68.857    0.317    0.218
  488.902    3.348  161.272   66.308    0.375    0.270
  489.152    3.157  159.031   70.973    0.380    0.285
  489.402    2.906  160.202   75.330    0.373    0.274
  489.652    2.806  163.123   81.335    0.366    0.249
  489.902    2.765  168.019   89.663    0.388    0.247
  490.152    2.776  174.361   96.893    0.394    0.274
  490.402    2.818  176.979  110.111    0.382    0.284
