~VERSION INFORMATION
 VERS.                 2.0:   CWLS LOG ASCII STANDARD -VERSION 2.0
 WRAP.                  NO:   ONE LINE PER DEPTH STEP
~WELL INFORMATION BLOCK
#MNEM.UNIT           DATA                    DESCRIPTION OF MNEMONIC
#---------    -------------------            -------------------------------
# Generated from Intellog Unique Number	CW_79_81/WELL/2493
WELL.         GULF WABASCA                   : Well_name    - WELL
LOC .         00/15-36-080-19W4/0            : Location     - LOCATION
UWI .         00/15-36-080-19W4/0            : Uwi          - UNIQUE WELL ID
ENTR.         MAX                            : Entered      - ENTERED BY
SRVC.         SCHLUMBERGER                   : Scn          - SERVICE COMPANY
STRT.M        137.16                         : top_depth    - START DEPTH
STOP.M        365.41                         : bot_depth    - STOP DEPTH
STEP.M        0.25                           : increment    - STEP LENGTH
 NULL. -999.2500:NULL Value
~CURVE INFORMATION BLOCK
#MNEM UNIT       ERCB CURVE CODE    CURVE DESCRIPTION
#-----------   ------------------   ----------------------------------
DEPT.M        00 001 00 00         : DEPTH        - DEPTH
ILD .OHMM     00 120 00 00         : RESD         - DEEP RESISTIVITY (DIL)
NPHI.V/V      00 330 00 00         : PHIN         - NEUTRON POROSITY (SANDSTONE)
DPHI.V/V      00 890 00 00         : PHID         - DENSITY POROSITY (SANDSTONE)
GR  .API      00 310 00 00         : GR           - GAMMA RAY
CALI.MM       00 280 01 00         : CAL          - CALIPER
~PARAMETER INFORMATION
#MNEM.UNIT           DATA             DESCRIPTION OF MNEMONIC
#---------         -----------     ------------------------------
GL  .M        569.976              : gl           - GROUND LEVEL ELEVATION
EREF.M        573.329              : kb           - ELEVATION OF DEPTH REFERENCE
DATM.M        569.976              : datum        - DATUM ELEVATION
TDD .M        376.733              : tdd          - TOTAL DEPTH DRILLER
RUN .         ONE                  : Run          - RUN NUMBER
ENG .         BILL                 : Engineer     - RECORDING ENGINEER
WIT .         JIM                  : Witness      - WITNESSED BY
MUD .         GEL                  : Mud_type     - MUD TYPE
MATR.         SANDSTONE            : Logunit      - NEUTRON MATRIX
TMAX.C        23.3333              : BHT          - MAXIMUM RECORDED TEMPERATURE
BHTD.M        376.733              : BHTDEP       - MAXIMUM RECORDED TEMPERATURE
MATR.         1                    : LOGUNIT      - NEUTRON MATRIX
RMT .C        20                   : MDTP         - TEMPERATURE OF MUD
NEUT.         1                    : NEUTRON      - NEUTRON TYPE
RESI.         0                    : RESIST       - RESISTIVITY TYPE
RMC .OHMM     7.3                  : RMC          - RESISTIVITY OF MUD CAKE
RMF .OHMM     7.49                 : RMF          - RESISTIVITY OF MUD FILTRATE
SUFT.C        -23.3333             : SUFT         - SURFACE TEMPERATURE
~A  DEPTH     RESD     PHIN     PHID       GR      CAL
# ...
  283.160    6.355    0.499    0.233   91.207  172.408
  283.410    6.331    0.490    0.234   89.197  174.181
  283.660    6.490    0.493    0.245   88.067  172.767
  283.910    6.971    0.512    0.256   88.789  169.555
  284.160    7.465    0.526    0.249   86.571  169.533
  284.410    8.022    0.495    0.266   78.093  168.719
  284.660    8.668    0.467    0.260   73.671  163.123
  284.910    9.324    0.441    0.244   70.955  159.320
  285.160   10.072    0.427    0.229   69.531  158.902
  285.410   11.579    0.437    0.228   70.832  158.481
  285.660   12.987    0.400    0.233   70.328  158.463
  285.910   13.268    0.423    0.206   74.081  158.443
  286.160   13.411    0.450    0.261   76.951  159.020
  286.410   13.749    0.475    0.291   77.410  159.397
  286.660   14.182    0.491    0.274   75.929  159.376
  286.910   13.764    0.485    0.272   75.072  159.355
  287.160   12.388    0.476    0.279   75.550  159.334
  287.410   11.338    0.477    0.278   77.889  159.317
  287.660   10.678    0.482    0.268   79.701  159.298
  287.910   10.183    0.488    0.255   81.454  159.278
  288.160    9.765    0.491    0.248   83.266  159.259
  288.410    9.385    0.480    0.255   85.438  159.318
  288.660    9.241    0.476    0.264   88.122  159.708
  288.910    9.105    0.484    0.256   87.640  160.489
  289.160    8.971    0.478    0.238   88.215  161.266
  289.410    8.871    0.474    0.231   89.143  162.441
  289.660    8.821    0.477    0.237   90.073  164.116
  289.910    8.818    0.487    0.245   91.345  166.248
  290.160    8.815    0.488    0.250   93.048  167.057
  290.410    8.877    0.495    0.245   89.508  167.040
  290.660    8.940    0.491    0.250   87.908  165.226
  290.910    8.970    0.482    0.250   88.249  162.813
  291.160    8.951    0.475    0.241   89.826  160.902
  291.410    8.815    0.484    0.238   91.567  160.402
  291.660    8.485    0.506    0.248   93.267  159.963
  291.910    8.239    0.508    0.241   93.728  161.539
  292.160    8.089    0.502    0.235   94.010  165.205
  292.410    7.970    0.497    0.224   92.706  168.173
  292.660    7.853    0.497    0.215   90.108  169.447
  292.910    7.713    0.495    0.229   88.310  169.824
  293.160    7.595    0.497    0.223   88.788  169.801
  293.410    7.374    0.490    0.229   89.951  170.180
  293.660    7.160    0.488    0.220   91.116  172.353
  293.910    6.953    0.491    0.216   92.635  174.325
  294.160    6.688    0.495    0.217   94.623  174.205
  294.410    6.197    0.494    0.210   97.598  170.032
  294.660    5.876    0.488    0.204  100.770  169.182
  294.910    6.048    0.499    0.230   99.819  169.563
  295.160    6.426    0.498    0.255   94.633  168.148
  295.410    6.910    0.498    0.265   90.269  166.137
  295.660    7.407    0.502    0.264   87.082  164.028
  295.910    7.968    0.506    0.282   79.297  161.530
  296.160    8.598    0.496    0.281   72.178  161.097
  296.410    8.659    0.490    0.294   70.519  161.073
  296.660    8.767    0.482    0.298   70.449  160.756
  296.910    8.829    0.469    0.303   70.556  160.539
  297.160    8.843    0.455    0.309   70.428  160.421
  297.410    8.905    0.452    0.301   70.795  159.833
  297.660    8.902    0.466    0.298   71.518  158.979
  297.910    8.900    0.472    0.289   71.741  158.563
  298.160    8.897    0.467    0.295   72.142  158.443
  298.410    9.024    0.461    0.303   72.367  158.623
  298.660    9.289    0.456    0.304   72.062  158.903
  298.910    9.590    0.452    0.294   70.185  158.880
  299.160    9.734    0.460    0.283   66.739  158.862
  299.410    9.731    0.459    0.272   68.612  158.843
  299.660    9.782    0.462    0.277   71.542  159.122
  299.910    9.887    0.466    0.283   74.588  159.500
  300.160   10.030    0.465    0.287   76.399  159.778
  300.410   10.265    0.449    0.298   74.328  159.674
  300.660   10.742    0.445    0.303   69.903  159.238
  300.910   11.542    0.442    0.266   69.422  158.819
  301.160   12.538    0.414    0.233   68.058  159.595
  301.410   14.095    0.368    0.190   65.341  160.573
  301.660   16.494    0.313    0.141   61.977  161.549
  301.910   20.398    0.257    0.108   59.161  163.282
  302.160   25.933    0.231    0.080   55.719  164.093
  302.410   29.285    0.205    0.055   54.766  162.881
  302.660   31.087    0.190    0.032   54.695  162.263
  302.910   31.657    0.187    0.025   55.390  162.044
  303.160   31.415    0.191    0.030   56.908  162.026
  303.410   29.981    0.196    0.026   60.266  162.166
  303.660   27.592    0.203    0.027   64.174  162.976
  303.910   24.880    0.246    0.049   66.515  165.348
  304.160   20.800    0.310    0.136   70.267  164.432
  304.410   16.289    0.376    0.204   73.313  162.222
  304.660   12.774    0.434    0.232   75.360  160.510
  304.910   10.489    0.483    0.268   78.180  160.966
  305.160    9.581    0.497    0.290   79.393  161.363
  305.410    9.303    0.500    0.278   77.499  160.941
  305.660    9.234    0.499    0.266   75.782  160.823
  305.910    9.298    0.495    0.262   76.241  161.002
  306.160    9.483    0.489    0.265   77.995  161.380
  306.410    9.847    0.474    0.268   76.981  161.757
  306.660    9.920    0.457    0.268   75.499  161.734
  306.910    9.845    0.445    0.256   73.606  161.319
  307.160    9.611    0.453    0.239   76.123  161.500
  307.410    9.298    0.467    0.243   78.227  161.878
  307.660    9.014    0.477    0.266   78.332  162.255
  307.910    8.881    0.471    0.277   78.281  162.548
  308.160    8.879    0.460    0.279   79.248  162.111
  308.410    9.072    0.452    0.266   79.003  162.093
  308.660    9.269    0.460    0.265   78.931  161.774
  308.910    9.404    0.471    0.264   79.389  161.556
  309.160    9.435    0.476    0.260   80.496  161.540
  309.410    9.321    0.471    0.260   82.032  161.516
  309.660    9.109    0.475    0.256   81.529  161.494
  309.910    8.910    0.477    0.251   78.930  161.476
  310.160    8.763    0.474    0.248   78.096  162.352
  310.410    8.665    0.470    0.253   77.967  164.522
  310.660    8.600    0.465    0.261   78.779  167.092
  310.910    8.535    0.462    0.257   82.204  167.286
  311.160    8.532    0.466    0.246   82.927  164.360
  311.410    8.655    0.486    0.231   83.621  164.340
  311.660    8.685    0.496    0.230   84.139  165.218
  311.910    8.682    0.498    0.226   83.893  167.590
  312.160    8.680    0.498    0.214   83.000  170.756
  312.410    8.677    0.499    0.204   83.504  172.890
  312.660    8.674    0.496    0.201   89.618  173.695
  312.910    8.672    0.496    0.229   92.665  176.466
  313.160    8.622    0.493    0.230   93.418  176.847
  313.410    8.558    0.491    0.231   94.112  176.628
  313.660    8.524    0.490    0.233   95.863  176.806
  313.910    8.597    0.483    0.210   98.671  177.911
  314.160    8.660    0.492    0.196   98.661  179.548
  314.410    8.785    0.501    0.194   99.121  179.529
  314.660    8.959    0.503    0.196  100.991  179.213
  314.910    9.122    0.499    0.195  102.744  178.398
  315.160    9.253    0.489    0.198  103.085  177.183
  315.410    9.443    0.474    0.219  100.561  176.296
  315.660    9.732    0.470    0.201   98.589  177.938
  315.910   10.088    0.479    0.199   99.284  180.704
  316.160   10.459    0.482    0.203   97.685  181.084
  316.410   10.690    0.485    0.210   96.732  179.074
  316.660   10.646    0.486    0.212   97.074  176.165
  316.910   10.152    0.487    0.199   97.354  175.844
  317.160    9.627    0.490    0.205   98.811  178.311
  317.410    9.279    0.488    0.204  101.857  181.879
  317.660    8.994    0.482    0.223  102.787  181.560
  317.910    8.831    0.477    0.233  102.423  179.748
  318.160    8.780    0.477    0.223  102.001  177.340
  318.410    8.791    0.478    0.205  103.408  173.232
  318.660    8.855    0.477    0.202  104.621  170.725
  318.910    9.047    0.473    0.188  105.786  170.703
  319.160    9.245    0.475    0.184  107.655  171.578
  319.410    9.480    0.480    0.183  109.760  171.757
