~VERSION INFORMATION
 VERS.                 2.0:   CWLS LOG ASCII STANDARD -VERSION 2.0
 WRAP.                  NO:   ONE LINE PER DEPTH STEP
~WELL INFORMATION BLOCK
#MNEM.UNIT           DATA                    DESCRIPTION OF MNEMONIC
#---------    -------------------            -------------------------------
# Generated from Intellog Unique Number	CS_77_79/WELL/3306
WELL.         N0RTHSTAR ENERGY CORP.         : Well_name    - WELL
LOC .         00/12-36-079-11W4/0            : Location     - LOCATION
UWI .         00/12-36-079-11W4/0            : Uwi          - UNIQUE WELL ID
ENTR.         JOETTE                         : Entered      - ENTERED BY
SRVC.         SCHLUMBERGER                   : Scn          - SERVICE COMPANY
DATE.         08/24/92                       : Date         - LOG DATE
STRT.M        255                            : top_depth    - START DEPTH
STOP.M        480                            : bot_depth    - STOP DEPTH
STEP.M        0.25                           : increment    - STEP LENGTH
 NULL. -999.2500:NULL Value
~CURVE INFORMATION BLOCK
#MNEM UNIT       ERCB CURVE CODE    CURVE DESCRIPTION
#-----------   ------------------   ----------------------------------
DEPT.M        00 001 00 00         : DEPTH        - DEPTH
GR  .API      00 310 00 00         : GR           - GAMMA RAY
NPHI.V/V      00 330 00 00         : PHIN         - NEUTRON POROSITY (SANDSTONE)
DPHI.V/V      00 890 00 00         : PHID         - DENSITY POROSITY (SANDSTONE)
ILD .OHMM     00 120 00 00         : RESD         - DEEP RESISTIVITY (DIL)
~PARAMETER INFORMATION
#MNEM.UNIT           DATA             DESCRIPTION OF MNEMONIC
#---------         -----------     ------------------------------
GL  .M        682.9                : gl           - GROUND LEVEL ELEVATION
EREF.M        686.3                : kb           - ELEVATION OF DEPTH REFERENCE
DATM.M        686.3                : datum        - DATUM ELEVATION
TDD .M        502                  : tdd          - TOTAL DEPTH DRILLER
RUN .         ONE                  : Run          - RUN NUMBER
ENG .         BILL                 : Engineer     - RECORDING ENGINEER
WIT .         JIM                  : Witness      - WITNESSED BY
MUD .         GEL                  : Mud_type     - MUD TYPE
MATR.         SANDSTONE            : Logunit      - NEUTRON MATRIX
TMAX.C        22                   : BHT          - MAXIMUM RECORDED TEMPERATURE
BHTD.M        502                  : BHTDEP       - MAXIMUM RECORDED TEMPERATURE
MATR.         5.5                  : LOGUNIT      - NEUTRON MATRIX
RMT .C        5.5                  : MDTP         - TEMPERATURE OF MUD
NEUT.         1                    : NEUTRON      - NEUTRON TYPE
RESI.         0                    : RESIST       - RESISTIVITY TYPE
RMC .OHMM     0.33                 : RMC          - RESISTIVITY OF MUD CAKE
RMF .OHMM     0.16                 : RMF          - RESISTIVITY OF MUD FILTRATE
SUFT.C        15                   : SUFT         - SURFACE TEMPERATURE
~A  DEPTH       GR     PHIN     PHID     RESD
# ...
  385.500   90.388    0.452    0.256    5.769
  385.750   92.755    0.456    0.257    5.661
  386.000   90.988    0.468    0.260    5.451
  386.250   86.861    0.472    0.267    5.249
  386.500   88.046    0.445    0.275    5.247
  386.750   89.231    0.439    0.272    5.340
  387.000   87.466    0.429    0.257    5.439
  387.250   86.290    0.427    0.246    5.642
  387.500   88.655    0.426    0.240    5.850
  387.750   90.431    0.425    0.242    6.180
  388.000   90.436    0.425    0.245    6.294
  388.250   87.489    0.430    0.244    6.527
  388.500   84.543    0.436    0.245    6.525
  388.750   84.549    0.440    0.251    6.519
  389.000   85.144    0.434    0.272    6.517
  389.250   86.918    0.426    0.293    6.161
  389.500   88.104    0.424    0.293    6.046
  389.750   89.289    0.426    0.286    5.821
  390.000   89.884    0.421    0.290    5.820
  390.250   87.528    0.427    0.298    5.710
  390.500   84.581    0.438    0.329    5.602
  390.750   82.224    0.439    0.334    5.496
  391.000   81.048    0.430    0.329    5.392
  391.250   83.414    0.421    0.321    5.192
  391.500   85.190    0.427    0.309    5.095
  391.750   86.966    0.433    0.297    4.907
  392.000   89.332    0.432    0.274    4.813
  392.250   89.925    0.423    0.269    4.723
  392.500   87.570    0.423    0.277    4.720
  392.750   85.804    0.431    0.287    4.631
  393.000   84.038    0.431    0.290    4.629
  393.250   82.272    0.428    0.294    4.625
  393.500   81.096    0.425    0.299    4.710
  393.750   79.920    0.427    0.309    4.795
  394.000   78.155    0.431    0.321    4.883
  394.250   76.978    0.431    0.344    5.158
  394.500   74.032    0.426    0.355    5.451
  394.750   72.856    0.423    0.353    6.317
  395.000   72.271    0.382    0.346    6.926
  395.250   67.554    0.361    0.169    7.184
  395.500   59.886    0.315    0.113    7.047
  395.750   53.399    0.285    0.084    6.915
  396.000   56.945    0.339    0.125    6.660
  396.250   67.574    0.352    0.291    7.438
  396.500   68.168    0.395    0.318    8.007
  396.750   65.222    0.416    0.316    9.280
  397.000   61.687    0.387    0.140    9.105
  397.250   65.231    0.356    0.245    7.423
  397.500   72.908    0.324    0.325    5.725
  397.750   78.816    0.419    0.341    5.025
  398.000   81.770    0.421    0.345    4.931
  398.250   84.135    0.423    0.343    4.747
  398.500   82.960    0.434    0.336    4.658
  398.750   81.784    0.454    0.334    4.571
  399.000   79.428    0.458    0.333    4.568
  399.250   77.073    0.464    0.325    4.482
  399.500   75.307    0.425    0.325    4.480
  399.750   73.541    0.418    0.324    4.476
  400.000   75.909    0.410    0.319    4.393
  400.250   76.501    0.419    0.313    4.390
  400.500   74.737    0.429    0.306    4.388
  400.750   73.562    0.424    0.302    4.468
  401.000   72.974    0.418    0.306    4.465
  401.250   77.700    0.412    0.312    4.381
  401.500   80.657    0.425    0.320    4.219
  401.750   82.432    0.458    0.319    4.063
  402.000   86.567    0.467    0.314    3.914
  402.250   93.653    0.448    0.301    3.840
  402.500   91.888    0.440    0.288    3.838
  402.750   87.761    0.435    0.287    3.907
  403.000   81.274    0.434    0.315    4.053
  403.250   77.147    0.434    0.332    4.443
  403.500   74.202    0.430    0.342    4.783
  403.750   75.977    0.436    0.341    4.438
  404.000   77.162    0.443    0.336    4.274
  404.250   75.986    0.449    0.331    4.686
  404.500   74.812    0.441    0.320    5.234
  404.750   75.407    0.418    0.313    5.847
  405.000   75.410    0.407    0.214    6.901
  405.250   70.694    0.382    0.233    7.293
  405.500   66.567    0.406    0.260    8.146
  405.750   67.161    0.413    0.210    8.607
  406.000   65.395    0.360    0.168    9.092
  406.250   60.679    0.344    0.134    9.257
  406.500   54.782    0.330    0.118    9.424
  406.750   54.196    0.361    0.183    9.248
  407.000   61.873    0.402    0.206    8.583
  407.250   68.370    0.435    0.225    7.536
  407.500   73.687    0.438    0.240    6.616
  407.750   77.231    0.437    0.248    5.808
  408.000   84.909    0.441    0.248    5.492
  408.250   86.685    0.445    0.244    5.192
  408.500   86.100    0.442    0.242    5.000
  408.750   86.105    0.428    0.251    4.906
  409.000   86.700    0.406    0.264    4.814
  409.250   86.704    0.408    0.275    4.811
  409.500   87.298    0.418    0.272    4.808
  409.750   87.893    0.422    0.262    4.895
  410.000   88.488    0.425    0.254    5.076
  410.250   89.082    0.414    0.251    5.075
  410.500   90.858    0.413    0.246    5.166
  410.750   94.404    0.418    0.240    5.068
  411.000   94.409    0.413    0.232    5.065
  411.250   93.823    0.381    0.250    4.970
  411.500   95.599    0.383    0.258    4.787
  411.750   95.602    0.404    0.258    4.696
  412.000   96.788    0.411    0.252    4.440
  412.250   97.973    0.416    0.237    4.277
  412.500   97.388    0.409    0.222    3.754
  412.750   96.803    0.404    0.221    3.358
  413.000   97.988    0.413    0.227    2.738
  413.250   99.763    0.452    0.241    2.151
  413.500   98.587    0.472    0.275    1.959
  413.750   95.050    0.480    0.290    1.819
  414.000   89.743    0.492    0.296    1.817
  414.250   85.026    0.522    0.299    1.885
  414.500   82.081    0.529    0.300    2.067
  414.750   82.086    0.513    0.300    2.308
  415.000   82.090    0.515    0.299    2.626
  415.250   82.095    0.511    0.294    3.596
  415.500   85.640    0.476    0.268    3.662
  415.750   89.775    0.455    0.263    3.868
  416.000   88.601    0.462    0.259    4.087
  416.250   92.737    0.462    0.248    4.318
  416.500   90.971    0.434    0.224    4.316
  416.750   85.664    0.376    0.218    3.932
  417.000   82.718    0.371    0.213    3.718
  417.250   82.133    0.377    0.205    3.581
  417.500   80.956    0.399    0.198    3.448
  417.750   82.141    0.428    0.199    3.511
  418.000   89.228    0.439    0.196    3.641
  418.250   91.594    0.445    0.228    3.572
  418.500   92.779    0.452    0.234    3.378
  418.750   93.373    0.448    0.243    3.314
  419.000   94.558    0.422    0.254    3.192
  419.250   91.612    0.416    0.252    3.190
  419.500   86.896    0.412    0.241    3.130
  419.750   85.130    0.417    0.234    3.128
  420.000   86.905    0.431    0.236    3.127
  420.250   89.862    0.440    0.243    3.183
  420.500   88.686    0.452    0.246    3.241
  420.750   88.100    0.460    0.241    3.239
  421.000   90.465    0.470    0.240    3.238
  421.250   93.421    0.470    0.247    3.235
  421.500   91.655    0.441    0.246    3.295
  421.750   91.069    0.439    0.236    3.354
  422.000   92.844    0.435    0.234    3.542
  422.250   91.671    0.434    0.218    3.607
  422.500   90.493    0.431    0.220    3.741
  422.750   89.318    0.433    0.224    3.810
  423.000   91.683    0.431    0.224    3.951
  423.250   95.230    0.426    0.228    4.023
  423.500   93.462    0.419    0.211    4.096
  423.750   89.926    0.419    0.179    4.170
  424.000   88.161    0.424    0.182    4.325
  424.250   90.526    0.426    0.191    4.655
  424.500   94.662    0.431    0.207    5.199
  424.750   99.388    0.428    0.215    6.253
  425.000  102.935    0.418    0.223    7.383
  425.250  101.759    0.419    0.227    8.096
  425.500   99.993    0.420    0.225    9.042
  425.750   97.047    0.417    0.224    9.914
  426.000   93.511    0.397    0.219   10.474
  426.250   89.383    0.370    0.212   10.085
  426.500   79.355    0.342    0.306    9.898
  426.750   69.916    0.359    0.325    9.185
  427.000   81.134    0.384    0.329    8.526
  427.250   83.500    0.389    0.324    7.912
  427.500   81.145    0.389    0.315    7.908
  427.750   79.968    0.373    0.302    8.832
  428.000   81.743    0.378    0.290    9.683
  428.250   85.881    0.385    0.275   10.423
  428.500   82.935    0.390    0.266   11.427
  428.750   80.578    0.378    0.268   11.422
