~VERSION INFORMATION
 VERS.                 2.0:   CWLS LOG ASCII STANDARD -VERSION 2.0
 WRAP.                  NO:   ONE LINE PER DEPTH STEP
~WELL INFORMATION BLOCK
#MNEM.UNIT           DATA                    DESCRIPTION OF MNEMONIC
#---------    -------------------            -------------------------------
# Generated from Intellog Unique Number	CC_80_83/WELL/2369
NULL.         -999.25                        : NULL_VALUE
WELL.         BVX ET AL WATCHUSK             : Well_name    - WELL
LOC .         10-25-081-03W4                 : Location     - LOCATION          
UWI .         00/10-25-081-03W400            : Uwi          - UNIQUE WELL ID    
ENTR.         DW                             : Entered      - ENTERED BY        
SRVC.         SCHLUMBERGER                   : Scn          - SERVICE COMPANY   
DATE.         26 FEB 78                      : Date         - LOG DATE
STRT.M        106.68                         : top_depth    - START DEPTH       
STOP.M        265.174                        : bot_depth    - STOP DEPTH        
STEP.M        0.305                          : increment    - STEP LENGTH       
~CURVE INFORMATION BLOCK
#MNEM UNIT       ERCB CURVE CODE    CURVE DESCRIPTION
#-----------   ------------------   ----------------------------------
DEPT.M        00 001 00 00         : DEPTH        - DEPTH                       
DPHI.V/V      00 890 00 00         : PHID         - DENSITY POROSITY (LIMESTONE)
NPHI.V/V      00 330 00 00         : PHIN         - NEUTRON POROSITY (LIMESTONE)
GR  .API      00 310 00 00         : GR           - GAMMA RAY                   
ILD .OHMM     00 120 00 00         : RESD         - DEEP RESISTIVITY (DIL)      
~PARAMETER INFORMATION       
#MNEM.UNIT           DATA             DESCRIPTION OF MNEMONIC
#---------         -----------     ------------------------------
GL  .M        473.659              : gl           - GROUND LEVEL ELEVATION      
EREF.M        476.707              : kb           - ELEVATION OF DEPTH REFERENCE
DATM.M        476.707              : datum        - DATUM ELEVATION             
TDD .M        364.54               : tdd          - TOTAL DEPTH DRILLER         
RUN .         ONE                  : Run          - RUN NUMBER                  
ENG .         BILL                 : Engineer     - RECORDING ENGINEER          
WIT .         JIM                  : Witness      - WITNESSED BY                
MUD .         GEL                  : Mud_type     - MUD TYPE                    
MATR.         LIMESTONE            : Logunit      - NEUTRON MATRIX              
TMAX.C        21.1111              : BHT          - MAXIMUM RECORDED TEMPERATURE
BHTD.M        364.541              : BHTDEP       - MAXIMUM RECORDED TEMPERATURE
MATR.         1                    : LOGUNIT      - NEUTRON MATRIX              
RMT .C        25                   : MDTP         - TEMPERATURE OF MUD          
NEUT.         1                    : NEUTRON      - NEUTRON TYPE                
RESI.         0                    : RESIST       - RESISTIVITY TYPE            
RMC .OHMM     0.25                 : RMC          - RESISTIVITY OF MUD CAKE     
RMF .OHMM     0.25                 : RMF          - RESISTIVITY OF MUD FILTRATE 
SUFT.C        15                   : SUFT         - SURFACE TEMPERATURE         
~A  DEPTH     PHID     PHIN       GR     RESD
# ...
  212.749    0.193    0.336   37.819    2.349
  213.054    0.188    0.333   42.175    2.219
  213.359    0.196    0.352   45.907    2.219
  213.663    0.212    0.364   44.677    2.261
  213.968    0.227    0.376   40.971    2.261
  214.273    0.227    0.359   47.186    2.305
  214.578    0.204    0.350   55.878    2.349
  214.883    0.163    0.364   59.611    2.534
  215.187    0.165    0.366   50.950    2.632
  215.492    0.200    0.361   42.288    2.487
  215.797    0.206    0.360   39.200    2.305
  216.102    0.228    0.371   39.831    2.219
  216.406    0.228    0.362   49.765    2.219
  216.711    0.218    0.360   48.539    2.219
  217.016    0.219    0.367   44.836    2.261
  217.321    0.220    0.370   43.614    2.305
  217.626    0.214    0.366   43.623    2.440
  217.930    0.192    0.346   45.495    2.534
  218.235    0.170    0.320   48.609    2.734
  218.540    0.143    0.324   65.360    3.243
  218.845    0.140    0.337   75.913    3.433
  219.150    0.150    0.389   78.407    3.369
  219.454    0.172    0.399   62.305    3.182
  219.759    0.224    0.377   46.822    2.734
  220.064    0.230    0.393   38.158    2.349
  220.369    0.242    0.385   36.931    2.096
  220.674    0.250    0.377   40.052    1.835
  220.978    0.253    0.383   41.303    1.801
  221.283    0.236    0.380   46.275    1.871
  221.588    0.214    0.342   54.968    1.980
  221.893    0.177    0.346   61.179    2.305
  222.198    0.190    0.361   68.014    2.734
  222.502    0.190    0.365   71.747    2.894
  222.807    0.173    0.369   69.281    2.894
  223.112    0.198    0.364   58.757    2.894
  223.417    0.193    0.338   66.831    2.840
  223.722    0.153    0.327   69.323    2.840
  224.026    0.167    0.325   60.041    2.840
  224.331    0.174    0.329   52.619    2.894
  224.636    0.189    0.354   48.910    2.840
  224.941    0.210    0.369   47.063    2.734
  225.246    0.223    0.368   51.422    2.440
  225.550    0.224    0.370   49.574    2.305
  225.855    0.244    0.374   42.770    2.136
  226.160    0.221    0.375   44.644    2.057
  226.465    0.229    0.376   44.657    2.018
  226.769    0.245    0.374   38.473    1.980
  227.074    0.253    0.369   42.827    1.943
  227.379    0.254    0.361   52.759    1.943
  227.684    0.234    0.359   58.351    2.057
  227.989    0.190    0.361   58.364    2.136
  228.293    0.170    0.354   62.102    2.394
  228.598    0.146    0.351   65.835    2.786
  228.903    0.172    0.351   67.085    3.123
  229.208    0.172    0.355   62.142    3.305
  229.513    0.140    0.357   65.254    3.369
  229.817    0.170    0.362   65.269    3.369
  230.122    0.202    0.366   51.026    3.064
  230.427    0.220    0.376   47.939    2.894
  230.732    0.228    0.390   45.481    2.487
  231.037    0.237    0.405   48.592    2.096
  231.341    0.240    0.411   53.563    1.980
  231.646    0.237    0.409   46.138    1.801
  231.951    0.251    0.382   31.275    1.734
  232.256    0.264    0.361   39.350    1.701
  232.561    0.250    0.375   42.461    1.701
  232.865    0.245    0.401   45.578    1.801
  233.170    0.237    0.378   49.308    1.871
  233.475    0.233    0.389   52.423    1.980
  233.780    0.235    0.401   49.338    2.136
  234.085    0.248    0.410   53.075    2.219
  234.389    0.220    0.423   56.804    2.261
  234.694    0.220    0.444   59.917    2.261
  234.999    0.230    0.458   63.654    2.177
  235.304    0.237    0.465   54.986    2.018
  235.609    0.253    0.435   38.265    1.943
  235.913    0.249    0.400   35.801    1.943
  236.218    0.218    0.385   37.672    2.136
  236.523    0.212    0.375   45.126    2.177
  236.828    0.218    0.366   45.764    2.177
  237.132    0.223    0.364   45.161    2.136
  237.437    0.233    0.383   42.691    1.980
  237.742    0.265    0.406   38.984    1.638
  238.047    0.280    0.423   34.662    1.547
  238.352    0.286    0.410   32.815    1.577
  238.656    0.286    0.404   36.548    1.607
  238.961    0.249    0.404   46.479    1.801
  239.266    0.220    0.392   62.610    2.177
  239.571    0.133    0.389  132.053    2.534
  239.876    0.144    0.404  123.390    3.182
  240.180    0.157    0.407  102.946    3.369
  240.485    0.175    0.415   79.404    3.182
  240.790    0.196    0.424   63.921    2.219
  241.095    0.244    0.451   46.578    1.835
  241.400    0.315    0.435   42.258    1.638
  241.704    0.311    0.432   42.273    1.518
  242.009    0.304    0.431   42.907    1.462
  242.314    0.295    0.420   45.396    1.490
  242.619    0.274    0.406   58.429    1.638
  242.924    0.252    0.400   63.401    1.835
  243.228    0.215    0.410   57.217    1.943
  243.533    0.257    0.409   44.836    1.906
  243.838    0.240    0.383   52.287    1.801
  244.143    0.216    0.372   61.599    1.701
  244.448    0.214    0.420   60.993    1.607
  244.752    0.261    0.422   38.693    1.577
  245.057    0.291    0.453   38.710    1.577
  245.362    0.295    0.449   43.682    1.638
  245.667    0.273    0.404   77.167    1.835
  245.972    0.248    0.376   89.579    2.219
  246.276    0.148    0.392   88.975    2.534
  246.581    0.230    0.416   67.912    2.534
  246.886    0.252    0.397   76.604    2.305
  247.191    0.263    0.396  110.714    1.906
  247.495    0.249    0.398  105.768    1.607
  247.800    0.239    0.388   48.133    1.462
  248.105    0.244    0.386   35.749    1.381
  248.410    0.259    0.385   32.669    1.407
  248.715    0.255    0.381   33.297    1.518
  249.019    0.243    0.372   46.331    1.701
  249.324    0.216    0.355   78.578    2.219
  249.629    0.132    0.345   87.275    2.487
  249.934    0.165    0.398   91.626    2.683
  250.239    0.170    0.423   95.980    2.583
  250.543    0.174    0.435   92.896    2.487
  250.848    0.186    0.419   83.609    2.394
  251.153    0.210    0.395   75.564    2.219
  251.458    0.204    0.397   68.143    1.943
  251.763    0.231    0.420   64.436    1.871
  252.067    0.235    0.394   74.368    1.801
  252.372    0.233    0.387   81.201    1.801
  252.677    0.218    0.403   82.454    1.871
  252.982    0.205    0.384   73.791    1.980
  253.287    0.239    0.395   69.465    2.057
  253.591    0.214    0.409   78.779    2.057
  253.896    0.186    0.416   82.517    2.018
  254.201    0.218    0.420   75.087    1.906
  254.506    0.225    0.405   54.646    1.871
  254.811    0.225    0.394   54.661    1.835
  255.115    0.230    0.391   67.073    1.801
  255.420    0.219    0.390   77.627    1.835
  255.725    0.203    0.389   78.880    1.835
  256.030    0.214    0.406   74.553    1.835
  256.335    0.221    0.415   49.772    1.767
  256.639    0.249    0.424   55.364    1.669
  256.944    0.244    0.408   56.621    1.577
  257.249    0.253    0.411   51.674    1.518
  257.554    0.262    0.406   40.531    1.462
  257.859    0.265    0.402   33.106    1.407
  258.163    0.274    0.403   30.643    1.355
  258.468    0.275    0.412   32.514    1.329
  258.773    0.273    0.402   36.247    1.329
  259.078    0.269    0.392   43.703    1.355
  259.383    0.248    0.387   51.774    1.434
  259.687    0.219    0.365  111.917    1.669
  259.992    0.192    0.349  114.412    2.136
  260.297    0.112    0.393   97.688    2.894
  260.602    0.043    0.417   65.469    6.302
  260.907    0.000    0.412   41.307   12.014
  261.212    0.000    0.298   32.643   15.970
  261.516    0.000    0.188   29.559   18.944
  261.821    0.000    0.181   29.578   19.677
  262.126    0.013    0.201   29.586   19.677
  262.431    0.030    0.243   30.222   19.307
  262.736    0.049    0.252   32.096   17.896
  263.040    0.070    0.245   33.348   17.896
  263.345    0.000    0.194   33.984   17.896
  263.650    0.000    0.189   34.615   18.238
  263.955    0.000    0.203   38.971   17.229
  264.260    0.000    0.236   49.522   14.802
  264.564    0.000    0.277   64.415   12.717
  264.869    0.031    0.320   75.587   10.926
  265.174    0.068    0.378   86.141    9.211
