~VERSION INFORMATION
 VERS.                 2.0:   CWLS LOG ASCII STANDARD -VERSION 2.0
 WRAP.                  NO:   ONE LINE PER DEPTH STEP
~WELL INFORMATION BLOCK
#MNEM.UNIT           DATA                    DESCRIPTION OF MNEMONIC
#---------    -------------------            -------------------------------
# Generated from Intellog Unique Number	CW_73_75/WELL/1032
WELL.         AMOCO MARTEN HILLS 11-02       : Well_name    - WELL
LOC .         00/11-02-075-02W5/0            : Location     - LOCATION
UWI .         00/11-02-075-02W5/0            : Uwi          - UNIQUE WELL ID
ENTR.         JAYE                           : Entered      - ENTERED BY
SRVC.         SCHLUMBERGER                   : Scn          - SERVICE COMPANY
DATE.         30 MAR 80                      : Date         - LOG DATE
STRT.M        500                            : top_depth    - START DEPTH
STOP.M        690                            : bot_depth    - STOP DEPTH
STEP.M        0.25                           : increment    - STEP LENGTH
 NULL. -999.2500:NULL Value
~CURVE INFORMATION BLOCK
#MNEM UNIT       ERCB CURVE CODE    CURVE DESCRIPTION
#-----------   ------------------   ----------------------------------
DEPT.M        00 001 00 00         : DEPTH        - DEPTH
ILD .OHMM     00 120 00 00         : RESD         - DEEP RESISTIVITY (DIL)
NPHI.V/V      00 330 00 00         : PHIN         - NEUTRON POROSITY (SANDSTONE)
DPHI.V/V      00 890 00 00         : PHID         - DENSITY POROSITY (SANDSTONE)
GR  .API      00 310 00 00         : GR           - GAMMA RAY
CALI.MM       00 280 01 00         : CAL          - CALIPER
~PARAMETER INFORMATION
#MNEM.UNIT           DATA             DESCRIPTION OF MNEMONIC
#---------         -----------     ------------------------------
GL  .M        773.04               : gl           - GROUND LEVEL ELEVATION
EREF.M        778.83               : kb           - ELEVATION OF DEPTH REFERENCE
DATM.M        773.04               : datum        - DATUM ELEVATION
TDD .M        691.8                : tdd          - TOTAL DEPTH DRILLER
RUN .         ONE                  : Run          - RUN NUMBER
ENG .         VERWAIK              : Engineer     - RECORDING ENGINEER
WIT .         MACMAHON             : Witness      - WITNESSED BY
BASE.         EDM                  : Branch       - HOME BASE OF LOGGING UNIT
MUD .         GEL                  : Mud_type     - MUD TYPE
MATR.         SANDSTONE            : Logunit      - NEUTRON MATRIX
TMAX.C        29                   : BHT          - MAXIMUM RECORDED TEMPERATURE
BHTD.M        691.7                : BHTDEP       - MAXIMUM RECORDED TEMPERATURE
RMT .C        29                   : MDTP         - TEMPERATURE OF MUD
MUDD.KG/M     1110                 : MWT          - MUD DENSITY
NEUT.         1                    : NEUTRON      - NEUTRON TYPE
RESI.         0                    : RESIST       - RESISTIVITY TYPE
RM  .OHMM     4.4                  : RM           - RESISTIVITY OF MUD
RMC .OHMM     0                    : RMC          - RESISTIVITY OF MUD CAKE
RMF .OHMM     4.96                 : RMF          - RESISTIVITY OF MUD FILTRATE
SUFT.C        0                    : SUFT         - SURFACE TEMPERATURE
~A  DEPTH     RESD     PHIN     PHID       GR      CAL
# ...
  536.500    3.196    0.461    0.262   56.273  209.289
  536.750    3.341    0.454    0.300   56.811  209.162
  537.000    3.407    0.446    0.343   57.654  208.829
  537.250    3.443    0.447    0.332   60.397  208.499
  537.500    3.376    0.433    0.310   64.673  208.677
  537.750    3.273    0.440    0.294   67.232  208.956
  538.000    3.185    0.459    0.274   69.976  209.038
  538.250    3.130    0.471    0.286   70.206  209.115
  538.500    3.150    0.463    0.302   65.349  210.010
  538.750    3.244    0.450    0.318   65.027  210.902
  539.000    3.333    0.430    0.332   66.236  211.489
  539.250    3.444    0.434    0.338   65.856  212.075
  539.500    3.546    0.445    0.332   64.799  212.459
  539.750    3.617    0.448    0.314   66.622  212.640
  540.000    3.717    0.431    0.295   69.305  213.333
  540.250    3.877    0.402    0.217   65.794  215.961
  540.500    4.311    0.297    0.168   58.793  217.471
  540.750    4.591    0.321    0.191   59.327  217.138
  541.000    4.451    0.355    0.269   63.789  214.049
  541.250    3.871    0.394    0.283   69.471  212.488
  541.500    3.249    0.428    0.295   73.382  211.953
  541.750    2.742    0.472    0.314   77.167  212.135
  542.000    2.499    0.495    0.347   67.098  213.745
  542.250    2.622    0.512    0.405   59.606  218.011
  542.500    2.893    0.570    0.458   51.683  218.290
  542.750    3.327    0.557    0.372   50.137  215.815
  543.000    3.776    0.436    0.320   50.674  212.930
  543.250    4.175    0.416    0.331   51.699  212.494
  543.500    4.282    0.409    0.325   52.602  212.776
  543.750    4.231    0.395    0.314   53.325  214.280
  544.000    4.211    0.395    0.315   54.414  215.382
  544.250    4.184    0.414    0.322   54.212  216.781
  544.500    4.189    0.435    0.331   53.892  217.069
  544.750    4.193    0.432    0.337   53.754  217.554
  545.000    4.197    0.426    0.333   54.047  217.731
  545.250    4.147    0.420    0.336   55.073  217.399
  545.500    4.096    0.431    0.337   55.792  216.867
  545.750    4.048    0.436    0.341   56.514  215.613
  546.000    4.036    0.435    0.339   57.113  214.773
  546.250    4.079    0.441    0.336   55.503  212.906
  546.500    4.167    0.440    0.334   53.160  211.044
  546.750    4.267    0.426    0.336   51.550  209.897
  547.000    4.295    0.422    0.334   51.289  208.951
  547.250    4.324    0.434    0.341   51.153  208.620
  547.500    4.328    0.442    0.354   51.444  209.206
  547.750    4.300    0.442    0.359   51.920  210.409
  548.000    4.280    0.435    0.348   52.395  211.710
  548.250    4.228    0.428    0.336   52.196  212.909
  548.500    4.139    0.426    0.340   51.323  213.501
  548.750    4.089    0.425    0.347   49.712  214.084
  549.000    4.047    0.423    0.350   47.737  214.063
  549.250    4.043    0.419    0.350   46.006  213.117
  549.500    4.040    0.421    0.341   46.113  212.480
  549.750    4.007    0.446    0.332   46.651  212.145
  550.000    3.988    0.465    0.349   46.695  212.430
  550.250    3.933    0.459    0.357   46.681  212.710
  550.500    3.878    0.445    0.362   47.769  212.686
  550.750    3.803    0.443    0.355   48.796  212.760
  551.000    3.757    0.439    0.348   48.537  212.837
  551.250    3.740    0.425    0.340   46.989  212.708
  551.500    3.729    0.415    0.342   45.442  212.688
  551.750    3.699    0.422    0.350   45.363  212.253
  552.000    3.668    0.428    0.351   47.005  211.616
  552.250    3.617    0.426    0.348   48.645  211.284
  552.500    3.560    0.425    0.346   49.548  211.156
  552.750    3.491    0.432    0.350   49.963  211.128
  553.000    3.424    0.438    0.351   49.517  211.108
  553.250    3.369    0.433    0.345   48.522  211.181
  553.500    3.323    0.446    0.340   47.466  211.462
  553.750    3.283    0.453    0.348   46.469  211.748
  554.000    3.231    0.431    0.357   48.108  212.131
  554.250    3.204    0.412    0.351   50.914  212.514
  554.500    3.165    0.426    0.346   50.713  212.898
  554.750    3.133    0.434    0.357   49.166  213.482
  555.000    3.101    0.430    0.364   47.560  213.868
  555.250    3.070    0.435    0.364   45.644  214.454
  555.500    3.038    0.418    0.356   44.525  214.939
  555.750    3.013    0.406    0.348   45.123  215.225
  556.000    2.988    0.417    0.349   47.742  215.196
  556.250    2.997    0.426    0.358   49.813  215.172
  556.500    3.017    0.431    0.355   52.311  215.039
  556.750    3.042    0.440    0.341   53.706  214.917
  557.000    3.069    0.455    0.331   55.162  214.792
  557.250    3.095    0.455    0.319   56.495  214.459
  557.500    3.145    0.449    0.301   57.460  214.639
  557.750    3.195    0.444    0.276   58.426  214.505
  558.000    3.296    0.443    0.250   60.986  214.383
  558.250    3.381    0.443    0.220   65.446  214.564
  558.500    3.480    0.449    0.235   66.841  215.043
  558.750    3.611    0.459    0.267   65.478  215.740
  559.000    3.710    0.476    0.332   60.927  216.529
  559.250    3.827    0.521    0.385   54.721  217.116
  559.500    3.911    0.555    0.417   45.450  217.503
  559.750    4.026    0.608    0.585   38.140  218.089
  560.000    4.295    0.700    0.534   47.994  218.781
  560.250    4.866    0.656    0.458   57.602  219.574
  560.500    6.513    0.545    0.333   68.803  221.077
  560.750    6.315    0.525    0.275   71.547  222.281
  561.000    5.659    0.510    0.282   70.367  223.378
  561.250    4.733    0.499    0.292   71.087  223.967
  561.500    4.178    0.486    0.300   70.890  224.045
  561.750    3.837    0.479    0.290   72.406  224.119
  562.000    3.672    0.470    0.269   76.315  223.481
  562.250    3.676    0.460    0.251   75.440  221.925
  562.500    3.721    0.448    0.265   71.012  220.369
  562.750    3.788    0.422    0.286   65.786  218.096
  563.000    3.849    0.404    0.277   62.279  215.925
  563.250    3.926    0.386    0.241   60.180  214.468
  563.500    4.072    0.342    0.197   58.938  214.343
  563.750    4.700    0.266    0.163   58.372  215.134
  564.000    5.325    0.253    0.126   58.109  215.519
  564.250    5.887    0.322    0.157   58.033  215.800
  564.500    6.621    0.356    0.180   58.081  215.366
  564.750    7.115    0.378    0.216   58.005  214.420
  565.000    8.591    0.414    0.264   58.235  213.677
  565.250   10.333    0.453    0.294   58.466  213.655
  565.500   10.680    0.481    0.318   59.185  214.445
  565.750    9.588    0.464    0.302   59.415  215.240
  566.000    7.593    0.448    0.302   59.462  216.641
  566.250    6.255    0.450    0.305   60.488  217.232
  566.500    5.595    0.480    0.299   63.722  218.026
  566.750    5.206    0.488    0.285   64.627  218.810
  567.000    4.772    0.475    0.259   59.401  219.202
  567.250    4.499    0.448    0.229   55.832  220.092
  567.500    4.378    0.400    0.149   52.323  220.272
  567.750    4.342    0.306    0.143   51.633  220.555
  568.000    4.403    0.334    0.167   53.395  220.838
  568.250    4.483    0.426    0.234   55.036  220.915
  568.500    4.564    0.444    0.282   56.002  220.788
  568.750    4.888    0.450    0.302   56.538  219.946
  569.000    5.835    0.444    0.301   57.257  218.283
  569.250    7.205    0.441    0.288   58.775  217.138
  569.500    6.895    0.444    0.242   60.967  217.111
  569.750    6.369    0.436    0.198   64.753  217.598
  570.000    5.870    0.417    0.151   62.652  218.488
  570.250    5.421    0.367    0.052   58.102  219.281
  570.500    5.006    0.231    0.020   50.610  219.866
  570.750    4.623    0.268    0.068   54.578  220.045
  571.000    4.358    0.311    0.118   59.527  220.125
  571.250    4.632    0.361    0.166   64.047  219.997
  571.500    5.469    0.394    0.200   67.590  219.056
  571.750    6.347    0.414    0.216   71.804  216.886
  572.000    7.579    0.428    0.198   74.853  215.327
  572.250    7.644    0.441    0.213   73.917  214.690
  572.500    7.085    0.453    0.233   73.474  214.660
  572.750    6.397    0.465    0.247   73.090  215.147
