~VERSION INFORMATION
 VERS.                 2.0:   CWLS LOG ASCII STANDARD -VERSION 2.0
 WRAP.                  NO:   ONE LINE PER DEPTH STEP
~WELL INFORMATION BLOCK
#MNEM.UNIT           DATA                    DESCRIPTION OF MNEMONIC
#---------    -------------------            -------------------------------
# Generated from Intellog Unique Number	CS_77_79/WELL/979
WELL.         MESA HB THORNBURY              : Well_name    - WELL
LOC .         00/10-32-078-12W4/0            : Location     - LOCATION
UWI .         00/10-32-078-12W4/0            : Uwi          - UNIQUE WELL ID
ENTR.         JHS                            : Entered      - ENTERED BY
SRVC.         SCHLUMBERGER                   : Scn          - SERVICE COMPANY
STRT.M        240                            : top_depth    - START DEPTH
STOP.M        455                            : bot_depth    - STOP DEPTH
STEP.M        0.25                           : increment    - STEP LENGTH
 NULL. -999.2500:NULL Value
~CURVE INFORMATION BLOCK
#MNEM UNIT       ERCB CURVE CODE    CURVE DESCRIPTION
#-----------   ------------------   ----------------------------------
DEPT.M        00 001 00 00         : DEPTH        - DEPTH
DPHI.V/V      00 890 00 00         : PHID         - DENSITY POROSITY (LIMESTONE)
NPHI.V/V      00 330 00 00         : PHIN         - NEUTRON POROSITY (LIMESTONE)
GR  .API      00 310 00 00         : GR           - GAMMA RAY
ILD .OHMM     00 120 00 00         : RESD         - DEEP RESISTIVITY (DIL)
RHOB.KG/M3    00 350 00 00         : DENS         - BULK DENSITY
~PARAMETER INFORMATION
#MNEM.UNIT           DATA             DESCRIPTION OF MNEMONIC
#---------         -----------     ------------------------------
GL  .M        675.6                : gl           - GROUND LEVEL ELEVATION
EREF.M        679.7                : kb           - ELEVATION OF DEPTH REFERENCE
DATM.M        679.7                : datum        - DATUM ELEVATION
TDD .M        470                  : tdd          - TOTAL DEPTH DRILLER
RUN .         ONE                  : Run          - RUN NUMBER
ENG .         BILL                 : Engineer     - RECORDING ENGINEER
WIT .         JIM                  : Witness      - WITNESSED BY
MUD .         GEL                  : Mud_type     - MUD TYPE
MATR.         LIMESTONE            : Logunit      - NEUTRON MATRIX
TMAX.C        26.2                 : BHT          - MAXIMUM RECORDED TEMPERATURE
BHTD.M        470                  : BHTDEP       - MAXIMUM RECORDED TEMPERATURE
MATR.         1                    : LOGUNIT      - NEUTRON MATRIX
RMT .C        25                   : MDTP         - TEMPERATURE OF MUD
NEUT.         1                    : NEUTRON      - NEUTRON TYPE
RESI.         0                    : RESIST       - RESISTIVITY TYPE
RMC .OHMM     0.25                 : RMC          - RESISTIVITY OF MUD CAKE
RMF .OHMM     0.25                 : RMF          - RESISTIVITY OF MUD FILTRATE
SUFT.C        15                   : SUFT         - SURFACE TEMPERATURE
~A  DEPTH     PHID     PHIN       GR     RESD     DENS
# ...
  386.000    0.360    0.466   79.896    6.424    0.000
  386.250    0.346    0.491   73.230    5.746    0.000
  386.500    0.335    0.511   69.601    5.336    0.000
  386.750    0.336    0.500   67.188    5.240    0.000
  387.000    0.330    0.486   67.201    5.442    0.000
  387.250    0.330    0.481   68.430    5.548    0.000
  387.500    0.331    0.494   69.048    5.656    0.000
  387.750    0.326    0.503   67.240    5.555    0.000
  388.000    0.327    0.491   67.863    5.455    0.000
  388.250    0.336    0.477   68.485    5.458    0.000
  388.500    0.340    0.466   67.288    5.565    0.000
  388.750    0.332    0.482   66.691    5.464    0.000
  389.000    0.333    0.508   67.313    5.170    0.000
  389.250    0.332    0.498   69.147    5.270    0.000
  389.500    0.312    0.496   67.951    5.473    0.000
  389.750    0.262    0.475   65.534    5.901    0.000
  390.000    0.179    0.359   62.508    6.244    0.000
  390.250    0.172    0.333   54.021    6.487    0.000
  390.500    0.252    0.350   53.426    6.370    0.000
  390.750    0.298    0.454   60.124    6.255    0.000
  391.000    0.327    0.478   64.389    6.030    0.000
  391.250    0.333    0.479   67.437    5.921    0.000
  391.500    0.324    0.462   68.669    6.036    0.000
  391.750    0.293    0.429   66.859    6.755    0.000
  392.000    0.101    0.299   64.447    9.112    0.000
  392.250    0.042    0.228   63.850   12.293    0.000
  392.500    0.034    0.210   60.828   14.822    0.000
  392.750    0.101    0.244   63.275   18.213    0.000
  393.000    0.146    0.303   66.324   15.695    0.000
  393.250    0.248    0.375   69.981   11.867    0.000
  393.500    0.339    0.463   74.246    8.645    0.000
  393.750    0.329    0.480   71.228    7.176    0.000
  394.000    0.322    0.489   69.418    6.070    0.000
  394.250    0.314    0.511   68.823    5.961    0.000
  394.500    0.320    0.514   69.447    5.854    0.000
  394.750    0.330    0.507   68.244    5.749    0.000
  395.000    0.331    0.500   68.864    5.646    0.000
  395.250    0.326    0.501   70.701    5.649    0.000
  395.500    0.330    0.495   75.573    5.653    0.000
  395.750    0.326    0.486   75.590    5.763    0.000
  396.000    0.319    0.471   73.779    5.766    0.000
  396.250    0.319    0.492   73.797    5.769    0.000
  396.500    0.313    0.499   75.022    5.665    0.000
  396.750    0.310    0.488   76.256    5.564    0.000
  397.000    0.316    0.485   76.267    5.465    0.000
  397.250    0.329    0.486   73.851    5.366    0.000
  397.500    0.333    0.488   70.222    5.270    0.000
  397.750    0.335    0.492   72.056    5.175    0.000
  398.000    0.330    0.496   75.108    5.083    0.000
  398.250    0.336    0.502   74.515    4.991    0.000
  398.500    0.334    0.511   75.744    4.994    0.000
  398.750    0.328    0.503   77.579    4.997    0.000
  399.000    0.338    0.497   77.594    4.999    0.000
  399.250    0.336    0.501   77.001    5.002    0.000
  399.500    0.329    0.494   80.663    5.004    0.000
  399.750    0.323    0.504   81.891    5.007    0.000
  400.000    0.329    0.506   82.510    5.010    0.000
  400.250    0.334    0.498   80.093    5.014    0.000
  400.500    0.338    0.496   77.070    5.016    0.000
  400.750    0.339    0.500   77.692    5.019    0.000
  401.000    0.337    0.494   79.532    5.021    0.000
  401.250    0.329    0.482   78.331    5.024    0.000
  401.500    0.328    0.495   76.522    5.123    0.000
  401.750    0.338    0.504   75.321    5.125    0.000
  402.000    0.327    0.508   75.941    5.226    0.000
  402.250    0.311    0.522   75.350    5.229    0.000
  402.500    0.308    0.522   74.754    5.231    0.000
  402.750    0.307    0.511   75.374    5.334    0.000
  403.000    0.302    0.494   79.033    5.336    0.000
  403.250    0.302    0.483   80.872    5.339    0.000
  403.500    0.296    0.479   82.097    5.342    0.000
  403.750    0.288    0.488   84.542    5.245    0.000
  404.000    0.278    0.496   87.594    5.152    0.000
  404.250    0.264    0.506   90.035    5.059    0.000
  404.500    0.285    0.498   90.051    5.062    0.000
  404.750    0.275    0.474   88.848    5.064    0.000
  405.000    0.290    0.468   85.219    5.164 2214.370
  405.250    0.304    0.484   81.592    5.263 2189.400
  405.500    0.317    0.502   79.781    5.365 2168.580
  405.750    0.313    0.504   74.330    5.470 2174.890
  406.000    0.290    0.489   73.129    5.372 2214.570
  406.250    0.271    0.485   76.179    5.374 2245.890
  406.500    0.258    0.495   78.624    5.278 2268.880
  406.750    0.288    0.503   78.636    5.281 2216.790
  407.000    0.296    0.502   78.047    5.384 2204.330
  407.250    0.274    0.508   79.273    5.489 2241.920
  407.500    0.259    0.519   85.967    5.701 2266.990
  407.750    0.254    0.520   89.020    5.703 2275.380
  408.000    0.264    0.507   88.426    5.814 2258.740
  408.250    0.258    0.496   85.403    5.817 2269.220
  408.500    0.253    0.497   87.242    5.713 2277.610
  408.750    0.252    0.497   90.293    5.717 2279.750
  409.000    0.243    0.509   90.914    5.614 2294.390
  409.250    0.227    0.528   92.751    5.616 2321.550
  409.500    0.241    0.554   95.194    5.620 2298.660
  409.750    0.247    0.527   97.028    5.623 2288.290
  410.000    0.247    0.508   97.045    5.734 2288.330
  410.250    0.253    0.498   95.842    5.736 2277.950
  410.500    0.240    0.482   93.425    5.739 2298.850
  410.750    0.225    0.476   95.265    5.850 2326.010
  411.000    0.218    0.478   95.884    5.853 2336.480
  411.250    0.233    0.488   94.685    6.080 2311.510
  411.500    0.223    0.493   95.913    6.197 2328.250
  411.750    0.223    0.479   96.531    6.318 2328.290
  412.000    0.215    0.449   97.762    6.441 2342.950
  412.250    0.206    0.438   96.560    6.444 2357.580
  412.500    0.194    0.440   99.612    6.448 2378.480
  412.750    0.221    0.457  101.449    6.332 2332.650
  413.000    0.247    0.472  101.464    6.219 2286.820
  413.250    0.246    0.463   99.655    5.995 2288.960
  413.500    0.250    0.478   96.022    5.886 2282.740
  413.750    0.244    0.488   96.040    5.673 2293.220
  414.000    0.247    0.486   96.054    5.368 2287.010
  414.250    0.242    0.494   94.246    5.174 2295.410
  414.500    0.257    0.511   91.221    4.895 2270.430
  414.750    0.241    0.530   87.590    4.630 2297.590
  415.000    0.252    0.540   90.033    4.300 2278.870
  415.250    0.268    0.541   93.088    3.570 2251.800
  415.500    0.289    0.552   93.098    3.134 2216.400
  415.750    0.295    0.558   91.297    2.602 2206.040
  416.000    0.293    0.576   90.093    2.371 2208.170
  416.250    0.285    0.600   90.105    2.043 2222.800
  416.500    0.290    0.576   90.729    1.794 2214.510
  416.750    0.307    0.568   91.350    1.762 2185.360
  417.000    0.286    0.565   92.579    1.900 2220.860
  417.250    0.274    0.568   96.236    1.973 2241.770
  417.500    0.264    0.577   96.253    2.167 2258.510
  417.750    0.254    0.520   95.048    2.425 2275.230
  418.000    0.235    0.482   92.028    2.925 2308.640
  418.250    0.235    0.470   89.610    3.398 2308.690
  418.500    0.236    0.494   85.373    3.733 2306.660
  418.750    0.236    0.508   87.817    4.177 2306.700
  419.000    0.260    0.480   91.473    4.676 2265.050
  419.250    0.241    0.459   90.275    4.856 2298.460
  419.500    0.214    0.442   92.112    4.950 2344.390
  419.750    0.199    0.449   93.946    4.512 2369.460
  420.000    0.228    0.466   95.784    4.190 2319.460
  420.250    0.245    0.483   96.407    3.963 2290.320
  420.500    0.233    0.500   93.991    4.194 2311.230
  420.750    0.221    0.488   90.358    4.522 2332.130
  421.000    0.200    0.466   86.728    4.785 2367.610
  421.250    0.154    0.443   83.707    5.158 2446.910
  421.500    0.214    0.422   87.364    5.883 2344.770
  421.750    0.237    0.433   92.239    5.997 2305.200
  422.000    0.223    0.453   93.472    5.568 2328.200
  422.250    0.220    0.466   93.479    4.710 2334.490
