~VERSION INFORMATION
 VERS.                 2.0:   CWLS LOG ASCII STANDARD -VERSION 2.0
 WRAP.                  NO:   ONE LINE PER DEPTH STEP
~WELL INFORMATION BLOCK
#MNEM.UNIT           DATA                    DESCRIPTION OF MNEMONIC
#---------    -------------------            -------------------------------
# Generated from Intellog Unique Number	CC_80_83/WELL/2388
NULL.         -999.25                        : NULL_VALUE
WELL.         CDN SUP ALGAR                  : Well_name    - WELL
LOC .         10-32-083-15W4                 : Location     - LOCATION          
UWI .         00/10-32-083-15W400            : Uwi          - UNIQUE WELL ID    
ENTR.         DW                             : Entered      - ENTERED BY        
SRVC.         SCHLUMBERGER                   : Scn          - SERVICE COMPANY   
DATE.         12 MAR 76                      : Date         - LOG DATE
STRT.M        85.344                         : top_depth    - START DEPTH       
STOP.M        279.195                        : bot_depth    - STOP DEPTH        
STEP.M        0.3048                         : increment    - STEP LENGTH       
~CURVE INFORMATION BLOCK
#MNEM UNIT       ERCB CURVE CODE    CURVE DESCRIPTION
#-----------   ------------------   ----------------------------------
DEPT.M        00 001 00 00         : DEPTH        - DEPTH                       
DPHI.V/V      00 890 00 00         : PHID         - DENSITY POROSITY (LIMESTONE)
NPHI.V/V      00 330 00 00         : PHIN         - NEUTRON POROSITY (LIMESTONE)
GR  .API      00 310 00 00         : GR           - GAMMA RAY                   
ILD .OHMM     00 120 00 00         : RESD         - DEEP RESISTIVITY (DIL)      
~PARAMETER INFORMATION       
#MNEM.UNIT           DATA             DESCRIPTION OF MNEMONIC
#---------         -----------     ------------------------------
GL  .M        544.068              : gl           - GROUND LEVEL ELEVATION      
EREF.M        547.421              : kb           - ELEVATION OF DEPTH REFERENCE
DATM.M        547.421              : datum        - DATUM ELEVATION             
TDD .M        278.282              : tdd          - TOTAL DEPTH DRILLER         
RUN .         ONE                  : Run          - RUN NUMBER                  
ENG .         BILL                 : Engineer     - RECORDING ENGINEER          
WIT .         JIM                  : Witness      - WITNESSED BY                
MUD .         GEL                  : Mud_type     - MUD TYPE                    
MATR.         LIMESTONE            : Logunit      - NEUTRON MATRIX              
TMAX.C        22.2222              : BHT          - MAXIMUM RECORDED TEMPERATURE
BHTD.M        278.282              : BHTDEP       - MAXIMUM RECORDED TEMPERATURE
MATR.         1                    : LOGUNIT      - NEUTRON MATRIX              
RMT .C        25                   : MDTP         - TEMPERATURE OF MUD          
NEUT.         1                    : NEUTRON      - NEUTRON TYPE                
RESI.         0                    : RESIST       - RESISTIVITY TYPE            
RMC .OHMM     0.25                 : RMC          - RESISTIVITY OF MUD CAKE     
RMF .OHMM     0.25                 : RMF          - RESISTIVITY OF MUD FILTRATE 
SUFT.C        15                   : SUFT         - SURFACE TEMPERATURE         
~A  DEPTH     PHID     PHIN       GR     RESD
# ...
  191.413    0.331    0.362   83.590   15.860
  191.718    0.337    0.375   93.801   15.858
  192.023    0.326    0.408   95.016   15.565
  192.328    0.342    0.394   84.238   14.996
  192.633    0.357    0.382   76.457   14.183
  192.937    0.348    0.399   77.680   13.920
  193.242    0.345    0.434   79.493   14.178
  193.547    0.342    0.426   80.105   14.442
  193.852    0.340    0.444   83.119   13.914
  194.157    0.328    0.434   94.529   13.656
  194.461    0.322    0.424   99.342   13.158
  194.766    0.318    0.424   90.965   11.135
  195.071    0.304    0.444   87.982   10.929
  195.376    0.305    0.444   78.403   10.927
  195.681    0.302    0.456   77.819   11.130
  195.985    0.335    0.465   75.438   11.129
  196.290    0.331    0.464   73.060   10.922
  196.595    0.319    0.459   73.670   10.921
  196.900    0.326    0.455   75.484   11.124
  197.205    0.331    0.441   77.302   12.202
  197.509    0.320    0.431   78.515   13.634
  197.814    0.294    0.423   77.932   14.147
  198.119    0.255    0.401   70.150   13.885
  198.424    0.162    0.312   66.570   12.891
  198.729    0.311    0.323   68.386   11.533
  199.033    0.335    0.441   73.796   10.708
  199.338    0.333    0.450   75.615   10.316
  199.643    0.324    0.450   76.829   10.315
  199.948    0.320    0.431   81.045   10.124
  200.253    0.312    0.415   82.256   10.504
  200.557    0.303    0.437   78.676   10.503
  200.862    0.326    0.455   78.093   10.501
  201.167    0.328    0.459   78.108   10.499
  201.472    0.321    0.456   80.521   10.305
  201.776    0.320    0.465   83.537   10.114
  202.081    0.319    0.457   87.151   10.113
  202.386    0.317    0.454   89.569   10.689
  202.691    0.302    0.456   90.182   11.092
  202.996    0.291    0.443   88.398   12.626
  203.300    0.234    0.436   80.620   16.669
  203.605    0.106    0.399   74.638   22.837
  203.910    0.035    0.328   70.456   27.481
  204.215    0.000    0.168   69.274   29.048
  204.520    0.031    0.200   74.088   25.987
  204.824    0.131    0.264   74.704   18.963
  205.129    0.168    0.322   75.919   14.096
  205.434    0.215    0.369   81.331   11.077
  205.739    0.288    0.427   84.344    9.727
  206.044    0.291    0.461   85.561    9.726
  206.348    0.282    0.465   84.977    9.906
  206.653    0.280    0.455   83.797    9.723
  206.958    0.283    0.447   83.814    9.368
  207.263    0.286    0.435   85.025    8.860
  207.568    0.253    0.434   90.441    8.225
  207.872    0.235    0.479   92.253    8.225
  208.177    0.264    0.470   90.475    8.224
  208.482    0.242    0.463   90.488    8.222
  208.787    0.256    0.452   94.101    8.221
  209.092    0.255    0.484  100.115    8.374
  209.396    0.249    0.490  101.334    8.218
  209.701    0.284    0.471  100.751    7.630
  210.006    0.268    0.461  100.163    7.084
  210.311    0.264    0.458  101.980    6.953
  210.616    0.277    0.470  104.991    7.215
  210.920    0.257    0.472  108.606    7.626
  211.225    0.243    0.482  109.822    7.767
  211.530    0.254    0.501  115.833    7.911
  211.835    0.236    0.505  109.855    7.765
  212.139    0.226    0.502  108.671    7.481
  212.444    0.236    0.512  109.886    7.208
  212.749    0.256    0.512  103.905    6.945
  213.054    0.266    0.503  105.122    6.691
  213.359    0.269    0.519  105.735    6.446
  213.663    0.274    0.540   98.555    6.446
  213.968    0.328    0.521   93.774    6.565
  214.273    0.309    0.496   93.794    6.939
  214.578    0.296    0.508   95.606    7.472
  214.883    0.287    0.497   98.020    8.349
  215.187    0.294    0.453   98.636    9.330
  215.492    0.285    0.438   96.253   11.022
  215.797    0.300    0.421   86.074   13.263
  216.102    0.316    0.398   81.896   13.762
  216.407    0.310    0.384   80.712   13.259
  216.711    0.271    0.432   80.127   12.084
  217.016    0.286    0.451   82.541   11.013
  217.321    0.302    0.460   87.957   10.416
  217.626    0.269    0.472   89.769    9.852
  217.931    0.277    0.478   87.389    9.669
  218.235    0.292    0.473   86.805    9.668
  218.540    0.304    0.455   90.421    9.847
  218.845    0.305    0.444   88.035   10.030
  219.150    0.288    0.440   82.654    9.844
  219.455    0.278    0.447   89.869   10.026
  219.759    0.265    0.450   92.881   10.213
  220.064    0.293    0.441   90.498   11.412
  220.369    0.273    0.424   83.321   14.518
  220.674    0.219    0.375   80.935   15.345
  220.979    0.112    0.293   79.153   15.061
  221.283    0.121    0.266   79.169   13.983
  221.588    0.178    0.330   91.178   12.281
  221.893    0.305    0.481   99.590   10.393
  222.198    0.303    0.468   97.207    9.649
  222.503    0.289    0.465  100.822    9.470
  222.807    0.276    0.464   98.438    9.469
  223.112    0.276    0.446  102.056    9.825
  223.417    0.277    0.447  100.269    9.465
  223.722    0.296    0.442   94.891    9.291
  224.026    0.237    0.465   95.507    7.718
  224.331    0.259    0.484   98.519    6.294
  224.636    0.267    0.496  105.132    6.178
  224.941    0.267    0.503  109.347    6.410
  225.246    0.268    0.508  108.162    7.713
  225.550    0.274    0.515   97.384    8.944
  225.855    0.266    0.484   92.605    9.454
  226.160    0.217    0.451   95.621    9.453
  226.465    0.257    0.437   98.632    8.941
  226.770    0.229    0.437  104.046    7.291
  227.074    0.228    0.448  109.457    6.523
  227.379    0.252    0.491  121.467    6.285
  227.684    0.241    0.523  114.887    6.284
  227.989    0.247    0.506  108.905    6.520
  228.294    0.241    0.498  117.917    6.891
  228.598    0.239    0.504  116.738    6.890
  228.903    0.236    0.508  117.951    6.517
  229.208    0.253    0.518  120.966    6.396
  229.513    0.259    0.522  119.780    6.395
  229.818    0.238    0.501  122.195    6.886
  230.122    0.228    0.505  122.215    7.985
  230.427    0.235    0.479  121.029    9.789
  230.732    0.209    0.445  110.850   11.351
  231.037    0.175    0.392  107.871   11.998
  231.342    0.216    0.417  110.283   11.997
  231.646    0.229    0.415  116.295   11.346
  231.951    0.236    0.415  119.910   10.731
  232.256    0.245    0.434  121.125   10.339
  232.561    0.230    0.448  113.344   10.148
  232.866    0.226    0.458  113.962    9.422
  233.170    0.242    0.471  116.376    8.429
  233.475    0.249    0.488  118.192    8.586
  233.780    0.276    0.479  117.607    9.075
  234.085    0.252    0.445  103.832    9.954
  234.389    0.240    0.422  107.445   10.718
  234.694    0.241    0.419  109.860   11.121
  234.999    0.277    0.445  109.275   11.327
  235.304    0.279    0.447  103.895   11.973
  235.609    0.265    0.425   96.714   12.424
  235.913    0.221    0.401   88.335   12.890
  236.218    0.174    0.376   85.951   12.652
  236.523    0.268    0.425   88.370   12.418
  236.828    0.284    0.441   92.582   11.965
  237.133    0.280    0.436   96.794   11.316
  237.437    0.251    0.436  101.015   10.702
  237.742    0.238    0.435  101.625   10.311
  238.047    0.250    0.436  100.441   10.310
  238.352    0.274    0.448   95.060   10.501
  238.657    0.290    0.458   92.687   10.499
  238.961    0.284    0.467   93.296   10.304
  239.266    0.246    0.454   94.510   10.114
  239.571    0.238    0.435   95.723   10.113
  239.876    0.243    0.421   92.142    9.926
  240.181    0.266    0.427   91.558    9.742
  240.485    0.250    0.421   94.575    9.740
  240.790    0.241    0.449   95.787    9.560
  241.095    0.267    0.461   91.005    9.211
  241.400    0.253    0.451   89.227    8.552
  241.705    0.245    0.443   88.042    7.794
  242.009    0.246    0.451   88.058    7.938
  242.314    0.265    0.469   92.872    8.391
  242.619    0.258    0.454   96.485    9.376
  242.924    0.251    0.438  100.098   10.096
  243.229    0.254    0.437  106.111   10.283
  243.533    0.245    0.439  103.128   10.093
  243.838    0.219    0.443   95.948    9.370
  244.143    0.240    0.443   99.567    8.700
