~VERSION INFORMATION
 VERS.                 2.0:   CWLS LOG ASCII STANDARD -VERSION 2.0
 WRAP.                  NO:   ONE LINE PER DEPTH STEP
~WELL INFORMATION BLOCK
#MNEM.UNIT           DATA                    DESCRIPTION OF MNEMONIC
#---------    -------------------            -------------------------------
# Generated from Intellog Unique Number	CS_69_70/WELL/897
NULL.         -999.25                        : NULL_VALUE
WELL.         SULPETRO BRENDA IPIATIK        : Well_name    - WELL              
LOC .         00/11-28-070-09W4/0            : Location     - LOCATION          
UWI .         00/11-28-070-09W4/0            : Uwi          - UNIQUE WELL ID    
ENTR.         SP                             : Entered      - ENTERED BY        
SRVC.         SCHLUMBERGER                   : Scn          - SERVICE COMPANY   
STRT.M        260                            : top_depth    - START DEPTH       
STOP.M        470                            : bot_depth    - STOP DEPTH        
STEP.M        0.25                           : increment    - STEP LENGTH       
~CURVE INFORMATION BLOCK
#MNEM UNIT       ERCB CURVE CODE    CURVE DESCRIPTION
#-----------   ------------------   ----------------------------------
DEPT.M        00 001 00 00         : DEPTH        - DEPTH                       
ILD .OHMM     00 120 00 00         : RESD         - DEEP RESISTIVITY (DIL)      
DPHI.V/V      00 890 00 00         : PHID         - DENSITY POROSITY (LIMESTONE)
NPHI.V/V      00 330 00 00         : PHIN         - NEUTRON POROSITY (LIMESTONE)
GR  .API      00 310 00 00         : GR           - GAMMA RAY                   
~PARAMETER INFORMATION       
#MNEM.UNIT           DATA             DESCRIPTION OF MNEMONIC
#---------         -----------     ------------------------------
GL  .M        605.03               : gl           - GROUND LEVEL ELEVATION      
EREF.M        609.53               : kb           - ELEVATION OF DEPTH REFERENCE
DATM.M        605.03               : datum        - DATUM ELEVATION             
TDD .M        480                  : tdd          - TOTAL DEPTH DRILLER         
RUN .         ONE                  : Run          - RUN NUMBER                  
ENG .         BILL                 : Engineer     - RECORDING ENGINEER          
WIT .         JIM                  : Witness      - WITNESSED BY                
MUD .         GEL                  : Mud_type     - MUD TYPE                    
MATR.         LIMESTONE            : Logunit      - NEUTRON MATRIX              
TMAX.C        20                   : BHT          - MAXIMUM RECORDED TEMPERATURE
BHTD.M        480                  : BHTDEP       - MAXIMUM RECORDED TEMPERATURE
MATR.         1                    : LOGUNIT      - NEUTRON MATRIX              
RMT .C        25                   : MDTP         - TEMPERATURE OF MUD          
NEUT.         1                    : NEUTRON      - NEUTRON TYPE                
RESI.         0                    : RESIST       - RESISTIVITY TYPE            
RMC .OHMM     0.25                 : RMC          - RESISTIVITY OF MUD CAKE     
RMF .OHMM     0.25                 : RMF          - RESISTIVITY OF MUD FILTRATE 
SUFT.C        15                   : SUFT         - SURFACE TEMPERATURE         
~A  DEPTH     RESD     PHID     PHIN       GR
  260.000    3.220    0.213    0.466  105.057
  260.250    3.261    0.220    0.473  102.520
  260.500    3.352    0.217    0.479  103.768
  260.750    3.452    0.212    0.489  105.372
  261.000    3.581    0.193    0.455  105.899
  261.250    3.701    0.202    0.449  106.006
  261.500    3.811    0.213    0.455  105.028
  261.750    3.845    0.211    0.459  102.727
  262.000    3.851    0.221    0.463  101.637
  262.250    3.772    0.236    0.466  100.357
  262.500    3.667    0.236    0.475  102.268
  262.750    3.538    0.222    0.485  102.193
  263.000    3.395    0.226    0.499   99.713
  263.250    3.338    0.238    0.486   99.100
  263.500    3.312    0.219    0.471   98.425
  263.750    3.348    0.231    0.465   98.951
  264.000    3.416    0.240    0.459  102.059
  264.250    3.485    0.216    0.450   98.559
  264.500    3.529    0.198    0.444   97.404
  264.750    3.528    0.231    0.425   97.749
  265.000    3.442    0.250    0.469   94.792
  265.250    3.207    0.256    0.497   90.752
  265.500    3.302    0.303    0.466   87.013
  265.750    3.710    0.346    0.455   82.133
  266.000    4.441    0.379    0.424   72.087
  266.250    6.223    0.395    0.392   62.701
  266.500    8.157    0.405    0.344   53.496
  266.750   11.973    0.405    0.193   43.390
  267.000   15.695    0.391    0.212   38.690
  267.250   18.577    0.363    0.256   40.357
  267.500   14.752    0.338    0.296   38.959
  267.750   12.385    0.343    0.329   36.722
  268.000   11.035    0.328    0.350   33.225
  268.250    9.210    0.310    0.292   29.786
  268.500    9.158    0.302    0.311   27.970
  268.750    8.627    0.307    0.336   36.963
  269.000    8.371    0.308    0.365   45.961
  269.250    8.153    0.293    0.389   62.884
  269.500    8.015    0.273    0.405   72.180
  269.750    7.938    0.252    0.413   83.217
  270.000    7.804    0.237    0.390   87.709
  270.250    7.743    0.220    0.388   91.298
  270.500    7.485    0.202    0.391   96.329
  270.750    7.795    0.183    0.396  101.901
  271.000    7.865    0.210    0.406  105.066
  271.250    7.906    0.208    0.407  104.452
  271.500    7.962    0.225    0.394  104.318
  271.750    7.974    0.239    0.389  103.584
  272.000    7.956    0.250    0.387   97.442
  272.250    7.923    0.251    0.383   97.306
  272.500    7.772    0.236    0.382  102.218
  272.750    7.714    0.206    0.393  105.807
  273.000    7.711    0.199    0.400  104.531
  273.250    7.766    0.214    0.386  101.151
  273.500    7.864    0.232    0.360   98.194
  273.750    8.068    0.237    0.349   95.777
  274.000    8.512    0.205    0.334   90.175
  274.250    8.765    0.191    0.313   82.289
  274.500    8.778    0.183    0.289   78.913
  274.750    8.807    0.170    0.271   84.965
  275.000    9.035    0.181    0.270   80.445
  275.250    9.461    0.215    0.274   72.321
  275.500    9.962    0.250    0.277   66.720
  275.750    9.848    0.275    0.289   62.139
  276.000    9.005    0.305    0.329   59.481
  276.250    8.436    0.302    0.356   65.654
  276.500    8.020    0.293    0.368   65.820
  276.750    7.639    0.268    0.368   62.022
  277.000    7.358    0.244    0.377   78.883
  277.250    7.009    0.216    0.401   87.100
  277.500    6.651    0.192    0.398   95.314
  277.750    6.242    0.174    0.397  102.447
  278.000    5.837    0.152    0.407  109.100
  278.250    5.477    0.143    0.413  112.748
  278.500    5.179    0.167    0.428  111.831
  278.750    4.744    0.176    0.443  112.180
  279.000    4.469    0.190    0.459  116.729
  279.250    4.132    0.165    0.476  120.800
  279.500    3.807    0.199    0.492  118.983
  279.750    3.468    0.218    0.513  121.551
  280.000    3.195    0.223    0.495  123.038
  280.250    2.971    0.246    0.513  121.582
  280.500    2.840    0.263    0.519  116.581
  280.750    3.144    0.267    0.512  108.156
  281.000    4.199    0.263    0.442  101.714
  281.250    5.744    0.264    0.436   94.491
  281.500    7.003    0.250    0.439   89.732
  281.750    7.957    0.250    0.422   88.997
  282.000    8.744    0.236    0.419   94.628
  282.250    8.920    0.232    0.434   98.034
  282.500    8.294    0.249    0.443   98.201
  282.750    7.960    0.240    0.444   96.326
  283.000    7.596    0.248    0.447   94.026
  283.250    7.303    0.257    0.440   92.092
  283.500    7.126    0.263    0.439   86.970
  283.750    7.005    0.282    0.444   82.511
  284.000    6.925    0.311    0.406   76.429
  284.250    6.948    0.333    0.395   68.903
  284.500    7.063    0.343    0.391   63.786
  284.750    7.139    0.346    0.386   56.563
  285.000    7.284    0.332    0.386   52.223
  285.250    7.376    0.344    0.385   47.518
  285.500    7.442    0.351    0.384   46.245
  285.750    7.467    0.345    0.381   45.992
  286.000    7.450    0.357    0.381   45.857
  286.250    7.420    0.355    0.395   45.059
  286.500    7.389    0.343    0.403   45.227
  286.750    7.400    0.339    0.410   46.894
  287.000    7.384    0.341    0.393   49.279
  287.250    7.381    0.344    0.394   51.548
  287.500    7.420    0.344    0.396   55.079
  287.750    7.444    0.342    0.391   59.325
  288.000    7.440    0.335    0.387   63.213
  288.250    7.453    0.324    0.376   67.045
  288.500    7.476    0.311    0.367   70.698
  288.750    7.475    0.313    0.383   75.008
  289.000    7.456    0.320    0.381   81.779
  289.250    7.455    0.318    0.394   91.076
  289.500    7.465    0.323    0.404   96.286
  289.750    7.476    0.330    0.412   93.329
  290.000    7.529    0.339    0.413   82.141
  290.250    7.541    0.336    0.397   75.519
  290.500    7.566    0.308    0.387   81.991
  290.750    7.606    0.282    0.396   87.684
  291.000    7.602    0.275    0.415   94.517
  291.250    7.488    0.268    0.428   99.248
  291.500    7.293    0.254    0.441   97.310
  291.750    7.170    0.247    0.450   90.747
  292.000    7.207    0.265    0.431   83.103
  292.250    7.394    0.281    0.407   76.842
  292.500    7.628    0.276    0.390   70.821
  292.750    7.841    0.297    0.388   67.863
  293.000    7.751    0.294    0.388   72.773
  293.250    7.521    0.272    0.383   84.051
  293.500    7.059    0.243    0.382   95.871
  293.750    6.502    0.222    0.394  103.785
  294.000    6.159    0.214    0.408  109.774
  294.250    5.845    0.215    0.417  112.285
  294.500    5.725    0.219    0.421  109.207
  294.750    5.906    0.238    0.405  101.381
  295.000    6.289    0.259    0.391   95.600
  295.250    6.733    0.275    0.388   90.421
  295.500    7.037    0.283    0.407   85.841
  295.750    7.314    0.288    0.423   90.632
  296.000    7.546    0.283    0.436   94.397
  296.250    7.698    0.282    0.450   95.766
  296.500    7.753    0.287    0.451   96.114
  296.750    7.793    0.296    0.437   94.537
  297.000    7.790    0.289    0.425   92.239
  297.250    7.715    0.276    0.427   91.745
  297.500    7.585    0.268    0.437   92.270
  297.750    7.484    0.280    0.445   92.977
  298.000    7.385    0.284    0.437   93.263
  298.250    7.396    0.277    0.435   92.827
  298.500    7.476    0.261    0.441   88.907
  298.750    7.727    0.207    0.442   84.688
  299.000    7.883    0.108    0.343   81.009
  299.250    7.793    0.171    0.324   76.009
  299.500    7.618    0.233    0.362   82.000
  299.750    7.393    0.276    0.401   88.472
  300.000    7.254    0.291    0.435   92.721
  300.250    7.131    0.290    0.455   93.728
  300.500    7.023    0.277    0.452   94.315
  300.750    7.008    0.267    0.448   95.262
  301.000    7.057    0.260    0.444   96.329
  301.250    7.121    0.254    0.435   96.674
  301.500    7.441    0.256    0.425   95.338
  301.750    7.551    0.271    0.414   91.959
  302.000    7.590    0.288    0.405   90.263
  302.250    7.531    0.284    0.397   92.889
  302.500    7.431    0.265    0.402   94.374
  302.750    7.387    0.260    0.404   94.543
  303.000    7.088    0.253    0.426   93.626
  303.250    6.853    0.262    0.438   89.587
