~VERSION INFORMATION
 VERS.                 2.0:   CWLS LOG ASCII STANDARD -VERSION 2.0
 WRAP.                  NO:   ONE LINE PER DEPTH STEP
~WELL INFORMATION BLOCK
#MNEM.UNIT           DATA                    DESCRIPTION OF MNEMONIC
#---------    -------------------            -------------------------------
# Generated from Intellog Unique Number	CS_73_76/WELL/833
WELL.         PACIFIC  CRIST                 : Well_name    - WELL
LOC .         00/10-24-073-08W4/0            : Location     - LOCATION
UWI .         00/10-24-073-08W4/0            : Uwi          - UNIQUE WELL ID
ENTR.         SP                             : Entered      - ENTERED BY
SRVC.         SCHLUMBERGER                   : Scn          - SERVICE COMPANY
STRT.M        310                            : top_depth    - START DEPTH
STOP.M        530                            : bot_depth    - STOP DEPTH
STEP.M        0.25                           : increment    - STEP LENGTH
 NULL. -999.2500:NULL Value
~CURVE INFORMATION BLOCK
#MNEM UNIT       ERCB CURVE CODE    CURVE DESCRIPTION
#-----------   ------------------   ----------------------------------
DEPT.M        00 001 00 00         : DEPTH        - DEPTH
ILD .OHMM     00 120 00 00         : RESD         - DEEP RESISTIVITY (DIL)
DPHI.V/V      00 890 00 00         : PHID         - DENSITY POROSITY (LIMESTONE)
NPHI.V/V      00 330 00 00         : PHIN         - NEUTRON POROSITY (LIMESTONE)
GR  .API      00 310 00 00         : GR           - GAMMA RAY
~PARAMETER INFORMATION
#MNEM.UNIT           DATA             DESCRIPTION OF MNEMONIC
#---------         -----------     ------------------------------
GL  .M        694.3                : gl           - GROUND LEVEL ELEVATION
EREF.M        697.6                : kb           - ELEVATION OF DEPTH REFERENCE
DATM.M        694.3                : datum        - DATUM ELEVATION
TDD .M        540                  : tdd          - TOTAL DEPTH DRILLER
RUN .         ONE                  : Run          - RUN NUMBER
ENG .         BILL                 : Engineer     - RECORDING ENGINEER
WIT .         JIM                  : Witness      - WITNESSED BY
MUD .         GEL                  : Mud_type     - MUD TYPE
MATR.         LIMESTONE            : Logunit      - NEUTRON MATRIX
TMAX.C        12.8                 : BHT          - MAXIMUM RECORDED TEMPERATURE
BHTD.M        540                  : BHTDEP       - MAXIMUM RECORDED TEMPERATURE
MATR.         1                    : LOGUNIT      - NEUTRON MATRIX
RMT .C        25                   : MDTP         - TEMPERATURE OF MUD
NEUT.         1                    : NEUTRON      - NEUTRON TYPE
RESI.         0                    : RESIST       - RESISTIVITY TYPE
RMC .OHMM     0.25                 : RMC          - RESISTIVITY OF MUD CAKE
RMF .OHMM     0.25                 : RMF          - RESISTIVITY OF MUD FILTRATE
SUFT.C        15                   : SUFT         - SURFACE TEMPERATURE
~A  DEPTH     RESD     PHID     PHIN       GR
# ...
  484.000   11.114    0.217    0.431   68.504
  484.250   11.136    0.213    0.429   70.315
  484.500   10.748    0.206    0.440   70.311
  484.750   10.564    0.218    0.440   71.516
  485.000   10.389    0.211    0.428   73.932
  485.250   10.208    0.193    0.440   74.532
  485.500    9.851    0.185    0.445   78.759
  485.750    8.836    0.207    0.432   81.780
  486.000    8.526    0.217    0.422   84.197
  486.250    8.378    0.199    0.414   87.217
  486.500    8.234    0.249    0.439   86.003
  486.750    8.245    0.275    0.452   68.459
  487.000    8.260    0.303    0.424   59.988
  487.250    8.584    0.259    0.390   58.169
  487.500   10.164    0.245    0.405   63.003
  487.750   11.805    0.233    0.424   66.627
  488.000   14.240    0.227    0.440   62.390
  488.250   15.072    0.256    0.443   57.547
  488.500   15.964    0.269    0.407   53.915
  488.750   16.287    0.282    0.398   49.677
  489.000   16.017    0.281    0.397   49.068
  489.250   15.740    0.268    0.397   67.208
  489.500   15.200    0.244    0.395   75.067
  489.750   15.217    0.233    0.385   79.297
  490.000   15.522    0.239    0.397   65.986
  490.250   15.843    0.275    0.407   62.354
  490.500   15.864    0.283    0.396   64.767
  490.750   15.309    0.286    0.415   68.998
  491.000   14.503    0.279    0.436   73.832
  491.250   13.993    0.288    0.454   75.643
  491.500   13.256    0.320    0.478   66.566
  491.750   14.844    0.316    0.503   57.490
  492.000   18.575    0.300    0.454   44.784
  492.250   24.575    0.294    0.430   47.199
  492.500   33.751    0.299    0.413   50.825
  492.750   37.785    0.290    0.402   50.215
  493.000   39.292    0.282    0.394   48.397
  493.250   39.334    0.279    0.392   46.578
  493.500   38.692    0.280    0.394   48.388
  493.750   36.653    0.291    0.423   50.199
  494.000   36.011    0.277    0.432   50.195
  494.250   32.895    0.267    0.441   48.981
  494.500   30.581    0.282    0.388   46.559
  494.750   28.960    0.293    0.378   52.602
  495.000   25.463    0.285    0.383   61.669
  495.250   22.399    0.275    0.417   61.666
  495.500   19.339    0.284    0.433   62.267
  495.750   16.696    0.278    0.449   65.892
  496.000   14.417    0.267    0.443   70.726
  496.250   13.155    0.263    0.435   73.747
  496.500   11.572    0.256    0.431   75.556
  496.750   10.561    0.249    0.427   72.528
  497.000    9.642    0.243    0.421   70.710
  497.250    8.803    0.243    0.423   70.099
  497.500    8.489    0.251    0.419   70.702
  497.750    8.043    0.255    0.405   71.303
  498.000    7.624    0.258    0.400   76.741
  498.250    7.494    0.227    0.394   80.971
  498.500    7.229    0.214    0.388   86.410
  498.750    7.105    0.198    0.390   89.431
  499.000    6.988    0.167    0.394   92.451
  499.250    7.000    0.182    0.401   93.052
  499.500    7.011    0.188    0.407   97.885
  499.750    7.020    0.186    0.412  102.114
  500.000    7.029    0.197    0.434  103.925
  500.250    7.039    0.206    0.419  100.897
  500.500    7.181    0.200    0.412   98.475
  500.750    7.335    0.215    0.402   92.421
  501.000    7.478    0.207    0.378   87.579
  501.250    7.637    0.190    0.364   80.921
  501.500    7.790    0.165    0.359   85.151
  501.750    7.944    0.145    0.366   89.986
  502.000    8.101    0.140    0.378   91.797
  502.250    8.421    0.155    0.390   86.954
  502.500    8.753    0.198    0.396   79.692
  502.750    9.625    0.213    0.394   72.430
  503.000   10.186    0.222    0.391   68.191
  503.250   11.407    0.225    0.395   69.398
  503.500   12.777    0.216    0.395   71.812
  503.750   13.521    0.208    0.390   71.807
  504.000   15.422    0.231    0.404   72.409
  504.250   17.263    0.246    0.395   73.615
  504.500   21.213    0.238    0.385   69.376
  504.750   24.192    0.245    0.395   60.301
  505.000   28.115    0.263    0.413   57.877
  505.250   29.759    0.269    0.398   68.154
  505.500   27.675    0.286    0.386   63.917
  505.750   29.337    0.290    0.384   45.768
  506.000   31.643    0.279    0.384   40.321
  506.250   33.490    0.249    0.384   45.154
  506.500   35.451    0.255    0.424   43.337
  506.750   37.532    0.276    0.441   34.864
  507.000   35.556    0.271    0.419   31.232
  507.250   31.284    0.267    0.398   31.227
  507.500   28.561    0.277    0.375   39.085
  507.750   27.037    0.261    0.378   44.524
  508.000   26.089    0.248    0.393   47.545
  508.250   27.627    0.267    0.407   43.911
  508.500   30.937    0.273    0.427   37.859
  508.750   35.292    0.283    0.404   35.437
  509.000   37.355    0.283    0.389   37.852
  509.250   36.055    0.283    0.394   37.242
  509.500   36.123    0.307    0.410   36.029
  509.750   37.533    0.318    0.412   35.420
  510.000   45.294    0.289    0.424   36.626
  510.250   47.932    0.266    0.440   31.783
  510.500   52.687    0.281    0.435   28.755
  510.750   53.732    0.290    0.404   28.750
  511.000   50.913    0.291    0.381   30.560
  511.250   47.336    0.297    0.391   34.790
  511.500   39.392    0.287    0.391   36.601
  511.750   32.160    0.272    0.387   37.805
  512.000   24.832    0.272    0.389   37.802
  512.250   16.227    0.283    0.394   37.798
  512.500   12.765    0.277    0.391   35.980
  512.750   10.617    0.285    0.380   31.136
  513.000    8.509    0.278    0.380   28.713
  513.250    6.949    0.281    0.383   28.104
  513.500    5.888    0.288    0.380   30.519
  513.750    5.179    0.281    0.371   33.538
  514.000    4.555    0.283    0.370   35.954
  514.250    4.158    0.288    0.370   37.160
  514.500    3.868    0.288    0.370   35.947
  514.750    3.800    0.289    0.371   35.943
  515.000    3.600    0.288    0.371   38.357
  515.250    3.476    0.288    0.404   38.353
  515.500    3.416    0.300    0.426   40.164
  515.750    3.360    0.287    0.408   43.184
  516.000    3.303    0.306    0.403   45.599
  516.250    3.246    0.284    0.404   41.362
  516.500    3.250    0.287    0.420   37.727
  516.750    3.197    0.300    0.423   38.329
  517.000    3.203    0.310    0.423   35.906
  517.250    3.208    0.328    0.408   34.691
  517.500    3.211    0.303    0.409   35.292
  517.750    3.216    0.300    0.411   34.079
  518.000    3.220    0.297    0.415   32.865
  518.250    3.348    0.303    0.422   33.466
  518.500    3.353    0.310    0.428   35.881
  518.750    3.295    0.289    0.423   34.667
  519.000    3.182    0.269    0.416   32.849
  519.250    3.127    0.292    0.408   34.054
  519.500    3.017    0.297    0.396   34.654
  519.750    2.966    0.301    0.404   32.836
  520.000    3.029    0.310    0.413   32.227
  520.250    3.088    0.330    0.411   37.667
  520.500    3.331    0.276    0.403   69.113
  520.750    3.661    0.236    0.393   78.182
  521.000    4.098    0.212    0.372   82.412
  521.250    4.421    0.190    0.361   83.012
  521.500    4.682    0.174    0.367   82.402
  521.750    4.691    0.176    0.381   79.979
  522.000    4.610    0.192    0.390   74.531
  522.250    4.450    0.198    0.390   69.085
  522.500    4.374    0.205    0.381   61.217
  522.750    4.224    0.216    0.374   56.980
  523.000    4.227    0.209    0.368   52.137
  523.250    4.156    0.229    0.364   50.923
  523.500    4.163    0.238    0.363   57.572
  523.750    4.092    0.217    0.362   61.802
  524.000    4.098    0.232    0.387   61.797
  524.250    4.260    0.233    0.402   52.722
  524.500    4.770    0.217    0.405   47.274
  524.750    5.339    0.224    0.174   44.851
  525.000    9.869    0.127    0.135   36.379
  525.250   17.253    0.012    0.129   32.746
  525.500   28.003    0.007    0.134   41.208
  525.750   36.371    0.003    0.139   43.624
  526.000   39.985    0.001    0.141   41.805
  526.250   40.053    0.003    0.147   38.777
  526.500   39.353    0.008    0.139   38.773
  526.750   36.591    0.011    0.140   39.979
  527.000   34.053    0.016    0.148   42.998
  527.250   33.460    0.022    0.158   47.229
