~VERSION INFORMATION
 VERS.                 2.0:   CWLS LOG ASCII STANDARD -VERSION 2.0
 WRAP.                  NO:   ONE LINE PER DEPTH STEP
~WELL INFORMATION BLOCK
#MNEM.UNIT           DATA                    DESCRIPTION OF MNEMONIC
#---------    -------------------            -------------------------------
# Generated from Intellog Unique Number	CX_WELLS/WELL/2330
WELL.         CHIEFCO ET AL SALESKI          : Well_name    - WELL
LOC .         00/15-04-088-18W4/0            : Location     - LOCATION
UWI .         00/15-04-088-18W400            : Uwi          - UNIQUE WELL ID
ENTR.         RJA                            : Entered      - ENTERED BY
SRVC.         SCHLUMBERGER                   : Scn          - SERVICE COMPANY
STRT.M        100                            : top_depth    - START DEPTH
STOP.M        226                            : bot_depth    - STOP DEPTH
STEP.M        0.25                           : increment    - STEP LENGTH
 NULL. -999.2500:NULL Value
~CURVE INFORMATION BLOCK
#MNEM UNIT       ERCB CURVE CODE    CURVE DESCRIPTION
#-----------   ------------------   ----------------------------------
DEPT.M        00 001 00 00         : DEPTH        - DEPTH
GR  .API      00 310 00 00         : GR           - GAMMA RAY
NPHI.V/V      00 330 00 00         : PHIN         - NEUTRON POROSITY (SANDSTONE)
DPHI.V/V      00 890 00 00         : PHID         - DENSITY POROSITY (SANDSTONE)
ILD .OHMM     00 120 00 00         : RESD         - DEEP RESISTIVITY (DIL)
~PARAMETER INFORMATION
#MNEM.UNIT           DATA             DESCRIPTION OF MNEMONIC
#---------         -----------     ------------------------------
GL  .M        518.8                : gl           - GROUND LEVEL ELEVATION
EREF.M        522.2                : kb           - ELEVATION OF DEPTH REFERENCE
DATM.M        522.2                : datum        - DATUM ELEVATION
TDD .M        227.3                : tdd          - TOTAL DEPTH DRILLER
RUN .         ONE                  : Run          - RUN NUMBER
ENG .         BILL                 : Engineer     - RECORDING ENGINEER
WIT .         JIM                  : Witness      - WITNESSED BY
MUD .         GEL                  : Mud_type     - MUD TYPE
MATR.         SANDSTONE            : Logunit      - NEUTRON MATRIX
TMAX.C        27                   : BHT          - MAXIMUM RECORDED TEMPERATURE
BHTD.M        227.3                : BHTDEP       - MAXIMUM RECORDED TEMPERATURE
MATR.         1                    : LOGUNIT      - NEUTRON MATRIX
RMT .C        25                   : MDTP         - TEMPERATURE OF MUD
NEUT.         1                    : NEUTRON      - NEUTRON TYPE
RESI.         0                    : RESIST       - RESISTIVITY TYPE
RMC .OHMM     0.25                 : RMC          - RESISTIVITY OF MUD CAKE
RMF .OHMM     0.25                 : RMF          - RESISTIVITY OF MUD FILTRATE
SUFT.C        15                   : SUFT         - SURFACE TEMPERATURE
~A  DEPTH       GR     PHIN     PHID     RESD
  100.000   84.569    0.382    0.302   12.863
  100.250   85.234    0.386    0.302   12.205
  100.500   86.521    0.382    0.302   11.777
  100.750   87.808    0.370    0.303   11.581
  101.000   89.116    0.360    0.304   11.190
  101.250   89.138    0.355    0.306   11.214
  101.500   89.193    0.355    0.306   11.035
  101.750   90.491    0.357    0.305   10.858
  102.000   91.777    0.358    0.299   10.485
  102.250   92.432    0.362    0.286    9.949
  102.500   93.719    0.369    0.275    9.593
  102.750   95.005    0.376    0.267    8.926
  103.000   96.925    0.382    0.260    8.452
  103.250   98.844    0.384    0.256    7.712
  103.500  101.385    0.389    0.223    6.905
  103.750  102.029    0.393    0.204    6.300
  104.000  104.559    0.396    0.273    5.644
  104.250  108.343    0.400    0.288    5.341
  104.500  111.494    0.407    0.287    4.969
  104.750  115.900    0.414    0.280    4.709
  105.000  118.441    0.419    0.271    4.465
  105.250  119.706    0.426    0.263    4.387
  105.500  121.614    0.433    0.248    4.239
  105.750  120.415    0.434    0.245    4.097
  106.000  119.848    0.430    0.245    3.956
  106.250  120.524    0.427    0.249    3.967
  106.500  119.946    0.422    0.250    4.131
  106.750  119.346    0.420    0.252    4.299
  107.000  118.158    0.418    0.256    4.653
  107.250  117.580    0.413    0.257    4.938
  107.500  117.634    0.410    0.259    5.146
  107.750  117.667    0.406    0.259    5.156
  108.000  118.965    0.403    0.258    5.178
  108.250  119.619    0.399    0.253    5.088
  108.500  120.284    0.397    0.245    5.007
  108.750  122.193    0.398    0.239    4.927
  109.000  124.112    0.401    0.217    4.757
  109.250  127.275    0.404    0.188    4.430
  109.500  126.075    0.405    0.166    4.274
  109.750  124.876    0.401    0.172    4.203
  110.000  124.298    0.397    0.175    4.059
  110.250  124.331    0.395    0.173    4.070
  110.500  125.029    0.392    0.168    4.084
  110.750  125.061    0.391    0.165    4.095
  111.000  125.716    0.390    0.162    4.185
  111.250  125.748    0.390    0.163    4.283
  111.500  125.792    0.389    0.169    4.374
  111.750  125.858    0.389    0.173    4.383
  112.000  127.155    0.390    0.179    4.482
  112.250  127.810    0.393    0.185    4.491
  112.500  128.464    0.399    0.187    4.593
  112.750  129.773    0.406    0.189    4.697
  113.000  130.427    0.406    0.188    4.713
  113.250  130.471    0.400    0.183    4.810
  113.500  131.147    0.396    0.179    4.830
  113.750  131.169    0.389    0.172    4.837
  114.000  131.845    0.386    0.164    4.763
  114.250  132.521    0.387    0.162    4.773
  114.500  132.565    0.392    0.158    4.703
  114.750  133.241    0.395    0.156    4.713
  115.000  133.263    0.401    0.154    4.729
  115.250  133.306    0.406    0.153    4.746
  115.500  132.750    0.407    0.153    4.756
  115.750  132.783    0.411    0.157    4.766
  116.000  132.194    0.415    0.164    4.693
  116.250  131.638    0.418    0.167    4.447
  116.500  131.660    0.421    0.173    4.291
  116.750  131.093    0.430    0.182    3.990
  117.000  130.526    0.439    0.192    3.712
  117.250  130.559    0.454    0.208    3.517
  117.500  130.003    0.462    0.222    3.396
  117.750  130.024    0.458    0.237    3.277
  118.000  129.457    0.452    0.249    3.108
  118.250  128.879    0.440    0.262    2.945
  118.500  128.301    0.435    0.270    2.897
  118.750  126.491    0.432    0.274    2.849
  119.000  125.892    0.432    0.273    2.755
  119.250  124.692    0.431    0.272    2.759
  119.500  122.871    0.429    0.271    2.717
  119.750  121.061    0.422    0.270    2.671
  120.000  119.861    0.421    0.269    2.679
  120.250  118.662    0.419    0.267    2.690
  120.500  118.716    0.418    0.267    2.645
  120.750  119.371    0.417    0.261    2.655
  121.000  120.069    0.416    0.252    2.766
  121.250  120.090    0.415    0.249    2.825
  121.500  120.123    0.414    0.256    2.887
  121.750  119.556    0.414    0.268    3.004
  122.000  118.368    0.414    0.269    3.193
  122.250  117.768    0.412    0.268    3.263
  122.500  117.201    0.410    0.263    3.396
  122.750  116.001    0.407    0.257    3.675
  123.000  115.423    0.399    0.256    3.753
  123.250  114.845    0.390    0.262    4.061
  123.500  113.657    0.382    0.265    4.476
  123.750  112.457    0.372    0.262    4.937
  124.000  110.636    0.366    0.256    5.235
  124.250  108.183    0.359    0.247    5.996
  124.500  103.254    0.351    0.234    6.609
  124.750   97.081    0.347    0.229    7.564
  125.000   90.909    0.343    0.225    8.997
  125.250   89.721    0.341    0.222    9.916
  125.500   91.007    0.346    0.219   10.739
  125.750   91.040    0.349    0.217   10.754
  126.000   89.841    0.357    0.213   10.806
  126.250   88.019    0.362    0.210   10.822
  126.500   86.820    0.362    0.208   10.852
  126.750   88.728    0.363    0.205   10.882
  127.000   91.891    0.365    0.200   10.708
  127.250   93.799    0.370    0.195   10.153
  127.500   95.097    0.374    0.190    9.441
  127.750   95.773    0.379    0.200    8.778
  128.000   95.806    0.374    0.240    8.323
  128.250   96.460    0.368    0.262    8.179
  128.500   96.515    0.363    0.260    8.054
  128.750   94.694    0.368    0.259    8.082
  129.000   90.386    0.368    0.256    8.093
  129.250   84.214    0.362    0.250    8.428
  129.500   80.528    0.362    0.245    9.122
  129.750   79.329    0.365    0.245   10.053
  130.000   79.373    0.367    0.254   10.669
  130.250   80.038    0.364    0.266   10.903
  130.500   78.838    0.359    0.279   11.142
  130.750   76.395    0.351    0.281   11.181
  131.000   76.439    0.349    0.265   11.212
  131.250   78.969    0.350    0.246   11.457
  131.500   81.499    0.350    0.236   11.932
  131.750   82.786    0.351    0.231   12.672
  132.000   83.451    0.351    0.238   13.714
  132.250   82.884    0.351    0.248   14.852
  132.500   81.674    0.351    0.276   15.456
  132.750   79.875    0.349    0.279   15.773
  133.000   79.275    0.348    0.279   16.119
  133.250   79.319    0.349    0.276   16.175
  133.500   81.238    0.354    0.264   15.337
  133.750   83.768    0.357    0.246   14.522
  134.000   86.298    0.357    0.188   13.250
  134.250   90.071    0.356    0.151   12.090
  134.500   94.466    0.355    0.151   10.416
  134.750   98.239    0.356    0.162    8.485
  135.000  103.899    0.360    0.198    7.174
  135.250  105.796    0.370    0.207    5.526
  135.500  108.326    0.381    0.203    4.761
  135.750  112.111    0.382    0.196    4.262
  136.000  111.533    0.377    0.180    4.194
  136.250  110.955    0.371    0.172    4.286
  136.500  109.145    0.366    0.163    4.639
  136.750  107.923    0.361    0.153    5.109
  137.000  102.994    0.352    0.148    6.077
  137.250   98.076    0.351    0.144    6.825
  137.500   91.893    0.347    0.149    7.966
  137.750   85.099    0.347    0.166    9.118
  138.000   80.802    0.348    0.208   10.443
  138.250   79.603    0.349    0.250   11.294
  138.500   78.392    0.351    0.268   12.215
  138.750   74.707    0.352    0.277   12.257
  139.000   71.021    0.352    0.277   11.614
  139.250   71.064    0.349    0.269   10.604
  139.500   73.605    0.344    0.256   10.034
  139.750   76.768    0.342    0.242    9.155
  140.000   80.541    0.338    0.242    8.353
  140.250   83.071    0.335    0.246    7.479
  140.500   85.590    0.333    0.250    6.824
  140.750   88.131    0.333    0.260    6.226
  141.000   90.040    0.337    0.266    5.789
  141.250   91.326    0.343    0.277    5.586
  141.500   91.370    0.360    0.282    5.497
  141.750   88.927    0.363    0.289    5.737
  142.000   83.377    0.361    0.287    5.966
  142.250   82.810    0.360    0.281    6.575
  142.500   82.864    0.355    0.218    7.246
  142.750   82.897    0.349    0.148    8.300
  143.000   82.930    0.343    0.116    8.976
  143.250   82.352    0.337    0.117    9.348
