~VERSION INFORMATION
 VERS.                 2.0:   CWLS LOG ASCII STANDARD -VERSION 2.0
 WRAP.                  NO:   ONE LINE PER DEPTH STEP
~WELL INFORMATION BLOCK
#MNEM.UNIT           DATA                    DESCRIPTION OF MNEMONIC
#---------    -------------------            -------------------------------
# Generated from Intellog Unique Number	CW_82_90/WELL/3454
WELL.         TEXACO CORN LAKE               : Well_name    - WELL
LOC .         00/11-24-088-25W4/0            : Location     - LOCATION
UWI .         00/11-24-088-25W4/0            : Uwi          - UNIQUE WELL ID
ENTR.         MAX                            : Entered      - ENTERED BY
SRVC.         SCHLUMBERGER                   : Scn          - SERVICE COMPANY
STRT.M        190                            : top_depth    - START DEPTH
STOP.M        422                            : bot_depth    - STOP DEPTH
STEP.M        0.25                           : increment    - STEP LENGTH
 NULL. -999.2500:NULL Value
~CURVE INFORMATION BLOCK
#MNEM UNIT       ERCB CURVE CODE    CURVE DESCRIPTION
#-----------   ------------------   ----------------------------------
DEPT.M        00 001 00 00         : DEPTH        - DEPTH
ILD .OHMM     00 120 00 00         : RESD         - DEEP RESISTIVITY (DIL)
NPHI.V/V      00 330 00 00         : PHIN         - NEUTRON POROSITY (SANDSTONE)
DPHI.V/V      00 890 00 00         : PHID         - DENSITY POROSITY (SANDSTONE)
CALI.MM       00 280 01 00         : CAL          - CALIPER
GR  .API      00 310 00 00         : GR           - GAMMA RAY
~PARAMETER INFORMATION
#MNEM.UNIT           DATA             DESCRIPTION OF MNEMONIC
#---------         -----------     ------------------------------
GL  .M        623.1                : gl           - GROUND LEVEL ELEVATION
EREF.M        626.7                : kb           - ELEVATION OF DEPTH REFERENCE
DATM.M        623.1                : datum        - DATUM ELEVATION
TDD .M        424.8                : tdd          - TOTAL DEPTH DRILLER
RUN .         ONE                  : Run          - RUN NUMBER
ENG .         BILL                 : Engineer     - RECORDING ENGINEER
WIT .         JIM                  : Witness      - WITNESSED BY
MUD .         GEL                  : Mud_type     - MUD TYPE
MATR.         SANDSTONE            : Logunit      - NEUTRON MATRIX
TMAX.C        31                   : BHT          - MAXIMUM RECORDED TEMPERATURE
BHTD.M        424.8                : BHTDEP       - MAXIMUM RECORDED TEMPERATURE
MATR.         1                    : LOGUNIT      - NEUTRON MATRIX
RMT .C        21                   : MDTP         - TEMPERATURE OF MUD
NEUT.         1                    : NEUTRON      - NEUTRON TYPE
RESI.         0                    : RESIST       - RESISTIVITY TYPE
RMC .OHMM     4.03                 : RMC          - RESISTIVITY OF MUD CAKE
RMF .OHMM     4.45                 : RMF          - RESISTIVITY OF MUD FILTRATE
SUFT.C        -15                  : SUFT         - SURFACE TEMPERATURE
~A  DEPTH     RESD     PHIN     PHID      CAL       GR
# ...
  299.500    4.226    0.499    0.384  270.153   66.936
  299.750    4.120    0.501    0.393  275.680   66.979
  300.000    3.693    0.485    0.371  266.859   67.615
  300.250    3.044    0.463    0.347  238.277   70.338
  300.500    2.582    0.455    0.327  245.780   73.357
  300.750    2.471    0.453    0.310  246.840   75.191
  301.000    2.477    0.450    0.313  234.077   76.420
  301.250    2.506    0.443    0.307  227.737   78.840
  301.500    2.583    0.439    0.280  230.793   79.785
  301.750    2.714    0.440    0.295  238.770   80.421
  302.000    2.850    0.443    0.310  261.093   81.359
  302.250    3.077    0.444    0.318  263.645   81.118
  302.500    3.387    0.439    0.308  243.966   78.796
  302.750    3.796    0.422    0.293  238.130   74.393
  303.000    4.417    0.400    0.272  239.200   70.589
  303.250    4.996    0.393    0.264  233.838   69.162
  303.500    5.057    0.379    0.242  228.475   68.915
  303.750    4.884    0.365    0.208  226.591   70.743
  304.000    4.544    0.398    0.167  229.648   72.268
  304.250    4.152    0.416    0.202  236.646   73.509
  304.500    3.937    0.443    0.239  240.670   73.558
  304.750    3.802    0.444    0.264  230.388   73.015
  305.000    3.777    0.447    0.283  232.940   72.773
  305.250    3.785    0.450    0.304  240.927   73.119
  305.500    3.759    0.452    0.330  249.407   74.058
  305.750    3.700    0.454    0.302  234.174   75.589
  306.000    3.676    0.454    0.280  238.219   78.016
  306.250    3.683    0.453    0.267  233.844   80.436
  306.500    3.694    0.453    0.255  230.962   81.072
  306.750    3.702    0.455    0.253  231.044   80.535
  307.000    3.746    0.455    0.266  233.113   79.096
  307.250    3.827    0.456    0.297  241.099   80.627
  307.500    3.907    0.461    0.308  243.157   79.793
  307.750    4.028    0.465    0.312  236.323   76.872
  308.000    4.192    0.466    0.274  241.345   73.957
  308.250    4.488    0.464    0.265  245.380   71.345
  308.500    4.668    0.460    0.288  238.051   70.505
  308.750    4.813    0.456    0.265  231.721   70.554
  309.000    4.649    0.451    0.263  230.805   71.486
  309.250    4.364    0.449    0.279  234.839   74.209
  309.500    3.986    0.448    0.283  238.873   77.531
  309.750    3.779    0.450    0.298  248.846   78.458
  310.000    3.617    0.455    0.303  246.458   72.875
  310.250    3.494    0.457    0.310  247.034   72.338
  310.500    3.437    0.461    0.310  250.574   74.456
  310.750    3.353    0.465    0.300  254.125   80.439
  311.000    3.298    0.477    0.288  247.280   80.488
  311.250    3.276    0.479    0.283  247.373   81.130
  311.500    3.253    0.478    0.276  251.417   82.069
  311.750    3.323    0.476    0.270  256.923   80.636
  312.000    3.522    0.475    0.271  238.222   78.314
  312.250    3.911    0.470    0.278  236.338   74.806
  312.500    4.724    0.466    0.274  239.878   72.787
  312.750    5.007    0.463    0.269  238.489   72.546
  313.000    4.883    0.467    0.266  234.135   73.472
  313.250    4.377    0.476    0.260  230.244   72.638
  313.500    3.745    0.487    0.254  230.820   70.316
  313.750    3.268    0.495    0.242  233.383   71.544
  314.000    3.154    0.504    0.225  232.971   81.678
  314.250    2.942    0.520    0.204  227.608   86.186
  314.500    3.026    0.560    0.184  228.194   86.235
  314.750    2.924    0.555    0.197  228.781   84.500
  315.000    2.932    0.540    0.206  228.853   84.252
  315.250    2.937    0.541    0.213  228.945   87.871
  315.500    3.028    0.552    0.213  229.500   88.803
  315.750    3.301    0.554    0.196  231.085   88.266
  316.000    3.769    0.538    0.199  232.145   87.420
  316.250    4.386    0.522    0.219  233.719   85.987
  316.500    4.916    0.503    0.225  235.273   84.251
  316.750    5.563    0.489    0.232  235.859   81.336
  317.000    6.179    0.476    0.237  233.461   76.939
  317.250    6.739    0.468    0.233  229.097   72.542
  317.500    7.011    0.455    0.212  228.705   66.966
  317.750    7.156    0.453    0.247  227.779   67.311
  318.000    7.042    0.452    0.278  226.893   68.250
  318.250    6.931    0.444    0.295  226.975   67.706
  318.500    7.013    0.438    0.284  227.068   68.651
  318.750    7.436    0.434    0.257  227.140   69.880
  319.000    8.105    0.425    0.239  227.211   68.749
  319.250    8.512    0.411    0.197  227.293   67.008
  319.500    8.451    0.393    0.157  227.386   65.871
  319.750    7.938    0.371    0.130  227.478   66.513
  320.000    6.987    0.360    0.167  226.551   68.656
  320.250    5.448    0.453    0.263  225.645   70.175
  320.500    4.410    0.447    0.254  227.704   73.781
  320.750    3.844    0.441    0.206  231.264   80.358
  321.000    3.645    0.457    0.169  231.830   84.569
  321.250    3.520    0.483    0.197  231.912   84.909
  321.500    3.529    0.495    0.226  232.004   85.551
  321.750    3.708    0.505    0.228  230.615   85.606
  322.000    3.968    0.505    0.242  230.676   85.056
  322.250    4.365    0.500    0.240  230.264   83.920
  322.500    4.894    0.490    0.234  229.852   82.487
  322.750    5.332    0.478    0.226  229.934   80.758
  323.000    5.347    0.467    0.223  230.037   75.774
  323.250    5.163    0.454    0.240  229.615   74.329
  323.500    4.765    0.445    0.246  228.709   76.163
  323.750    4.557    0.455    0.249  229.285   81.547
  324.000    4.241    0.486    0.259  230.859   86.049
  324.250    3.983    0.496    0.262  228.965   85.512
  324.500    3.920    0.490    0.257  227.555   83.789
  324.750    4.039    0.483    0.249  227.153   82.047
  325.000    5.089    0.475    0.267  223.741   71.811
  325.250    5.532    0.457    0.291  223.745   66.428
  325.500    6.069    0.453    0.288  223.749   65.534
  325.750    6.299    0.467    0.261  224.252   64.638
  326.000    6.300    0.471    0.228  224.257   64.341
  326.250    5.537    0.454    0.196  224.760   65.541
  326.500    4.821    0.457    0.249  225.263   66.142
  326.750    4.159    0.471    0.269  225.267   67.341
  327.000    3.555    0.485    0.263  225.272   69.438
  327.250    3.272    0.498    0.269  225.775   72.433
  327.500    3.183    0.515    0.281  227.274   73.931
  327.750    3.012    0.512    0.291  229.772   73.635
  328.000    2.850    0.504    0.309  230.275   73.040
  328.250    2.623    0.505    0.305  229.780   74.537
  328.500    2.505    0.517    0.294  227.790   77.233
  328.750    2.483    0.533    0.284  235.274   79.928
  329.000    2.649    0.527    0.258  230.791   81.427
  329.250    2.880    0.502    0.253  230.795   79.036
  329.500    3.465    0.494    0.269  230.800   76.046
  329.750    4.131    0.498    0.298  230.803   73.356
  330.000    4.836    0.508    0.320  230.309   71.264
  330.250    5.019    0.540    0.342  232.807   71.865
  330.500    5.067    0.512    0.320  235.304   73.663
  330.750    4.975    0.490    0.278  232.316   74.563
  331.000    4.840    0.509    0.292  242.294   74.566
  331.250    4.841    0.523    0.329  254.267   75.466
  331.500    5.024    0.517    0.298  240.807   75.767
  331.750    5.215    0.514    0.297  242.307   75.172
  332.000    5.216    0.506    0.252  245.803   73.379
  332.250    5.217    0.493    0.234  233.339   71.886
  332.500    5.170    0.480    0.234  227.359   69.494
  332.750    5.171    0.484    0.216  232.350   68.600
  333.000    5.269    0.483    0.207  240.832   67.405
  333.250    5.369    0.458    0.204  247.320   62.920
  333.500    5.470    0.454    0.217  245.828   62.323
  333.750    5.573    0.462    0.244  227.380   64.121
  334.000    5.523    0.457    0.265  227.385   67.714
  334.250    5.275    0.445    0.249  226.891   71.009
  334.500    4.991    0.444    0.255  226.895   73.405
  334.750    4.346    0.455    0.270  225.902   75.502
  335.000    3.749    0.480    0.264  225.408   78.197
  335.250    3.265    0.515    0.243  226.410   78.499
  335.500    3.061    0.531    0.241  226.912   77.006
  335.750    3.118    0.540    0.247  230.407   75.512
