~VERSION INFORMATION
 VERS.                 2.0:   CWLS LOG ASCII STANDARD -VERSION 2.0
 WRAP.                  NO:   ONE LINE PER DEPTH STEP
~WELL INFORMATION BLOCK
#MNEM.UNIT           DATA                    DESCRIPTION OF MNEMONIC
#---------    -------------------            -------------------------------
# Generated from Intellog Unique Number	CS_77_79/WELL/959
WELL.         MESA PETROLEUM (NA) CO.        : Well_name    - WELL
LOC .         00/10-22-077-11W4/0            : Location     - LOCATION
UWI .         00/10-22-077-11W4/0            : Uwi          - UNIQUE WELL ID
ENTR.         SP                             : Entered      - ENTERED BY
SRVC.         SCHLUMBERGER                   : Scn          - SERVICE COMPANY
STRT.F        900                            : top_depth    - START DEPTH
STOP.F        1689.86                        : bot_depth    - STOP DEPTH
STEP.F        0.82                           : increment    - STEP LENGTH
 NULL. -999.2500:NULL Value
~CURVE INFORMATION BLOCK
#MNEM UNIT       ERCB CURVE CODE    CURVE DESCRIPTION
#-----------   ------------------   ----------------------------------
DEPT.F        00 001 00 00         : DEPTH        - DEPTH
GR  .API      00 310 00 00         : GR           - GAMMA RAY
NPHI.V/V      00 330 00 00         : PHIN         - NEUTRON POROSITY (SANDSTONE)
DPHI.V/V      00 890 00 00         : PHID         - DENSITY POROSITY (SANDSTONE)
ILD .OHMM     00 120 00 00         : RESD         - DEEP RESISTIVITY (DIL)
~PARAMETER INFORMATION
#MNEM.UNIT           DATA             DESCRIPTION OF MNEMONIC
#---------         -----------     ------------------------------
GL  .M        687.019              : gl           - GROUND LEVEL ELEVATION
EREF.M        691.134              : kb           - ELEVATION OF DEPTH REFERENCE
DATM.M        687.019              : datum        - DATUM ELEVATION
TDD .M        544.068              : tdd          - TOTAL DEPTH DRILLER
RUN .         ONE                  : Run          - RUN NUMBER
ENG .         BILL                 : Engineer     - RECORDING ENGINEER
WIT .         JIM                  : Witness      - WITNESSED BY
MUD .         GEL                  : Mud_type     - MUD TYPE
MATR.         SANDSTONE            : Logunit      - NEUTRON MATRIX
TMAX.C        25                   : BHT          - MAXIMUM RECORDED TEMPERATURE
BHTD.M        552                  : BHTDEP       - MAXIMUM RECORDED TEMPERATURE
MATR.         1                    : LOGUNIT      - NEUTRON MATRIX
RMT .C        25                   : MDTP         - TEMPERATURE OF MUD
NEUT.         1                    : NEUTRON      - NEUTRON TYPE
RESI.         0                    : RESIST       - RESISTIVITY TYPE
RMC .OHMM     0.25                 : RMC          - RESISTIVITY OF MUD CAKE
RMF .OHMM     0.25                 : RMF          - RESISTIVITY OF MUD FILTRATE
SUFT.C        15                   : SUFT         - SURFACE TEMPERATURE
~A  DEPTH       GR     PHIN     PHID     RESD
# ...
 1185.430   78.922    0.526    0.299    4.437
 1186.250   77.681    0.543    0.303    4.602
 1187.070   75.824    0.565    0.303    4.686
 1187.890   75.822    0.591    0.305    5.044
 1188.710   76.436    0.599    0.300    5.429
 1189.530   77.048    0.594    0.293    5.527
 1190.350   77.663    0.585    0.295    5.626
 1191.170   77.658    0.568    0.316    5.729
 1191.990   77.654    0.560    0.322    5.834
 1192.810   78.886    0.536    0.321    6.163
 1193.640   79.500    0.545    0.314    6.512
 1194.460   80.114    0.541    0.308    7.139
 1195.280   77.640    0.535    0.297    7.544
 1196.100   75.165    0.557    0.291    8.582
 1196.920   73.926    0.568    0.304    9.586
 1197.740   73.305    0.570    0.308   10.706
 1198.560   75.154    0.563    0.306   10.505
 1199.380   73.913    0.525    0.315    9.750
 1200.200   73.292    0.496    0.328    9.745
 1201.020   73.288    0.500    0.312   10.296
 1201.840   71.431    0.512    0.306   11.082
 1202.660   69.575    0.515    0.308   11.926
 1203.480   70.187    0.502    0.309   12.835
 1204.300   69.567    0.495    0.312   13.561
 1205.120   67.709    0.495    0.316   13.808
 1205.940   68.324    0.495    0.323   13.546
 1206.760   70.173    0.494    0.331   13.290
 1207.580   70.168    0.488    0.334   13.286
 1208.400   68.928    0.484    0.335   13.276
 1209.220   67.691    0.484    0.334   13.273
 1210.040   65.215    0.484    0.333   13.023
 1210.860   63.977    0.486    0.331   12.544
 1211.680   63.355    0.492    0.328   11.430
 1212.500   65.204    0.484    0.322    9.494
 1213.320   64.583    0.481    0.310    7.887
 1214.140   62.726    0.492    0.281    6.798
 1214.960   62.105    0.503    0.262    5.859
 1215.780   65.189    0.498    0.245    5.439
 1216.600   70.125    0.501    0.225    4.775
 1217.420   78.768    0.507    0.235    4.432
 1218.240   84.322    0.515    0.251    4.191
 1219.060   86.789    0.523    0.252    3.962
 1219.880   89.256    0.534    0.248    4.035
 1220.700   90.486    0.545    0.242    4.185
 1221.520   91.100    0.556    0.235    4.340
 1222.340   91.097    0.532    0.228    4.586
 1223.160   92.329    0.511    0.224    4.669
 1223.980   92.325    0.520    0.217    4.754
 1224.800   91.084    0.545    0.210    4.752
 1225.620   90.464    0.555    0.216    4.749
 1226.440   88.606    0.567    0.224    4.926
 1227.260   87.368    0.578    0.229    5.815
 1228.080   86.128    0.586    0.234    6.866
 1228.900   85.507    0.589    0.240    7.668
 1229.720   85.504    0.550    0.247    7.384
 1230.540   85.500    0.526    0.252    6.984
 1231.360   86.112    0.510    0.255    6.363
 1232.190   87.343    0.498    0.258    5.587
 1233.010   89.194    0.502    0.264    5.091
 1233.830   92.896    0.499    0.270    4.638
 1234.650   96.597    0.481    0.257    4.552
 1235.470  100.298    0.480    0.235    4.383
 1236.290  102.147    0.522    0.232    4.381
 1237.110  103.378    0.548    0.228    4.379
 1237.930  103.375    0.557    0.229    4.377
 1238.750  103.988    0.537    0.232    4.374
 1239.570  104.602    0.521    0.223    4.292
 1240.390  105.215    0.544    0.226    4.290
 1241.210  105.211    0.567    0.231    4.133
 1242.030  104.589    0.573    0.235    3.980
 1242.850  103.969    0.580    0.239    3.834
 1243.670  103.347    0.588    0.241    3.692
 1244.490  102.726    0.591    0.247    3.623
 1245.310  101.486    0.596    0.255    3.757
 1246.130  100.247    0.596    0.266    3.897
 1246.950  100.242    0.602    0.270    4.273
 1247.770  100.857    0.607    0.266    4.862
 1248.590  101.471    0.592    0.252    5.847
 1249.410  101.467    0.582    0.255    7.714
 1250.230   97.757    0.589    0.256    9.449
 1251.050   91.578    0.592    0.251    9.620
 1251.870   84.162    0.594    0.245    9.614
 1252.690   79.834    0.561    0.238    9.611
 1253.510   78.595    0.521    0.226    9.431
 1254.330   77.356    0.471    0.226    8.916
 1255.150   74.263    0.473    0.235    8.588
 1255.970   73.023    0.484    0.245    8.585
 1256.790   74.873    0.496    0.257    8.422
 1257.610   77.957    0.495    0.272    8.419
 1258.430   80.423    0.491    0.288    8.414
 1259.250   81.038    0.495    0.288    8.411
 1260.070   81.034    0.498    0.278    8.884
 1260.890   82.883    0.498    0.268    9.214
 1261.710   84.115    0.501    0.268    9.211
 1262.530   84.728    0.504    0.271    9.036
 1263.350   81.636    0.512    0.263    9.033
 1264.170   79.779    0.498    0.256    8.862
 1264.990   82.245    0.485    0.259    8.859
 1265.810   84.712    0.491    0.267    8.692
 1266.630   85.943    0.498    0.267    8.527
 1267.450   85.939    0.498    0.260    8.367
 1268.270   84.699    0.497    0.251    8.059
 1269.090   84.697    0.493    0.250    8.055
 1269.910   83.456    0.492    0.262    8.200
 1270.730   82.216    0.496    0.270    8.506
 1271.560   82.214    0.503    0.265    8.659
 1272.380   83.445    0.513    0.260    8.657
 1273.200   86.529    0.516    0.254    8.653
 1274.020   88.379    0.509    0.249    8.181
 1274.840   90.228    0.493    0.257    7.880
 1275.660   91.459    0.489    0.265    7.875
 1276.480   90.218    0.496    0.260    7.728
 1277.300   89.597    0.508    0.255    7.724
 1278.120   88.976    0.519    0.250    7.720
 1278.940   88.973    0.519    0.250    7.573
 1279.760   88.969    0.515    0.247    7.570
 1280.580   85.876    0.514    0.238    7.566
 1281.400   87.107    0.507    0.233    7.563
 1282.220   90.809    0.492    0.231    7.421
 1283.040   92.658    0.500    0.238    7.148
 1283.860   92.038    0.498    0.238    6.758
 1284.680   90.181    0.495    0.235    6.510
 1285.500   90.795    0.480    0.233    6.155
 1286.320   93.259    0.479    0.239    5.505
 1287.140   93.255    0.485    0.243    4.745
 1287.960   93.253    0.513    0.249    4.167
 1288.780   93.246    0.519    0.249    3.461
 1289.600   93.862    0.544    0.249    3.154
 1290.420   95.094    0.563    0.252    2.769
 1291.240   98.177    0.577    0.255    2.667
 1292.060  100.026    0.589    0.261    2.870
 1292.880   98.786    0.599    0.269    3.033
 1293.700   98.166    0.609    0.273    3.325
 1294.520   97.545    0.616    0.278    3.854
 1295.340   96.921    0.617    0.272    4.466
 1296.160   95.067    0.617    0.266    4.988
 1296.980   91.357    0.613    0.261    5.469
 1297.800   86.412    0.597    0.255    6.338
 1298.620   82.085    0.572    0.253    6.821
 1299.440   78.375    0.557    0.254    6.945
 1300.260   75.901    0.537    0.255    7.072
 1301.080   76.514    0.509    0.247    7.199
 1301.900   76.510    0.494    0.237    7.196
 1302.720   74.034    0.495    0.230    7.194
 1303.540   72.797    0.500    0.258    7.190
 1304.360   70.938    0.502    0.272    7.186
 1305.180   70.933    0.503    0.278    7.181
 1306.000   70.931    0.489    0.265    7.179
 1306.820   70.927    0.474    0.243    7.310
 1307.640   70.305    0.462    0.249    7.442
 1308.460   69.684    0.462    0.299    7.578
 1309.280   67.208    0.464    0.310    7.573
 1310.100   66.588    0.464    0.324    7.569
 1310.930   65.349    0.467    0.339    7.565
 1311.750   64.728    0.472    0.344    7.423
 1312.570   63.489    0.477    0.345    7.418
 1313.390   61.631    0.483    0.346    7.280
 1314.210   60.393    0.485    0.347    7.277
 1315.030   59.770    0.483    0.350    7.140
 1315.850   60.384    0.478    0.351    7.005
 1316.670   59.145    0.473    0.350    7.001
 1317.490   57.288    0.473    0.346    6.997
 1318.310   57.902    0.471    0.345    6.994
 1319.130   59.751    0.467    0.345    6.863
 1319.950   60.365    0.461    0.338    6.858
 1320.770   58.508    0.467    0.331    6.856
 1321.590   56.033    0.477    0.337    6.851
 1322.410   55.412    0.485    0.343    6.848
 1323.230   56.643    0.485    0.347    6.719
 1324.050   57.874    0.483    0.347    6.715
 1324.870   57.253    0.477    0.349    6.712
 1325.690   56.014    0.473    0.347    6.709
 1326.510   55.392    0.466    0.344    6.705
 1327.330   56.624    0.461    0.345    6.703
