~VERSION INFORMATION
 VERS.                 2.0:   CWLS LOG ASCII STANDARD -VERSION 2.0
 WRAP.                  NO:   ONE LINE PER DEPTH STEP
~WELL INFORMATION BLOCK
#MNEM.UNIT           DATA                    DESCRIPTION OF MNEMONIC
#---------    -------------------            -------------------------------
# Generated from Intellog Unique Number	CW_82_90/WELL/3436
WELL.         CDN SUP LIEGE                  : Well_name    - WELL
LOC .         00/10-03-090-19W4/0            : Location     - LOCATION
UWI .         00/10-03-090-19W4/0            : Uwi          - UNIQUE WELL ID
ENTR.         MAX                            : Entered      - ENTERED BY
SRVC.         COMPUTALOG                     : Scn          - SERVICE COMPANY
STRT.M        115                            : top_depth    - START DEPTH
STOP.M        250                            : bot_depth    - STOP DEPTH
STEP.M        0.25                           : increment    - STEP LENGTH
 NULL. -999.2500:NULL Value
~CURVE INFORMATION BLOCK
#MNEM UNIT       ERCB CURVE CODE    CURVE DESCRIPTION
#-----------   ------------------   ----------------------------------
DEPT.M        00 001 00 00         : DEPTH        - DEPTH
ILD .OHMM     00 120 00 00         : RESD         - DEEP RESISTIVITY (DIL)
CALI.MM       00 280 01 00         : CAL          - CALIPER
DPHI.V/V      00 890 00 00         : PHID         - DENSITY POROSITY (LIMESTONE)
NPHI.V/V      00 330 00 00         : PHIN         - NEUTRON POROSITY (LIMESTONE)
GR  .API      00 310 00 00         : GR           - GAMMA RAY
~PARAMETER INFORMATION
#MNEM.UNIT           DATA             DESCRIPTION OF MNEMONIC
#---------         -----------     ------------------------------
GL  .M        511                  : gl           - GROUND LEVEL ELEVATION
EREF.M        514.8                : kb           - ELEVATION OF DEPTH REFERENCE
DATM.M        514.8                : datum        - DATUM ELEVATION
TDD .M        250                  : tdd          - TOTAL DEPTH DRILLER
RUN .         ONE                  : Run          - RUN NUMBER
ENG .         BILL                 : Engineer     - RECORDING ENGINEER
WIT .         JIM                  : Witness      - WITNESSED BY
MUD .         GEL                  : Mud_type     - MUD TYPE
MATR.         LIMESTONE            : Logunit      - NEUTRON MATRIX
TMAX.C        18                   : BHT          - MAXIMUM RECORDED TEMPERATURE
BHTD.M        2072                 : BHTDEP       - MAXIMUM RECORDED TEMPERATURE
MATR.         1                    : LOGUNIT      - NEUTRON MATRIX
RMT .C        25                   : MDTP         - TEMPERATURE OF MUD
NEUT.         1                    : NEUTRON      - NEUTRON TYPE
RESI.         0                    : RESIST       - RESISTIVITY TYPE
RMC .OHMM     6                    : RMC          - RESISTIVITY OF MUD CAKE
RMF .OHMM     5                    : RMF          - RESISTIVITY OF MUD FILTRATE
SUFT.C        1                    : SUFT         - SURFACE TEMPERATURE
~A  DEPTH     RESD      CAL     PHID     PHIN       GR
# ...
  151.500    7.617  160.971    0.223    0.417   93.675
  151.750    7.074  160.473    0.231    0.431   99.096
  152.000    6.272  160.476    0.255    0.442  108.133
  152.250    6.158  159.978    0.259    0.456  108.133
  152.500    6.161  159.980    0.237    0.454  103.916
  152.750    6.397  159.983    0.207    0.437  100.301
  153.000    6.281  160.487    0.204    0.445  105.422
  153.250    6.283  160.991    0.224    0.448  105.723
  153.500    6.771  161.495    0.206    0.429  100.904
  153.750    7.714  161.498    0.159    0.422   99.398
  154.000    8.312  161.500    0.182    0.422  104.819
  154.250    9.210  161.503    0.202    0.403  106.928
  154.500   10.493  162.006    0.214    0.382  102.711
  154.750   13.119  162.009    0.168    0.365   84.639
  155.000   18.855  162.012    0.128    0.307   70.783
  155.250   20.892  162.014    0.129    0.294   69.578
  155.500   23.148  162.017    0.116    0.274   73.193
  155.750   24.484  162.019    0.086    0.270   77.108
  156.000   24.493  161.521    0.077    0.282   79.819
  156.250   23.609  161.524    0.121    0.300   82.831
  156.500   22.756  161.527    0.140    0.330   83.132
  156.750   21.933  161.530    0.149    0.341   82.530
  157.000   21.141  161.532    0.148    0.342   81.928
  157.250   20.955  161.535    0.133    0.345   82.229
  157.500   20.961  161.537    0.129    0.352   82.831
  157.750   20.017  162.041    0.142    0.361   83.735
  158.000   17.912  162.044    0.161    0.350   85.241
  158.250   16.028  161.045    0.164    0.336   84.940
  158.500   11.910  160.546    0.153    0.345   87.952
  158.750    9.100  162.052    0.184    0.364   93.976
  159.000    6.825  163.057    0.219    0.386  103.614
  159.250    5.313  164.062    0.236    0.420  111.446
  159.500    5.169  166.069    0.223    0.434  112.952
  159.750    5.468  167.074    0.233    0.437  112.048
  160.000    5.837  167.578    0.231    0.435  115.361
  160.250    5.785  167.581    0.227    0.430  117.771
  160.500    5.576  167.583    0.227    0.431  119.277
  160.750    5.325  167.085    0.231    0.442  122.289
  161.000    5.327  167.088    0.232    0.462  129.819
  161.250    5.582  166.589    0.225    0.472  125.904
  161.500    6.243  166.090    0.221    0.471  113.253
  161.750    7.047  165.091    0.232    0.456   95.482
  162.000    7.881  164.092    0.256    0.423   86.446
  162.250    8.651  163.092    0.258    0.390   76.506
  162.500    9.949  163.094    0.218    0.380   78.012
  162.750   10.921  162.596    0.212    0.384   84.940
  163.000   11.028  162.599    0.251    0.397   90.663
  163.250   11.134  162.601    0.278    0.395   85.542
  163.500   11.348  162.604    0.303    0.384   80.723
  163.750   11.457  162.607    0.306    0.384   81.024
  164.000   11.786  162.610    0.269    0.384   81.626
  164.250   12.012  162.612    0.240    0.381   77.711
  164.500   12.241  162.615    0.262    0.365   74.398
  164.750   12.476  162.618    0.277    0.353   77.410
  165.000   12.833  162.621    0.293    0.349   75.301
  165.250   13.957  162.623    0.280    0.366   77.108
  165.500   15.039  162.626    0.255    0.377   76.205
  165.750   18.286  162.628    0.080    0.359   71.084
  166.000   19.889  162.131    0.037    0.271   69.879
  166.250   20.269  162.133    0.087    0.269   84.940
  166.500   19.536  161.634    0.148    0.292   92.771
  166.750   16.381  161.637    0.192    0.315   98.193
  167.000   14.795  162.141    0.185    0.341   98.795
  167.250   13.363  167.656    0.165    0.374  100.301
  167.500   12.182  164.652    0.151    0.402  105.723
  167.750   11.105  168.663    0.195    0.420  113.253
  168.000   10.313  166.661    0.221    0.372  115.964
  168.250    9.848  166.163    0.212    0.372  116.265
  168.500   10.226  167.669    0.209    0.387  116.566
  168.750   10.229  167.672    0.202    0.392  115.060
  169.000   11.023  166.172    0.199    0.383  104.518
  169.250   11.551  165.172    0.145    0.372  100.301
  169.500   11.992  165.174    0.126    0.381  105.422
  169.750   12.108  167.182    0.150    0.387  113.253
  170.000   12.001  169.690    0.184    0.400  116.867
  170.250   11.675  171.196    0.196    0.422  117.470
  170.500   11.681  173.203    0.199    0.436  117.169
  170.750   11.794  168.695    0.202    0.417  115.964
  171.000   11.907  169.200    0.220    0.398  112.349
  171.250   12.248  164.692    0.231    0.400  109.639
  171.500   12.483  163.693    0.241    0.394  109.639
  171.750   12.721  162.693    0.229    0.375  106.627
  172.000   13.582  162.195    0.199    0.368  107.229
  172.250   14.365  161.696    0.147    0.342  102.108
  172.500   14.370  161.699    0.141    0.330  103.012
  172.750   13.597  162.203    0.189    0.347  103.916
  173.000   12.627  162.707    0.224    0.363  107.831
  173.250   12.400  163.210    0.241    0.370  112.952
  173.500   12.404  163.714    0.241    0.369  114.759
  173.750   12.525  164.719    0.245    0.375  114.458
  174.000   12.073  166.225    0.240    0.389  115.060
  174.250   11.854  167.731    0.223    0.390  113.855
  174.500   11.640  165.228    0.208    0.382  114.759
  174.750   11.645  168.237    0.204    0.358  113.253
  175.000   11.757  167.238    0.210    0.356  110.241
  175.250   12.207  163.733    0.220    0.354  109.036
  175.500   12.556  162.734    0.227    0.358  108.434
  175.750   12.678  162.235    0.198    0.351  106.024
  176.000   12.449  161.737    0.165    0.348  105.422
  176.250   11.889  161.739    0.152    0.353  108.133
  176.500   11.042  161.241    0.163    0.357  111.145
  176.750   10.643  162.246    0.198    0.370  117.470
  177.000   10.450  168.763    0.211    0.388  119.578
  177.250    9.979  169.768    0.207    0.395  113.253
  177.500   10.171  167.265    0.165    0.393  109.036
  177.750   10.463  164.762    0.150    0.381  107.229
  178.000   10.467  164.765    0.180    0.384  106.928
  178.250   10.373  163.264    0.208    0.403  104.217
  178.500    9.905  163.769    0.215    0.409   96.084
  178.750    8.620  163.771    0.062    0.344   98.795
  179.000    7.363  163.773    0.071    0.359  108.133
  179.250    6.117  161.772    0.162    0.382  113.253
  179.500    4.462  167.286    0.197    0.403  123.494
  179.750    3.847  166.788    0.233    0.421  127.410
  180.000    3.813  167.292    0.255    0.451  128.916
  180.250    4.304  165.791    0.242    0.482  128.012
  180.500    5.381  163.789    0.229    0.459  121.084
  180.750    6.422  165.295    0.215    0.446  117.470
  181.000    8.489  162.793    0.214    0.440  114.759
  181.250    9.853  164.299    0.205    0.420  110.843
  181.500   10.618  163.300    0.145    0.391  107.530
  181.750   10.234  163.803    0.098    0.383  112.651
  182.000    9.683  166.312    0.129    0.386  118.373
  182.250    9.686  166.816    0.171    0.390  120.783
  182.500    9.600  167.319    0.199    0.410  122.289
  182.750    9.694  167.823    0.197    0.418  123.795
  183.000    9.788  169.329    0.192    0.407  125.000
  183.250   10.068  170.834    0.194    0.411  124.398
  183.500   10.551  170.837    0.183    0.411  119.578
  183.750   11.056  167.332    0.159    0.384  109.940
  184.000   11.915  162.825    0.168    0.361  106.325
  184.250   12.602  161.325    0.199    0.359  106.024
  184.500   13.453  161.328    0.199    0.357  101.506
  184.750   14.769  161.831    0.205    0.354   95.482
  185.000   15.915  161.332    0.219    0.342   95.482
  185.250   16.676  161.335    0.153    0.328   91.265
  185.500   18.306  162.841    0.131    0.302   85.241
  185.750   19.543  162.343    0.118    0.277   81.928
  186.000   19.917  161.344    0.112    0.262   82.530
  186.250   19.378  160.846    0.124    0.285   86.145
  186.500   18.506  160.347    0.147    0.304   87.349
  186.750   17.836  160.349    0.212    0.320   87.349
  187.000   16.109  160.352    0.244    0.362   84.940
  187.250   15.673  160.355    0.252    0.385   79.819
  187.500   16.889  160.357    0.220    0.375   78.012
  187.750   17.863  160.360    0.182    0.337   78.313
