~VERSION INFORMATION
 VERS.                 2.0:   CWLS LOG ASCII STANDARD -VERSION 2.0
 WRAP.                  NO:   ONE LINE PER DEPTH STEP
~WELL INFORMATION BLOCK
#MNEM.UNIT           DATA                    DESCRIPTION OF MNEMONIC
#---------    -------------------            -------------------------------
# Generated from Intellog Unique Number	CW_70_72/WELL/3029
NULL.         -999.25                        : NULL_VALUE
WELL.         CHIEFCO ET AL DANCING 11-12    : Well_name    - WELL              
LOC .         11-12-070-27W4                 : Location     - LOCATION          
UWI .         00/11-12-070-27W4/0            : Uwi          - UNIQUE WELL ID    
ENTR.         JAYE                           : Entered      - ENTERED BY        
SRVC.         SCHLUMBERGER                   : Scn          - SERVICE COMPANY   
DATE.         5 OCT 76                       : Date         - LOG DATE          
STRT.M        469.392                        : top_depth    - START DEPTH       
STOP.M        719.392                        : bot_depth    - STOP DEPTH        
STEP.M        0.25                           : increment    - STEP LENGTH       
~CURVE INFORMATION BLOCK
#MNEM UNIT       ERCB CURVE CODE    CURVE DESCRIPTION
#-----------   ------------------   ----------------------------------
DEPT.M        00 001 00 00         : DEPTH        - DEPTH                       
ILD .OHMM     00 120 00 00         : RESD         - DEEP RESISTIVITY (DIL)      
CALI.MM       00 280 01 00         : CAL          - CALIPER                     
GR  .API      00 310 00 00         : GR           - GAMMA RAY                   
NPHI.V/V      00 330 00 00         : PHIN         - NEUTRON POROSITY (SANDSTONE)
DPHI.V/V      00 890 00 00         : PHID         - DENSITY POROSITY (SANDSTONE)
~PARAMETER INFORMATION       
#MNEM.UNIT           DATA             DESCRIPTION OF MNEMONIC
#---------         -----------     ------------------------------
GL  .M        636.422              : gl           - GROUND LEVEL ELEVATION      
EREF.M        639.166              : kb           - ELEVATION OF DEPTH REFERENCE
DATM.M        636.422              : datum        - DATUM ELEVATION             
TDD .M        733.654              : tdd          - TOTAL DEPTH DRILLER         
RUN .         ONE                  : Run          - RUN NUMBER                  
ENG .         PAQUIN               : Engineer     - RECORDING ENGINEER          
WIT .         ERICKSON             : Witness      - WITNESSED BY                
BASE.         EDM                  : Branch       - HOME BASE OF LOGGING UNIT   
MUD .         GEL                  : Mud_type     - MUD TYPE                    
MATR.         SANDSTONE            : Logunit      - NEUTRON MATRIX              
TMAX.C        -17.7778             : BHT          - MAXIMUM RECORDED TEMPERATURE
BHTD.M        733.958              : BHTDEP       - MAXIMUM RECORDED TEMPERATURE
RMT .C        10.5556              : MDTP         - TEMPERATURE OF MUD          
MUDD.KG/M     1140                 : MWT          - MUD DENSITY                 
NEUT.         1                    : NEUTRON      - NEUTRON TYPE                
RESI.         0                    : RESIST       - RESISTIVITY TYPE            
RM  .OHMM     4.35                 : RM           - RESISTIVITY OF MUD          
RMC .OHMM     0.25                 : RMC          - RESISTIVITY OF MUD CAKE     
RMF .OHMM     3.86                 : RMF          - RESISTIVITY OF MUD FILTRATE 
SUFT.C        -17.7778             : SUFT         - SURFACE TEMPERATURE         
~A  DEPTH     RESD      CAL       GR     PHIN     PHID
# ...
  505.892    2.563  153.822   83.058    0.441    0.235
  506.142    2.698  155.965   90.680    0.423    0.238
  506.392    2.818  160.976   97.820    0.411    0.207
  506.642    2.960  166.708  102.293    0.425    0.198
  506.892    3.076  170.591  100.105    0.446    0.176
  507.142    3.202  169.142   96.707    0.466    0.179
  507.392    3.309  165.129   92.641    0.470    0.198
  507.642    3.432  162.966   90.335    0.452    0.194
  507.892    3.527  159.981   86.695    0.441    0.181
  508.142    3.619  158.429   83.599    0.457    0.168
  508.392    3.659  158.108   79.837    0.471    0.183
  508.642    3.646  156.150   75.106    0.465    0.197
  508.892    3.574  154.087   70.739    0.441    0.210
  509.142    3.522  153.868   66.795    0.450    0.245
  509.392    3.471  152.930   63.761    0.434    0.238
  509.642    3.459  152.612   63.087    0.416    0.250
  509.892    3.466  152.395   64.957    0.422    0.265
  510.142    3.460  152.179   67.372    0.426    0.273
  510.392    3.441  152.065   70.394    0.414    0.274
  510.642    3.404  152.155   74.504    0.403    0.263
  510.892    3.355  151.425   76.191    0.407    0.251
  511.142    3.265  151.613   76.791    0.423    0.235
  511.392    3.177  152.013   77.631    0.428    0.212
  511.642    3.064  152.308   78.291    0.422    0.245
  511.892    2.954  152.502   78.343    0.419    0.249
  512.142    2.870  152.185   77.607    0.435    0.225
  512.392    2.808  152.066   77.056    0.446    0.234
  512.642    2.778  152.058   75.052    0.446    0.239
  512.892    2.773  152.040   72.562    0.443    0.217
  513.142    2.788  153.056   72.312    0.438    0.230
  513.392    2.819  153.970   77.270    0.430    0.244
  513.642    2.908  156.312   81.562    0.428    0.207
  513.892    3.071  156.813   79.013    0.426    0.181
  514.142    3.209  156.804   72.282    0.415    0.175
  514.392    3.168  156.585   69.671    0.426    0.203
  514.642    3.083  156.780   68.394    0.444    0.222
  514.892    2.820  156.460   76.380    0.443    0.243
  515.142    2.515  155.522   81.520    0.434    0.250
  515.392    2.343  156.741   87.205    0.431    0.250
  515.642    2.377  160.013   89.984    0.456    0.196
  515.892    2.571  170.562   90.642    0.476    0.168
  516.142    2.750  161.730   84.639    0.491    0.222
  516.392    2.837  156.282   80.030    0.457    0.243
  516.642    2.842  153.092   75.239    0.429    0.211
  516.892    2.786  151.336   72.749    0.411    0.207
  517.142    2.771  151.940   74.800    0.398    0.228
  517.392    2.848  153.159   80.061    0.398    0.219
  517.642    3.014  154.787   83.566    0.409    0.187
  517.892    3.224  156.210   85.135    0.422    0.159
  518.142    3.538  158.349   85.127    0.442    0.141
  518.392    3.744  159.673   87.118    0.458    0.178
  518.642    3.897  161.609   89.775    0.474    0.206
  518.892    3.904  162.622   86.922    0.496    0.231
  519.142    3.758  162.095   81.767    0.540    0.258
  519.392    3.438  160.750   74.917    0.579    0.354
  519.642    3.243  158.278   69.521    0.561    0.359
  519.892    3.082  155.600   72.965    0.531    0.353
  520.142    2.994  159.789   77.016    0.540    0.352
  520.392    3.027  161.523   83.789    0.540    0.341
  520.642    3.186  161.919   86.145    0.491    0.337
  520.892    3.274  162.111   84.987    0.441    0.149
  521.142    3.298  162.307   82.195    0.446    0.147
  521.392    3.152  162.293   78.371    0.446    0.214
  521.642    2.985  162.279   76.427    0.435    0.229
  521.892    2.931  161.860   74.301    0.423    0.238
  522.142    2.915  159.795   76.109    0.426    0.244
  522.392    2.991  157.835   76.405    0.470    0.251
  522.642    3.130  154.542   78.335    0.484    0.273
  522.892    3.294  157.913   78.632    0.491    0.277
  523.142    3.379  159.748   72.387    0.483    0.257
  523.392    3.289  159.633   56.453    0.459    0.220
  523.642    3.008  156.237   48.876    0.435    0.223
  523.892    2.436  154.070   43.721    0.402    0.258
  524.142    2.129  153.438   41.049    0.410    0.281
  524.392    1.874  153.736   39.952    0.425    0.278
  524.642    1.727  154.240   39.643    0.434    0.260
  524.892    1.702  154.736   39.454    0.439    0.272
  525.142    1.678  154.624   40.172    0.429    0.282
  525.392    1.675  154.406   41.801    0.412    0.261
  525.642    1.721  154.293   42.156    0.388    0.262
  525.892    1.815  153.871   41.240    0.346    0.263
  526.142    2.050  153.961   40.629    0.305    0.252
  526.392    2.574  155.077   40.015    0.226    0.221
  526.642    3.163  157.628   39.585    0.191    0.191
  526.892    3.740  159.564   38.910    0.186    0.057
  527.142    4.164  160.371   39.268    0.190    0.072
  527.392    4.454  160.973   42.045    0.194    0.082
  527.642    4.553  160.860   42.403    0.195    0.087
  527.892    4.367  160.439   41.607    0.201    0.090
  528.142    3.673  159.603   41.843    0.215    0.096
  528.392    2.811  158.364   44.075    0.281    0.131
  528.642    2.195  155.890   45.159    0.341    0.179
  528.892    1.774  154.134   46.666    0.391    0.239
  529.142    1.562  152.991   47.870    0.428    0.291
  529.392    1.498  152.570   49.558    0.422    0.287
  529.642    1.509  152.454   52.276    0.416    0.281
  529.892    1.534  152.240   54.630    0.413    0.296
  530.142    1.545  153.253   54.502    0.419    0.290
  530.392    1.554  153.237   53.042    0.430    0.298
  530.642    1.562  153.331   51.701    0.431    0.297
  530.892    1.565  153.314   50.605    0.414    0.293
  531.142    1.565  153.817   49.750    0.405    0.289
  531.392    1.565  154.013   49.682    0.407    0.293
  531.642    1.549  154.098   49.916    0.416    0.291
  531.892    1.518  154.397   50.091    0.425    0.288
  532.142    1.504  154.691   50.569    0.430    0.312
  532.392    1.504  155.194   48.139    0.433    0.303
  532.642    1.524  155.793   47.284    0.434    0.300
  532.892    1.578  155.782   49.698    0.435    0.283
  533.142    1.645  155.771   50.782    0.434    0.288
  533.392    1.760  155.447   50.714    0.432    0.296
  533.642    1.900  155.128   51.130    0.429    0.290
  533.892    2.022  155.015   51.608    0.417    0.277
  534.142    1.956  155.003   51.480    0.407    0.266
  534.392    1.836  154.888   47.900    0.401    0.281
  534.642    1.745  154.771   47.165    0.409    0.267
  534.892    1.643  154.861   47.279    0.423    0.292
  535.142    1.564  154.957   47.817    0.434    0.301
  535.392    1.479  154.430   48.053    0.429    0.285
  535.642    1.447  154.110   47.864    0.415    0.262
  535.892    1.611  154.405   46.464    0.412    0.254
  536.142    2.079  154.495   43.610    0.386    0.241
  536.392    2.870  154.277   41.301    0.331    0.183
  536.642    4.574  155.489   40.326    0.266    0.154
  536.892    6.155  156.000   42.316    0.240    0.114
  537.142    7.344  156.295   45.277    0.242    0.082
  537.392    6.100  154.024   47.813    0.304    0.137
  537.642    3.772  152.987   47.382    0.371    0.188
  537.892    2.758  152.258   48.041    0.405    0.235
  538.142    2.249  151.629   50.456    0.416    0.245
  538.392    1.855  151.620   52.568    0.406    0.263
  538.642    1.899  151.504   54.013    0.403    0.275
  538.892    2.062  151.903   54.672    0.415    0.280
  539.142    2.325  152.197   55.211    0.415    0.284
  539.392    2.570  152.697   55.325    0.383    0.269
  539.642    2.852  153.298   55.621    0.346    0.220
  539.892    2.765  153.289   57.067    0.344    0.195
  540.142    2.524  153.289   60.026    0.396    0.178
  540.392    2.259  154.998   60.383    0.426    0.260
  540.642    2.089  155.095   59.224    0.444    0.277
  540.892    1.883  155.081   58.732    0.435    0.277
  541.142    1.758  154.662   58.664    0.429    0.274
  541.392    1.698  154.445   59.385    0.427    0.278
  541.642    1.664  154.434   60.104    0.430    0.269
  541.892    1.647  154.625   59.190    0.431    0.260
  542.142    1.656  154.820   58.456    0.423    0.276
