~VERSION INFORMATION
 VERS.                 2.0:   CWLS LOG ASCII STANDARD -VERSION 2.0
 WRAP.                  NO:   ONE LINE PER DEPTH STEP
~WELL INFORMATION BLOCK
#MNEM.UNIT           DATA                    DESCRIPTION OF MNEMONIC
#---------    -------------------            -------------------------------
# Generated from Intellog Unique Number	CW_73_75/WELL/924
WELL.         GULF POC DROWNED 10-16         : Well_name    - WELL
LOC .         00/10-16-075-21W4/0            : Location     - LOCATION
UWI .         00/10-16-075-21W4/0            : Uwi          - UNIQUE WELL ID
ENTR.         JAYE                           : Entered      - ENTERED BY
SRVC.         SCHLUMBERGER                   : Scn          - SERVICE COMPANY
DATE.         6 MAR 78                       : Date         - LOG DATE
STRT.M        356.616                        : top_depth    - START DEPTH
STOP.M        566.866                        : bot_depth    - STOP DEPTH
STEP.M        0.25                           : increment    - STEP LENGTH
 NULL. -999.2500:NULL Value
~CURVE INFORMATION BLOCK
#MNEM UNIT       ERCB CURVE CODE    CURVE DESCRIPTION
#-----------   ------------------   ----------------------------------
DEPT.M        00 001 00 00         : DEPTH        - DEPTH
ILD .OHMM     00 120 00 00         : RESD         - DEEP RESISTIVITY (DIL)
NPHI.V/V      00 330 00 00         : PHIN         - NEUTRON POROSITY (SANDSTONE)
DPHI.V/V      00 890 00 00         : PHID         - DENSITY POROSITY (SANDSTONE)
GR  .API      00 310 00 00         : GR           - GAMMA RAY
CALI.MM       00 280 01 00         : CAL          - CALIPER
~PARAMETER INFORMATION
#MNEM.UNIT           DATA             DESCRIPTION OF MNEMONIC
#---------         -----------     ------------------------------
GL  .M        666.598              : gl           - GROUND LEVEL ELEVATION
EREF.M        670.712              : kb           - ELEVATION OF DEPTH REFERENCE
DATM.M        666.598              : datum        - DATUM ELEVATION
TDD .M        569.976              : tdd          - TOTAL DEPTH DRILLER
RUN .         ONE                  : Run          - RUN NUMBER
ENG .         VERRAIRES            : Engineer     - RECORDING ENGINEER
WIT .         BRINKMAN/ROZENHART   : Witness      - WITNESSED BY
BASE.         EDM                  : Branch       - HOME BASE OF LOGGING UNIT
MUD .         GEL CHEM             : Mud_type     - MUD TYPE
MATR.         SANDSTONE            : Logunit      - NEUTRON MATRIX
TMAX.C        17.2222              : BHT          - MAXIMUM RECORDED TEMPERATURE
BHTD.M        569.671              : BHTDEP       - MAXIMUM RECORDED TEMPERATURE
RMT .C        17.7778              : MDTP         - TEMPERATURE OF MUD
MUDD.KG/M     1116                 : MWT          - MUD DENSITY
NEUT.         1                    : NEUTRON      - NEUTRON TYPE
RESI.         0                    : RESIST       - RESISTIVITY TYPE
RM  .OHMM     4.87                 : RM           - RESISTIVITY OF MUD
RMC .OHMM     0                    : RMC          - RESISTIVITY OF MUD CAKE
RMF .OHMM     5.89                 : RMF          - RESISTIVITY OF MUD FILTRATE
SUFT.C        -17.7778             : SUFT         - SURFACE TEMPERATURE
~A  DEPTH     RESD     PHIN     PHID       GR      CAL
# ...
  429.616   20.289    0.195    0.000   55.538  158.937
  429.866   15.748    0.240    0.071   62.005  158.851
  430.116   12.292    0.418    0.218   68.533  158.770
  430.366    9.827    0.466    0.256   80.771  158.578
  430.616    7.419    0.461    0.273   91.023  158.602
  430.866    6.009    0.455    0.253   94.573  158.725
  431.116    5.387    0.467    0.243   96.074  158.847
  431.366    5.405    0.486    0.235   96.770  159.291
  431.616    5.504    0.476    0.225   96.097  159.628
  431.866    5.595    0.485    0.215   94.621  159.747
  432.116    5.666    0.465    0.245   90.412  160.088
  432.366    5.738    0.473    0.269   85.521  160.211
  432.616    5.768    0.510    0.289   80.258  160.441
  432.866    5.734    0.482    0.306   75.181  160.462
  433.116    5.617    0.472    0.307   69.855  160.584
  433.366    5.493    0.467    0.301   65.834  160.080
  433.616    5.331    0.453    0.297   61.687  159.787
  433.866    5.212    0.452    0.294   58.657  159.596
  434.116    5.096    0.458    0.290   55.504  159.302
  434.366    4.993    0.461    0.291   55.951  159.002
  434.616    4.909    0.467    0.299   58.197  158.709
  434.866    4.791    0.477    0.298   61.559  158.417
  435.116    4.710    0.474    0.295   63.309  158.122
  435.366    4.657    0.459    0.297   63.072  157.931
  435.616    4.446    0.466    0.304   60.851  157.845
  435.866    4.428    0.476    0.312   59.622  157.654
  436.116    4.419    0.480    0.307   59.261  157.462
  436.366    4.458    0.477    0.300   59.955  157.378
  436.616    4.490    0.460    0.297   61.087  157.297
  436.866    4.547    0.464    0.299   60.475  157.314
  437.116    4.520    0.467    0.304   58.688  157.332
  437.366    4.477    0.455    0.296   63.354  157.250
  437.616    4.443    0.465    0.289   63.864  157.268
  437.866    4.474    0.462    0.283   61.827  156.658
  438.116    4.540    0.452    0.281   58.797  155.626
  438.366    4.589    0.460    0.274   56.327  154.175
  438.616    4.647    0.462    0.298   55.037  153.040
  438.866    4.715    0.455    0.292   54.798  152.640
  439.116    4.819    0.462    0.280   54.562  152.348
  439.366    4.917    0.456    0.283   53.395  152.679
  439.616    5.072    0.447    0.290   52.477  152.909
  439.866    5.184    0.438    0.276   53.233  153.667
  440.116    5.318    0.429    0.288   56.224  154.213
  440.366    5.406    0.451    0.301   57.600  154.762
  440.616    5.464    0.452    0.300   57.612  155.094
  440.866    5.463    0.442    0.295   57.376  155.536
  441.116    5.410    0.434    0.294   57.574  156.290
  441.366    5.350    0.430    0.294   58.270  157.152
  441.616    5.270    0.436    0.296   59.895  157.904
  441.866    5.172    0.420    0.298   62.947  158.663
  442.116    5.104    0.430    0.294   64.326  158.995
  442.366    5.055    0.440    0.288   64.088  159.336
  442.616    5.016    0.430    0.280   63.852  159.668
  442.866    4.978    0.436    0.262   61.009  160.002
  443.116    4.949    0.454    0.268   58.478  160.234
  443.366    4.929    0.449    0.288   59.481  160.253
  443.616    4.910    0.444    0.297   63.465  160.275
  443.866    4.872    0.452    0.295   60.001  160.084
  444.116    4.852    0.463    0.299   57.965  159.790
  444.366    4.815    0.448    0.299   60.894  159.703
  444.616    4.787    0.449    0.293   65.189  159.410
  444.866    4.741    0.460    0.284   68.427  159.006
  445.116    4.723    0.463    0.288   71.976  158.713
  445.366    4.695    0.458    0.272   75.278  158.104
  445.616    4.693    0.446    0.257   76.655  157.809
  445.866    4.710    0.463    0.258   75.860  157.722
  446.116    4.690    0.468    0.267   74.695  157.427
  446.366    4.681    0.454    0.272   74.953  157.342
  446.616    4.671    0.438    0.278   77.820  157.467
  446.866    4.644    0.433    0.288   83.170  157.808
  447.116    4.616    0.427    0.273   88.456  158.143
  447.366    4.556    0.417    0.244   94.736  158.477
  447.616    4.504    0.455    0.203  103.809  158.702
  447.866    4.420    0.483    0.182  107.172  159.250
  448.116    4.290    0.491    0.197  104.702  160.425
  448.366    4.141    0.477    0.191  103.906  162.127
  448.616    3.960    0.485    0.173  107.271  163.828
  448.866    3.830    0.504    0.174  109.888  165.739
  449.116    3.745    0.513    0.181  108.970  167.548
  449.366    3.689    0.524    0.191  105.133  168.514
  449.616    3.654    0.521    0.187  100.056  168.427
  449.866    3.734    0.501    0.178   96.096  167.398
  450.116    3.931    0.492    0.204   93.936  166.365
  450.366    4.124    0.485    0.221   93.202  164.811
  450.616    4.309    0.476    0.225   96.877  163.674
  450.866    4.478    0.471    0.201   96.888  162.642
  451.116    4.706    0.475    0.185   96.653  161.192
  451.366    4.890    0.473    0.227   97.721  158.794
  451.616    5.110    0.449    0.234   99.594  157.134
  451.866    5.233    0.446    0.226  101.652  156.733
  452.116    5.299    0.453    0.237   97.940  156.755
  452.366    5.031    0.463    0.249   92.864  156.983
  452.616    4.527    0.469    0.247   88.345  157.217
  452.866    4.066    0.454    0.238   86.805  157.657
  453.116    3.874    0.437    0.220   82.784  158.201
  453.366    3.967    0.465    0.211   78.574  159.065
  453.616    4.301    0.506    0.223   72.877  159.711
  453.866    4.760    0.511    0.245   71.213  160.889
  454.116    5.286    0.488    0.263   74.143  161.959
  454.366    5.711    0.483    0.270   77.381  162.503
  454.616    6.147    0.465    0.267   80.309  162.629
  454.866    6.168    0.458    0.255   83.300  162.228
  455.116    5.987    0.458    0.247   81.947  161.199
  455.366    5.864    0.458    0.250   82.705  160.379
  455.616    5.798    0.448    0.234   85.508  159.874
  455.866    5.829    0.446    0.242   86.824  159.368
  456.116    6.024    0.446    0.237   87.209  158.969
  456.366    6.306    0.459    0.235   86.971  158.778
  456.616    6.738    0.466    0.256   85.307  158.693
  456.866    7.809    0.442    0.279   80.292  158.294
  457.116    9.133    0.431    0.294   75.650  157.891
  457.366   10.125    0.406    0.244   75.165  156.230
  457.616   10.738    0.364    0.215   68.598  154.778
  457.866   10.835    0.327    0.202   67.742  154.168
  458.116   10.381    0.329    0.163   75.697  154.610
  458.366    9.480    0.376    0.202   83.280  155.575
  458.616    8.358    0.406    0.210   87.948  156.858
  458.866    7.315    0.432    0.211   87.649  158.033
  459.116    6.498    0.445    0.213   88.346  159.525
  459.366    6.089    0.442    0.214   90.652  160.700
  459.616    5.845    0.435    0.207   93.766  161.877
  459.866    5.610    0.455    0.203   94.399  162.630
  460.116    5.527    0.453    0.199   93.728  163.177
  460.366    5.424    0.451    0.197   96.222  163.617
  460.616    5.343    0.456    0.198   94.124  163.847
  460.866    5.243    0.472    0.205   87.745  164.080
  461.116    5.155    0.468    0.210   82.978  164.308
  461.366    5.069    0.459    0.221   80.011  165.063
  461.616    4.983    0.468    0.253   76.919  163.822
  461.866    4.872    0.472    0.285   74.262  163.528
  462.116    4.747    0.449    0.284   72.227  162.813
  462.366    4.633    0.449    0.284   70.809  161.572
  462.616    4.572    0.456    0.294   68.526  161.066
  462.866    4.495    0.456    0.296   66.987  160.559
  463.116    4.453    0.453    0.298   67.681  160.058
  463.366    4.418    0.470    0.307   71.540  159.657
  463.616    4.385    0.473    0.314   75.338  159.261
  463.866    4.367    0.459    0.314   71.564  159.175
  464.116    4.342    0.455    0.310   67.356  159.297
  464.366    4.340    0.449    0.304   69.789  159.319
  464.616    4.331    0.442    0.299   73.834  159.339
  464.866    4.321    0.430    0.304   71.675  159.045
  465.116    4.312    0.446    0.307   69.203  158.955
  465.366    4.311    0.454    0.310   66.114  158.764
  465.616    4.270    0.446    0.310   64.572  158.260
  465.866    4.245    0.439    0.308   67.191  158.281
