~VERSION INFORMATION
 VERS.                 2.0:   CWLS LOG ASCII STANDARD -VERSION 2.0
 WRAP.                  NO:   ONE LINE PER DEPTH STEP
~WELL INFORMATION BLOCK
#MNEM.UNIT           DATA                    DESCRIPTION OF MNEMONIC
#---------    -------------------            -------------------------------
# Generated from Intellog Unique Number	CS_69_70/WELL/897
NULL.         -999.25                        : NULL_VALUE
WELL.         SULPETRO BRENDA IPIATIK        : Well_name    - WELL              
LOC .         00/11-28-070-09W4/0            : Location     - LOCATION          
UWI .         00/11-28-070-09W4/0            : Uwi          - UNIQUE WELL ID    
ENTR.         SP                             : Entered      - ENTERED BY        
SRVC.         SCHLUMBERGER                   : Scn          - SERVICE COMPANY   
STRT.M        260                            : top_depth    - START DEPTH       
STOP.M        470                            : bot_depth    - STOP DEPTH        
STEP.M        0.25                           : increment    - STEP LENGTH       
~CURVE INFORMATION BLOCK
#MNEM UNIT       ERCB CURVE CODE    CURVE DESCRIPTION
#-----------   ------------------   ----------------------------------
DEPT.M        00 001 00 00         : DEPTH        - DEPTH                       
ILD .OHMM     00 120 00 00         : RESD         - DEEP RESISTIVITY (DIL)      
DPHI.V/V      00 890 00 00         : PHID         - DENSITY POROSITY (LIMESTONE)
NPHI.V/V      00 330 00 00         : PHIN         - NEUTRON POROSITY (LIMESTONE)
GR  .API      00 310 00 00         : GR           - GAMMA RAY                   
~PARAMETER INFORMATION       
#MNEM.UNIT           DATA             DESCRIPTION OF MNEMONIC
#---------         -----------     ------------------------------
GL  .M        605.03               : gl           - GROUND LEVEL ELEVATION      
EREF.M        609.53               : kb           - ELEVATION OF DEPTH REFERENCE
DATM.M        605.03               : datum        - DATUM ELEVATION             
TDD .M        480                  : tdd          - TOTAL DEPTH DRILLER         
RUN .         ONE                  : Run          - RUN NUMBER                  
ENG .         BILL                 : Engineer     - RECORDING ENGINEER          
WIT .         JIM                  : Witness      - WITNESSED BY                
MUD .         GEL                  : Mud_type     - MUD TYPE                    
MATR.         LIMESTONE            : Logunit      - NEUTRON MATRIX              
TMAX.C        20                   : BHT          - MAXIMUM RECORDED TEMPERATURE
BHTD.M        480                  : BHTDEP       - MAXIMUM RECORDED TEMPERATURE
MATR.         1                    : LOGUNIT      - NEUTRON MATRIX              
RMT .C        25                   : MDTP         - TEMPERATURE OF MUD          
NEUT.         1                    : NEUTRON      - NEUTRON TYPE                
RESI.         0                    : RESIST       - RESISTIVITY TYPE            
RMC .OHMM     0.25                 : RMC          - RESISTIVITY OF MUD CAKE     
RMF .OHMM     0.25                 : RMF          - RESISTIVITY OF MUD FILTRATE 
SUFT.C        15                   : SUFT         - SURFACE TEMPERATURE         
~A  DEPTH     RESD     PHID     PHIN       GR
# ...
  347.000   11.971    0.349    0.411   55.528
  347.250   11.725    0.347    0.427   53.110
  347.500   11.483    0.352    0.440   50.452
  347.750   11.206    0.354    0.451   49.534
  348.000   10.934    0.361    0.457   50.476
  348.250   10.769    0.363    0.443   51.069
  348.500   10.704    0.360    0.427   52.313
  348.750   10.661    0.359    0.420   53.321
  349.000   10.637    0.358    0.420   55.403
  349.250   10.516    0.365    0.420   55.934
  349.500   10.473    0.374    0.419   55.019
  349.750   10.430    0.377    0.432   54.278
  350.000   10.426    0.372    0.444   54.987
  350.250   10.403    0.367    0.443   56.654
  350.500   10.360    0.364    0.428   58.021
  350.750   10.357    0.360    0.415   58.665
  351.000   10.372    0.355    0.404   59.014
  351.250   10.406    0.349    0.406   58.397
  351.500   10.441    0.342    0.413   57.723
  351.750   10.573    0.339    0.411   55.966
  352.000   10.709    0.343    0.416   53.669
  352.250   10.782    0.353    0.426   51.492
  352.500   10.799    0.350    0.437   52.919
  352.750   10.776    0.344    0.446   55.907
  353.000   10.792    0.360    0.454   56.374
  353.250   10.848    0.365    0.447   53.533
  353.500   11.027    0.364    0.433   51.419
  353.750   11.482    0.358    0.416   48.581
  354.000   11.912    0.319    0.390   47.064
  354.250   12.312    0.267    0.330   47.891
  354.500   12.445    0.220    0.380   49.736
  354.750   12.440    0.305    0.428   52.426
  355.000   12.298    0.331    0.431   54.514
  355.250   12.045    0.341    0.424   54.498
  355.500   11.666    0.351    0.419   53.401
  355.750   11.216    0.359    0.417   53.805
  356.000   10.823    0.365    0.417   54.695
  356.250   10.640    0.369    0.424   55.940
  356.500   10.479    0.364    0.428   58.256
  356.750   10.456    0.355    0.434   58.729
  357.000   10.184    0.348    0.435   58.899
  357.250   10.161    0.343    0.427   57.624
  357.500   10.233    0.351    0.422   56.889
  357.750   10.954    0.353    0.419   56.269
  358.000   11.302    0.344    0.419   56.139
  358.250   12.080    0.334    0.406   55.163
  358.500   13.423    0.314    0.384   51.905
  358.750   15.827    0.268    0.352   51.048
  359.000   17.884    0.027    0.312   51.755
  359.250   19.185    0.056    0.201   52.340
  359.500   19.034    0.067    0.216   53.467
  359.750   17.406    0.087    0.248   59.458
  360.000   12.715    0.129    0.324   71.037
  360.250    9.496    0.160    0.366   77.330
  360.500    7.870    0.209    0.394   78.215
  360.750    7.277    0.229    0.395   79.764
  361.000    6.995    0.238    0.403   83.652
  361.250    6.942    0.229    0.415   86.401
  361.500    6.875    0.236    0.424   88.489
  361.750    6.834    0.248    0.432   89.014
  362.000    6.819    0.266    0.441   87.198
  362.250    6.829    0.255    0.440   82.857
  362.500    6.852    0.264    0.434   82.423
  362.750    6.939    0.257    0.430   86.129
  363.000    7.159    0.261    0.427   86.837
  363.250    7.345    0.266    0.425   86.283
  363.500    7.397    0.268    0.424   86.028
  363.750    7.339    0.265    0.439   84.272
  364.000    7.095    0.256    0.449   79.331
  364.250    6.771    0.253    0.456   80.756
  364.500    6.522    0.249    0.461   84.226
  364.750    6.329    0.244    0.468   86.555
  365.000    6.338    0.238    0.463   87.379
  365.250    6.324    0.235    0.448   86.824
  365.500    6.321    0.233    0.447   86.570
  365.750    6.330    0.233    0.457   86.432
  366.000    6.316    0.236    0.466   86.057
  366.250    6.175    0.235    0.451   85.563
  366.500    6.082    0.230    0.433   85.546
  366.750    6.046    0.223    0.438   86.434
  367.000    5.888    0.219    0.455   88.338
  367.250    5.725    0.218    0.468   89.891
  367.500    5.473    0.220    0.479   94.135
  367.750    5.194    0.221    0.488   97.483
  368.000    4.785    0.217    0.483   98.791
  368.250    4.271    0.212    0.468   98.902
  368.500    3.819    0.222    0.464   98.765
  368.750    3.365    0.237    0.469   98.452
  369.000    3.037    0.253    0.480   96.814
  369.250    2.762    0.244    0.506   95.898
  369.500    2.512    0.243    0.533   97.387
  369.750    2.348    0.237    0.545   96.711
  370.000    2.343    0.233    0.548   95.856
  370.250    2.565    0.246    0.550   98.723
  370.500    2.788    0.237    0.541  100.331
  370.750    3.001    0.225    0.522  100.135
  371.000    3.310    0.221    0.511   97.838
  371.250    3.584    0.232    0.521   92.778
  371.500    3.931    0.247    0.522   90.481
  371.750    4.288    0.270    0.495   88.542
  372.000    4.591    0.270    0.464   86.126
  372.250    4.861    0.257    0.443   88.391
  372.500    4.969    0.245    0.449   90.601
  372.750    4.976    0.232    0.455   90.407
  373.000    4.740    0.221    0.458   87.745
  373.250    4.574    0.232    0.452   86.892
  373.500    4.463    0.242    0.449   85.496
  373.750    4.562    0.248    0.452   84.041
  374.000    4.795    0.227    0.458   78.199
  374.250    5.308    0.181    0.442   66.231
  374.500    5.887    0.113    0.306   60.390
  374.750    6.350    0.072    0.253   61.935
  375.000    6.613    0.122    0.398   69.130
  375.250    6.610    0.208    0.434   75.842
  375.500    6.227    0.257    0.459   70.962
  375.750    5.726    0.303    0.469   65.776
  376.000    5.373    0.317    0.473   63.545
  376.250    5.302    0.317    0.457   65.271
  376.500    5.340    0.310    0.437   68.980
  376.750    5.487    0.306    0.426   73.049
  377.000    5.651    0.301    0.435   76.457
  377.250    5.841    0.296    0.449   78.487
  377.500    6.049    0.274    0.442   80.035
  377.750    6.194    0.255    0.427   79.839
  378.000    6.226    0.266    0.417   79.103
  378.250    6.224    0.264    0.411   80.170
  378.500    6.153    0.247    0.410   79.795
  378.750    6.049    0.256    0.413   76.117
  379.000    5.708    0.274    0.410   77.602
  379.250    5.386    0.275    0.409   80.352
  379.500    5.364    0.252    0.416   82.860
  379.750    5.383    0.240    0.419   85.186
  380.000    5.915    0.242    0.420   86.915
  380.250    5.924    0.254    0.427   87.980
  380.500    5.944    0.257    0.440   88.444
  380.750    6.019    0.253    0.450   88.011
  381.000    6.129    0.243    0.460   87.396
  381.250    6.288    0.224    0.459   80.412
  381.500    6.428    0.168    0.332   72.891
  381.750    6.595    0.122    0.320   66.749
  382.000    6.654    0.167    0.372   71.659
  382.250    6.505    0.219    0.413   75.069
  382.500    5.849    0.256    0.453   78.417
  382.750    5.613    0.271    0.460   79.665
  383.000    5.386    0.254    0.450   82.833
  383.250    5.335    0.248    0.446   87.444
  383.500    5.283    0.251    0.456   91.632
  383.750    5.281    0.246    0.461   90.958
  384.000    5.338    0.238    0.459   89.261
  384.250    5.356    0.230    0.452   88.646
  384.500    5.404    0.239    0.454   89.172
  384.750    5.413    0.253    0.463   87.833
  385.000    5.400    0.248    0.468   85.359
  385.250    5.279    0.233    0.457   83.962
  385.500    4.927    0.241    0.447   84.727
  385.750    4.616    0.255    0.445   85.733
  386.000    4.405    0.261    0.450   87.162
  386.250    4.305    0.233    0.447   89.009
  386.500    4.265    0.233    0.444   91.031
  386.750    4.231    0.249    0.444   91.675
  387.000    4.190    0.238    0.459   91.905
  387.250    4.166    0.218    0.477   91.891
  387.500    4.126    0.222    0.493   90.076
  387.750    3.923    0.236    0.507   87.178
  388.000    3.393    0.253    0.521   88.845
  388.250    2.812    0.274    0.508   93.275
  388.500    2.400    0.286    0.544   97.645
  388.750    2.127    0.295    0.564  100.754
  389.000    2.029    0.282    0.569  101.820
  389.250    2.014    0.277    0.550   99.282
  389.500    2.032    0.271    0.544   97.345
  389.750    2.065    0.268    0.540   94.448
  390.000    2.095    0.278    0.534   91.971
  390.250    2.138    0.286    0.524   90.270
