~VERSION INFORMATION
 VERS.                 2.0:   CWLS LOG ASCII STANDARD -VERSION 2.0
 WRAP.                  NO:   ONE LINE PER DEPTH STEP
~WELL INFORMATION BLOCK
#MNEM.UNIT           DATA                    DESCRIPTION OF MNEMONIC
#---------    -------------------            -------------------------------
# Generated from Intellog Unique Number	CW_73_75/WELL/924
WELL.         GULF POC DROWNED 10-16         : Well_name    - WELL
LOC .         00/10-16-075-21W4/0            : Location     - LOCATION
UWI .         00/10-16-075-21W4/0            : Uwi          - UNIQUE WELL ID
ENTR.         JAYE                           : Entered      - ENTERED BY
SRVC.         SCHLUMBERGER                   : Scn          - SERVICE COMPANY
DATE.         6 MAR 78                       : Date         - LOG DATE
STRT.M        356.616                        : top_depth    - START DEPTH
STOP.M        566.866                        : bot_depth    - STOP DEPTH
STEP.M        0.25                           : increment    - STEP LENGTH
 NULL. -999.2500:NULL Value
~CURVE INFORMATION BLOCK
#MNEM UNIT       ERCB CURVE CODE    CURVE DESCRIPTION
#-----------   ------------------   ----------------------------------
DEPT.M        00 001 00 00         : DEPTH        - DEPTH
ILD .OHMM     00 120 00 00         : RESD         - DEEP RESISTIVITY (DIL)
NPHI.V/V      00 330 00 00         : PHIN         - NEUTRON POROSITY (SANDSTONE)
DPHI.V/V      00 890 00 00         : PHID         - DENSITY POROSITY (SANDSTONE)
GR  .API      00 310 00 00         : GR           - GAMMA RAY
CALI.MM       00 280 01 00         : CAL          - CALIPER
~PARAMETER INFORMATION
#MNEM.UNIT           DATA             DESCRIPTION OF MNEMONIC
#---------         -----------     ------------------------------
GL  .M        666.598              : gl           - GROUND LEVEL ELEVATION
EREF.M        670.712              : kb           - ELEVATION OF DEPTH REFERENCE
DATM.M        666.598              : datum        - DATUM ELEVATION
TDD .M        569.976              : tdd          - TOTAL DEPTH DRILLER
RUN .         ONE                  : Run          - RUN NUMBER
ENG .         VERRAIRES            : Engineer     - RECORDING ENGINEER
WIT .         BRINKMAN/ROZENHART   : Witness      - WITNESSED BY
BASE.         EDM                  : Branch       - HOME BASE OF LOGGING UNIT
MUD .         GEL CHEM             : Mud_type     - MUD TYPE
MATR.         SANDSTONE            : Logunit      - NEUTRON MATRIX
TMAX.C        17.2222              : BHT          - MAXIMUM RECORDED TEMPERATURE
BHTD.M        569.671              : BHTDEP       - MAXIMUM RECORDED TEMPERATURE
RMT .C        17.7778              : MDTP         - TEMPERATURE OF MUD
MUDD.KG/M     1116                 : MWT          - MUD DENSITY
NEUT.         1                    : NEUTRON      - NEUTRON TYPE
RESI.         0                    : RESIST       - RESISTIVITY TYPE
RM  .OHMM     4.87                 : RM           - RESISTIVITY OF MUD
RMC .OHMM     0                    : RMC          - RESISTIVITY OF MUD CAKE
RMF .OHMM     5.89                 : RMF          - RESISTIVITY OF MUD FILTRATE
SUFT.C        -17.7778             : SUFT         - SURFACE TEMPERATURE
~A  DEPTH     RESD     PHIN     PHID       GR      CAL
  356.616    2.792    0.521    0.182  113.015  163.786
  356.866    2.797    0.534    0.165  112.904  162.968
  357.116    2.853    0.562    0.201  113.287  162.563
  357.366    2.900    0.580    0.198  110.382  161.955
  357.616    2.932    0.585    0.192  108.035  161.557
  357.866    2.958    0.575    0.200  109.103  161.048
  358.116    2.957    0.552    0.212  109.363  160.860
  358.366    3.005    0.549    0.222  108.258  161.403
  358.616    3.044    0.551    0.222  105.787  162.370
  358.866    3.128    0.540    0.203  105.365  162.492
  359.116    3.221    0.527    0.190  110.714  162.728
  359.366    3.429    0.532    0.169  105.328  162.534
  359.616    3.822    0.500    0.188   94.415  162.766
  359.866    4.496    0.460    0.218   85.180  163.100
  360.116    5.386    0.445    0.201   75.944  163.223
  360.366    9.268    0.429    0.260   67.826  163.563
  360.616   12.473    0.429    0.292   64.674  163.373
  360.866   13.879    0.448    0.303   67.230  162.758
  361.116   13.671    0.444    0.306   65.443  161.937
  361.366   12.302    0.448    0.295   62.475  161.017
  361.616   10.167    0.468    0.282   68.135  160.088
  361.866    8.882    0.447    0.272   73.111  159.268
  362.116    7.260    0.433    0.246   77.966  158.343
  362.366    6.754    0.425    0.228   81.885  157.208
  362.616    6.088    0.428    0.231   86.428  156.494
  362.866    5.758    0.439    0.265   88.612  156.193
  363.116    5.497    0.447    0.268   88.810  155.798
  363.366    5.335    0.456    0.256   86.092  155.711
  363.616    5.217    0.469    0.231   82.751  155.731
  363.866    5.026    0.475    0.213   79.661  156.169
  364.116    4.771    0.446    0.274   79.237  156.510
  364.366    4.656    0.424    0.250   82.166  156.739
  364.616    4.612    0.408    0.225   95.025  156.654
  364.866    4.628    0.420    0.227  102.918  156.255
  365.116    4.774    0.439    0.236  106.779  156.168
  365.366    5.026    0.452    0.192   98.598  156.194
  365.616    5.223    0.445    0.211   88.494  156.210
  365.866    5.408    0.438    0.231   78.203  156.335
  366.116    5.767    0.431    0.249   66.052  156.564
  366.366    6.549    0.424    0.222   61.470  156.581
  366.616    6.933    0.402    0.160   66.076  156.706
  366.866    6.982    0.416    0.224   71.426  156.623
  367.116    6.616    0.432    0.256   75.035  156.535
  367.366    6.351    0.421    0.272   79.889  156.877
  367.616    6.062    0.398    0.246   90.078  157.421
  367.866    5.660    0.413    0.209  100.207  157.858
  368.116    5.217    0.434    0.185  105.245  157.986
  368.366    4.952    0.471    0.203  110.222  158.216
  368.616    4.978    0.481    0.200  103.904  158.025
  368.866    5.378    0.467    0.211   93.054  157.940
  369.116    6.073    0.396    0.262   68.367  157.858
  369.366    6.561    0.376    0.311   63.785  157.458
  369.616    7.062    0.365    0.267   62.060  157.158
  369.866    7.449    0.370    0.238   70.201  156.861
  370.116    7.656    0.382    0.225   78.405  156.572
  370.366    7.555    0.400    0.244   72.459  156.381
  370.616    7.185    0.408    0.199   67.756  156.083
  370.866    6.783    0.328    0.127   66.897  155.894
  371.116    6.428    0.347    0.201   87.576  156.131
  371.366    6.057    0.376    0.230   93.546  156.145
  371.616    5.879    0.413    0.242   94.985  156.269
  371.866    5.888    0.420    0.228   95.556  156.291
  372.116    5.886    0.429    0.244   92.340  156.099
  372.366    5.906    0.440    0.251   85.401  156.016
  372.616    5.937    0.430    0.246   80.386  155.932
  372.866    6.046    0.405    0.234   83.252  155.844
  373.116    6.145    0.419    0.224   88.294  155.759
  373.366    6.269    0.431    0.234   91.158  155.672
  373.616    6.384    0.435    0.236   95.391  155.694
  373.866    6.574    0.432    0.225   98.381  155.611
  374.116    6.832    0.422    0.219   99.882  155.628
  374.366    7.113    0.413    0.213  100.701  155.652
  374.616    7.338    0.416    0.203  100.776  155.780
  374.866    7.459    0.424    0.227   96.505  156.002
  375.116    7.651    0.418    0.232   94.159  156.340
  375.366    7.777    0.409    0.228   95.287  156.887
  375.616    7.964    0.405    0.219   90.707  157.331
  375.866    8.384    0.406    0.212   84.202  157.770
  376.116    9.158    0.392    0.231   75.836  158.103
  376.366   10.400    0.404    0.251   69.889  158.435
  376.616   12.810    0.419    0.270   58.233  158.455
  376.866   15.150    0.420    0.291   50.115  158.267
  377.116   18.116    0.410    0.303   49.259  157.866
  377.366   19.974    0.411    0.312   49.520  157.152
  377.616   20.042    0.416    0.300   49.593  156.854
  377.866   18.404    0.423    0.292   48.860  156.454
  378.116   15.437    0.414    0.294   47.072  156.053
  378.366   13.215    0.399    0.292   45.594  155.238
  378.616   10.584    0.388    0.292   43.371  154.730
  378.866    9.315    0.372    0.297   53.810  154.014
  379.116    8.413    0.351    0.301   74.364  153.615
  379.366    7.445    0.362    0.260   90.326  153.531
  379.616    6.964    0.372    0.222   97.476  153.657
  379.866    6.538    0.379    0.153  103.507  154.094
  380.116    6.218    0.396    0.166  106.622  155.170
  380.366    6.024    0.423    0.191  104.400  155.925
  380.616    5.923    0.425    0.184  103.605  156.676
  380.866    5.824    0.413    0.196  105.790  157.536
  381.116    5.642    0.418    0.201  107.539  159.033
  381.366    5.386    0.425    0.207  107.303  160.101
  381.616    5.056    0.439    0.199  105.949  161.487
  381.866    4.450    0.457    0.219  104.161  162.664
  382.116    4.101    0.466    0.236  117.454  162.788
  382.366    3.690    0.486    0.179  123.113  162.389
  382.616    3.376    0.538    0.140  122.256  161.883
  382.866    3.146    0.551    0.129  121.710  161.169
  383.116    2.982    0.540    0.130  122.467  160.660
  383.366    2.857    0.556    0.144  123.224  159.634
  383.616    2.819    0.565    0.158  124.476  158.811
  383.866    2.876    0.571    0.160  127.901  157.989
  384.116    2.940    0.579    0.156  135.360  156.963
  384.366    3.044    0.580    0.215  138.537  156.662
  384.616    3.216    0.557    0.225  136.563  156.576
  384.866    3.455    0.536    0.201  130.431  157.341
  385.116    3.767    0.518    0.212  124.236  157.778
  385.366    4.216    0.469    0.241  119.409  158.639
  385.616    4.958    0.439    0.227  119.731  159.815
  385.866    5.307    0.436    0.222  120.362  161.518
  386.116    5.618    0.439    0.238  113.734  164.264
  386.366    6.058    0.447    0.221  104.623  172.167
  386.616    6.533    0.444    0.293   93.588  175.130
  386.866    7.870    0.426    0.305   75.230  172.840
  387.116    8.741    0.397    0.300   67.732  168.023
  387.366    9.000    0.407    0.264   73.267  162.371
  387.616    9.031    0.407    0.255   79.671  160.076
  387.866    8.814    0.401    0.240   93.151  158.415
  388.116    8.064    0.412    0.221  105.637  157.804
  388.366    7.487    0.447    0.213  108.317  156.888
  388.616    7.121    0.467    0.235  102.247  156.586
  388.866    6.950    0.481    0.250   94.253  156.289
  389.116    6.846    0.475    0.264   87.812  156.100
  389.366    6.793    0.440    0.265   84.098  156.226
  389.616    6.581    0.419    0.236   85.724  156.249
  389.866    6.423    0.408    0.241   89.398  156.372
  390.116    6.245    0.431    0.225   94.436  156.394
  390.366    6.141    0.473    0.257   87.684  156.412
  390.616    5.949    0.471    0.296   79.193  156.539
  390.866    5.753    0.470    0.297   72.441  156.554
  391.116    5.584    0.484    0.307   67.922  156.890
  391.366    5.500    0.492    0.321   65.638  157.225
  391.616    5.398    0.490    0.327   64.842  157.984
  391.866    5.307    0.483    0.322   66.282  158.422
  392.116    5.237    0.438    0.314   70.888  159.389
  392.366    5.236    0.447    0.311   74.375  160.458
  392.616    5.273    0.448    0.310   77.924  161.742
  392.866    5.330    0.449    0.297   81.783  161.971
