~VERSION INFORMATION
 VERS.                 2.0:   CWLS LOG ASCII STANDARD -VERSION 2.0
 WRAP.                  NO:   ONE LINE PER DEPTH STEP
~WELL INFORMATION BLOCK
#MNEM.UNIT           DATA                    DESCRIPTION OF MNEMONIC
#---------    -------------------            -------------------------------
# Generated from Intellog Unique Number	CC_80_83/WELL/2346
NULL.         -999.25                        : NULL_VALUE
WELL.         PEX PCEJ ALGAR                 : Well_name    - WELL              
LOC .         10-11-080-09W4                 : Location     - LOCATION          
UWI .         00/10-11-080-09W400            : Uwi          - UNIQUE WELL ID    
ENTR.         DW                             : Entered      - ENTERED BY        
SRVC.         SCHLUMBERGER                   : Scn          - SERVICE COMPANY   
DATE.         15 JAN 81                      : Date         - LOG DATE
STRT.M        265                            : top_depth    - START DEPTH       
STOP.M        480.091                        : bot_depth    - STOP DEPTH        
STEP.M        0.3                            : increment    - STEP LENGTH       
~CURVE INFORMATION BLOCK
#MNEM UNIT       ERCB CURVE CODE    CURVE DESCRIPTION
#-----------   ------------------   ----------------------------------
DEPT.M        00 001 00 00         : DEPTH        - DEPTH                       
DPHI.V/V      00 890 00 00         : PHID         - DENSITY POROSITY (LIMESTONE)
NPHI.V/V      00 330 00 00         : PHIN         - NEUTRON POROSITY (LIMESTONE)
GR  .API      00 310 00 00         : GR           - GAMMA RAY                   
ILD .OHMM     00 120 00 00         : RESD         - DEEP RESISTIVITY (DIL)      
~PARAMETER INFORMATION       
#MNEM.UNIT           DATA             DESCRIPTION OF MNEMONIC
#---------         -----------     ------------------------------
GL  .M        712                  : gl           - GROUND LEVEL ELEVATION      
EREF.M        715.4                : kb           - ELEVATION OF DEPTH REFERENCE
DATM.M        715.4                : datum        - DATUM ELEVATION             
TDD .M        489                  : tdd          - TOTAL DEPTH DRILLER         
RUN .         ONE                  : Run          - RUN NUMBER                  
ENG .         BILL                 : Engineer     - RECORDING ENGINEER          
WIT .         JIM                  : Witness      - WITNESSED BY                
MUD .         GEL                  : Mud_type     - MUD TYPE                    
MATR.         LIMESTONE            : Logunit      - NEUTRON MATRIX              
TMAX.C        27                   : BHT          - MAXIMUM RECORDED TEMPERATURE
BHTD.M        490                  : BHTDEP       - MAXIMUM RECORDED TEMPERATURE
MATR.         1                    : LOGUNIT      - NEUTRON MATRIX              
RMT .C        25                   : MDTP         - TEMPERATURE OF MUD          
NEUT.         1                    : NEUTRON      - NEUTRON TYPE                
RESI.         0                    : RESIST       - RESISTIVITY TYPE            
RMC .OHMM     0.25                 : RMC          - RESISTIVITY OF MUD CAKE     
RMF .OHMM     0.25                 : RMF          - RESISTIVITY OF MUD FILTRATE 
SUFT.C        15                   : SUFT         - SURFACE TEMPERATURE         
~A  DEPTH     PHID     PHIN       GR     RESD
# ...
  421.594    0.246    0.481   90.319    4.958
  421.894    0.295    0.480   85.460    4.099
  422.194    0.315    0.458   91.624    3.325
  422.494    0.349    0.466   93.337    2.747
  422.794    0.393    0.491   83.522    2.402
  423.094    0.404    0.514   78.976    2.266
  423.394    0.397    0.525   72.838    2.258
  423.694    0.427    0.524   69.368    2.341
  423.994    0.414    0.562   72.848    2.713
  424.294    0.391    0.564   75.316    3.266
  424.594    0.375    0.525   77.841    3.931
  424.893    0.338    0.490   77.054    4.473
  425.193    0.305    0.459   80.835    5.383
  425.493    0.302    0.408   84.050    6.360
  425.793    0.301    0.431   79.945    7.235
  426.093    0.353    0.464   74.142    7.215
  426.393    0.341    0.485   79.114    6.551
  426.693    0.315    0.485   77.953    5.518
  426.993    0.337    0.463   85.241    4.735
  427.293    0.354    0.456   87.020    4.382
  427.593    0.363    0.491   88.738    4.131
  427.893    0.351    0.499   88.757    3.966
  428.193    0.313    0.485   83.461    4.032
  428.493    0.313    0.491   89.620    4.020
  428.793    0.313    0.476   95.539    3.939
  429.093    0.308    0.480   92.617    3.784
  429.393    0.312    0.460   92.011    3.632
  429.693    0.309    0.484  101.294    3.625
  429.993    0.303    0.472  101.393    3.896
  430.293    0.314    0.440   95.464    4.037
  430.593    0.306    0.433   97.939    4.261
  430.893    0.284    0.435   92.882    4.409
  431.193    0.266    0.418   98.488    4.568
  431.493    0.288    0.396   96.508    5.007
  431.793    0.295    0.404   89.447    5.697
  432.093    0.280    0.426   84.215    6.012
  432.393    0.263    0.440   83.549    5.885
  432.693    0.274    0.422   86.827    5.758
  432.993    0.180    0.397   88.796    6.311
  433.293    0.235    0.362   85.874    7.317
  433.593    0.266    0.378   86.139    8.809
  433.893    0.291    0.369   81.162    9.648
  434.193    0.307    0.354   69.722    8.125
  434.493    0.310    0.373   62.104    7.238
  434.793    0.316    0.377   57.680    7.223
  435.093    0.322    0.337   65.097    7.769
  435.393    0.320    0.337   70.567    9.526
  435.693    0.314    0.362   60.069   11.688
  435.993    0.309    0.358   68.364   15.452
  436.293    0.300    0.384   72.646   15.412
  436.593    0.296    0.372   78.558   17.863
  436.893    0.296    0.368   74.887   21.103
  437.193    0.297    0.373   79.424   24.008
  437.493    0.299    0.365   76.066   26.314
  437.793    0.298    0.359   60.367   27.249
  438.093    0.289    0.371   68.784   26.170
  438.393    0.277    0.365   71.246   24.215
  438.693    0.277    0.357   76.727   21.582
  438.993    0.282    0.371   81.011   19.230
  439.293    0.281    0.387   94.126   17.788
  439.593    0.259    0.396   93.331   16.770
  439.893    0.254    0.379   90.853   15.232
  440.193    0.239    0.380   96.952   13.573
  440.493    0.228    0.393  100.548   11.217
  440.793    0.232    0.406  120.620    9.448
  441.093    0.243    0.408  129.919    8.417
  441.393    0.248    0.406  122.236    7.937
  441.693    0.259    0.395  110.481    8.220
  441.993    0.252    0.385  105.871    9.353
  442.293    0.254    0.364  105.444   11.257
  442.593    0.270    0.330  101.722   13.293
  442.893    0.266    0.331   88.153   14.843
  443.193    0.268    0.348   80.910   16.572
  443.493    0.305    0.354   83.873   18.157
  443.793    0.321    0.346   88.097   18.809
  444.093    0.317    0.328   93.508   20.598
  444.393    0.302    0.350   75.181   22.148
  444.693    0.306    0.349   66.309   23.831
  444.993    0.318    0.356   60.066   27.629
  445.293    0.312    0.360   65.605   34.531
  445.593    0.288    0.352   48.775   35.099
  445.893    0.261    0.338   59.756   30.680
  446.193    0.261    0.339   66.680   26.826
  446.493    0.282    0.341   79.794   27.281
  446.793    0.315    0.349   85.585   32.826
  447.093    0.310    0.338   68.380   38.786
  447.393    0.298    0.357   50.989   40.930
  447.693    0.289    0.347   53.831   36.462
  447.993    0.280    0.339   47.529   29.033
  448.293    0.281    0.329   61.270   19.519
  448.593    0.281    0.350   74.831   16.434
  448.893    0.271    0.346   80.618   15.201
  449.193    0.279    0.355   76.630   16.048
  449.492    0.300    0.344   70.451   21.623
  449.792    0.306    0.335   61.082   27.027
  450.092    0.312    0.355   35.417   44.775
  450.392    0.311    0.347   30.494   78.491
  450.692    0.301    0.367   33.399   76.802
  450.992    0.300    0.365   41.315   82.572
  451.292    0.294    0.354   41.970   88.847
  451.592    0.268    0.341   37.354   95.521
  451.892    0.271    0.353   39.004  114.999
  452.192    0.310    0.362   37.655  140.991
  452.492    0.326    0.374   37.860  135.499
  452.792    0.320    0.380   34.820  109.904
  453.092    0.318    0.365   31.276   90.825
  453.392    0.318    0.365   32.551   87.263
  453.692    0.321    0.373   27.943   87.015
  453.992    0.317    0.364   25.583   83.562
  454.292    0.313    0.370   33.368   73.105
  454.592    0.300    0.370   39.605   35.045
  454.892    0.300    0.382   50.466   23.116
  455.192    0.311    0.417   69.221   17.718
  455.492    0.317    0.403   81.460   14.926
  455.792    0.318    0.390   76.538   14.063
  456.092    0.285    0.368   79.253   14.302
  456.392    0.277    0.348   68.559   15.085
  456.692    0.292    0.353   61.198   14.230
  456.992    0.295    0.391   76.067   13.415
  457.292    0.293    0.382   84.360   13.368
  457.592    0.294    0.403   84.010   12.852
  457.892    0.324    0.406   86.352   11.454
  458.192    0.326    0.411   91.009    9.826
  458.492    0.307    0.405   98.866    8.435
  458.792    0.298    0.388  109.292    7.661
  459.092    0.256    0.377  117.147    7.221
  459.392    0.257    0.358  112.599    7.479
  459.692    0.290    0.368   99.530    8.350
  459.992    0.311    0.363   90.093    9.321
  460.292    0.316    0.357   68.252   10.214
  460.592    0.308    0.364   50.984   12.526
  460.892    0.302    0.364   45.243   14.258
  461.192    0.281    0.339   43.516   19.206
  461.492    0.269    0.358   49.054   21.842
  461.792    0.268    0.349   70.809   22.212
  462.092    0.253    0.361   77.797   18.708
  462.392    0.241    0.381   67.857   17.966
  462.692    0.293    0.373   63.311   19.683
  462.992    0.305    0.388   61.954   20.775
  463.292    0.274    0.363   61.602   21.113
  463.592    0.238    0.341   66.076   16.191
  463.892    0.210    0.349   83.514   12.652
  464.192    0.233    0.375  105.340   11.268
  464.492    0.271    0.384   99.281   11.667
  464.792    0.296    0.379   78.263   13.035
  465.092    0.312    0.378   60.369   19.657
  465.392    0.318    0.374   70.042   31.950
  465.692    0.317    0.367   59.286   37.757
  465.992    0.303    0.361   55.551   36.937
  466.292    0.308    0.354   55.770   29.425
  466.592    0.257    0.351   74.776   16.698
  466.892    0.273    0.362  113.327   10.023
  467.192    0.274    0.374  115.730    9.276
  467.492    0.258    0.382   99.278    9.784
  467.792    0.282    0.361   86.149   10.726
  468.092    0.309    0.381   56.037   13.916
  468.392    0.341    0.386   49.478   18.758
  468.692    0.313    0.370   47.565   25.742
  468.992    0.264    0.353   69.943   26.674
  469.292    0.259    0.341   84.638   22.882
  469.592    0.255    0.333   77.647   18.566
  469.892    0.253    0.319   72.347   13.703
  470.192    0.254    0.327   69.741   12.924
  470.492    0.280    0.350   54.286   13.383
  470.792    0.313    0.364   42.475   14.395
  471.092    0.342    0.343   32.476   17.987
  471.392    0.349    0.353   21.598   27.131
  471.692    0.349    0.352   22.552   74.672
  471.992    0.349    0.347   24.780   91.545
  472.292    0.343    0.342   21.913   96.652
  472.592    0.324    0.329   23.071   86.128
  472.892    0.298    0.312   31.233   39.748
  473.192    0.254    0.272   33.019   22.139
  473.492    0.205    0.190   40.310   17.623
