~VERSION INFORMATION
 VERS.                 2.0:   CWLS LOG ASCII STANDARD -VERSION 2.0
 WRAP.                  NO:   ONE LINE PER DEPTH STEP
~WELL INFORMATION BLOCK
#MNEM.UNIT           DATA                    DESCRIPTION OF MNEMONIC
#---------    -------------------            -------------------------------
# Generated from Intellog Unique Number	CS_71_72/WELL/887
WELL.         AMOCO AEC IPIATIK KIRBY        : Well_name    - WELL
LOC .         00/11-06-072-05W4/0            : Location     - LOCATION
UWI .         00/11-06-072-05W4/0            : Uwi          - UNIQUE WELL ID
ENTR.         SP                             : Entered      - ENTERED BY
SRVC.         SCHLUMBERGER                   : Scn          - SERVICE COMPANY
STRT.M        295                            : top_depth    - START DEPTH
STOP.M        535                            : bot_depth    - STOP DEPTH
STEP.M        0.25                           : increment    - STEP LENGTH
 NULL. -999.2500:NULL Value
~CURVE INFORMATION BLOCK
#MNEM UNIT       ERCB CURVE CODE    CURVE DESCRIPTION
#-----------   ------------------   ----------------------------------
DEPT.M        00 001 00 00         : DEPTH        - DEPTH
ILD .OHMM     00 120 00 00         : RESD         - DEEP RESISTIVITY (DIL)
DPHI.V/V      00 890 00 00         : PHID         - DENSITY POROSITY (LIMESTONE)
NPHI.V/V      00 330 00 00         : PHIN         - NEUTRON POROSITY (LIMESTONE)
GR  .API      00 310 00 00         : GR           - GAMMA RAY
~PARAMETER INFORMATION
#MNEM.UNIT           DATA             DESCRIPTION OF MNEMONIC
#---------         -----------     ------------------------------
GL  .M        668.3                : gl           - GROUND LEVEL ELEVATION
EREF.M        673.01               : kb           - ELEVATION OF DEPTH REFERENCE
DATM.M        668.3                : datum        - DATUM ELEVATION
TDD .M        562                  : tdd          - TOTAL DEPTH DRILLER
RUN .         ONE                  : Run          - RUN NUMBER
ENG .         BILL                 : Engineer     - RECORDING ENGINEER
WIT .         JIM                  : Witness      - WITNESSED BY
MUD .         GEL                  : Mud_type     - MUD TYPE
MATR.         LIMESTONE            : Logunit      - NEUTRON MATRIX
TMAX.C        20                   : BHT          - MAXIMUM RECORDED TEMPERATURE
BHTD.M        5622                 : BHTDEP       - MAXIMUM RECORDED TEMPERATURE
MATR.         1                    : LOGUNIT      - NEUTRON MATRIX
RMT .C        25                   : MDTP         - TEMPERATURE OF MUD
NEUT.         1                    : NEUTRON      - NEUTRON TYPE
RESI.         0                    : RESIST       - RESISTIVITY TYPE
RMC .OHMM     0.25                 : RMC          - RESISTIVITY OF MUD CAKE
RMF .OHMM     0.25                 : RMF          - RESISTIVITY OF MUD FILTRATE
SUFT.C        15                   : SUFT         - SURFACE TEMPERATURE
~A  DEPTH     RESD     PHID     PHIN       GR
# ...
  382.000    2.985    0.214    0.459   98.887
  382.250    3.098    0.217    0.464   96.475
  382.500    3.402    0.215    0.470   95.872
  382.750    3.597    0.220    0.477   93.460
  383.000    3.665    0.233    0.482   85.025
  383.250    3.665    0.256    0.474   79.602
  383.500    3.531    0.279    0.482   75.384
  383.750    3.156    0.297    0.484   73.575
  384.000    3.041    0.296    0.469   71.767
  384.250    2.875    0.284    0.454   68.150
  384.500    2.770    0.282    0.444   68.149
  384.750    2.668    0.290    0.447   68.750
  385.000    2.619    0.295    0.461   68.146
  385.250    2.619    0.297    0.477   68.144
  385.500    2.618    0.294    0.480   70.553
  385.750    2.618    0.288    0.461   72.961
  386.000    2.618    0.288    0.449   73.562
  386.250    2.618    0.285    0.466   73.560
  386.500    2.618    0.279    0.480   72.957
  386.750    2.718    0.280    0.484   72.353
  387.000    2.718    0.297    0.469   69.339
  387.250    2.718    0.306    0.444   66.325
  387.500    2.718    0.313    0.432   65.722
  387.750    2.717    0.302    0.459   65.118
  388.000    2.667    0.295    0.466   68.731
  388.250    2.667    0.287    0.466   74.151
  388.500    2.667    0.251    0.468   78.367
  388.750    2.667    0.256    0.469   81.979
  389.000    2.717    0.268    0.459   83.183
  389.250    2.928    0.284    0.468   80.772
  389.500    3.096    0.285    0.455   77.156
  389.750    3.275    0.257    0.443   76.552
  390.000    3.463    0.262    0.448   73.538
  390.250    3.528    0.291    0.461   71.730
  390.500    3.732    0.301    0.454   71.728
  390.750    3.874    0.299    0.442   76.546
  391.000    4.021    0.295    0.444   81.364
  391.250    4.096    0.285    0.454   87.387
  391.500    4.252    0.261    0.470   92.807
  391.750    4.332    0.236    0.487   87.986
  392.000    4.668    0.253    0.515   78.346
  392.250    4.756    0.259    0.494   74.730
  392.500    5.030    0.253    0.464   71.114
  392.750    5.221    0.254    0.448   70.510
  393.000    5.319    0.262    0.446   72.919
  393.250    5.522    0.274    0.459   75.326
  393.500    5.626    0.282    0.472   75.325
  393.750    5.731    0.300    0.464   74.721
  394.000    5.839    0.301    0.447   74.719
  394.250    5.839    0.287    0.455   75.923
  394.500    5.731    0.278    0.464   76.524
  394.750    5.625    0.283    0.474   75.318
  395.000    5.318    0.277    0.481   78.931
  395.250    4.936    0.270    0.485   84.351
  395.500    4.580    0.262    0.504   89.169
  395.750    4.251    0.248    0.538   92.782
  396.000    3.800    0.237    0.539   94.588
  396.250    3.593    0.238    0.540   98.803
  396.500    3.461    0.242    0.544  102.416
  396.750    3.334    0.240    0.548  105.426
  397.000    3.334    0.242    0.533  108.437
  397.250    3.212    0.244    0.520  107.231
  397.500    3.152    0.249    0.515  108.434
  397.750    3.094    0.257    0.531  113.854
  398.000    3.152    0.257    0.547  109.033
  398.250    3.592    0.253    0.562  103.008
  398.500    3.799    0.244    0.582   96.380
  398.750    4.494    0.238    0.523   91.560
  399.000    5.218    0.251    0.506   84.329
  399.250    6.408    0.255    0.500   89.749
  399.500    7.034    0.254    0.492   91.555
  399.750    7.302    0.247    0.482   92.156
  400.000    7.167    0.241    0.475   93.962
  400.250    7.166    0.241    0.485   93.358
  400.500    7.166    0.236    0.483   89.742
  400.750    7.034    0.232    0.470   89.741
  401.000    7.033    0.244    0.463   87.329
  401.250    7.033    0.254    0.459   86.725
  401.500    7.033    0.250    0.462   89.736
  401.750    6.775    0.234    0.469   91.542
  402.000    6.057    0.222    0.465   92.745
  402.250    5.415    0.213    0.456   92.141
  402.500    5.315    0.208    0.451   90.935
  402.750    5.120    0.198    0.448   93.343
  403.000    5.415    0.193    0.454   96.354
  403.250    5.621    0.213    0.463   99.966
  403.500    5.726    0.220    0.470  101.170
  403.750    5.726    0.225    0.475  102.373
  404.000    5.620    0.210    0.481  103.576
  404.250    5.216    0.202    0.505  103.575
  404.500    4.840    0.215    0.525  102.971
  404.750    4.663    0.221    0.527  102.969
  405.000    4.327    0.221    0.531  102.969
  405.250    4.091    0.220    0.541  104.171
  405.500    3.868    0.220    0.550  105.375
  405.750    3.726    0.220    0.536  105.976
  406.000    3.657    0.226    0.530  105.372
  406.250    3.590    0.236    0.526  103.563
  406.500    3.590    0.241    0.535  101.755
  406.750    3.590    0.245    0.525  104.163
  407.000    3.589    0.249    0.525  104.764
  407.250    3.589    0.260    0.539  104.160
  407.500    3.589    0.270    0.547  107.773
  407.750    3.458    0.277    0.558  108.976
  408.000    3.394    0.272    0.567  107.168
  408.250    3.394    0.256    0.527  101.745
  408.500    3.589    0.238    0.492   95.117
  408.750    4.014    0.228    0.467   92.103
  409.000    4.245    0.236    0.468   95.716
  409.250    4.838    0.236    0.474   93.907
  409.500    5.022    0.227    0.482   90.291
  409.750    5.411    0.233    0.507   89.085
  410.000    5.411    0.244    0.509   92.698
  410.250    5.411    0.253    0.496   94.504
  410.500    5.116    0.258    0.516   89.683
  410.750    5.021    0.253    0.525   84.260
  411.000    5.021    0.266    0.484   80.644
  411.250    4.928    0.270    0.468   78.836
  411.500    5.021    0.241    0.476   72.207
  411.750    5.616    0.028    0.488   64.977
  412.000    6.521    0.011    0.229   58.952
  412.250    7.714   -0.003    0.216   59.552
  412.500    8.628    0.054    0.349   66.178
  412.750    9.650    0.101    0.414   72.200
  413.000   10.206    0.220    0.441   74.006
  413.250   10.017    0.270    0.435   75.812
  413.500    9.124    0.287    0.429   78.822
  413.750    8.467    0.294    0.467   78.219
  414.000    7.712    0.299    0.507   74.602
  414.250    6.895    0.295    0.508   72.191
  414.500    6.164    0.305    0.485   70.383
  414.750    5.720    0.321    0.479   77.007
  415.000    5.614    0.317    0.481   79.416
  415.250    5.614    0.311    0.476   76.403
  415.500    5.720    0.306    0.485   73.389
  415.750    6.049    0.301    0.501   70.978
  416.000    6.279    0.292    0.492   77.603
  416.250    6.398    0.280    0.484   83.022
  416.500    6.518    0.269    0.474   84.829
  416.750    6.641    0.253    0.482   87.237
  417.000    6.641    0.270    0.474   84.826
  417.250    6.518    0.270    0.470   86.632
  417.500    6.397    0.248    0.470   89.642
  417.750    6.162    0.233    0.475   90.845
  418.000    6.048    0.241    0.465   90.844
  418.250    6.162    0.261    0.461   89.035
  418.500    6.396    0.263    0.445   86.624
  418.750    6.765    0.269    0.436   83.611
  419.000    6.892    0.264    0.445   80.597
  419.250    7.154    0.249    0.453   79.994
  419.500    7.154    0.225    0.439   84.811
  419.750    7.288    0.229    0.435   87.822
  420.000    7.154    0.236    0.456   88.423
  420.250    6.891    0.235    0.461   86.614
  420.500    6.516    0.246    0.450   88.420
  420.750    6.161    0.253    0.457   88.418
  421.000    5.508    0.249    0.476   87.212
  421.250    5.017    0.252    0.486   84.198
  421.500    4.656    0.252    0.496   87.811
  421.750    4.010    0.270    0.513   93.232
  422.000    3.721    0.280    0.519   96.242
  422.250    3.145    0.270    0.537   94.433
  422.500    2.865    0.268    0.550   95.034
  422.750    2.659    0.265    0.531   95.635
  423.000    2.422    0.270    0.548   96.838
  423.250    2.290    0.280    0.564   98.042
  423.500    2.206    0.277    0.558   99.848
  423.750    2.206    0.269    0.557  101.051
  424.000    2.247    0.263    0.552  101.652
  424.250    2.290    0.257    0.544  101.651
  424.500    2.377    0.254    0.536  100.444
  424.750    2.467    0.254    0.534   98.636
  425.000    2.658    0.258    0.548   94.417
  425.250    2.759    0.259    0.540   92.609
