~VERSION INFORMATION
 VERS.                 2.0:   CWLS LOG ASCII STANDARD -VERSION 2.0
 WRAP.                  NO:   ONE LINE PER DEPTH STEP
~WELL INFORMATION BLOCK
#MNEM.UNIT           DATA                    DESCRIPTION OF MNEMONIC
#---------    -------------------            -------------------------------
# Generated from Intellog Unique Number	CW_70_72/WELL/1068
NULL.         -999.25                        : NULL_VALUE
WELL.         WESTMIN SMITH 14-35            : Well_name    - WELL              
LOC .         14-35-071-24W4                 : Location     - LOCATION          
UWI .         00/14-35-071-24W4/0            : Uwi          - UNIQUE WELL ID    
ENTR.         JAYE                           : Entered      - ENTERED BY        
SRVC.         WESTERN ATLAS                  : Scn          - SERVICE COMPANY   
DATE.         7 MAR 83                       : Date         - LOG DATE          
STRT.M        423                            : top_depth    - START DEPTH       
STOP.M        627                            : bot_depth    - STOP DEPTH        
STEP.M        0.25                           : increment    - STEP LENGTH       
~CURVE INFORMATION BLOCK
#MNEM UNIT       ERCB CURVE CODE    CURVE DESCRIPTION
#-----------   ------------------   ----------------------------------
DEPT.M        00 001 00 00         : DEPTH        - DEPTH                       
DPHI.V/V      00 890 00 00         : PHID         - DENSITY POROSITY (SANDSTONE)
NPHI.V/V      00 330 00 00         : PHIN         - NEUTRON POROSITY (SANDSTONE)
GR  .API      00 310 00 00         : GR           - GAMMA RAY                   
CALI.MM       00 280 01 00         : CAL          - CALIPER                     
ILD .OHMM     00 120 00 00         : RESD         - DEEP RESISTIVITY (DIL)      
~PARAMETER INFORMATION       
#MNEM.UNIT           DATA             DESCRIPTION OF MNEMONIC
#---------         -----------     ------------------------------
GL  .M        655.8                : gl           - GROUND LEVEL ELEVATION      
EREF.M        659                  : kb           - ELEVATION OF DEPTH REFERENCE
DATM.M        655.8                : datum        - DATUM ELEVATION             
TDD .M        651                  : tdd          - TOTAL DEPTH DRILLER         
RUN .         ONE                  : Run          - RUN NUMBER                  
ENG .         PETERSON             : Engineer     - RECORDING ENGINEER          
WIT .         OVERWATER            : Witness      - WITNESSED BY                
MUD .         GEL CHEM             : Mud_type     - MUD TYPE                    
MATR.         SANDSTONE            : Logunit      - NEUTRON MATRIX              
TMAX.C        22                   : BHT          - MAXIMUM RECORDED TEMPERATURE
BHTD.M        651.3                : BHTDEP       - MAXIMUM RECORDED TEMPERATURE
RMT .C        12                   : MDTP         - TEMPERATURE OF MUD          
MUDD.KG/M     1120                 : MWT          - MUD DENSITY                 
NEUT.         1                    : NEUTRON      - NEUTRON TYPE                
RESI.         0                    : RESIST       - RESISTIVITY TYPE            
RM  .OHMM     5                    : RM           - RESISTIVITY OF MUD          
RMC .OHMM     4.7                  : RMC          - RESISTIVITY OF MUD CAKE     
RMF .OHMM     4.5                  : RMF          - RESISTIVITY OF MUD FILTRATE 
SUFT.C        0                    : SUFT         - SURFACE TEMPERATURE         
~A  DEPTH     PHID     PHIN       GR      CAL     RESD
# ...
  459.500    0.289    0.387   85.595  160.281    3.141
  459.750    0.280    0.392   84.443  160.438    3.284
  460.000    0.283    0.398   83.850  160.802    3.446
  460.250    0.278    0.405   84.999  160.959    3.589
  460.500    0.262    0.411   89.560  161.216    3.752
  460.750    0.244    0.412   96.296  160.947    3.907
  461.000    0.234    0.408  100.548  161.317    4.092
  461.250    0.226    0.398  103.248  162.312    4.302
  461.500    0.235    0.389  106.070  164.574    4.514
  461.750    0.222    0.377  108.586  164.622    4.571
  462.000    0.203    0.373  111.408  162.566    4.577
  462.250    0.184    0.375  114.356  160.922    4.557
  462.500    0.171    0.382  119.729  159.489    4.529
  462.750    0.168    0.387  125.157  159.643    4.483
  463.000    0.188    0.386  127.115  164.337    4.365
  463.250    0.194    0.385  122.170  167.556    4.241
  463.500    0.187    0.381  112.016  169.823    4.068
  463.750    0.201    0.378  105.893  170.611    3.938
  464.000    0.193    0.385  106.605  169.809    3.885
  464.250    0.196    0.386  110.050  167.434    3.889
  464.500    0.216    0.382  108.897  166.530    3.983
  464.750    0.242    0.378  102.842  165.521    4.140
  465.000    0.264    0.369   97.900  164.201    4.493
  465.250    0.263    0.360   94.947  162.244    4.941
  465.500    0.256    0.345   91.994  161.237    5.322
  465.750    0.234    0.319   86.371  160.861    5.605
  466.000    0.207    0.300   84.597  161.235    5.687
  466.250    0.169    0.287   84.254  161.272    5.694
  466.500    0.140    0.296   86.831  161.325    5.648
  466.750    0.189    0.335   92.074  161.491    5.377
  467.000    0.211    0.359   96.265  161.643    5.051
  467.250    0.203    0.382   95.175  161.800    4.836
  467.500    0.194    0.397   96.451  161.746    4.717
  467.750    0.181    0.398   98.278  161.792    4.670
  468.000    0.166    0.395  100.790  161.626    4.615
  468.250    0.154    0.391  105.103  161.461    4.577
  468.500    0.141    0.385  106.746  161.506    4.515
  468.750    0.160    0.381  104.974  161.552    4.363
  469.000    0.191    0.379   98.790  161.703    4.255
  469.250    0.204    0.380   93.851  161.972    4.104
  469.500    0.221    0.385   91.581  162.016    3.981
  469.750    0.230    0.383   91.797  162.380    3.868
  470.000    0.240    0.388   93.564  162.428    3.801
  470.250    0.229    0.396   97.445  162.473    3.820
  470.500    0.215    0.392   97.347  162.420    3.861
  470.750    0.221    0.385   96.817  162.160    3.939
  471.000    0.236    0.378   95.542  161.877    4.026
  471.250    0.235    0.368   93.458  161.715    4.193
  471.500    0.227    0.367   93.551  161.765    4.458
  471.750    0.222    0.372   94.572  162.349    4.847
  472.000    0.227    0.366   96.773  162.395    5.290
  472.250    0.227    0.358   99.224  162.451    5.785
  472.500    0.217    0.347   96.147  162.297    6.313
  472.750    0.189    0.325   87.047  162.223    7.021
  473.000    0.133    0.297   79.497  162.383    7.478
  473.250    0.083    0.308   79.154  162.636    7.349
  473.500    0.092    0.318   85.086  162.687    6.879
  473.750    0.129    0.360   89.955  162.738    6.342
  474.000    0.172    0.383  102.655  162.787    5.560
  474.250    0.188    0.399  108.584  162.511    5.078
  474.500    0.148    0.414  106.065  162.134    4.834
  474.750    0.155    0.420  106.715  162.608    4.760
  475.000    0.161    0.429  107.987  163.501    4.712
  475.250    0.184    0.427  108.761  168.724    4.700
  475.500    0.184    0.425  107.546  169.406    4.628
  475.750    0.180    0.434  104.530  169.354    4.582
  476.000    0.239    0.446  100.770  168.982    4.562
  476.250    0.289    0.457   95.211  168.921    4.638
  476.500    0.389    0.469   87.785  168.865    4.749
  476.750    0.458    0.452   81.415  167.856    4.872
  477.000    0.480    0.429   71.942  166.420    4.896
  477.250    0.426    0.404   61.847  164.463    4.741
  477.500    0.341    0.376   52.620  163.034    4.437
  477.750    0.288    0.363   54.823  161.818    4.060
  478.000    0.276    0.353   57.275  161.246    3.779
  478.250    0.260    0.349   59.789  161.179    3.638
  478.500    0.252    0.348   59.877  161.223    3.503
  478.750    0.258    0.349   57.421  160.958    3.429
  479.000    0.272    0.350   55.403  161.006    3.351
  479.250    0.297    0.343   54.125  161.266    3.293
  479.500    0.296    0.344   53.596  161.106    3.242
  479.750    0.286    0.344   53.623  160.731    3.222
  480.000    0.281    0.343   54.647  160.153    3.244
  480.250    0.286    0.340   55.544  159.894    3.279
  480.500    0.284    0.334   54.952  159.824    3.345
  480.750    0.283    0.333   54.420  160.086    3.400
  481.000    0.283    0.332   55.135  160.125    3.469
  481.250    0.290    0.339   55.533  159.758    3.526
  481.500    0.298    0.341   55.190  159.380    3.610
  481.750    0.300    0.337   55.840  159.437    3.676
  482.000    0.294    0.333   56.426  159.480    3.723
  482.250    0.295    0.336   56.143  159.527    3.735
  482.500    0.287    0.339   56.609  159.580    3.767
  482.750    0.276    0.339   57.321  159.414    3.772
  483.000    0.270    0.335   55.982  159.358    3.763
  483.250    0.268    0.331   57.687  159.723    3.726
  483.500    0.270    0.329   56.908  159.871    3.696
  483.750    0.285    0.328   55.323  159.921    3.653
  484.000    0.293    0.327   56.903  160.083    3.596
  484.250    0.292    0.326   54.198  159.912    3.587
  484.500    0.283    0.326   54.103  159.964    3.585
  484.750    0.279    0.329   54.756  159.489    3.583
  485.000    0.278    0.332   55.526  158.893    3.561
  485.250    0.288    0.333   56.239  158.629    3.559
  485.500    0.295    0.332   56.890  159.317    3.550
  485.750    0.289    0.323   57.102  159.789    3.521
  486.000    0.285    0.320   58.126  160.250    3.480
  486.250    0.293    0.334   59.148  160.406    3.445
  486.500    0.324    0.342   59.176  160.352    3.411
  486.750    0.348    0.342   56.099  160.402    3.384
  487.000    0.342    0.342   54.949  160.235    3.350
  487.250    0.324    0.338   56.404  160.395    3.355
  487.500    0.302    0.331   55.938  160.339    3.390
  487.750    0.284    0.328   55.965  160.593    3.433
  488.000    0.287    0.331   56.492  160.656    3.463
  488.250    0.288    0.338   57.637  160.805    3.507
  488.500    0.281    0.339   58.722  160.744    3.518
  488.750    0.283    0.340   60.366  160.481    3.477
  489.000    0.287    0.340   64.494  160.518    3.404
  489.250    0.285    0.343   59.428  160.463    3.320
  489.500    0.291    0.345   60.015  160.620    3.238
  489.750    0.291    0.349   58.554  160.464    3.176
  490.000    0.297    0.352   57.340  160.520    3.133
  490.250    0.300    0.350   60.475  160.552    3.045
  490.500    0.299    0.350   61.870  160.295    2.997
  490.750    0.301    0.350   58.982  160.339    2.996
  491.000    0.309    0.351   56.895  160.384    3.022
  491.250    0.316    0.356   55.060  160.136    3.060
  491.500    0.324    0.356   54.221  160.261    3.134
  491.750    0.330    0.346   53.379  160.536    3.275
  492.000    0.326    0.333   52.602  160.901    3.649
  492.250    0.310    0.310   51.573  160.950    4.229
  492.500    0.268    0.275   50.359  160.989    5.204
  492.750    0.207    0.211   49.085  161.249    6.426
  493.000    0.144    0.176   45.947  161.397    8.071
  493.250    0.068    0.159   43.303  161.253    8.190
  493.500    0.043    0.151   41.408  161.189    7.314
  493.750    0.102    0.174   40.691  161.016    6.004
  494.000    0.153    0.229   42.459  160.961    5.146
  494.250    0.197    0.295   46.023  160.689    4.444
  494.500    0.227    0.316   49.532  159.577    3.816
  494.750    0.257    0.327   51.611  157.939    3.396
  495.000    0.278    0.332   52.073  157.881    3.245
  495.250    0.288    0.335   51.670  157.934    3.153
  495.500    0.295    0.335   52.321  157.555    3.145
  495.750    0.295    0.334   53.650  157.919    3.132
