~VERSION INFORMATION
 VERS.                 2.0:   CWLS LOG ASCII STANDARD -VERSION 2.0
 WRAP.                  NO:   ONE LINE PER DEPTH STEP
~WELL INFORMATION BLOCK
#MNEM.UNIT           DATA                    DESCRIPTION OF MNEMONIC
#---------    -------------------            -------------------------------
# Generated from Intellog Unique Number	CW_76_78/WELL/994
WELL.         11-06-076-22W4                 : Well_name    - WELL
LOC .         00/11-06-076-22W4/0            : Location     - LOCATION
UWI .         00/11-06-076-22W4/0            : Uwi          - UNIQUE WELL ID
ENTR.         JAYE                           : Entered      - ENTERED BY
SRVC.         SCHLUMBERGER                   : Scn          - SERVICE COMPANY
DATE.         19 DEC 72                      : Date         - LOG DATE
STRT.M        405.384                        : top_depth    - START DEPTH
STOP.M        643.134                        : bot_depth    - STOP DEPTH
STEP.M        0.25                           : increment    - STEP LENGTH
 NULL. -999.2500:NULL Value
~CURVE INFORMATION BLOCK
#MNEM UNIT       ERCB CURVE CODE    CURVE DESCRIPTION
#-----------   ------------------   ----------------------------------
DEPT.M        00 001 00 00         : DEPTH        - DEPTH
ILD .OHMM     00 120 00 00         : RESD         - DEEP RESISTIVITY (DIL)
NPHI.V/V      00 330 00 00         : PHIN         - NEUTRON POROSITY (SANDSTONE)
DPHI.V/V      00 890 00 00         : PHID         - DENSITY POROSITY (SANDSTONE)
GR  .API      00 310 00 00         : GR           - GAMMA RAY
CALI.MM       00 280 01 00         : CAL          - CALIPER
~PARAMETER INFORMATION
#MNEM.UNIT           DATA             DESCRIPTION OF MNEMONIC
#---------         -----------     ------------------------------
GL  .M        697.809              : gl           - GROUND LEVEL ELEVATION
EREF.M        701.04               : kb           - ELEVATION OF DEPTH REFERENCE
DATM.M        697.809              : datum        - DATUM ELEVATION
TDD .M        644.957              : tdd          - TOTAL DEPTH DRILLER
RUN .         ONE                  : Run          - RUN NUMBER
MATR.         SANDSTONE            : Logunit      - NEUTRON MATRIX
TMAX.C        30                   : BHT          - MAXIMUM RECORDED TEMPERATURE
BHTD.M        644.957              : BHTDEP       - MAXIMUM RECORDED TEMPERATURE
RMT .C        17.7778              : MDTP         - TEMPERATURE OF MUD
MUDD.KG/M     0                    : MWT          - MUD DENSITY
NEUT.         1                    : NEUTRON      - NEUTRON TYPE
RESI.         0                    : RESIST       - RESISTIVITY TYPE
RM  .OHMM     2.33                 : RM           - RESISTIVITY OF MUD
RMC .OHMM     0                    : RMC          - RESISTIVITY OF MUD CAKE
RMF .OHMM     2.71                 : RMF          - RESISTIVITY OF MUD FILTRATE
SUFT.C        -17.7778             : SUFT         - SURFACE TEMPERATURE
~A  DEPTH     RESD     PHIN     PHID       GR      CAL
# ...
  551.384    9.112    0.286    0.034   70.055  226.374
  551.634    7.811    0.441    0.111   74.145  226.987
  551.884    7.153    0.457    0.138   74.566  227.286
  552.134    6.647    0.470    0.161   77.252  227.380
  552.384    6.215    0.492    0.185   83.175  226.956
  552.634    6.190    0.438    0.196   85.187  226.326
  552.884    6.235    0.434    0.170   86.893  225.800
  553.134    6.258    0.439    0.139   94.161  225.585
  553.384    6.270    0.418    0.123   90.855  225.576
  553.634    6.281    0.411    0.131   82.170  225.876
  553.884    6.199    0.433    0.148   80.758  226.694
  554.134    6.047    0.445    0.138   83.748  227.204
  554.384    5.947    0.445    0.122   89.121  227.711
  554.634    5.924    0.459    0.128   86.182  228.425
  554.884    5.966    0.435    0.151   86.910  228.831
  555.134    6.078    0.441    0.158   90.450  229.133
  555.384    6.212    0.448    0.160   88.977  229.124
  555.634    6.411    0.439    0.153   84.937  228.594
  555.884    6.528    0.436    0.168   82.242  228.380
  556.134    6.687    0.440    0.184   84.498  227.955
  556.384    6.697    0.427    0.149   87.121  227.739
  556.634    6.627    0.421    0.155   86.933  227.420
  556.884    6.507    0.437    0.174   83.504  226.995
  557.134    6.401    0.456    0.157   83.010  226.573
  557.384    6.341    0.480    0.172   84.959  226.046
  557.634    6.305    0.499    0.163   86.665  225.725
  557.884    6.235    0.451    0.160   87.394  226.028
  558.134    6.145    0.482    0.173   87.877  226.639
  558.384    6.034    0.455    0.172   87.932  227.560
  558.634    5.913    0.472    0.148   87.316  228.381
  558.884    5.818    0.493    0.154   87.311  229.614
  559.134    5.805    0.465    0.178   89.200  230.847
  559.384    5.902    0.447    0.175   90.539  230.837
  559.634    6.636    0.434    0.162   90.534  231.034
  559.884    7.382    0.425    0.158   85.944  230.921
  560.134    7.842    0.444    0.138   78.909  230.810
  560.384    7.916    0.377    0.096   74.013  231.108
  560.634    7.771    0.305    0.046   68.751  231.307
  560.884    7.314    0.347    0.053   70.335  231.400
  561.134    6.760    0.394    0.091   78.397  232.012
  561.384    6.421    0.444    0.134   82.610  232.314
  561.634    6.191    0.427    0.158   85.171  232.615
  561.884    6.088    0.408    0.144   85.838  232.709
  562.134    5.979    0.399    0.147   85.711  232.701
  562.384    6.026    0.428    0.140   86.011  233.002
  562.634    6.055    0.454    0.136   87.105  233.200
  562.884    6.057    0.450    0.119   90.584  233.294
  563.134    6.066    0.443    0.137   90.945  233.285
  563.384    6.069    0.442    0.146   86.172  233.275
  563.634    6.078    0.490    0.137   86.166  233.576
  563.884    6.067    0.498    0.138   86.956  234.188
  564.134    6.067    0.499    0.144   88.050  234.902
  564.384    6.068    0.509    0.145   90.979  235.102
  564.634    6.046    0.484    0.131   90.240  235.817
  564.884    6.014    0.446    0.127   88.461  233.944
  565.134    6.014    0.449    0.133   87.600  232.900
  565.384    6.003    0.434    0.152   87.472  233.614
  565.634    6.025    0.440    0.159   87.712  233.812
  565.884    6.079    0.442    0.161   85.505  233.079
  566.134    6.103    0.441    0.171   84.400  230.378
  566.384    6.113    0.481    0.173   89.407  225.608
  566.634    6.103    0.446    0.163   85.367  225.702
  566.884    6.136    0.422    0.155   81.572  228.797
  567.134    6.215    0.400    0.141   83.339  234.170
  567.384    6.330    0.422    0.151   86.573  241.407
  567.634    6.472    0.451    0.130   82.717  239.741
  567.884    6.641    0.485    0.113   83.994  233.521
  568.134    6.810    0.472    0.103   86.678  228.027
  568.384    7.156    0.441    0.137   87.956  227.291
  568.634    7.632    0.409    0.164   86.423  228.213
  568.884    8.064    0.396    0.178   83.483  229.551
  569.134    8.520    0.411    0.167   81.522  232.334
  569.384    9.033    0.387    0.149   78.399  234.604
  569.634    9.973    0.363    0.141   74.848  236.250
  569.884   10.616    0.358    0.136   71.603  236.656
  570.134   10.634    0.376    0.135   68.541  238.095
  570.384    9.579    0.374    0.129   65.968  239.638
  570.634    8.520    0.305    0.078   64.251  240.455
  570.884    7.716    0.311    0.089   64.734  240.448
  571.134    6.912    0.355    0.139   69.314  241.059
  571.384    6.318    0.427    0.147   80.311  241.775
  571.634    5.959    0.424    0.126   85.379  243.523
  571.884    6.284    0.401    0.142   87.146  244.551
  572.134    7.520    0.414    0.148   88.730  244.851
  572.384    8.490    0.409    0.131   91.781  243.703
  572.634    9.085    0.405    0.134   97.032  242.348
  572.884   10.067    0.409    0.137   96.170  239.441
  573.134   10.714    0.356    0.118   84.796  233.946
  573.384   10.596    0.307    0.082   77.150  229.796
  573.634   10.013    0.296    0.050   72.987  228.131
  573.884    9.458    0.342    0.096   83.679  229.571
  574.134    8.919    0.352    0.133   89.114  231.839
  574.384    8.398    0.345    0.150   87.274  234.313
  574.634    8.063    0.343    0.136   84.762  235.545
  574.884    7.774    0.365    0.116   85.979  236.261
  575.134    7.466    0.378    0.128   90.619  236.768
  575.384    7.372    0.372    0.153   94.771  237.070
  575.634    7.426    0.375    0.152   97.210  237.164
  575.884    7.746    0.392    0.165   93.476  236.949
  576.134    8.538    0.418    0.149   88.030  236.732
  576.384    9.634    0.398    0.138   85.274  235.585
  576.634   10.798    0.378    0.128   87.468  233.298
  576.884   11.094    0.366    0.115   89.908  232.356
  577.134   11.097    0.352    0.102   91.920  232.555
  577.384    9.976    0.316    0.079   85.558  233.787
  577.634    8.871    0.278    0.026   71.982  236.364
  577.884    7.963    0.275   -0.007   68.187  238.943
  578.134    7.318    0.303    0.012   73.377  240.590
  578.384    6.776    0.328    0.080   77.467  239.545
  578.634    6.436    0.351    0.107   78.439  237.361
  578.884    6.402    0.385    0.108   80.084  235.802
  579.134    6.496    0.433    0.128   82.707  234.135
  579.384    6.654    0.442    0.137   87.958  233.090
  579.634    6.750    0.404    0.134   88.258  232.668
  579.884    6.828    0.416    0.115   88.987  232.141
  580.134    6.864    0.430    0.123   90.509  232.029
  580.384    6.916    0.439    0.122   86.775  232.122
  580.634    6.965    0.426    0.123   84.630  232.010
  580.884    7.043    0.428    0.127   84.929  232.205
  581.134    7.121    0.440    0.137   84.558  232.404
  581.384    7.108    0.438    0.131   83.330  232.600
  581.634    7.186    0.418    0.133   82.835  232.697
  581.884    7.320    0.400    0.116   83.563  232.893
  582.134    7.388    0.406    0.097   80.013  232.883
  582.384    7.414    0.437    0.134   84.530  232.979
  582.634    7.390    0.431    0.161   88.559  233.488
  582.884    7.332    0.397    0.144   89.960  234.200
  583.134    7.239    0.407    0.152   90.809  234.090
  583.384    7.082    0.422    0.157   91.109  234.079
  583.634    6.915    0.426    0.140   90.554  233.968
  583.884    6.556    0.394    0.096   88.654  234.165
  584.134    5.863    0.353    0.032   83.820  234.776
  584.384    4.935    0.361    0.008   82.591  235.802
  584.634    3.867    0.380    0.123   88.454  236.829
  584.884    2.970    0.416    0.115   93.644  236.922
  585.134    2.294    0.423    0.153   92.660  235.775
  585.384    1.899    0.409    0.142   90.638  234.110
  585.634    1.748    0.426    0.150   88.309  232.858
  585.884    1.710    0.522    0.172   86.287  241.543
  586.134    1.874    0.565    0.201   86.832  248.676
  586.384    2.843    0.616    0.231   86.153  256.015
  586.634    3.464    0.645    0.323   85.353  273.395
  586.884    4.527    0.654    0.280   84.064  299.159
  587.134    6.703    0.649    0.244   82.653  287.143
  587.384    8.400    0.609    0.256   80.141  277.094
  587.634    9.005    0.465    0.207   77.141  266.837
