~VERSION INFORMATION
 VERS.                 2.0:   CWLS LOG ASCII STANDARD -VERSION 2.0
 WRAP.                  NO:   ONE LINE PER DEPTH STEP
~WELL INFORMATION BLOCK
#MNEM.UNIT           DATA                    DESCRIPTION OF MNEMONIC
#---------    -------------------            -------------------------------
# Generated from Intellog Unique Number	CS_67_68/WELL/2201
WELL.         ICG ET AL TWEEDIE              : Well_name    - WELL
LOC .         00/10-34-067-13W4/0            : Location     - LOCATION
UWI .         00/10-34-067-13W4/0            : Uwi          - UNIQUE WELL ID
ENTR.         SP                             : Entered      - ENTERED BY
SRVC.         SCHLUMBERGER                   : Scn          - SERVICE COMPANY
STRT.M        289.56                         : top_depth    - START DEPTH
STOP.M        457.06                         : bot_depth    - STOP DEPTH
STEP.M        0.25                           : increment    - STEP LENGTH
 NULL. -999.2500:NULL Value
~CURVE INFORMATION BLOCK
#MNEM UNIT       ERCB CURVE CODE    CURVE DESCRIPTION
#-----------   ------------------   ----------------------------------
DEPT.M        00 001 00 00         : DEPTH        - DEPTH
CALI.MM       00 280 01 00         : CAL          - CALIPER
GR  .API      00 310 00 00         : GR           - GAMMA RAY
DPHI.V/V      00 890 00 00         : PHID         - DENSITY POROSITY (SANDSTONE)
NPHI.V/V      00 330 00 00         : PHIN         - NEUTRON POROSITY (SANDSTONE)
ILD .OHMM     00 120 00 00         : RESD         - DEEP RESISTIVITY (DIL)
~PARAMETER INFORMATION
#MNEM.UNIT           DATA             DESCRIPTION OF MNEMONIC
#---------         -----------     ------------------------------
GL  .M        575.158              : gl           - GROUND LEVEL ELEVATION
EREF.M        577.901              : kb           - ELEVATION OF DEPTH REFERENCE
DATM.M        577.901              : datum        - DATUM ELEVATION
TDD .M        463.906              : tdd          - TOTAL DEPTH DRILLER
RUN .         ONE                  : Run          - RUN NUMBER
ENG .         BILL                 : Engineer     - RECORDING ENGINEER
WIT .         JIM                  : Witness      - WITNESSED BY
MUD .         GEL                  : Mud_type     - MUD TYPE
MATR.         SANDSTONE            : Logunit      - NEUTRON MATRIX
TMAX.C        23.8889              : BHT          - MAXIMUM RECORDED TEMPERATURE
BHTD.M        464.21               : BHTDEP       - MAXIMUM RECORDED TEMPERATURE
MATR.         1                    : LOGUNIT      - NEUTRON MATRIX
RMT .C        25                   : MDTP         - TEMPERATURE OF MUD
NEUT.         1                    : NEUTRON      - NEUTRON TYPE
RESI.         0                    : RESIST       - RESISTIVITY TYPE
RMC .OHMM     0.25                 : RMC          - RESISTIVITY OF MUD CAKE
RMF .OHMM     0.25                 : RMF          - RESISTIVITY OF MUD FILTRATE
SUFT.C        15                   : SUFT         - SURFACE TEMPERATURE
~A  DEPTH      CAL       GR     PHID     PHIN     RESD
# ...
  326.060  148.365  105.671    0.374    0.459    2.819
  326.310  148.643  104.864    0.372    0.436    2.805
  326.560  149.537  104.754    0.372    0.458    2.774
  326.810  150.229  105.904    0.381    0.463    2.746
  327.060  149.790  108.500    0.392    0.452    2.675
  327.310  148.079  112.511    0.394    0.445    2.588
  327.560  146.915  123.159    0.372    0.458    2.509
  327.810  145.561  130.735    0.377    0.464    2.458
  328.060  144.307  131.814    0.364    0.467    2.421
  328.310  144.513  130.619    0.367    0.456    2.416
  328.560  146.894  129.908    0.361    0.446    2.420
  328.810  150.415  122.537    0.349    0.439    2.428
  329.060  151.485  115.268    0.377    0.443    2.428
  329.310  153.420  110.323    0.380    0.441    2.412
  329.560  153.599  103.775    0.393    0.438    2.342
  329.810  152.659  100.629    0.406    0.436    2.305
  330.060  152.256   98.520    0.399    0.436    2.214
  330.310  151.530  102.762    0.388    0.439    2.164
  330.560  150.617  105.274    0.388    0.452    2.135
  330.810  148.332  107.016    0.377    0.464    2.139
  331.060  146.586  110.796    0.389    0.447    2.155
  331.310  145.648  113.532    0.385    0.445    2.163
  331.560  145.233  108.946    0.370    0.446    2.178
  331.810  146.585  107.650    0.384    0.438    2.184
  332.060  149.540  112.671    0.368    0.443    2.194
  332.310  151.675  116.355    0.335    0.452    2.216
  332.560  153.547  109.835    0.330    0.459    2.256
  332.810  153.109  105.880    0.328    0.453    2.322
  333.060  151.004  103.363    0.340    0.444    2.397
  333.310  149.727  102.261    0.341    0.435    2.469
  333.560  149.408  101.835    0.326    0.451    2.540
  333.810  151.006  101.897    0.311    0.461    2.608
  334.060  153.364  101.542    0.297    0.468    2.674
  334.310  154.547  101.063    0.320    0.456    2.758
  334.560  155.132  100.094    0.323    0.452    2.823
  334.810  155.258   97.451    0.326    0.463    2.873
  335.060  155.186   96.013    0.321    0.452    2.905
  335.310  154.486   98.071    0.308    0.443    2.887
  335.560  151.372   98.941    0.292    0.437    2.872
  335.810  148.173  101.865    0.287    0.449    2.823
  336.060  145.371  106.154    0.298    0.462    2.756
  336.310  151.356  109.516    0.300    0.487    2.738
  336.560  154.183  111.721    0.318    0.496    2.734
  336.810  155.663  108.667    0.321    0.477    2.821
  337.060  155.055  101.468    0.306    0.448    2.902
  337.310  153.808   97.760    0.306    0.432    2.977
  337.560  152.681   99.591    0.294    0.416    2.934
  337.810  151.895  101.026    0.290    0.424    2.818
  338.060  151.102   98.710    0.321    0.429    2.690
  338.310  150.438   97.513    0.341    0.427    2.616
  338.560  148.914   98.819    0.334    0.421    2.556
  338.810  146.902  102.638    0.297    0.421    2.523
  339.060  146.637  105.675    0.279    0.420    2.551
  339.310  147.368  102.236    0.298    0.439    2.654
  339.560  148.539   98.081    0.313    0.441    2.743
  339.810  149.229   93.430    0.307    0.395    2.816
  340.060  148.176   98.281    0.292    0.368    2.873
  340.310  147.020  100.824    0.270    0.363    2.872
  340.560  145.950  103.058    0.257    0.372    3.096
  340.810  145.461  104.102    0.274    0.382    3.157
  341.060  145.486  104.129    0.298    0.387    3.341
  341.310  147.774  105.037    0.299    0.388    3.496
  341.560  149.842  106.741    0.286    0.398    3.655
  341.810  149.514  109.162    0.292    0.405    3.721
  342.060  148.300  111.255    0.287    0.414    3.728
  342.310  147.904  113.473    0.280    0.426    3.761
  342.560  150.102  116.006    0.279    0.435    3.779
  342.810  153.698  117.405    0.294    0.432    3.775
  343.060  157.508  111.630    0.288    0.440    3.728
  343.310  160.286   97.513    0.277    0.451    3.405
  343.560  156.154   89.286    0.282    0.447    2.864
  343.810  153.369   84.899    0.301    0.441    2.608
  344.060  150.664   83.542    0.319    0.435    2.459
  344.310  148.137   86.916    0.335    0.430    2.379
  344.560  145.264   90.499    0.329    0.429    2.315
  344.810  142.373   86.100    0.317    0.429    2.291
  345.060  140.161   83.588    0.316    0.428    2.301
  345.310  139.389   82.426    0.322    0.424    2.318
  345.560  139.395   82.319    0.317    0.417    2.323
  345.810  139.522   78.566    0.325    0.409    2.283
  346.060  140.567   80.701    0.332    0.402    2.250
  346.310  142.325   84.523    0.326    0.396    2.282
  346.560  142.991   85.266    0.324    0.391    2.332
  346.810  142.315   82.280    0.322    0.404    2.379
  347.060  141.916   78.969    0.326    0.414    2.381
  347.310  144.226   77.084    0.325    0.415    2.344
  347.560  147.146   75.619    0.317    0.420    2.240
  347.810  149.896   72.707    0.321    0.414    2.190
  348.060  150.729   76.974    0.328    0.408    2.269
  348.310  149.697   82.416    0.325    0.404    2.397
  348.560  146.484   88.309    0.317    0.398    2.524
  348.810  141.297   90.722    0.299    0.398    2.656
  349.060  137.124   91.532    0.310    0.405    2.756
  349.310  141.829   91.624    0.313    0.400    2.719
  349.560  145.668   91.646    0.327    0.395    2.523
  349.810  147.866   87.266    0.341    0.392    2.268
  350.060  150.756   81.813    0.355    0.387    1.960
  350.310  151.799   81.221    0.365    0.382    1.772
  350.560  151.449   84.777    0.357    0.379    1.629
  350.810  150.062   86.428    0.348    0.386    1.571
  351.060  148.588   86.377    0.343    0.382    1.570
  351.310  148.044   86.882    0.346    0.376    1.582
  351.560  148.767   88.201    0.344    0.387    1.630
  351.810  150.577   90.952    0.317    0.375    1.818
  352.060  152.379   92.669    0.307    0.367    2.068
  352.310  153.040   94.413    0.292    0.374    2.315
  352.560  151.883   96.261    0.279    0.385    2.561
  352.810  150.416   97.777    0.282    0.386    2.683
  353.060  148.776   96.770    0.289    0.381    2.664
  353.310  147.573   93.734    0.290    0.380    2.573
  353.560  146.491   93.413    0.296    0.383    2.527
  353.810  145.115   97.965    0.298    0.385    2.635
  354.060  144.833  101.407    0.281    0.391    2.792
  354.310  146.304  104.650    0.259    0.392    2.959
  354.560  148.378   97.931    0.269    0.390    3.054
  354.810  149.628   94.722    0.281    0.384    3.140
  355.060  148.835   95.202    0.284    0.386    3.187
  355.310  147.853   95.068    0.281    0.380    3.216
  355.560  147.417   94.348    0.271    0.391    3.208
  355.810  147.242   91.396    0.266    0.405    3.132
  356.060  147.084   87.538    0.278    0.419    2.908
  356.310  147.072   89.061    0.296    0.430    2.661
  356.560  147.122   94.021    0.312    0.441    2.536
  356.810  146.982   98.653    0.322    0.447    2.533
  357.060  147.846  103.102    0.286    0.454    2.590
  357.310  150.094  103.529    0.329    0.445    2.536
  357.560  155.714  103.545    0.317    0.431    2.340
  357.810  161.435  105.691    0.274    0.474    2.165
  358.060  168.005  108.429    0.295    0.511    2.083
  358.310  173.530  105.200    0.325    0.541    2.016
  358.560  176.662  100.370    0.345    0.508    2.059
  358.810  169.151   95.424    0.317    0.459    2.162
  359.060  160.103   89.385    0.309    0.436    2.231
  359.310  154.997   84.665    0.334    0.459    2.218
  359.560  151.168   81.288    0.355    0.464    2.137
  359.810  148.474   81.528    0.365    0.452    2.047
  360.060  147.194   80.913    0.352    0.449    1.950
  360.310  147.061   80.052    0.363    0.457    1.901
  360.560  147.404   78.853    0.372    0.464    1.881
  360.810  147.739   81.017    0.380    0.448    1.908
  361.060  147.811   81.407    0.371    0.429    1.950
  361.310  147.980   77.543    0.370    0.437    2.011
  361.560  148.227   75.510    0.373    0.445    2.031
  361.810  148.274   75.469    0.380    0.446    2.065
  362.060  148.660   77.070    0.375    0.440    2.090
  362.310  148.742   78.436    0.369    0.435    2.104
