~VERSION INFORMATION
 VERS.                 2.0:   CWLS LOG ASCII STANDARD -VERSION 2.0
 WRAP.                  NO:   ONE LINE PER DEPTH STEP
~WELL INFORMATION BLOCK
#MNEM.UNIT           DATA                    DESCRIPTION OF MNEMONIC
#---------    -------------------            -------------------------------
# Generated from Intellog Unique Number	CS_73_76/WELL/3258
WELL.         11-08-075-05W4                 : Well_name    - WELL
LOC .         00/11-08-075-05W4/0            : Location     - LOCATION
UWI .         00/11-08-075-05W4/0            : Uwi          - UNIQUE WELL ID
ENTR.         SP                             : Entered      - ENTERED BY
SRVC.         SCHLUMBERGER                   : Scn          - SERVICE COMPANY
STRT.M        240                            : top_depth    - START DEPTH
STOP.M        480                            : bot_depth    - STOP DEPTH
STEP.M        0.25                           : increment    - STEP LENGTH
 NULL. -999.2500:NULL Value
~CURVE INFORMATION BLOCK
#MNEM UNIT       ERCB CURVE CODE    CURVE DESCRIPTION
#-----------   ------------------   ----------------------------------
DEPT.M        00 001 00 00         : DEPTH        - DEPTH
ILD .OHMM     00 120 00 00         : RESD         - DEEP RESISTIVITY (DIL)
DPHI.V/V      00 890 00 00         : PHID         - DENSITY POROSITY (LIMESTONE)
NPHI.V/V      00 330 00 00         : PHIN         - NEUTRON POROSITY (LIMESTONE)
GR  .API      00 310 00 00         : GR           - GAMMA RAY
~PARAMETER INFORMATION
#MNEM.UNIT           DATA             DESCRIPTION OF MNEMONIC
#---------         -----------     ------------------------------
GL  .M        636.15               : gl           - GROUND LEVEL ELEVATION
EREF.M        639.43               : kb           - ELEVATION OF DEPTH REFERENCE
DATM.M        636.15               : datum        - DATUM ELEVATION
TDD .M        483.5                : tdd          - TOTAL DEPTH DRILLER
RUN .         ONE                  : Run          - RUN NUMBER
ENG .         BILL                 : Engineer     - RECORDING ENGINEER
WIT .         JIM                  : Witness      - WITNESSED BY
MUD .         GEL                  : Mud_type     - MUD TYPE
MATR.         LIMESTONE            : Logunit      - NEUTRON MATRIX
TMAX.C        25                   : BHT          - MAXIMUM RECORDED TEMPERATURE
BHTD.M        483.5                : BHTDEP       - MAXIMUM RECORDED TEMPERATURE
MATR.         1                    : LOGUNIT      - NEUTRON MATRIX
RMT .C        25                   : MDTP         - TEMPERATURE OF MUD
NEUT.         1                    : NEUTRON      - NEUTRON TYPE
RESI.         0                    : RESIST       - RESISTIVITY TYPE
RMC .OHMM     0.25                 : RMC          - RESISTIVITY OF MUD CAKE
RMF .OHMM     0.25                 : RMF          - RESISTIVITY OF MUD FILTRATE
SUFT.C        15                   : SUFT         - SURFACE TEMPERATURE
~A  DEPTH     RESD     PHID     PHIN       GR
# ...
  414.000   12.718    0.204    0.326   81.040
  414.250   12.727    0.204    0.322   84.111
  414.500   12.987    0.196    0.317   87.183
  414.750   13.244    0.211    0.326   90.255
  415.000   13.506    0.207    0.325   92.713
  415.250   13.771    0.218    0.326   90.251
  415.500   14.322    0.225    0.330   89.020
  415.750   14.329    0.232    0.335   86.559
  416.000   14.340    0.240    0.343   82.868
  416.250   14.084    0.258    0.344   81.637
  416.500   14.103    0.269    0.343   82.865
  416.750   13.848    0.187    0.351   89.010
  417.000   13.598    0.123    0.354   94.542
  417.250   12.863    0.111    0.357   92.081
  417.500   11.940    0.185    0.361   82.242
  417.750   11.293    0.238    0.346   75.478
  418.000   11.088    0.176    0.340   85.312
  418.250   10.893    0.132    0.335   90.844
  418.500   10.698    0.133    0.335   96.989
  418.750   10.912    0.164    0.346   88.995
  419.000   11.341    0.200    0.357   82.231
  419.250   11.787    0.211    0.356   80.385
  419.500   13.467    0.248    0.368   79.154
  419.750   14.532    0.275    0.384   74.848
  420.000   16.596    0.364    0.371   73.617
  420.250   20.061    0.268    0.355   71.771
  420.500   22.485    0.260    0.345   67.465
  420.750   22.501    0.247    0.350   65.005
  421.000   21.289    0.236    0.368   63.159
  421.250   20.512    0.231    0.368   65.616
  421.500   19.775    0.233    0.363   70.532
  421.750   19.421    0.219    0.362   74.833
  422.000   21.369    0.213    0.351   75.446
  422.250   22.627    0.204    0.357   75.444
  422.500   23.957    0.227    0.367   74.827
  422.750   26.855    0.251    0.363   71.136
  423.000   30.672    0.249    0.365   68.676
  423.250   32.484    0.253    0.365   66.215
  423.500   31.905    0.266    0.373   65.598
  423.750   26.947    0.287    0.367   62.523
  424.000   22.765    0.262    0.358   65.594
  424.250   20.343    0.222    0.349   67.437
  424.500   17.844    0.219    0.333   71.123
  424.750   16.879    0.230    0.326   71.122
  425.000   16.895    0.251    0.330   78.496
  425.250   16.590    0.264    0.328   80.339
  425.500   15.399    0.246    0.331   82.181
  425.750   14.025    0.230    0.320   83.409
  426.000   12.537    0.086    0.308   80.948
  426.250   11.207    0.105    0.309   78.487
  426.500   10.015    0.161    0.335   90.165
  426.750    8.950    0.158    0.352   99.384
  427.000    8.306    0.149    0.345  101.842
  427.250    7.857    0.152    0.341  105.529
  427.500    8.809    0.163    0.336  103.068
  427.750    9.327    0.169    0.333  101.222
  428.000   10.260    0.188    0.328   94.457
  428.250   11.501    0.204    0.325   79.701
  428.500   11.950    0.215    0.334   70.478
  428.750   12.659    0.225    0.340   68.632
  429.000   13.156    0.242    0.350   66.785
  429.250   13.679    0.191    0.339   68.013
  429.500   13.950    0.169    0.325   74.159
  429.750   14.496    0.172    0.322   77.846
  430.000   15.648    0.231    0.324   72.926
  430.250   16.890    0.262    0.328   69.235
  430.500   17.888    0.276    0.337   63.086
  430.750   18.242    0.271    0.328   59.395
  431.000   16.308    0.281    0.322   58.779
  431.250   13.518    0.273    0.318   62.465
  431.500   12.309    0.253    0.319   65.537
  431.750   11.213    0.248    0.318   68.609
  432.000   10.605    0.251    0.308   74.754
  432.250   10.219    0.229    0.305   79.056
  432.500   10.426    0.208    0.303   80.899
  432.750   10.632    0.182    0.312   83.355
  433.000   10.845    0.164    0.324   88.272
  433.250   10.852    0.200    0.327   88.270
  433.500   11.069    0.221    0.339   89.497
  433.750   10.671    0.240    0.342   88.880
  434.000    9.720    0.251    0.344   88.264
  434.250    9.022    0.247    0.345   88.262
  434.500    8.693    0.188    0.332   93.793
  434.750    7.919    0.165    0.332   98.094
  435.000    7.631    0.175    0.348  101.780
  435.250    7.495    0.187    0.354  104.238
  435.500    7.503    0.147    0.340  106.080
  435.750    7.651    0.153    0.331  106.078
  436.000    7.803    0.167    0.322  104.232
  436.250    7.959    0.161    0.315  100.542
  436.500    8.118    0.165    0.315   97.466
  436.750    8.441    0.167    0.316   95.620
  437.000    8.772    0.155    0.318   95.003
  437.250    9.120    0.154    0.327   92.542
  437.500    9.302    0.166    0.339   88.852
  437.750    9.485    0.178    0.337   86.391
  438.000    9.672    0.197    0.341   90.078
  438.250    9.680    0.181    0.344   92.535
  438.500    9.873    0.177    0.322   90.688
  438.750    9.703    0.183    0.316   90.686
  439.000    9.711    0.183    0.327   88.840
  439.250    9.903    0.159    0.330   85.150
  439.500    9.910    0.159    0.325   84.533
  439.750    9.917    0.159    0.336   88.220
  440.000    9.927    0.154    0.341   90.677
  440.250    9.752    0.119    0.337   92.519
  440.500    9.758    0.101    0.337   92.517
  440.750   10.142    0.131    0.342   90.671
  441.000   11.157    0.149    0.349   90.055
  441.250   11.815    0.165    0.348   85.135
  441.500   12.754    0.182    0.356   77.141
  441.750   13.509    0.199    0.349   70.992
  442.000   13.522    0.218    0.354   75.293
  442.250   13.532    0.209    0.360   77.135
  442.500   13.291    0.188    0.352   83.895
  442.750   13.053    0.170    0.351   89.426
  443.000   12.820    0.186    0.357   83.891
  443.250   12.592    0.221    0.354   81.431
  443.500   11.911    0.241    0.345   83.888
  443.750   11.055    0.174    0.346   92.493
  444.000   10.456    0.141    0.347  103.556
  444.250   10.077    0.120    0.348  103.554
  444.500    9.716    0.120    0.362  102.323
  444.750    9.540    0.132    0.364   98.632
  445.000    9.193    0.136    0.358   97.401
  445.250    8.862    0.158    0.362   98.014
  445.500    8.540    0.197    0.369   94.938
  445.750    8.080    0.204    0.353   91.248
  446.000    7.934    0.177    0.341   94.320
  446.250    7.506    0.167    0.337   91.858
  446.500    7.374    0.161    0.343   90.627
  446.750    7.378    0.171    0.341   88.166
  447.000    7.249    0.167    0.334   91.853
  447.250    7.254    0.172    0.329   95.540
  447.500    7.258    0.169    0.336   94.923
  447.750    7.268    0.165    0.341   94.306
  448.000    7.272    0.161    0.350   94.304
  448.250    7.278    0.159    0.348   95.532
  448.500    7.422    0.169    0.339   96.145
  448.750    7.714    0.177    0.334   93.069
  449.000    8.330    0.182    0.334   89.379
  449.250    8.494    0.175    0.326   83.229
  449.500    8.506    0.152    0.310   83.227
  449.750    8.196    0.097    0.300   85.070
  450.000    8.046    0.114    0.329   84.453
  450.250    7.612    0.156    0.340   91.213
  450.500    7.203    0.169    0.339   93.056
  450.750    7.073    0.180    0.345   92.439
  451.000    6.947    0.182    0.340   91.207
  451.250    6.953    0.183    0.340   91.206
  451.500    6.959    0.172    0.339   93.662
  451.750    6.964    0.158    0.342   95.505
  452.000    6.970    0.148    0.349  103.495
  452.250    7.109    0.154    0.366  107.181
  452.500    7.115    0.154    0.371  107.180
  452.750    6.987    0.153    0.377  106.563
  453.000    6.994    0.149    0.367  105.332
  453.250    7.000    0.148    0.363  104.100
  453.500    6.874    0.154    0.373  101.024
  453.750    6.756    0.158    0.381  102.867
  454.000    6.760    0.176    0.355  103.480
  454.250    6.639    0.156    0.340  104.706
  454.500    6.643    0.143    0.343  102.861
  454.750    6.529    0.176    0.351   97.326
  455.000    6.534    0.169    0.354  102.242
  455.250    6.538    0.178    0.355  103.470
  455.500    6.420    0.175    0.360   97.321
  455.750    6.430    0.169    0.359   91.786
  456.000    6.315    0.187    0.364   92.398
  456.250    6.322    0.187    0.370   92.397
  456.500    6.327    0.177    0.366   92.394
  456.750    6.333    0.166    0.364   94.852
  457.000    6.100    0.164    0.359   96.079
  457.250    5.992    0.178    0.350   97.922
