~VERSION INFORMATION
 VERS.                 2.0:   CWLS LOG ASCII STANDARD -VERSION 2.0
 WRAP.                  NO:   ONE LINE PER DEPTH STEP
~WELL INFORMATION BLOCK
#MNEM.UNIT           DATA                    DESCRIPTION OF MNEMONIC
#---------    -------------------            -------------------------------
# Generated from Intellog Unique Number	CW_70_72/WELL/1058
NULL.         -999.25                        : NULL_VALUE
WELL.         WINCAN ET AL SMITH 11-16       : Well_name    - WELL              
LOC .         11-16-071-26W4                 : Location     - LOCATION          
UWI .         00/11-16-071-26W4/0            : Uwi          - UNIQUE WELL ID    
ENTR.         JAYE                           : Entered      - ENTERED BY        
SRVC.         COMPUTALOG                     : Scn          - SERVICE COMPANY   
DATE.         13 AUG 83                      : Date         - LOG DATE          
STRT.M        400                            : top_depth    - START DEPTH       
STOP.M        668.5                          : bot_depth    - STOP DEPTH        
STEP.M        0.25                           : increment    - STEP LENGTH       
~CURVE INFORMATION BLOCK
#MNEM UNIT       ERCB CURVE CODE    CURVE DESCRIPTION
#-----------   ------------------   ----------------------------------
DEPT.M        00 001 00 00         : DEPTH        - DEPTH                       
DPHI.V/V      00 890 00 00         : PHID         - DENSITY POROSITY (SANDSTONE)
NPHI.V/V      00 330 00 00         : PHIN         - NEUTRON POROSITY (SANDSTONE)
GR  .API      00 310 00 00         : GR           - GAMMA RAY                   
CALI.MM       00 280 01 00         : CAL          - CALIPER                     
ILD .OHMM     00 120 00 00         : RESD         - DEEP RESISTIVITY (DIL)      
~PARAMETER INFORMATION       
#MNEM.UNIT           DATA             DESCRIPTION OF MNEMONIC
#---------         -----------     ------------------------------
GL  .M        593.18               : gl           - GROUND LEVEL ELEVATION      
EREF.M        596.48               : kb           - ELEVATION OF DEPTH REFERENCE
DATM.M        593.18               : datum        - DATUM ELEVATION             
TDD .M        668                  : tdd          - TOTAL DEPTH DRILLER         
RUN .         ONE                  : Run          - RUN NUMBER                  
ENG .         WOOD                 : Engineer     - RECORDING ENGINEER          
WIT .         VAN FRAASEN          : Witness      - WITNESSED BY                
BASE.         LLOYD                : Branch       - HOME BASE OF LOGGING UNIT   
MUD .         GEL CHEM             : Mud_type     - MUD TYPE                    
MATR.         SANDSTONE            : Logunit      - NEUTRON MATRIX              
TMAX.C        31                   : BHT          - MAXIMUM RECORDED TEMPERATURE
BHTD.M        668.3                : BHTDEP       - MAXIMUM RECORDED TEMPERATURE
RMT .C        22                   : MDTP         - TEMPERATURE OF MUD          
MUDD.KG/M     1120                 : MWT          - MUD DENSITY                 
NEUT.         1                    : NEUTRON      - NEUTRON TYPE                
RESI.         0                    : RESIST       - RESISTIVITY TYPE            
RM  .OHMM     2.6                  : RM           - RESISTIVITY OF MUD          
RMC .OHMM     0                    : RMC          - RESISTIVITY OF MUD CAKE     
RMF .OHMM     3.2                  : RMF          - RESISTIVITY OF MUD FILTRATE 
SUFT.C        0                    : SUFT         - SURFACE TEMPERATURE         
~A  DEPTH     PHID     PHIN       GR      CAL     RESD
  400.000    0.241    0.473  100.327  181.877    2.739
  400.250    0.176    0.450   96.578  191.894    2.764
  400.500    0.168    0.425   91.649  184.917    2.767
  400.750    0.209    0.442   86.532  179.501    2.755
  401.000    0.220    0.455   90.988  179.674    2.748
  401.250    0.207    0.445   96.501  180.986    2.741
  401.500    0.203    0.444  105.434  181.893    2.740
  401.750    0.211    0.449  101.560  182.482    2.707
  402.000    0.225    0.455  100.174  186.075    2.670
  402.250    0.245    0.465   99.160  192.362    2.674
  402.500    0.264    0.477   97.400  199.164    2.708
  402.750    0.275    0.467   94.336  199.655    2.794
  403.000    0.271    0.404   84.993  188.745    2.977
  403.250    0.257    0.382   73.039  178.354    3.275
  403.500    0.234    0.328   67.050  165.683    3.749
  403.750    0.231    0.314   67.405  159.432    4.283
  404.000    0.245    0.301   68.506  157.017    4.884
  404.250    0.274    0.292   63.950  155.745    5.685
  404.500    0.290    0.281   58.273  155.500    6.278
  404.750    0.286    0.268   54.150  155.680    7.337
  405.000    0.260    0.275   51.211  156.163    7.657
  405.250    0.280    0.292   51.998  155.615    7.639
  405.500    0.291    0.320   54.652  154.550    7.378
  405.750    0.288    0.332   58.675  153.480    6.800
  406.000    0.267    0.343   66.985  153.345    6.302
  406.250    0.266    0.362   74.550  155.176    5.743
  406.500    0.288    0.379   86.279  157.425    5.088
  406.750    0.275    0.392   95.211  160.811    4.567
  407.000    0.256    0.403   97.801  165.236    4.138
  407.250    0.288    0.400   99.710  173.285    3.872
  407.500    0.312    0.390  102.861  182.475    3.958
  407.750    0.252    0.378  101.165  182.442    4.170
  408.000    0.193    0.366   95.363  173.189    4.360
  408.250    0.170    0.366   90.993  169.117    4.508
  408.500    0.219    0.367   84.696  165.354    4.617
  408.750    0.243    0.355   79.269  161.699    4.719
  409.000    0.231    0.342   74.713  155.967    4.789
  409.250    0.224    0.327   71.834  148.061    4.885
  409.500    0.220    0.316   70.136  151.345    4.984
  409.750    0.216    0.311   68.502  155.459    5.076
  410.000    0.208    0.320   66.617  157.603    5.219
  410.250    0.196    0.329   64.671  157.986    5.386
  410.500    0.177    0.333   64.466  155.258    5.664
  410.750    0.150    0.306   66.436  152.741    6.080
  411.000    0.096    0.253   66.542  153.125    6.626
  411.250    0.017    0.215   59.933  155.372    7.317
  411.500    0.004    0.172   54.752  159.795    8.406
  411.750    0.012    0.173   49.575  164.113    9.768
  412.000    0.016    0.174   45.703  165.948   11.096
  412.250    0.017    0.174   48.916  166.329   12.992
  412.500    0.021    0.175   49.953  165.469   14.375
  412.750    0.030    0.177   49.749  164.400   13.912
  413.000    0.053    0.182   50.536  163.847   12.559
  413.250    0.096    0.211   51.699  163.816    9.770
  413.500    0.148    0.279   59.885  163.575    7.891
  413.750    0.174    0.325   66.453  163.235    6.326
  414.000    0.186    0.353   72.155  163.099    5.428
  414.250    0.189    0.356   78.166  163.484    4.964
  414.500    0.226    0.351   80.384  163.660    4.618
  414.750    0.255    0.337   84.031  164.147    4.362
  415.000    0.273    0.341   85.879  165.772    4.159
  415.250    0.291    0.381   79.394  169.051    3.862
  415.500    0.314    0.396   81.053  174.305    3.487
  415.750    0.258    0.407   90.918  181.630    3.255
  416.000    0.230    0.422  105.009  176.420    2.955
  416.250    0.249    0.355  100.391  166.959    2.673
  416.500    0.280    0.322   72.959  159.884    2.482
  416.750    0.302    0.308   55.720  156.432    2.411
  417.000    0.309    0.326   46.440  154.432    2.410
  417.250    0.308    0.335   39.955  154.193    2.418
  417.500    0.295    0.331   43.168  154.575    2.524
  417.750    0.274    0.319   49.864  155.576    2.633
  418.000    0.257    0.306   56.743  157.097    2.769
  418.250    0.244    0.316   65.303  157.587    2.868
  418.500    0.259    0.329   64.662  157.660    2.850
  418.750    0.276    0.322   57.371  156.074    2.728
  419.000    0.277    0.307   52.378  153.967    2.635
  419.250    0.265    0.305   61.994  153.935    2.556
  419.500    0.267    0.318   64.835  154.315    2.530
  419.750    0.275    0.331   59.221  155.428    2.558
  420.000    0.285    0.325   49.504  156.743    2.624
  420.250    0.292    0.303   44.202  158.059    2.697
  420.500    0.292    0.328   51.829  159.371    2.789
  420.750    0.275    0.324   58.646  157.373    2.883
  421.000    0.258    0.326   62.543  152.990    2.970
  421.250    0.253    0.350   65.260  150.886    3.024
  421.500    0.264    0.355   69.406  151.061    2.894
  421.750    0.272    0.351   64.290  153.517    2.647
  422.000    0.281    0.308   52.212  155.453    2.501
  422.250    0.286    0.293   41.376  156.870    2.466
  422.500    0.222    0.309   73.992  156.839    2.598
  422.750    0.198    0.346   94.921  157.015    2.816
  423.000    0.186    0.368  101.740  160.504    3.051
  423.250    0.207    0.371  105.885  164.825    3.313
  423.500    0.246    0.382  109.596  171.217    3.605
  423.750    0.267    0.404  114.114  177.914    3.782
  424.000    0.243    0.399  111.671  183.378    4.092
  424.250    0.204    0.370  107.796  191.321    4.270
  424.500    0.182    0.348  105.352  182.587    4.212
  424.750    0.191    0.395  105.272  176.547    3.817
  425.000    0.258    0.440  105.751  177.548    3.387
  425.250    0.305    0.484  106.167  180.419    3.012
  425.500    0.311    0.501  106.394  192.404    2.633
  425.750    0.322    0.505  107.497  209.263    2.386
  426.000    0.345    0.510  110.338  193.483    2.249
  426.250    0.359    0.491  114.235  189.617    2.321
  426.500    0.357    0.462  113.406  211.653    2.459
  426.750    0.339    0.454  107.854  208.307    2.670
  427.000    0.343    0.472   98.885  182.580    2.988
  427.250    0.339    0.462   97.685  185.242    3.201
  427.500    0.299    0.397   90.641  193.290    3.373
  427.750    0.212    0.392   83.661  176.477    3.409
  428.000    0.239    0.389   77.736  162.767    3.408
  428.250    0.268    0.368   71.065  157.657    3.405
  428.500    0.262    0.371   70.301  156.070    3.403
  428.750    0.248    0.394   72.893  155.732    3.414
  429.000    0.230    0.416   77.598  158.288    3.419
  429.250    0.253    0.441   82.178  161.571    3.416
  429.500    0.292    0.412   77.000  165.480    3.427
  429.750    0.317    0.376   68.340  164.305    3.432
  430.000    0.320    0.369   61.607  155.469    3.436
  430.250    0.302    0.362   60.905  154.506    3.447
  430.500    0.281    0.348   67.162  153.540    3.497
  430.750    0.267    0.373   73.237  154.027    3.534
  431.000    0.274    0.433   80.739  156.478    3.572
  431.250    0.297    0.447   89.360  161.631    3.666
  431.500    0.296    0.390   81.261  165.327    3.712
  431.750    0.292    0.370   72.974  163.011    3.553
  432.000    0.284    0.337   64.688  160.704    3.368
  432.250    0.275    0.337   66.095  158.495    3.260
  432.500    0.267    0.350   70.555  156.913    3.301
  432.750    0.261    0.366   67.178  156.153    3.419
  433.000    0.254    0.375   63.616  155.911    3.899
  433.250    0.230    0.269   67.825  156.090    4.564
  433.500    0.158    0.230   65.008  157.613    5.345
  433.750    0.073    0.179   58.896  160.170    6.387
  434.000    0.043    0.144   55.272  164.076    7.780
  434.250    0.023    0.124   52.581  166.428    9.657
  434.500    0.004    0.111   50.446  167.736   12.683
  434.750   -0.003    0.106   49.124  168.016   17.559
  435.000    0.003    0.109   48.172  168.298   21.027
  435.250    0.008    0.115   47.656  168.780   22.744
  435.500    0.013    0.121   48.070  168.957   23.429
  435.750    0.023    0.136   49.296  168.616   23.369
  436.000    0.039    0.169   50.455  168.068   20.547
  436.250    0.056    0.203   52.242  166.584   12.161
