~VERSION INFORMATION
 VERS.                 2.0:   CWLS LOG ASCII STANDARD -VERSION 2.0
 WRAP.                  NO:   ONE LINE PER DEPTH STEP
~WELL INFORMATION BLOCK
#MNEM.UNIT           DATA                    DESCRIPTION OF MNEMONIC
#---------    -------------------            -------------------------------
# Generated from Intellog Unique Number	CS_77_79/WELL/1004
WELL.         MAYNARD ET AL THORNBURY        : Well_name    - WELL
LOC .         00/11-31-079-11W4/0            : Location     - LOCATION
UWI .         00/11-31-079-11W4/0            : Uwi          - UNIQUE WELL ID
ENTR.         JHS                            : Entered      - ENTERED BY
SRVC.         SCHLUMBERGER                   : Scn          - SERVICE COMPANY
STRT.M        225                            : top_depth    - START DEPTH
STOP.M        495                            : bot_depth    - STOP DEPTH
STEP.M        0.25                           : increment    - STEP LENGTH
 NULL. -999.2500:NULL Value
~CURVE INFORMATION BLOCK
#MNEM UNIT       ERCB CURVE CODE    CURVE DESCRIPTION
#-----------   ------------------   ----------------------------------
DEPT.M        00 001 00 00         : DEPTH        - DEPTH
DPHI.V/V      00 890 00 00         : PHID         - DENSITY POROSITY (LIMESTONE)
NPHI.V/V      00 330 00 00         : PHIN         - NEUTRON POROSITY (LIMESTONE)
GR  .API      00 310 00 00         : GR           - GAMMA RAY
ILD .OHMM     00 120 00 00         : RESD         - DEEP RESISTIVITY (DIL)
~PARAMETER INFORMATION
#MNEM.UNIT           DATA             DESCRIPTION OF MNEMONIC
#---------         -----------     ------------------------------
GL  .M        688.32               : gl           - GROUND LEVEL ELEVATION
EREF.M        691.52               : kb           - ELEVATION OF DEPTH REFERENCE
DATM.M        691.52               : datum        - DATUM ELEVATION
TDD .M        500                  : tdd          - TOTAL DEPTH DRILLER
RUN .         ONE                  : Run          - RUN NUMBER
ENG .         BILL                 : Engineer     - RECORDING ENGINEER
WIT .         JIM                  : Witness      - WITNESSED BY
MUD .         GEL                  : Mud_type     - MUD TYPE
MATR.         LIMESTONE            : Logunit      - NEUTRON MATRIX
TMAX.C        20                   : BHT          - MAXIMUM RECORDED TEMPERATURE
BHTD.M        500                  : BHTDEP       - MAXIMUM RECORDED TEMPERATURE
MATR.         1                    : LOGUNIT      - NEUTRON MATRIX
RMT .C        25                   : MDTP         - TEMPERATURE OF MUD
NEUT.         1                    : NEUTRON      - NEUTRON TYPE
RESI.         0                    : RESIST       - RESISTIVITY TYPE
RMC .OHMM     0.25                 : RMC          - RESISTIVITY OF MUD CAKE
RMF .OHMM     0.25                 : RMF          - RESISTIVITY OF MUD FILTRATE
SUFT.C        15                   : SUFT         - SURFACE TEMPERATURE
~A  DEPTH     PHID     PHIN       GR     RESD
# ...
  442.500    0.267    0.314   31.587   77.399
  442.750    0.258    0.306   30.921  149.843
  443.000    0.259    0.298   32.117  200.065
  443.250    0.269    0.292   36.378  211.603
  443.500    0.289    0.296   37.564  215.737
  443.750    0.273    0.296   42.432  216.573
  444.000    0.269    0.303   42.996  217.412
  444.250    0.263    0.319   38.040  218.255
  444.500    0.257    0.318   37.386  218.267
  444.750    0.258    0.310   40.409  218.284
  445.000    0.267    0.309   39.756  218.299
  445.250    0.271    0.303   37.246  218.316
  445.500    0.271    0.298   34.128  217.505
  445.750    0.272    0.296   31.630  217.520
  446.000    0.271    0.297   32.186  217.536
  446.250    0.264    0.292   34.618  217.551
  446.500    0.265    0.294   39.490  218.390
  446.750    0.270    0.300   41.265  218.404
  447.000    0.276    0.307   41.226  218.419
  447.250    0.291    0.319   40.584  218.437
  447.500    0.294    0.327   43.598  217.632
  447.750    0.292    0.338   47.849  217.647
  448.000    0.292    0.339   47.820  217.663
  448.250    0.288    0.334   45.932  217.679
  448.500    0.302    0.324   43.419  217.695
  448.750    0.318    0.319   42.770  217.708
  449.000    0.336    0.317   40.266  216.900
  449.250    0.314    0.319   42.059  216.914
  449.500    0.308    0.324   40.798  216.927
  449.750    0.307    0.332   36.444  216.124
  450.000    0.295    0.327   36.409  216.137
  450.250    0.291    0.322   36.968  215.331
  450.500    0.288    0.312   36.317  214.524
  450.750    0.290    0.303   35.647  213.715
  451.000    0.287    0.300   35.612  213.730
  451.250    0.272    0.306   34.947  212.924
  451.500    0.265    0.315   34.283  212.116
  451.750    0.266    0.320   34.853  211.309
  452.000    0.282    0.318   34.815  210.499
  452.250    0.286    0.308   34.160  208.869
  452.500    0.286    0.301   38.421  209.708
  452.750    0.290    0.296   40.200  209.726
  453.000    0.285    0.297   40.782  210.566
  453.250    0.284    0.301   40.741  209.757
  453.500    0.297    0.308   40.075  209.768
  453.750    0.300    0.310   36.347  208.960
  454.000    0.300    0.309   35.071  208.975
  454.250    0.337    0.304   35.648  204.053
  454.500    0.321    0.298   34.361  193.367
  454.750    0.308    0.292   33.712  110.255
  455.000    0.300    0.290   33.058   68.294
  455.250    0.289    0.297   44.070   29.627
  455.500    0.268    0.308   60.612   19.765
  455.750    0.230    0.329   74.082   14.844
  456.000    0.174    0.336   98.005   12.388
  456.250    0.150    0.348  104.108   11.582
  456.500    0.160    0.359  105.273   10.775
  456.750    0.179    0.361  105.859   10.789
  457.000    0.211    0.364  106.425   10.805
  457.250    0.201    0.367  108.839   10.820
  457.500    0.188    0.370  113.089   10.834
  457.750    0.175    0.377  115.495   11.675
  458.000    0.163    0.379  115.465   12.513
  458.250    0.171    0.379  113.576   14.173
  458.500    0.189    0.382  110.464   15.015
  458.750    0.199    0.384  106.115   15.853
  459.000    0.196    0.380  105.457   15.868
  459.250    0.191    0.378  102.959   16.709
  459.500    0.199    0.365   97.380   16.724
  459.750    0.213    0.354   93.037   16.735
  460.000    0.191    0.345   90.523   16.754
  460.250    0.169    0.337   89.869   16.766
  460.500    0.162    0.337   91.665   17.607
  460.750    0.163    0.339   89.776   17.622
  461.000    0.206    0.338   87.284   18.460
  461.250    0.231    0.335   81.711   20.122
  461.500    0.237    0.330   75.512   20.959
  461.750    0.235    0.332   73.636   23.447
  462.000    0.229    0.334   78.495   25.107
  462.250    0.224    0.330   77.829   26.770
  462.500    0.226    0.325   75.341   28.429
  462.750    0.234    0.318   70.999   30.092
  463.000    0.246    0.314   69.717   31.753
  463.250    0.255    0.313   69.677   31.767
  463.500    0.258    0.314   76.397   31.783
  463.750    0.257    0.317   79.419   30.155
  464.000    0.283    0.322   83.066   27.701
  464.250    0.278    0.327   92.229   25.244
  464.500    0.262    0.335  102.022   21.967
  464.750    0.215    0.333  106.278   19.513
  465.000    0.192    0.329  107.464   17.883
  465.250    0.187    0.323  103.726   17.076
  465.500    0.187    0.316   98.773   16.267
  465.750    0.193    0.313   97.501   16.282
  466.000    0.203    0.309   91.918   17.122
  466.250    0.220    0.307   89.414   19.609
  466.500    0.238    0.304   89.992   21.268
  466.750    0.248    0.303   89.328   21.285
  467.000    0.260    0.303   86.829   21.301
  467.250    0.278    0.307   88.009   21.314
  467.500    0.280    0.318   89.808   20.510
  467.750    0.252    0.322   90.382   20.523
  468.000    0.238    0.323   92.797   19.715
  468.250    0.229    0.325   89.677   19.731
  468.500    0.242    0.324   85.327   20.568
  468.750    0.246    0.325   82.216   23.056
  469.000    0.239    0.325   77.251   25.541
  469.250    0.230    0.324   75.980   26.376
  469.500    0.219    0.326   74.705   27.214
  469.750    0.225    0.332   72.209   28.057
  470.000    0.245    0.334   74.002   28.068
  470.250    0.253    0.330   77.032   27.264
  470.500    0.242    0.326   81.288   26.456
  470.750    0.236    0.315   84.315   26.471
  471.000    0.233    0.311   83.663   25.663
  471.250    0.236    0.312   81.161   24.853
  471.500    0.241    0.317   77.419   24.046
  471.750    0.242    0.321   74.312   24.886
  472.000    0.245    0.322   66.896   25.724
  472.250    0.261    0.323   62.548   28.212
  472.500    0.286    0.316   63.720   29.872
  472.750    0.276    0.309   67.365   31.531
  473.000    0.246    0.307   75.934   34.016
  473.250    0.223    0.302   78.953   37.326
  473.500    0.228    0.303   79.532   42.279
  473.750    0.247    0.307   75.795   45.584
  474.000    0.273    0.316   66.534   49.714
  474.250    0.266    0.323   62.189   53.023
  474.500    0.248    0.331   62.149   53.861
  474.750    0.235    0.330   62.710   48.117
  475.000    0.231    0.321   62.050   38.257
  475.250    0.242    0.327   59.553   32.509
  475.500    0.252    0.329   64.418   28.407
  475.750    0.256    0.326   68.668   24.309
  476.000    0.250    0.326   72.323   22.680
  476.250    0.241    0.321   77.199   23.523
  476.500    0.248    0.309   72.839   26.003
  476.750    0.264    0.311   64.816   29.310
  477.000    0.281    0.313   50.028   39.201
  477.250    0.301    0.321   38.922   61.439
  477.500    0.301    0.331   35.811   83.676
  477.750    0.292    0.332   37.610  106.737
  478.000    0.283    0.331   41.249  120.747
  478.250    0.278    0.328   41.804  110.885
  478.500    0.278    0.330   41.772   85.384
  478.750    0.283    0.336   46.634   47.539
  479.000    0.295    0.345   50.900   33.564
  479.250    0.303    0.348   57.608   26.994
  479.500    0.308    0.350   63.707   24.541
  479.750    0.293    0.356   67.352   22.910
  480.000    0.275    0.367   69.773   22.102
  480.250    0.266    0.367   72.796   21.294
  480.500    0.254    0.367   76.442   21.311
  480.750    0.250    0.369   80.074   21.328
  481.000    0.244    0.371   81.875   22.989
  481.250    0.233    0.373   83.054   26.295
  481.500    0.230    0.370   81.783   32.070
  481.750    0.233    0.365   76.212   41.965
  482.000    0.288    0.362   68.802   54.324
  482.250    0.309    0.358   61.383   77.385
  482.500    0.321    0.359   53.354  100.446
  482.750    0.331    0.363   45.309  116.923
  483.000    0.335    0.363   47.111  113.648
  483.250    0.322    0.363   52.598   81.563
  483.500    0.315    0.357   57.469   58.534
  483.750    0.290    0.355   61.118   44.556
  484.000    0.281    0.346   62.902   30.580
  484.250    0.289    0.343   61.638   22.366
  484.500    0.289    0.339   59.134   19.088
  484.750    0.281    0.331   64.614   16.637
  485.000    0.186    0.322   70.716   15.830
  485.250    0.141    0.310   77.423   14.196
  485.500    0.136    0.303   79.853   13.389
  485.750    0.146    0.292   81.650   11.757
