~VERSION INFORMATION
 VERS.                 2.0:   CWLS LOG ASCII STANDARD -VERSION 2.0
 WRAP.                  NO:   ONE LINE PER DEPTH STEP
~WELL INFORMATION BLOCK
#MNEM.UNIT           DATA                    DESCRIPTION OF MNEMONIC
#---------    -------------------            -------------------------------
# Generated from Intellog Unique Number	CS_73_76/WELL/3236
WELL.         PACIFIC KIRBY                  : Well_name    - WELL
LOC .         00/10-16-075-06W4/0            : Location     - LOCATION
UWI .         00/10-16-075-06W4/0            : Uwi          - UNIQUE WELL ID
ENTR.         SP                             : Entered      - ENTERED BY
SRVC.         SCHLUMBERGER                   : Scn          - SERVICE COMPANY
STRT.M        230                            : top_depth    - START DEPTH
STOP.M        493                            : bot_depth    - STOP DEPTH
STEP.M        0.25                           : increment    - STEP LENGTH
 NULL. -999.2500:NULL Value
~CURVE INFORMATION BLOCK
#MNEM UNIT       ERCB CURVE CODE    CURVE DESCRIPTION
#-----------   ------------------   ----------------------------------
DEPT.M        00 001 00 00         : DEPTH        - DEPTH
GR  .API      00 310 00 00         : GR           - GAMMA RAY
NPHI.V/V      00 330 00 00         : PHIN         - NEUTRON POROSITY (LIMESTONE)
DPHI.V/V      00 890 00 00         : PHID         - DENSITY POROSITY (LIMESTONE)
ILD .OHMM     00 120 00 00         : RESD         - DEEP RESISTIVITY (DIL)
~PARAMETER INFORMATION
#MNEM.UNIT           DATA             DESCRIPTION OF MNEMONIC
#---------         -----------     ------------------------------
GL  .M        621.4                : gl           - GROUND LEVEL ELEVATION
EREF.M        625.6                : kb           - ELEVATION OF DEPTH REFERENCE
DATM.M        621.4                : datum        - DATUM ELEVATION
TDD .M        490                  : tdd          - TOTAL DEPTH DRILLER
RUN .         ONE                  : Run          - RUN NUMBER
ENG .         BILL                 : Engineer     - RECORDING ENGINEER
WIT .         JIM                  : Witness      - WITNESSED BY
MUD .         GEL                  : Mud_type     - MUD TYPE
MATR.         LIMESTONE            : Logunit      - NEUTRON MATRIX
TMAX.C        22                   : BHT          - MAXIMUM RECORDED TEMPERATURE
BHTD.M        490                  : BHTDEP       - MAXIMUM RECORDED TEMPERATURE
MATR.         1                    : LOGUNIT      - NEUTRON MATRIX
RMT .C        25                   : MDTP         - TEMPERATURE OF MUD
NEUT.         1                    : NEUTRON      - NEUTRON TYPE
RESI.         0                    : RESIST       - RESISTIVITY TYPE
RMC .OHMM     0.25                 : RMC          - RESISTIVITY OF MUD CAKE
RMF .OHMM     0.25                 : RMF          - RESISTIVITY OF MUD FILTRATE
SUFT.C        15                   : SUFT         - SURFACE TEMPERATURE
~A  DEPTH       GR     PHIN     PHID     RESD
# ...
  360.500   97.227    0.552    0.254    3.268
  360.750   94.791    0.542    0.261    3.518
  361.000   90.530    0.532    0.271    3.719
  361.250   86.273    0.526    0.288    3.931
  361.500   78.370    0.516    0.306    4.079
  361.750   71.683    0.466    0.317    4.233
  362.000   72.281    0.429    0.306    4.392
  362.250   74.703    0.453    0.286    4.729
  362.500   71.656    0.460    0.276    4.999
  362.750   69.826    0.462    0.267    5.690
  363.000   70.427    0.458    0.254    6.477
  363.250   70.420    0.427    0.196    7.510
  363.500   67.982    0.348    0.141    7.938
  363.750   72.221    0.309    0.160    8.086
  364.000   75.252    0.359    0.208    6.844
  364.250   78.281    0.405    0.274    5.183
  364.500   76.452    0.452    0.323    4.307
  364.750   75.228    0.469    0.317    3.782
  365.000   75.222    0.474    0.294    3.512
  365.250   74.606    0.474    0.283    3.384
  365.500   73.990    0.491    0.306    3.322
  365.750   75.198    0.507    0.308    3.446
  366.000   79.441    0.511    0.304    3.510
  366.250   84.894    0.465    0.291    3.643
  366.500   87.316    0.446    0.253    3.710
  366.750   90.345    0.455    0.233    4.070
  367.000   91.554    0.466    0.240    4.548
  367.250   81.220    0.486    0.197    5.273
  367.500   75.749    0.484    0.154    5.892
  367.750   67.846    0.415    0.103    6.345
  368.000   67.231    0.376    0.073    6.832
  368.250   73.903    0.325    0.176    6.706
  368.500   81.788    0.365    0.208    5.890
  368.750   87.246    0.454    0.216    5.173
  369.000   92.704    0.484    0.204    5.078
  369.250   96.339    0.481    0.212    4.984
  369.500   96.329    0.474    0.219    4.983
  369.750   95.717    0.462    0.223    5.076
  370.000   95.709    0.459    0.223    5.075
  370.250   93.877    0.467    0.233    5.170
  370.500   93.263    0.480    0.234    5.364
  370.750   92.648    0.469    0.220    5.464
  371.000   94.461    0.462    0.215    5.463
  371.250   95.668    0.474    0.218    5.463
  371.500   95.052    0.489    0.223    5.564
  371.750   93.219    0.501    0.226    5.563
  372.000   92.608    0.506    0.226    5.667
  372.250   91.990    0.477    0.226    5.666
  372.500   91.985    0.458    0.218    5.666
  372.750   93.798    0.450    0.209    5.665
  373.000   96.827    0.453    0.199    5.561
  373.250  100.460    0.453    0.193    5.458
  373.500  101.668    0.453    0.199    5.357
  373.750  101.660    0.471    0.227    4.974
  374.000  100.438    0.484    0.249    4.793
  374.250   98.000    0.469    0.231    4.533
  374.500   94.347    0.461    0.209    4.056
  374.750   91.304    0.471    0.216    3.766
  375.000   88.867    0.478    0.222    3.129
  375.250   87.644    0.490    0.230    2.852
  375.500   85.812    0.500    0.250    2.648
  375.750   85.197    0.517    0.267    2.414
  376.000   84.583    0.541    0.288    2.283
  376.250   84.577    0.558    0.299    2.241
  376.500   83.962    0.574    0.272    2.240
  376.750   83.345    0.590    0.265    2.282
  377.000   82.124    0.584    0.272    2.282
  377.250   86.366    0.572    0.277    2.324
  377.500   91.215    0.563    0.278    2.368
  377.750   93.635    0.557    0.256    2.367
  378.000   94.843    0.558    0.255    2.456
  378.250   95.444    0.551    0.253    2.596
  378.500   94.829    0.544    0.232    2.848
  378.750   91.175    0.555    0.229    3.011
  379.000   89.954    0.564    0.237    3.622
  379.250   89.339    0.516    0.220    3.973
  379.500   89.936    0.492    0.212    4.359
  379.750   89.930    0.476    0.204    4.870
  380.000   90.526    0.465    0.223    5.053
  380.250   90.521    0.468    0.240    5.543
  380.500   91.725    0.456    0.228    5.752
  380.750   92.327    0.446    0.213    5.859
  381.000   93.531    0.445    0.223    5.858
  381.250   94.133    0.446    0.224    5.439
  381.500   95.339    0.459    0.178    4.867
  381.750   96.545    0.475    0.189    4.274
  382.000   97.751    0.491    0.199    3.896
  382.250   96.530    0.511    0.217    3.824
  382.500   94.699    0.528    0.190    3.824
  382.750   93.477    0.504    0.187    4.041
  383.000   93.468    0.486    0.195    4.117
  383.250   93.460    0.484    0.200    4.193
  383.500   93.453    0.479    0.204    3.752
  383.750   92.839    0.491    0.218    3.484
  384.000   92.221    0.498    0.219    3.295
  384.250   91.607    0.503    0.223    3.234
  384.500   90.385    0.507    0.245    3.294
  384.750   87.948    0.513    0.256    4.190
  385.000   84.903    0.525    0.264    5.043
  385.250   82.466    0.473    0.273    6.908
  385.500   78.813    0.478    0.257    9.289
  385.750   76.983    0.497    0.272   14.220
  386.000   75.761    0.500    0.289   20.214
  386.250   74.539    0.483    0.304   21.367
  386.500   74.531    0.468    0.269   22.171
  386.750   75.737    0.479    0.264   22.583
  387.000   75.123    0.492    0.284   23.431
  387.250   69.042    0.496    0.270   23.428
  387.500   68.425    0.482    0.286   23.864
  387.750   69.629    0.467    0.295   23.862
  388.000   69.622    0.483    0.280   23.860
  388.250   70.832    0.493    0.271   23.858
  388.500   71.430    0.476    0.262   22.987
  388.750   71.419    0.443    0.245   22.563
  389.000   70.807    0.433    0.251   21.739
  389.250   70.192    0.453    0.272   21.339
  389.500   70.184    0.461    0.290   20.945
  389.750   70.173    0.472    0.274   20.943
  390.000   70.167    0.493    0.261   20.556
  390.250   70.769    0.471    0.267   20.554
  390.500   71.973    0.463    0.289   20.552
  390.750   72.573    0.463    0.299   20.549
  391.000   72.565    0.475    0.302   20.547
  391.250   70.127    0.483    0.294   20.928
  391.500   66.477    0.481    0.251   20.926
  391.750   61.609    0.475    0.219   20.924
  392.000   58.567    0.441    0.162   21.313
  392.250   52.487    0.413    0.128   21.310
  392.500   48.228    0.355    0.268   21.308
  392.750   49.433    0.389    0.284   21.306
  393.000   54.888    0.402    0.288   21.305
  393.250   56.705    0.420    0.290   21.302
  393.500   59.734    0.435    0.289   21.299
  393.750   60.332    0.437    0.283   20.907
  394.000   59.109    0.433    0.282   20.144
  394.250   62.136    0.431    0.284   19.773
  394.500   64.558    0.440    0.286   17.048
  394.750   66.372    0.450    0.283   14.973
  395.000   68.186    0.444    0.257   13.152
  395.250   70.000    0.451    0.263   11.988
  395.500   71.812    0.433    0.246   11.130
  395.750   73.021    0.424    0.235   10.925
  396.000   73.013    0.413    0.245   11.128
  396.250   71.181    0.417    0.253   11.335
  396.500   69.961    0.439    0.258   11.545
  396.750   70.559    0.448    0.268   11.980
  397.000   75.410    0.445    0.263   11.978
  397.250   81.474    0.436    0.259   11.542
  397.500   84.502    0.426    0.256   10.137
  397.750   85.098    0.422    0.251    9.240
  398.000   84.487    0.421    0.251   10.518
  398.250   76.584    0.447    0.266   13.629
  398.500   70.504    0.446    0.280   17.991
  398.750   72.920    0.414    0.270   20.479
  399.000   75.344    0.404    0.263   22.883
  399.250   80.802    0.397    0.256   24.188
  399.500   86.865    0.398    0.264   25.098
  399.750   91.108    0.402    0.258   23.739
  400.000   96.184    0.427    0.223   15.319
  400.250   96.193    0.435    0.249   14.216
  400.500   97.427    0.436    0.241   12.248
  400.750  101.074    0.426    0.229   11.158
  401.000  104.720    0.422    0.227   10.354
  401.250   88.412    0.420    0.230   10.348
  401.500   81.179    0.405    0.223   11.139
  401.750   77.563    0.395    0.229   12.219
  402.000   71.533    0.384    0.236   14.434
  402.250   64.897    0.373    0.252   17.051
  402.500   60.080    0.365    0.260   21.295
  402.750   60.098    0.358    0.253   27.094
  403.000   63.142    0.362    0.262   32.008
  403.250   63.767    0.371    0.268   31.989
  403.500   61.367    0.377    0.270   29.138
  403.750   63.804    0.388    0.261   23.307
