~VERSION INFORMATION
 VERS.                 2.0:   CWLS LOG ASCII STANDARD -VERSION 2.0
 WRAP.                  NO:   ONE LINE PER DEPTH STEP
~WELL INFORMATION BLOCK
#MNEM.UNIT           DATA                    DESCRIPTION OF MNEMONIC
#---------    -------------------            -------------------------------
# Generated from Intellog Unique Number	CN_91_93/WELL/3054
WELL.         11-08-092-21W4                 : Well_name    - WELL
LOC .         00/11-08-092-21W4/0            : Location     - LOCATION
UWI .         00/11-08-092-21W4/0            : Uwi          - UNIQUE WELL ID
ENTR.         JOETTE                         : Entered      - ENTERED BY
SRVC.         SCHLUMBERGER                   : Scn          - SERVICE COMPANY
DATE.         04/09/92                       : Date         - LOG DATE
STRT.F        300                            : top_depth    - START DEPTH
STOP.F        889.731                        : bot_depth    - STOP DEPTH
STEP.F        0.82                           : increment    - STEP LENGTH
 NULL. -999.2500:NULL Value
~CURVE INFORMATION BLOCK
#MNEM UNIT       ERCB CURVE CODE    CURVE DESCRIPTION
#-----------   ------------------   ----------------------------------
DEPT.F        00 001 00 00         : DEPTH        - DEPTH
CALI.IN       00 280 01 00         : CAL          - CALIPER
GR  .API      00 310 00 00         : GR           - GAMMA RAY
NPHI.V/V      00 330 00 00         : PHIN         - NEUTRON POROSITY (SANDSTONE)
DPHI.V/V      00 890 00 00         : PHID         - DENSITY POROSITY (SANDSTONE)
ILD .OHMM     00 120 00 00         : RESD         - DEEP RESISTIVITY (DIL)
~PARAMETER INFORMATION
#MNEM.UNIT           DATA             DESCRIPTION OF MNEMONIC
#---------         -----------     ------------------------------
GL  .M        547.421              : gl           - GROUND LEVEL ELEVATION
EREF.M        551.383              : kb           - ELEVATION OF DEPTH REFERENCE
DATM.M        551.383              : datum        - DATUM ELEVATION
TDD .M        274.32               : tdd          - TOTAL DEPTH DRILLER
RUN .         ONE                  : Run          - RUN NUMBER
ENG .         BILL                 : Engineer     - RECORDING ENGINEER
WIT .         JIM                  : Witness      - WITNESSED BY
MUD .         GEL                  : Mud_type     - MUD TYPE
MATR.         SANDSTONE            : Logunit      - NEUTRON MATRIX
TMAX.F        67                   : BHT          - MAXIMUM RECORDED TEMPERATURE
BHTD.F        900                  : BHTDEP       - MAXIMUM RECORDED TEMPERATURE
RMT .F        64                   : MDTP         - TEMPERATURE OF MUD
MUDD.LB/G     9.25                 : MWT          - MUD DENSITY
NEUT.         1                    : NEUTRON      - NEUTRON TYPE
RESI.         0                    : RESIST       - RESISTIVITY TYPE
RM  .OHMM     4.31                 : RM           - RESISTIVITY OF MUD
RMC .OHMM     4.31                 : RMC          - RESISTIVITY OF MUD CAKE
RMF .OHMM     3.38                 : RMF          - RESISTIVITY OF MUD FILTRATE
SUFT.F        39.2                 : SUFT         - SURFACE TEMPERATURE
~A  DEPTH      CAL       GR     PHIN     PHID     RESD
# ...
  419.751    8.364   85.103    0.524    0.209    9.507
  420.571    8.407   83.271    0.511    0.215   10.457
  421.391    8.449   84.532    0.491    0.201   11.070
  422.211    8.492   84.556    0.484    0.171   11.720
  423.031    8.493   83.947    0.475    0.177   11.943
  423.852    8.494   80.878    0.469    0.181   10.851
  424.672    8.495   77.190    0.461    0.157    9.860
  425.492    8.497   75.344    0.446    0.121    8.300
  426.312    8.457   72.888    0.430    0.102    6.113
  427.133    8.458   73.526    0.422    0.144    5.554
  427.953    8.336   78.494    0.435    0.176    5.448
  428.773    8.296   81.606    0.454    0.170    5.446
  429.593    8.298   82.863    0.469    0.183    5.445
  430.413    8.298   81.026    0.482    0.200    5.655
  431.234    8.341   79.189    0.498    0.199    6.220
  432.054    8.384   78.590    0.488    0.193    8.442
  432.874    8.385   77.376    0.486    0.202    9.109
  433.694    8.304   76.158    0.482    0.210    9.645
  434.514    8.223   73.084    0.477    0.217   10.408
  435.335    8.224   69.392    0.474    0.230   11.231
  436.155    8.143   68.169    0.459    0.228   11.665
  436.975    8.144   70.662    0.466    0.213   11.886
  437.795    8.063   74.403    0.466    0.217   11.883
  438.615    8.188   75.031    0.453    0.213   11.656
  439.436    8.271   75.669    0.453    0.210   11.432
  440.256    8.273   73.837    0.443    0.218   11.427
  441.076    8.274   72.000    0.442    0.222   11.645
  441.896    8.234   73.875    0.461    0.208   12.327
  442.717    8.235   74.508    0.478    0.192   12.562
  443.537    8.237   72.681    0.471    0.186   12.560
  444.357    8.238   72.077    0.450    0.179   11.631
  445.177    8.239   72.101    0.451    0.190   10.982
  445.997    8.241   72.115    0.454    0.201    9.979
  446.818    8.241   73.376    0.460    0.198    9.241
  447.638    8.243   75.870    0.454    0.190    9.240
  448.458    8.286   77.121    0.454    0.193    9.781
  449.278    8.287   79.615    0.463    0.201   10.159
  450.098    8.248   83.964    0.472    0.213   10.157
  450.919    8.207   85.844    0.480    0.215   10.350
  451.739    8.085   82.770    0.466    0.208   10.152
  452.559    8.004   81.547    0.444    0.193    9.769
  453.379    8.046   78.478    0.450    0.211    9.222
  454.199    8.130   77.879    0.450    0.210    8.066
  455.020    8.213   76.660    0.442    0.199    6.921
  455.840    8.215   76.061    0.445    0.188    5.826
  456.660    8.216   76.080    0.456    0.158    4.290
  457.480    8.217   73.001    0.471    0.130    3.825
  458.301    8.260   76.732    0.469    0.141    3.475
  459.121    8.343   84.175    0.484    0.200    3.474
  459.941    8.427   85.436    0.547    0.213    3.821
  460.761    8.428   82.976    0.601    0.209    4.284
  461.581    8.389   81.144    0.592    0.202    4.450
  462.402    8.390   84.256    0.575    0.199    4.711
  463.222    8.391   87.373    0.542    0.195    5.084
  464.042    8.393   88.625    0.509    0.193    5.486
  464.862    8.394   86.174    0.510    0.185    5.698
  465.682    8.395   83.100    0.495    0.188    5.177
  466.503    8.396   80.645    0.484    0.184    4.888
  467.323    8.356   80.045    0.481    0.184    4.441
  468.143    8.357   78.209    0.488    0.190    4.356
  468.963    8.359   77.609    0.486    0.180    4.191
  469.783    8.361   77.010    0.481    0.196    4.190
  470.604    8.362   77.647    0.489    0.212    4.110
  471.424    8.363   80.755    0.504    0.211    4.031
  472.244    8.323   83.867    0.522    0.195    3.953
  473.064    8.283   82.649    0.506    0.164    3.953
  473.885    8.161   80.812    0.501    0.131    3.951
  474.705    8.203   86.399    0.510    0.153    4.027
  475.525    8.370   88.892    0.530    0.175    4.103
  476.345    8.412   84.581    0.538    0.186    4.344
  477.165    8.496   84.600    0.531    0.192    4.427
  477.986    8.497   85.238    0.525    0.202    4.598
  478.806    8.498   84.639    0.506    0.194    4.868
  479.626    8.459   84.658    0.517    0.199    5.056
  480.446    8.418   85.914    0.528    0.194    5.054
  481.266    8.379   87.180    0.495    0.161    5.053
  482.087    8.338   88.437    0.489    0.133    4.956
  482.907    8.298   86.600    0.487    0.086    4.769
  483.727    8.300   85.377    0.498    0.054    4.589
  484.547    8.301   89.108    0.491    0.073    4.416
  485.367    8.343   93.462    0.497    0.103    4.249
  486.188    8.386   95.337    0.548    0.120    4.167
  487.008    8.429   97.212    0.533    0.147    4.166
  487.828    8.471   97.845    0.526    0.159    4.165
  488.648    8.513   97.864    0.503    0.164    4.163
  489.469    8.556   96.027    0.492    0.165    4.163
  490.289    8.599   94.191    0.492    0.155    5.437
  491.109    8.641   97.308    0.505    0.145    4.847
  491.929    8.684   99.187    0.511    0.142    4.940
  492.749    8.685   99.197    0.500    0.141    5.130
  493.570    8.686   99.216    0.504    0.140    5.129
  494.390    8.647   97.998    0.520    0.150    5.127
  495.210    8.565   98.017    0.534    0.173    5.029
  496.030    8.443   98.036    0.542    0.178    4.933
  496.850    8.362   98.674    0.522    0.192    4.568
  497.671    8.363  105.507    0.521    0.163    4.396
  498.491    8.406  107.378    0.520    0.149    4.230
  499.311    8.407  106.160    0.513    0.170    4.229
  500.131    8.408  103.086    0.504    0.179    4.477
  500.951    8.409   98.775    0.510    0.178    4.740
  501.772    8.411   94.463    0.523    0.184    4.924
  502.592    8.412   92.631    0.546    0.179    5.213
  503.412    8.454   93.269    0.546    0.180    5.624
  504.232    8.455   91.432    0.510    0.160    5.842
  505.052    8.416   88.358    0.494    0.148    6.185
  505.873    8.376   84.661    0.478    0.163    6.424
  506.693    8.254   81.587    0.473    0.181    6.672
  507.513    8.172   77.285    0.470    0.186    6.544
  508.333    8.132   76.058    0.475    0.196    6.297
  509.154    8.051   75.458    0.485    0.202    5.722
  509.974    8.052   76.096    0.500    0.199    5.004
  510.794    8.094   76.739    0.489    0.163    4.547
  511.614    8.138   77.372    0.462    0.148    4.132
  512.434    8.222   79.870    0.452    0.184    3.901
  513.255    8.264   82.982    0.490    0.184    3.826
  514.075    8.348   84.852    0.520    0.181    3.753
  514.895    8.308   89.207    0.535    0.189    3.751
  515.715    8.267   89.844    0.524    0.200    3.823
  516.535    8.145   87.389    0.515    0.207    4.047
  517.356    8.064   86.171    0.508    0.212    4.124
  518.176    8.066   83.716    0.513    0.193    4.536
  518.996    8.067   81.260    0.514    0.188    4.989
  519.816    8.109   80.042    0.504    0.187    5.488
  520.636    8.193   83.150    0.492    0.177    5.810
  521.457    8.235   88.123    0.484    0.185    6.035
  522.277    8.402   91.235    0.489    0.180    6.033
  523.097    8.444   91.872    0.482    0.188    5.804
  523.917    8.486   88.799    0.479    0.184    5.586
  524.738    8.530   86.962    0.489    0.177    5.375
  525.558    8.530   88.837    0.499    0.180    5.272
  526.378    8.490   93.805    0.511    0.174    5.270
  527.198    8.492   93.205    0.506    0.166    5.269
  528.018    8.452   90.750    0.501    0.167    5.267
  528.839    8.453   88.295    0.493    0.167    5.368
  529.659    8.454   88.937    0.490    0.154    5.366
  530.479    8.414   87.719    0.489    0.140    5.468
  531.299    8.374   84.645    0.480    0.148    5.571
  532.119    8.334   82.190    0.479    0.135    5.678
  532.940    8.336   84.683    0.484    0.151    6.011
  533.760    8.337   85.321    0.491    0.176    6.487
  534.580    8.380   85.335    0.496    0.168    7.000
  535.400    8.381   84.117    0.483    0.165    7.553
  536.220    8.382   85.374    0.484    0.172    7.997
  537.041    8.383   82.918    0.485    0.170    8.629
  537.861    8.344   80.463    0.469    0.158    8.963
  538.681    8.345   78.626    0.456    0.146    9.133
