~VERSION INFORMATION
 VERS.                 2.0:   CWLS LOG ASCII STANDARD -VERSION 2.0
 WRAP.                  NO:   ONE LINE PER DEPTH STEP
~WELL INFORMATION BLOCK
#MNEM.UNIT           DATA                    DESCRIPTION OF MNEMONIC
#---------    -------------------            -------------------------------
# Generated from Intellog Unique Number	CW_76_78/WELL/2587
WELL.         SCURRY ET AL MISTAHAE          : Well_name    - WELL
LOC .         00/13-06-078-01W5/0            : Location     - LOCATION
UWI .         00/13-06-078-01W5/0            : Uwi          - UNIQUE WELL ID
ENTR.         MAX                            : Entered      - ENTERED BY
SRVC.         WESTERN ATLAS                  : Scn          - SERVICE COMPANY
STRT.M        330                            : top_depth    - START DEPTH
STOP.M        585                            : bot_depth    - STOP DEPTH
STEP.M        0.25                           : increment    - STEP LENGTH
 NULL. -999.2500:NULL Value
~CURVE INFORMATION BLOCK
#MNEM UNIT       ERCB CURVE CODE    CURVE DESCRIPTION
#-----------   ------------------   ----------------------------------
DEPT.M        00 001 00 00         : DEPTH        - DEPTH
ILD .OHMM     00 120 00 00         : RESD         - DEEP RESISTIVITY (DIL)
NPHI.V/V      00 330 00 00         : PHIN         - NEUTRON POROSITY (SANDSTONE)
DPHI.V/V      00 890 00 00         : PHID         - DENSITY POROSITY (SANDSTONE)
CALI.MM       00 280 01 00         : CAL          - CALIPER
GR  .API      00 310 00 00         : GR           - GAMMA RAY
~PARAMETER INFORMATION
#MNEM.UNIT           DATA             DESCRIPTION OF MNEMONIC
#---------         -----------     ------------------------------
GL  .M        633.3                : gl           - GROUND LEVEL ELEVATION
EREF.M        637.67               : kb           - ELEVATION OF DEPTH REFERENCE
DATM.M        633.3                : datum        - DATUM ELEVATION
TDD .M        611                  : tdd          - TOTAL DEPTH DRILLER
RUN .         ONE                  : Run          - RUN NUMBER
ENG .         BILL                 : Engineer     - RECORDING ENGINEER
WIT .         JIM                  : Witness      - WITNESSED BY
MUD .         GEL                  : Mud_type     - MUD TYPE
MATR.         SANDSTONE            : Logunit      - NEUTRON MATRIX
TMAX.C        29                   : BHT          - MAXIMUM RECORDED TEMPERATURE
BHTD.M        611                  : BHTDEP       - MAXIMUM RECORDED TEMPERATURE
RMT .C        17                   : MDTP         - TEMPERATURE OF MUD
MUDD.KG/M     1220                 : MWT          - MUD DENSITY
NEUT.         1                    : NEUTRON      - NEUTRON TYPE
RESI.         0                    : RESIST       - RESISTIVITY TYPE
RM  .OHMM     3.7                  : RM           - RESISTIVITY OF MUD
RMC .OHMM     2                    : RMC          - RESISTIVITY OF MUD CAKE
RMF .OHMM     4                    : RMF          - RESISTIVITY OF MUD FILTRATE
SUFT.C        -10                  : SUFT         - SURFACE TEMPERATURE
~A  DEPTH     RESD     PHIN     PHID      CAL       GR
  330.000    2.607    0.449    0.233  211.860   99.578
  330.250    2.630    0.448    0.230  209.848   99.843
  330.500    2.629    0.447    0.226  209.793   99.806
  330.750    2.627    0.443    0.218  214.648   98.002
  331.000    2.650    0.441    0.202  218.500   97.089
  331.250    2.649    0.447    0.202  218.936   98.529
  331.500    2.671    0.445    0.216  214.476   99.380
  331.750    2.671    0.443    0.234  208.523   98.754
  332.000    2.693    0.446    0.232  206.504  101.069
  332.250    2.716    0.449    0.227  206.442  102.222
  332.500    2.714    0.450    0.225  206.878  102.480
  332.750    2.738    0.450    0.215  206.319  102.148
  333.000    2.738    0.446    0.206  204.805  101.817
  333.250    2.735    0.436    0.201  203.270  100.908
  333.500    2.810    0.420    0.208  202.240   96.751
  333.750    2.966    0.425    0.213  202.669   93.466
  334.000    3.160    0.432    0.212  205.062   93.441
  334.250    3.188    0.429    0.215  207.953   93.997
  334.500    3.185    0.425    0.233  211.334   90.130
  334.750    3.363    0.438    0.240  211.771   83.912
  335.000    4.262    0.440    0.265  208.279   77.983
  335.250    5.255    0.425    0.274  199.366   74.710
  335.500    7.362    0.401    0.282  199.816   72.022
  335.750    9.078    0.391    0.297  202.216   69.039
  336.000   10.596    0.376    0.305  206.573   65.770
  336.250   11.393    0.372    0.308  204.063   60.136
  336.500   11.810    0.365    0.308  200.087   57.742
  336.750   11.810    0.370    0.309  197.080   57.120
  337.000   12.012    0.369    0.315  198.007   56.792
  337.250   12.342    0.371    0.319  201.388   57.349
  337.500   12.562    0.369    0.315  202.308   58.199
  337.750   12.562    0.360    0.314  200.276   57.283
  338.000   12.779    0.359    0.316  199.246   56.652
  338.250   13.248    0.360    0.317  199.682   57.208
  338.500   13.986    0.362    0.319  200.125   58.648
  338.750   13.986    0.367    0.320  200.056   59.503
  339.000   15.026    0.373    0.322  200.499   59.172
  339.250   17.383    0.373    0.323  200.444   57.960
  339.500   18.690    0.370    0.323  198.418   57.629
  339.750   20.655    0.357    0.318  196.400   56.417
  340.000   24.331    0.340    0.274  195.854   55.501
  340.250   26.397    0.324    0.216  197.265   58.708
  340.500   26.628    0.346    0.203  199.180   62.795
  340.750   25.659    0.394    0.293  203.053   64.828
  341.000   24.278    0.412    0.305  202.984   76.873
  341.250   24.265    0.410    0.295  200.959   83.619
  341.500   25.616    0.397    0.278  198.940   84.756
  341.750   28.831    0.393    0.254  199.376   81.781
  342.000   35.225    0.380    0.255  201.783   75.853
  342.250   43.033    0.376    0.258  207.121   71.696
  342.500   48.427    0.353    0.245  210.994   63.705
  342.750   52.543    0.336    0.222  212.896   56.603
  343.000   52.041    0.318    0.182  212.834   55.089
  343.250   50.612    0.301    0.177  210.829   51.230
  343.500   44.514    0.316    0.198  204.883   50.899
  343.750   35.091    0.338    0.273  198.439   52.633
  344.000   32.306    0.383    0.302  195.438   55.550
  344.250   31.991    0.385    0.331  195.383   56.397
  344.500   33.166    0.372    0.321  197.285   53.123
  344.750   32.253    0.348    0.275  197.223   50.431
  345.000   28.627    0.339    0.276  195.211   50.697
  345.250   26.354    0.355    0.297  193.186   53.016
  345.500   25.630    0.372    0.310  192.156   55.045
  345.750   25.151    0.372    0.311  194.549   49.714
  346.000   25.140    0.361    0.287  200.869   47.022
  346.250   30.159    0.345    0.254  200.808   45.810
  346.500   29.868    0.329    0.258  200.275   45.479
  346.750   27.497    0.330    0.273  212.003   44.272
  347.000   19.785    0.326    0.267  217.833   40.994
  347.250   12.758    0.292    0.235  215.821   40.965
  347.500   12.072    0.306    0.254  210.352   44.758
  347.750   12.288    0.332    0.290  204.405   52.093
  348.000   12.737    0.399    0.332  198.452   55.296
  348.250   12.273    0.418    0.365  193.979   55.554
  348.500   11.827    0.418    0.352  190.487   55.816
  348.750   11.606    0.416    0.348  186.989   56.961
  349.000   11.707    0.415    0.344  184.479   57.517
  349.250   12.136    0.416    0.339  182.944   56.891
  349.500   13.410    0.415    0.339  182.405   55.684
  349.750   14.288    0.409    0.345  183.816   53.294
  350.000   14.675    0.400    0.343  185.732   50.606
  350.250   14.797    0.396    0.341  188.623   54.697
  350.500   14.794    0.395    0.338  188.568   54.361
  350.750   14.787    0.397    0.333  188.997   54.034
  351.000   14.644    0.404    0.333  193.354   54.299
  351.250   14.638    0.404    0.337  196.742   54.266
  351.500   14.492    0.401    0.340  198.160   53.939
  351.750   14.357    0.394    0.341  197.123   53.014
  352.000   14.089    0.387    0.345  195.098   52.400
  352.250   13.828    0.387    0.346  195.036   53.828
  352.500   13.693    0.388    0.343  196.945   56.744
  352.750   14.194    0.387    0.341  197.388   58.184
  353.000   15.975    0.385    0.337  193.875   58.740
  353.250   18.310    0.368    0.331  198.253   56.060
  353.500   18.808    0.346    0.290  204.082   53.078
  353.750   18.291    0.322    0.240  201.580   52.750
  354.000   16.685    0.309    0.225  197.099   53.306
  354.250   15.223    0.348    0.257  197.044   54.738
  354.500   13.761    0.383    0.314  197.971   57.066
  354.750   12.783    0.383    0.328  197.425   61.153
  355.000   12.546    0.381    0.332  194.411   59.356
  355.250   12.546    0.381    0.334  193.872   58.431
  355.500   12.533    0.383    0.337  193.803   59.585
  355.750   12.874    0.385    0.346  194.730   57.183
  356.000   13.715    0.387    0.350  196.155   55.387
  356.250   14.089    0.388    0.352  199.046   55.653
  356.500   14.211    0.390    0.344  201.439   57.669
  356.750   13.945    0.392    0.345  202.366   56.761
  357.000   12.722    0.398    0.353  204.281   54.952
  357.250   10.690    0.404    0.358  205.208   54.633
  357.500   10.024    0.428    0.357  204.649   53.409
  357.750    9.748    0.430    0.343  203.121   51.613
  358.000    9.478    0.429    0.330  200.120   48.331
  358.250    9.473    0.406    0.316  199.076   48.303
  358.500    9.643    0.388    0.316  199.028   50.925
  358.750   10.089    0.384    0.322  199.955   55.601
  359.000   10.946    0.387    0.329  200.378   54.394
  359.250   12.207    0.394    0.335  200.330   49.050
  359.500   12.769    0.398    0.336  200.759   49.901
  359.750   12.647    0.394    0.332  202.184   53.403
  360.000   11.966    0.390    0.321  204.576   54.250
  360.250   10.335    0.386    0.310  205.497   54.507
  360.500    9.173    0.385    0.306  203.485   54.777
  360.750    9.173    0.385    0.311  201.957   55.628
  361.000    8.595    0.385    0.310  202.393   60.300
  361.250    8.359    0.384    0.294  204.302   59.976
  361.500    8.666    0.380    0.291  206.197   57.877
  361.750    9.233    0.366    0.288  207.124   56.965
  362.000    9.312    0.351    0.284  208.542   65.180
  362.250    9.056    0.346    0.247  207.512   68.968
  362.500    9.218    0.337    0.212  204.006   71.005
  362.750    9.045    0.335    0.197  203.467   77.158
  363.000    8.717    0.334    0.207  204.872   84.784
  363.250    8.247    0.336    0.217  204.319   90.642
  363.500    7.663    0.339    0.211  202.798   94.729
  363.750    7.054    0.344    0.211  200.779   96.173
  364.000    6.736    0.347    0.214  201.706   98.497
  364.250    6.491    0.350    0.213  204.106  102.883
  364.500    6.141    0.352    0.211  205.524  103.435
  364.750    5.706    0.356    0.207  204.487  105.464
  365.000    5.302    0.371    0.203  200.013  107.791
  365.250    4.749    0.380    0.210  201.418  106.572
  365.500    4.292    0.395    0.209  204.308  104.481
  365.750    4.369    0.402    0.209  206.224   97.374
  366.000    5.242    0.409    0.217  203.217   75.539
  366.250    6.642    0.395    0.243  200.223   59.595
