~VERSION INFORMATION
 VERS.                 2.0:   CWLS LOG ASCII STANDARD -VERSION 2.0
 WRAP.                  NO:   ONE LINE PER DEPTH STEP
~WELL INFORMATION BLOCK
#MNEM.UNIT           DATA                    DESCRIPTION OF MNEMONIC
#---------    -------------------            -------------------------------
# Generated from Intellog Unique Number	CC_80_83/WELL/2352
NULL.         -999.25                        : NULL_VALUE
WELL.         ARCO ET AL PONY                : Well_name    - WELL              
LOC .         10-14-080-08W4                 : Location     - LOCATION          
UWI .         00/10-14-080-08W400            : Uwi          - UNIQUE WELL ID    
ENTR.         DW                             : Entered      - ENTERED BY        
SRVC.         SCHLUMBERGER                   : Scn          - SERVICE COMPANY   
DATE.         17 feb 70                      : Date         - LOG DATE
STRT.M        198.12                         : top_depth    - START DEPTH       
STOP.M        420.933                        : bot_depth    - STOP DEPTH        
STEP.M        0.305                          : increment    - STEP LENGTH       
~CURVE INFORMATION BLOCK
#MNEM UNIT       ERCB CURVE CODE    CURVE DESCRIPTION
#-----------   ------------------   ----------------------------------
DEPT.M        00 001 00 00         : DEPTH        - DEPTH                       
DPHI.V/V      00 890 00 00         : PHID         - DENSITY POROSITY (LIMESTONE)
GR  .API      00 310 00 00         : GR           - GAMMA RAY                   
NPHI.V/V      00 330 00 00         : PHIN         - NEUTRON POROSITY (LIMESTONE)
ILD .OHMM     00 120 00 00         : RESD         - DEEP RESISTIVITY (DIL)      
~PARAMETER INFORMATION       
#MNEM.UNIT           DATA             DESCRIPTION OF MNEMONIC
#---------         -----------     ------------------------------
GL  .M        652.577              : gl           - GROUND LEVEL ELEVATION      
EREF.M        655.625              : kb           - ELEVATION OF DEPTH REFERENCE
DATM.M        655.625              : datum        - DATUM ELEVATION             
TDD .M        427.025              : tdd          - TOTAL DEPTH DRILLER         
RUN .         ONE                  : Run          - RUN NUMBER                  
ENG .         BILL                 : Engineer     - RECORDING ENGINEER          
WIT .         JIM                  : Witness      - WITNESSED BY                
MUD .         GEL                  : Mud_type     - MUD TYPE                    
MATR.         LIMESTONE            : Logunit      - NEUTRON MATRIX              
TMAX.C        20                   : BHT          - MAXIMUM RECORDED TEMPERATURE
BHTD.M        427.025              : BHTDEP       - MAXIMUM RECORDED TEMPERATURE
MATR.         1                    : LOGUNIT      - NEUTRON MATRIX              
RMT .C        25                   : MDTP         - TEMPERATURE OF MUD          
NEUT.         0                    : NEUTRON      - NEUTRON TYPE                
RESI.         0                    : RESIST       - RESISTIVITY TYPE            
RMC .OHMM     0.25                 : RMC          - RESISTIVITY OF MUD CAKE     
RMF .OHMM     0.25                 : RMF          - RESISTIVITY OF MUD FILTRATE 
SUFT.C        4                    : SUFT         - SURFACE TEMPERATURE         
~A  DEPTH     PHID       GR     PHIN     RESD
# ...
  304.191    0.229   89.024    0.499    3.560
  304.496    0.249   83.528    0.444    4.065
  304.800    0.210   76.806    0.426    4.556
  305.105    0.226   83.586    0.414    4.735
  305.410    0.216   87.909    0.415    4.652
  305.715    0.210   87.935    0.440    4.656
  306.020    0.211   83.056    0.426    4.662
  306.324    0.205   87.994    0.436    4.846
  306.629    0.195   85.571    0.426    5.328
  306.934    0.196   81.913    0.377    6.316
  307.239    0.179   74.579    0.399    7.212
  307.544    0.171   67.857    0.384    7.783
  307.849    0.172   68.499    0.346    8.242
  308.153    0.167   70.981    0.360    8.254
  308.458    0.163   69.782    0.367    8.419
  308.763    0.170   71.041    0.370    8.752
  309.068    0.202   73.528    0.344    9.093
  309.373    0.197   73.552    0.334    9.631
  309.677    0.176   72.964    0.335   10.200
  309.982    0.170   74.833    0.341   10.603
  310.287    0.188   71.180    0.360   10.814
  310.592    0.189   66.301    0.346   11.033
  310.897    0.193   66.940    0.329   11.255
  311.201    0.209   70.653    0.317   11.054
  311.506    0.217   70.066    0.363   11.490
  311.811    0.218   63.346    0.365   11.945
  312.116    0.226   62.758    0.347   11.955
  312.421    0.225   68.310    0.352   11.970
  312.725    0.214   62.204    0.358   11.542
  313.030    0.214   65.300    0.344   11.337
  313.335    0.222   73.305    0.341   10.929
  313.640    0.208   79.472    0.367    9.962
  313.945    0.197   72.747    0.380    9.603
  314.250    0.191   66.644    0.337    9.086
  314.554    0.183   70.355    0.359    8.597
  314.859    0.180   69.153    0.364    7.835
  315.164    0.191   68.564    0.377    7.554
  315.469    0.185   70.435    0.373    7.421
  315.774    0.189   72.304    0.373    7.290
  316.078    0.200   67.422    0.395    7.297
  316.383    0.230   69.293    0.422    7.306
  316.688    0.244   74.843    0.427    7.314
  316.993    0.256   77.944    0.429    7.187
  317.298    0.244   76.741    0.421    7.058
  317.602    0.258   76.770    0.445    6.806
  317.907    0.229   78.639    0.433    6.561
  318.212    0.223   78.053    0.419    6.569
  318.517    0.219   73.174    0.420    6.701
  318.822    0.229   73.813    0.405    6.965
  319.126    0.218   78.139    0.429    7.104
  319.431    0.223   75.098    0.451    6.979
  319.736    0.244   72.674    0.456    6.359
  320.041    0.264   75.156    0.469    5.478
  320.346    0.250   80.091    0.509    4.807
  320.651    0.263   82.574    0.501    4.141
  320.955    0.252   88.125    0.482    4.145
  321.260    0.209   94.906    0.440    4.390
  321.565    0.215   89.412    0.416    5.013
  321.870    0.208   80.234    0.370    5.832
  322.175    0.220   82.719    0.353    6.786
  322.479    0.208   80.294    0.347    7.894
  322.784    0.177   76.023    0.325   12.175
  323.089    0.121   62.550    0.291   12.655
  323.394    0.059   58.901    0.228   11.975
  323.699    0.000   63.834    0.296   11.329
  324.003    0.068   81.658    0.365   10.133
  324.308    0.156   80.461    0.357    8.896
  324.613    0.188   81.721    0.395    8.259
  324.918    0.180   76.221    0.379    7.668
  325.223    0.179   78.095    0.400    7.394
  325.527    0.141   84.260    0.420    7.263
  325.832    0.156   87.356    0.424    7.135
  326.137    0.156   84.925    0.414    6.880
  326.442    0.153   83.117    0.403    6.270
  326.747    0.170   84.368    0.399    5.821
  327.052    0.184   92.987    0.402    4.829
  327.356    0.225  104.674    0.456    3.647
  327.661    0.261  113.294    0.472    2.859
  327.966    0.273   93.685    0.463    2.606
  328.271    0.236   94.328    0.457    2.560
  328.576    0.236   88.838    0.472    2.611
  328.880    0.256   82.118    0.499    2.818
  329.185    0.248   81.532    0.504    3.279
  329.490    0.220   83.396    0.471    3.887
  329.795    0.188   84.656    0.459    4.522
  330.100    0.178   80.388    0.392    5.361
  330.404    0.185   78.575    0.366    6.356
  330.709    0.155   81.056    0.363    7.396
  331.014    0.172   82.930    0.348    7.981
  331.319    0.188   82.338    0.333    8.777
  331.624    0.195   78.687    0.331    9.652
  331.928    0.228   75.647    0.331   10.813
  332.233    0.245   75.674    0.331   11.890
  332.538    0.268   72.635    0.325   11.908
  332.843    0.255   70.823    0.323   11.693
  333.148    0.261   73.923    0.351   11.069
  333.453    0.241   79.469    0.337   10.276
  333.757    0.203   79.501    0.332    9.190
  334.062    0.155   81.372    0.320    8.860
  334.367    0.144   87.532    0.341    9.037
  334.672    0.144   90.628    0.329   10.125
  334.977    0.126   83.293    0.302   10.524
  335.281    0.096   69.820    0.237   10.148
  335.586    0.000   72.303    0.235    9.251
  335.891    0.030   81.537    0.308    8.587
  336.196    0.086   80.957    0.347    7.682
  336.501    0.162   85.278    0.363    7.266
  336.805    0.162   93.281    0.375    6.876
  337.110    0.165   90.855    0.397    7.017
  337.415    0.167   87.818    0.381    7.290
  337.720    0.174   84.163    0.373    7.722
  338.025    0.174   78.672    0.318    8.332
  338.329    0.167   81.766    0.325    9.877
  338.634    0.174   84.248    0.313   10.463
  338.939    0.184   80.594    0.323   10.087
  339.244    0.184   77.556    0.353    9.022
  339.549    0.231   76.364    0.355    8.375
  339.854    0.233   76.388    0.339    7.778
  340.158    0.209   78.254    0.364    7.223
  340.463    0.164   81.357    0.382    6.833
  340.768    0.163   82.608    0.342    6.713
  341.073    0.156   80.177    0.359    6.979
  341.378    0.142   78.980    0.355    6.728
  341.682    0.159   81.464    0.343    6.365
  341.987    0.167   84.557    0.368    5.912
  342.292    0.186   85.817    0.396    6.030
  342.597    0.183   81.546    0.401    6.386
  342.902    0.181   71.146    0.322    6.891
  343.206    0.220   70.558    0.329    7.578
  343.511    0.223   72.427    0.331    8.334
  343.816    0.204   70.000    0.353    8.994
  344.121    0.205   61.442    0.329    8.837
  344.426    0.210   65.148    0.329    8.206
  344.730    0.208   72.545    0.336    7.338
  345.035    0.205   73.801    0.346    6.087
  345.340    0.195   77.508    0.358    5.243
  345.645    0.185   78.150    0.374    4.962
  345.950    0.181   79.406    0.383    4.966
  346.255    0.198   75.750    0.379    5.461
  346.559    0.204   71.484    0.339    6.474
  346.864    0.186   64.763    0.360    7.674
  347.169    0.201   68.471    0.338    8.442
  347.474    0.228   67.888    0.338    8.611
  347.779    0.205   67.915    0.345    8.949
  348.083    0.183   59.967    0.327    9.840
  348.388    0.140   49.564    0.269   13.306
  348.693    0.086   46.523    0.237   14.358
  348.998    0.000   55.143    0.126   13.849
  349.303    0.000   60.699    0.152   13.098
  349.607    0.205   60.112    0.311   10.666
  349.912    0.241   62.592    0.344    9.015
  350.217    0.242   59.553    0.336    8.062
  350.522    0.221   58.973    0.354    8.071
  350.827    0.209   59.608    0.350    8.392
  351.132    0.191   61.478    0.330    8.558
  351.436    0.164   65.804    0.341    8.566
  351.741    0.120   70.738    0.344    8.259
  352.046    0.065   83.040    0.320    7.669
  352.351    0.099   76.935    0.352    7.121
  352.656    0.163   76.345    0.382    6.489
  352.960    0.182   80.673    0.398    6.260
  353.265    0.191   80.086    0.420    6.263
  353.570    0.179   83.185    0.387    6.511
  353.875    0.177   79.528    0.356    6.640
  354.180    0.175   80.786    0.324    7.168
  354.484    0.174   83.881    0.308    7.448
  354.789    0.180   86.976    0.320    7.742
  355.094    0.175   86.390    0.312    7.751
  355.399    0.176   86.419    0.298    6.932
  355.704    0.182   87.060    0.325    6.199
  356.008    0.178   84.634    0.310    4.681
  356.313    0.178   77.298    0.324    3.405
  356.618    0.176   81.623    0.362    2.825
  356.923    0.200   79.198    0.386    2.479
