~VERSION INFORMATION
 VERS.                 2.0:   CWLS LOG ASCII STANDARD -VERSION 2.0
 WRAP.                  NO:   ONE LINE PER DEPTH STEP
~WELL INFORMATION BLOCK
#MNEM.UNIT           DATA                    DESCRIPTION OF MNEMONIC
#---------    -------------------            -------------------------------
# Generated from Intellog Unique Number	CW_76_78/WELL/1033
WELL.         SUNCOR DROWNED 12-29           : Well_name    - WELL
LOC .         00/12-29-076-22W4/0            : Location     - LOCATION
UWI .         00/12-29-076-22W4/0            : Uwi          - UNIQUE WELL ID
ENTR.         JAYE                           : Entered      - ENTERED BY
SRVC.         SCHLUMBERGER                   : Scn          - SERVICE COMPANY
DATE.         25 FEB 83                      : Date         - LOG DATE
STRT.M        470                            : top_depth    - START DEPTH
STOP.M        690                            : bot_depth    - STOP DEPTH
STEP.M        0.25                           : increment    - STEP LENGTH
 NULL. -999.2500:NULL Value
~CURVE INFORMATION BLOCK
#MNEM UNIT       ERCB CURVE CODE    CURVE DESCRIPTION
#-----------   ------------------   ----------------------------------
DEPT.M        00 001 00 00         : DEPTH        - DEPTH
ILD .OHMM     00 120 00 00         : RESD         - DEEP RESISTIVITY (DIL)
NPHI.V/V      00 330 00 00         : PHIN         - NEUTRON POROSITY (SANDSTONE)
DPHI.V/V      00 890 00 00         : PHID         - DENSITY POROSITY (SANDSTONE)
GR  .API      00 310 00 00         : GR           - GAMMA RAY
CALI.MM       00 280 01 00         : CAL          - CALIPER
~PARAMETER INFORMATION
#MNEM.UNIT           DATA             DESCRIPTION OF MNEMONIC
#---------         -----------     ------------------------------
GL  .M        748.9                : gl           - GROUND LEVEL ELEVATION
EREF.M        752.9                : kb           - ELEVATION OF DEPTH REFERENCE
DATM.M        748.9                : datum        - DATUM ELEVATION
TDD .M        1180                 : tdd          - TOTAL DEPTH DRILLER
RUN .         ONE                  : Run          - RUN NUMBER
ENG .         GAGGING              : Engineer     - RECORDING ENGINEER
WIT .         LYSZKIEWICH          : Witness      - WITNESSED BY
BASE.         EDM                  : Branch       - HOME BASE OF LOGGING UNIT
MUD .         GEL CHEM             : Mud_type     - MUD TYPE
MATR.         SANDSTONE            : Logunit      - NEUTRON MATRIX
TMAX.C        34.4                 : BHT          - MAXIMUM RECORDED TEMPERATURE
BHTD.M        1177                 : BHTDEP       - MAXIMUM RECORDED TEMPERATURE
RMT .C        16.6                 : MDTP         - TEMPERATURE OF MUD
MUDD.KG/M     9.5                  : MWT          - MUD DENSITY
NEUT.         1                    : NEUTRON      - NEUTRON TYPE
RESI.         0                    : RESIST       - RESISTIVITY TYPE
RM  .OHMM     3.648                : RM           - RESISTIVITY OF MUD
RMC .OHMM     0                    : RMC          - RESISTIVITY OF MUD CAKE
RMF .OHMM     2.673                : RMF          - RESISTIVITY OF MUD FILTRATE
SUFT.C        0                    : SUFT         - SURFACE TEMPERATURE
~A  DEPTH     RESD     PHIN     PHID       GR      CAL
  470.000    7.533    0.387    0.243   69.518  252.945
  470.250    7.158    0.360    0.258   72.124  261.936
  470.500    6.388    0.357    0.263   77.332  265.246
  470.750    6.389    0.379    0.255   79.009  269.589
  471.000    5.892    0.421    0.277   75.047  282.503
  471.250    5.243    0.441    0.329   71.147  303.679
  471.500    4.675    0.438    0.293   73.629  267.026
  471.750    4.060    0.473    0.301   80.634  263.831
  472.000    3.519    0.552    0.317   86.772  270.756
  472.250    3.085    0.543    0.329   92.538  266.218
  472.500    2.730    0.546    0.337   94.896  279.236
  472.750    2.476    0.562    0.326   92.545  284.096
  473.000    2.339    0.538    0.319   90.566  275.221
  473.250    2.265    0.528    0.344   88.154  287.412
  473.500    2.263    0.547    0.364   86.918  289.587
  473.750    2.249    0.553    0.333   86.612  279.783
  474.000    2.190    0.574    0.300   87.669  274.419
  474.250    2.112    0.595    0.348   90.461  273.599
  474.500    2.056    0.611    0.374   91.951  269.268
  474.750    1.980    0.577    0.330   90.158  276.194
  475.000    2.020    0.512    0.295   87.870  296.233
  475.250    2.238    0.491    0.270   86.696  276.722
  475.500    3.028    0.482    0.314   84.159  279.310
  475.750    3.582    0.471    0.337   80.384  300.588
  476.000    4.424    0.488    0.310   74.315  278.909
  476.250    5.184    0.477    0.307   67.627  244.838
  476.500    5.940    0.437    0.292   67.818  239.371
  476.750    6.630    0.410    0.268   67.635  232.768
  477.000    7.499    0.431    0.280   62.311  223.997
  477.250    8.401    0.452    0.307   58.535  221.421
  477.500    9.680    0.453    0.337   53.457  218.846
  477.750   10.947    0.419    0.336   49.248  216.064
  478.000   11.791    0.405    0.328   49.499  214.625
  478.250   12.189    0.430    0.325   53.468  213.701
  478.500   11.955    0.442    0.317   60.288  212.675
  478.750   11.426    0.462    0.308   64.443  212.371
  479.000   10.756    0.484    0.305   61.534  212.687
  479.250   10.123    0.498    0.314   63.025  212.694
  479.500    9.439    0.497    0.304   65.879  213.423
  479.750    8.480    0.483    0.278   69.600  213.946
  480.000    7.718    0.463    0.256   73.383  214.571
  480.250    7.103    0.460    0.283   74.069  214.576
  480.500    6.762    0.531    0.313   66.513  213.137
  480.750    7.029    0.543    0.341   61.808  211.904
  481.000    7.586    0.504    0.342   61.936  210.878
  481.250    8.578    0.500    0.330   60.390  210.471
  481.500    9.829    0.500    0.317   57.172  210.271
  481.750   10.706    0.486    0.328   55.131  210.174
  482.000   11.299    0.434    0.328   57.613  210.285
  482.250   11.207    0.438    0.318   63.999  210.703
  482.500   10.589    0.464    0.309   71.623  211.225
  482.750    9.637    0.482    0.304   74.787  211.540
  483.000    8.529    0.456    0.302   74.543  211.857
  483.250    7.561    0.451    0.297   76.343  212.173
  483.500    6.804    0.446    0.289   79.631  212.695
  483.750    6.227    0.441    0.281   78.210  213.114
  484.000    5.851    0.435    0.266   71.274  213.121
  484.250    5.686    0.423    0.294   53.805  213.230
  484.500    6.011    0.435    0.308   53.314  213.856
  484.750    6.451    0.468    0.324   55.114  214.688
  485.000    6.731    0.462    0.318   56.047  215.313
  485.250    6.906    0.462    0.315   55.988  215.629
  485.500    6.927    0.472    0.326   55.621  216.048
  485.750    6.885    0.474    0.330   55.253  216.881
  486.000    6.856    0.483    0.330   51.972  217.300
  486.250    7.020    0.491    0.330   50.489  217.719
  486.500    7.449    0.487    0.329   51.794  218.448
  486.750    8.130    0.470    0.322   50.249  219.900
  487.000    9.334    0.389    0.269   45.171  221.352
  487.250   10.876    0.203    0.094   41.024  223.940
  487.500   13.432    0.147    0.008   39.479  225.805
  487.750   17.512    0.113   -0.005   41.031  225.398
  488.000   21.787    0.108   -0.005   39.486  223.649
  488.250   23.645    0.135    0.023   38.127  221.796
  488.500   18.421    0.210    0.065   40.795  218.395
  488.750   15.069    0.362    0.207   45.383  217.161
  489.000   12.677    0.454    0.312   45.511  216.651
  489.250   10.606    0.454    0.327   46.134  216.451
  489.500    9.368    0.441    0.328   49.670  216.457
  489.750    8.291    0.422    0.331   52.771  216.671
  490.000    7.702    0.430    0.339   53.209  216.470
  490.250    7.249    0.450    0.333   50.548  216.372
  490.500    7.300    0.444    0.308   47.268  216.585
  490.750    7.364    0.432    0.295   45.785  216.797
  491.000    7.278    0.417    0.301   46.532  216.907
  491.250    7.180    0.418    0.314   47.961  216.913
  491.500    7.135    0.430    0.328   50.257  217.022
  491.750    7.065    0.438    0.338   51.376  217.029
  492.000    6.956    0.457    0.340   49.025  217.345
  492.250    6.874    0.452    0.331   45.807  217.456
  492.500    6.768    0.418    0.322   46.926  217.460
  492.750    6.727    0.411    0.330   49.036  217.260
  493.000    6.724    0.419    0.343   52.943  217.162
  493.250    6.718    0.451    0.348   51.955  217.066
  493.500    6.678    0.473    0.343   49.728  217.176
  493.750    6.661    0.452    0.335   50.538  217.079
  494.000    6.595    0.439    0.328   52.710  217.394
  494.250    6.506    0.445    0.331   55.502  217.194
  494.500    6.405    0.442    0.338   50.177  216.993
  494.750    6.306    0.434    0.328   48.075  216.690
  495.000    6.164    0.428    0.319   47.768  216.385
  495.250    6.057    0.437    0.321   49.507  216.289
  495.500    5.975    0.446    0.317   51.927  215.778
  495.750    5.860    0.447    0.307   54.471  214.649
  496.000    5.791    0.438    0.308   54.412  213.415
  496.250    5.843    0.424    0.337   53.177  212.183
  496.500    5.928    0.432    0.349   52.809  211.466
  496.750    5.969    0.433    0.343   53.061  210.749
  497.000    5.999    0.462    0.330   52.569  210.239
  497.250    6.063    0.474    0.318   51.581  210.039
  497.500    6.117    0.464    0.309   49.230  209.737
  497.750    6.275    0.448    0.293   46.384  209.534
  498.000    6.487    0.428    0.274   44.405  209.747
  498.250    6.693    0.400    0.282   43.913  210.063
  498.500    6.879    0.451    0.310   44.908  210.792
  498.750    6.993    0.478    0.320   48.629  211.522
  499.000    7.015    0.464    0.322   49.996  211.941
  499.250    6.830    0.445    0.324   49.876  212.360
  499.500    6.613    0.440    0.327   51.367  213.089
  499.750    6.438    0.442    0.333   50.999  213.405
  500.000    6.268    0.434    0.334   50.568  213.928
  500.250    6.147    0.414    0.330   49.829  214.656
  500.500    6.109    0.450    0.331   49.584  215.488
  500.750    6.095    0.461    0.332   49.403  215.908
  501.000    6.125    0.454    0.336   48.662  215.811
  501.250    6.169    0.432    0.338   47.737  215.508
  501.500    6.224    0.426    0.340   47.740  214.895
  501.750    6.243    0.439    0.340   49.603  214.693
  502.000    6.263    0.440    0.338   50.970  215.112
  502.250    6.213    0.437    0.338   48.990  215.325
  502.500    6.243    0.447    0.335   48.127  215.228
  502.750    6.183    0.435    0.331   49.308  215.131
  503.000    6.143    0.456    0.329   51.666  214.932
  503.250    6.095    0.472    0.329   52.909  214.937
  503.500    6.057    0.463    0.327   51.488  215.046
  503.750    6.008    0.448    0.323   50.438  215.672
  504.000    5.916    0.445    0.329   48.459  216.607
  504.250    5.813    0.455    0.340   47.719  219.195
  504.500    5.618    0.437    0.338   52.989  222.815
  504.750    5.278    0.427    0.317   67.367  228.088
  505.000    4.839    0.467    0.306   77.346  245.236
  505.250    4.421    0.517    0.328   74.686  230.682
  505.500    4.193    0.522    0.336   64.900  219.226
  505.750    4.310    0.495    0.335   52.884  215.515
  506.000    4.455    0.481    0.338   50.657  215.417
  506.250    4.674    0.484    0.340   47.810  215.527
