~VERSION INFORMATION
 VERS.                 2.0:   CWLS LOG ASCII STANDARD -VERSION 2.0
 WRAP.                  NO:   ONE LINE PER DEPTH STEP
~WELL INFORMATION BLOCK
#MNEM.UNIT           DATA                    DESCRIPTION OF MNEMONIC
#---------    -------------------            -------------------------------
# Generated from Intellog Unique Number	CS_69_70/WELL/903
NULL.         -999.25                        : NULL_VALUE
WELL.         SULPETRO ET AL IPIATIK         : Well_name    - WELL              
LOC .         00/13-33-070-09W4/0            : Location     - LOCATION          
UWI .         00/13-33-070-09W4/0            : Uwi          - UNIQUE WELL ID    
ENTR.         SP                             : Entered      - ENTERED BY        
SRVC.         SCHLUMBERGER                   : Scn          - SERVICE COMPANY   
STRT.M        250                            : top_depth    - START DEPTH       
STOP.M        450                            : bot_depth    - STOP DEPTH        
STEP.M        0.25                           : increment    - STEP LENGTH       
~CURVE INFORMATION BLOCK
#MNEM UNIT       ERCB CURVE CODE    CURVE DESCRIPTION
#-----------   ------------------   ----------------------------------
DEPT.M        00 001 00 00         : DEPTH        - DEPTH                       
ILD .OHMM     00 120 00 00         : RESD         - DEEP RESISTIVITY (DIL)      
DPHI.V/V      00 890 00 00         : PHID         - DENSITY POROSITY (LIMESTONE)
NPHI.V/V      00 330 00 00         : PHIN         - NEUTRON POROSITY (LIMESTONE)
GR  .API      00 310 00 00         : GR           - GAMMA RAY                   
~PARAMETER INFORMATION       
#MNEM.UNIT           DATA             DESCRIPTION OF MNEMONIC
#---------         -----------     ------------------------------
GL  .M        601.29               : gl           - GROUND LEVEL ELEVATION      
EREF.M        604.09               : kb           - ELEVATION OF DEPTH REFERENCE
DATM.M        601.29               : datum        - DATUM ELEVATION             
TDD .M        457.3                : tdd          - TOTAL DEPTH DRILLER         
RUN .         ONE                  : Run          - RUN NUMBER                  
ENG .         BILL                 : Engineer     - RECORDING ENGINEER          
WIT .         JIM                  : Witness      - WITNESSED BY                
MUD .         GEL                  : Mud_type     - MUD TYPE                    
MATR.         LIMESTONE            : Logunit      - NEUTRON MATRIX              
TMAX.C        26.8                 : BHT          - MAXIMUM RECORDED TEMPERATURE
BHTD.M        457.3                : BHTDEP       - MAXIMUM RECORDED TEMPERATURE
MATR.         1                    : LOGUNIT      - NEUTRON MATRIX              
RMT .C        25                   : MDTP         - TEMPERATURE OF MUD          
NEUT.         1                    : NEUTRON      - NEUTRON TYPE                
RESI.         0                    : RESIST       - RESISTIVITY TYPE            
RMC .OHMM     0.25                 : RMC          - RESISTIVITY OF MUD CAKE     
RMF .OHMM     0.25                 : RMF          - RESISTIVITY OF MUD FILTRATE 
SUFT.C        15                   : SUFT         - SURFACE TEMPERATURE         
~A  DEPTH     RESD     PHID     PHIN       GR
# ...
  337.000   12.053    0.368    0.375   70.035
  337.250   11.742    0.380    0.385   68.709
  337.500   11.546    0.371    0.399   67.930
  337.750   11.482    0.363    0.400   68.794
  338.000   11.439    0.356    0.405   69.900
  338.250   11.633    0.350    0.423   70.638
  338.500   12.189    0.342    0.440   69.921
  338.750   12.535    0.337    0.453   69.690
  339.000   12.700    0.323    0.466   69.761
  339.250   12.772    0.313    0.485   69.953
  339.500   12.748    0.309    0.460   70.025
  339.750   12.606    0.321    0.426   71.010
  340.000   12.373    0.333    0.395   71.689
  340.250   12.053    0.345    0.384   65.867
  340.500   11.655    0.348    0.385   62.898
  340.750   11.482    0.345    0.390   70.204
  341.000   11.291    0.343    0.407   72.768
  341.250   11.227    0.343    0.424   72.171
  341.500   11.248    0.343    0.443   69.447
  341.750   11.270    0.340    0.425   67.635
  342.000   11.439    0.342    0.392   69.409
  342.250   11.568    0.347    0.383   71.548
  342.500   11.655    0.351    0.414   73.564
  342.750   11.742    0.350    0.453   75.642
  343.000   11.786    0.343    0.430   76.626
  343.250   11.830    0.334    0.386   76.638
  343.500   11.874    0.327    0.376   76.589
  343.750   11.874    0.330    0.405   77.510
  344.000   11.808    0.335    0.441   78.433
  344.250   11.720    0.334    0.452   73.827
  344.500   11.655    0.333    0.383   70.677
  344.750   11.482    0.330    0.384   70.140
  345.000   11.375    0.327    0.395   71.670
  345.250   11.291    0.325    0.402   68.096
  345.500   11.207    0.323    0.410   69.931
  345.750   11.207    0.322    0.444   75.412
  346.000   11.186    0.322    0.475   76.092
  346.250   11.123    0.326    0.494   76.042
  346.500   11.082    0.331    0.454   76.296
  346.750   11.040    0.333    0.452   76.554
  347.000   11.082    0.333    0.463   76.809
  347.250   11.165    0.333    0.401   77.123
  347.500   11.207    0.335    0.377   77.254
  347.750   11.227    0.338    0.382   77.689
  348.000   11.186    0.344    0.388   77.154
  348.250   11.165    0.350    0.405   73.822
  348.500   11.144    0.353    0.418   72.498
  348.750   11.186    0.353    0.427   72.812
  349.000   11.186    0.348    0.430   75.016
  349.250   11.144    0.343    0.412   76.789
  349.500   11.102    0.338    0.412   76.127
  349.750   10.958    0.326    0.423   73.100
  350.000   10.576    0.303    0.405   69.586
  350.250   10.169    0.274    0.311   66.740
  350.500    9.706    0.245    0.302   64.016
  350.750    9.126    0.264    0.350   70.835
  351.000    8.406    0.258    0.380   80.390
  351.250    7.656    0.258    0.357   90.551
  351.500    7.079    0.254    0.323   98.524
  351.750    6.557    0.244    0.344  106.253
  352.000    6.340    0.237    0.377  111.189
  352.250    6.388    0.232    0.406  110.653
  352.500    6.496    0.229    0.417  107.505
  352.750    7.000    0.238    0.386  105.449
  353.000    7.253    0.251    0.389  103.212
  353.250    7.845    0.261    0.390  100.973
  353.500    8.266    0.251    0.373   98.370
  353.750    8.645    0.234    0.363  101.360
  354.000    8.824    0.225    0.375  106.415
  354.250    8.923    0.230    0.387  104.542
  354.500    8.907    0.235    0.356  101.516
  354.750    8.758    0.231    0.337  101.223
  355.000    8.548    0.227    0.352  100.504
  355.250    8.390    0.223    0.429  101.001
  355.500    8.128    0.220    0.447  104.298
  355.750    7.977    0.217    0.464  105.825
  356.000    7.874    0.214    0.436  108.512
  356.250    7.801    0.222    0.429  111.074
  356.500    7.889    0.220    0.420  108.837
  356.750    8.007    0.212    0.418  110.915
  357.000    8.128    0.211    0.413  111.413
  357.250    8.082    0.225    0.427  109.904
  357.500    7.963    0.235    0.433  107.180
  357.750    7.830    0.228    0.436  104.213
  358.000    7.772    0.221    0.459  104.833
  358.250    7.772    0.214    0.473  107.457
  358.500    7.815    0.210    0.450  109.292
  358.750    7.786    0.208    0.420  109.243
  359.000    7.757    0.207    0.402  108.585
  359.250    7.656    0.206    0.388  110.784
  359.500    7.321    0.207    0.375  112.679
  359.750    7.092    0.214    0.373  107.281
  360.000    6.883    0.219    0.383  105.226
  360.250    6.858    0.212    0.368  111.802
  360.500    6.807    0.208    0.348  115.826
  360.750    6.668    0.205    0.333  117.780
  361.000    6.424    0.210    0.356  118.156
  361.250    5.906    0.213    0.391  115.858
  361.500    4.992    0.218    0.425  113.924
  361.750    4.364    0.224    0.443  115.517
  362.000    3.567    0.231    0.401  117.837
  362.250    3.159    0.237    0.417  118.941
  362.500    2.830    0.234    0.460  118.588
  362.750    2.701    0.229    0.488  116.777
  363.000    2.701    0.229    0.499  115.999
  363.250    2.793    0.226    0.489  117.285
  363.500    2.916    0.219    0.464  119.423
  363.750    3.089    0.207    0.418  121.138
  364.000    3.323    0.201    0.424  122.061
  364.250    3.710    0.212    0.446  122.982
  364.500    4.283    0.222    0.441  124.208
  364.750    4.668    0.228    0.410  119.115
  365.000    4.992    0.234    0.379  115.844
  365.250    5.290    0.231    0.354  114.762
  365.500    5.481    0.230    0.340  114.468
  365.750    5.616    0.234    0.375  111.258
  366.000    5.797    0.246    0.442  105.617
  366.250    6.006    0.263    0.445   96.329
  366.500    6.177    0.282    0.428   92.875
  366.750    6.448    0.281    0.446   93.314
  367.000    6.520    0.272    0.466   95.695
  367.250    6.594    0.259    0.479   97.529
  367.500    6.533    0.230    0.415   99.850
  367.750    6.472    0.199    0.314   97.126
  368.000    6.484    0.176    0.262   83.705
  368.250    6.756    0.175    0.238   77.576
  368.500    7.013    0.228    0.380   83.607
  368.750    7.013    0.266    0.422   90.485
  369.000    6.781    0.287    0.446   91.651
  369.250    6.400    0.298    0.473   90.633
  369.500    6.606    0.311    0.442   89.851
  369.750    6.794    0.321    0.435   90.590
  370.000    7.000    0.322    0.449   92.122
  370.250    7.199    0.293    0.465   93.834
  370.500    7.226    0.263    0.450   95.426
  370.750    7.253    0.244    0.417   97.503
  371.000    7.253    0.232    0.394  103.350
  371.250    7.212    0.227    0.380  106.887
  371.500    7.199    0.231    0.373  107.626
  371.750    7.145    0.224    0.365  107.151
  372.000    7.334    0.217    0.357  106.798
  372.250    7.417    0.214    0.369  106.809
  372.500    7.671    0.218    0.369  104.511
  372.750    7.801    0.219    0.353  100.146
  373.000    7.889    0.219    0.343   99.854
  373.250    7.874    0.217    0.346  102.721
  373.500    7.874    0.216    0.374  105.772
  373.750    7.830    0.213    0.415  109.371
  374.000    7.714    0.203    0.425  110.899
  374.250    7.543    0.190    0.364  111.215
  374.500    7.403    0.178    0.331  106.971
  374.750    7.185    0.167    0.342  103.032
  375.000    6.922    0.188    0.361  102.862
  375.250    6.668    0.199    0.373  105.486
  375.500    6.436    0.204    0.369  107.563
  375.750    6.388    0.210    0.382  108.060
  376.000    6.340    0.217    0.404  107.526
  376.250    6.340    0.224    0.428  107.360
  376.500    6.340    0.224    0.431  108.097
  376.750    6.340    0.224    0.407  109.201
  377.000    6.258    0.225    0.398  110.368
  377.250    6.223    0.224    0.401  111.167
  377.500    6.131    0.217    0.395  111.481
  377.750    6.074    0.214    0.386  111.190
  378.000    5.917    0.213    0.381  110.655
  378.250    5.764    0.209    0.387  110.728
  378.500    5.563    0.217    0.403  111.040
  378.750    5.430    0.224    0.395  111.660
  379.000    5.280    0.226    0.390  110.819
  379.250    5.260    0.223    0.392  107.976
  379.500    5.270    0.219    0.401  106.892
  379.750    5.280    0.215    0.400  106.174
  380.000    5.270    0.219    0.388  106.976
  380.250    5.231    0.223    0.374  108.020
