~VERSION INFORMATION
 VERS.                 2.0:   CWLS LOG ASCII STANDARD -VERSION 2.0
 WRAP.                  NO:   ONE LINE PER DEPTH STEP
~WELL INFORMATION BLOCK
#MNEM.UNIT           DATA                    DESCRIPTION OF MNEMONIC
#---------    -------------------            -------------------------------
# Generated from Intellog Unique Number	CS_71_72/WELL/873
WELL.         BVX ET AL BRETT                : Well_name    - WELL
LOC .         00/10-30-071-12W4/0            : Location     - LOCATION
UWI .         00/10-30-071-12W4/0            : Uwi          - UNIQUE WELL ID
ENTR.         SP                             : Entered      - ENTERED BY
SRVC.         SCHLUMBERGER                   : Scn          - SERVICE COMPANY
STRT.M        310                            : top_depth    - START DEPTH
STOP.M        540                            : bot_depth    - STOP DEPTH
STEP.M        0.25                           : increment    - STEP LENGTH
 NULL. -999.2500:NULL Value
~CURVE INFORMATION BLOCK
#MNEM UNIT       ERCB CURVE CODE    CURVE DESCRIPTION
#-----------   ------------------   ----------------------------------
DEPT.M        00 001 00 00         : DEPTH        - DEPTH
GR  .API      00 310 00 00         : GR           - GAMMA RAY
NPHI.V/V      00 330 00 00         : PHIN         - NEUTRON POROSITY (LIMESTONE)
DPHI.V/V      00 890 00 00         : PHID         - DENSITY POROSITY (LIMESTONE)
ILD .OHMM     00 120 00 00         : RESD         - DEEP RESISTIVITY (DIL)
~PARAMETER INFORMATION
#MNEM.UNIT           DATA             DESCRIPTION OF MNEMONIC
#---------         -----------     ------------------------------
GL  .M        643.76               : gl           - GROUND LEVEL ELEVATION
EREF.M        646.5                : kb           - ELEVATION OF DEPTH REFERENCE
DATM.M        643.76               : datum        - DATUM ELEVATION
TDD .M        542                  : tdd          - TOTAL DEPTH DRILLER
RUN .         ONE                  : Run          - RUN NUMBER
ENG .         BILL                 : Engineer     - RECORDING ENGINEER
WIT .         JIM                  : Witness      - WITNESSED BY
MUD .         GEL                  : Mud_type     - MUD TYPE
MATR.         LIMESTONE            : Logunit      - NEUTRON MATRIX
TMAX.C        20                   : BHT          - MAXIMUM RECORDED TEMPERATURE
BHTD.M        542                  : BHTDEP       - MAXIMUM RECORDED TEMPERATURE
MATR.         1                    : LOGUNIT      - NEUTRON MATRIX
RMT .C        25                   : MDTP         - TEMPERATURE OF MUD
NEUT.         1                    : NEUTRON      - NEUTRON TYPE
RESI.         0                    : RESIST       - RESISTIVITY TYPE
RMC .OHMM     0.25                 : RMC          - RESISTIVITY OF MUD CAKE
RMF .OHMM     0.25                 : RMF          - RESISTIVITY OF MUD FILTRATE
SUFT.C        15                   : SUFT         - SURFACE TEMPERATURE
~A  DEPTH       GR     PHIN     PHID     RESD
  310.000   92.368    0.345    0.220    2.313
  310.250   94.241    0.370    0.233    2.253
  310.500   90.394    0.389    0.243    2.212
  310.750   94.944    0.373    0.243    2.183
  311.000   87.141    0.377    0.247    2.119
  311.250   83.172    0.387    0.252    2.099
  311.500   82.794    0.394    0.246    2.091
  311.750   88.922    0.403    0.237    2.098
  312.000   87.814    0.413    0.228    2.122
  312.250   85.977    0.419    0.214    2.146
  312.500   90.283    0.410    0.184    2.210
  312.750   87.045    0.417    0.089    2.299
  313.000   80.701    0.409    0.174    2.435
  313.250   77.585    0.389    0.213    2.523
  313.500   84.570    0.371    0.213    2.584
  313.750   91.735    0.371    0.207    2.608
  314.000   91.052    0.383    0.203    2.623
  314.250   92.803    0.374    0.197    2.647
  314.500   89.930    0.363    0.194    2.722
  314.750   87.239    0.362    0.200    2.794
  315.000   87.530    0.367    0.210    2.878
  315.250   85.873    0.354    0.212    2.982
  315.500   82.756    0.345    0.214    3.066
  315.750   81.221    0.360    0.204    3.112
  316.000   83.457    0.375    0.197    2.998
  316.250   80.765    0.364    0.200    2.867
  316.500   85.013    0.358    0.206    2.751
  316.750   87.006    0.371    0.211    2.666
  317.000   85.289    0.379    0.215    2.568
  317.250   83.145    0.380    0.218    2.534
  317.500   82.281    0.384    0.211    2.501
  317.750   85.431    0.374    0.208    2.515
  318.000   84.564    0.365    0.212    2.548
  318.250   84.490    0.357    0.213    2.640
  318.500   90.014    0.351    0.184    2.781
  318.750   90.730    0.366    0.105    2.833
  319.000   79.946    0.347    0.155    2.865
  319.250   71.171    0.339    0.186    2.859
  319.500   82.109    0.345    0.213    2.833
  319.750   93.717    0.360    0.219    2.833
  320.000   93.461    0.361    0.223    2.838
  320.250   86.326    0.376    0.224    2.875
  320.500   84.671    0.361    0.228    2.934
  320.750   81.249    0.346    0.232    2.912
  321.000   83.487    0.333    0.232    2.832
  321.250   84.568    0.342    0.218    2.728
  321.500   81.574    0.348    0.201    2.613
  321.750   92.695    0.363    0.211    2.815
  322.000   88.786    0.388    0.240    3.166
  322.250   79.583    0.429    0.376    3.627
  322.500   67.462    0.466    0.414    3.988
  322.750   55.826    0.481    0.325    4.329
  323.000   57.516    0.429    0.305    4.569
  323.250   44.723    0.373    0.301    4.646
  323.500   35.765    0.340    0.297    4.672
  323.750   27.477    0.325    0.292    4.654
  324.000   23.386    0.316    0.285    4.619
  324.250   23.371    0.306    0.283    4.619
  324.500   30.111    0.327    0.284    4.645
  324.750   38.675    0.341    0.285    4.688
  325.000   40.672    0.359    0.277    4.911
  325.250   30.678    0.318    0.216    4.975
  325.500   23.728    0.271    0.197    5.068
  325.750   70.265    0.308    0.160    5.192
  326.000   72.077    0.319    0.207    5.270
  326.250   71.515    0.301    0.226    5.389
  326.500   72.048    0.310    0.243    5.510
  326.750   75.989    0.316    0.248    5.614
  327.000   80.416    0.324    0.231    5.698
  327.250   84.238    0.333    0.222    5.751
  327.500   86.171    0.338    0.217    5.772
  327.750   84.698    0.341    0.214    5.782
  328.000   94.723    0.325    0.209    5.760
  328.250   96.596    0.318    0.204    5.654
  328.500   92.019    0.321    0.200    5.508
  328.750   97.359    0.317    0.198    5.386
  329.000   94.243    0.326    0.199    5.237
  329.250   88.388    0.336    0.201    5.159
  329.500   83.384    0.343    0.234    5.101
  329.750   88.908    0.352    0.255    5.082
  330.000   90.231    0.363    0.273    5.168
  330.250   83.343    0.376    0.265    5.216
  330.500   76.938    0.356    0.261    5.495
  330.750   81.551    0.343    0.267    5.693
  331.000   86.770    0.333    0.277    5.908
  331.250   77.020    0.336    0.280    5.997
  331.500   67.879    0.348    0.267    5.941
  331.750   58.007    0.356    0.265    5.820
  332.000   50.997    0.339    0.224    5.712
  332.250   53.294    0.325    0.205    5.513
  332.500   58.514    0.336    0.206    5.321
  332.750   62.151    0.342    0.226    5.117
  333.000   63.232    0.340    0.237    4.865
  333.250   66.261    0.332    0.230    4.661
  333.500   70.871    0.336    0.230    4.473
  333.750   74.934    0.338    0.220    4.326
  334.000   75.225    0.340    0.208    4.238
  334.250   72.900    0.350    0.229    4.175
  334.500   68.688    0.367    0.249    4.206
  334.750   58.755    0.358    0.263    4.268
  335.000   50.831    0.374    0.283    0.674
  335.250   45.037    0.375    0.315    4.720
  335.500   39.120    0.310    0.377    4.908
  335.750   47.078    0.394    0.288    5.170
  336.000   66.414    0.386    0.254    5.376
  336.250   78.022    0.357    0.265    5.622
  336.500   79.713    0.371    0.275    5.770
  336.750   79.941    0.378    0.287    5.911
  337.000   75.121    0.352    0.295    6.000
  337.250   67.440    0.359    0.280    6.033
  337.500   61.948    0.360    0.261    6.021
  337.750   59.686    0.346    0.252    6.021
  338.000   63.930    0.346    0.257    6.066
  338.250   62.822    0.355    0.260    6.077
  338.500   59.034    0.369    0.262    6.110
  338.750   57.559    0.381    0.271    6.110
  339.000   58.035    0.358    0.274    6.064
  339.250   59.237    0.353    0.267    5.941
  339.500   67.985    0.364    0.265    5.809
  339.750   74.603    0.366    0.267    5.659
  340.000   77.817    0.357    0.270    5.432
  340.250   76.403    0.352    0.257    5.411
  340.500   72.916    0.348    0.197    5.492
  340.750   71.141    0.362    0.180    5.370
  341.000   69.425    0.376    0.198    5.040
  341.250   73.001    0.361    0.210    4.766
  341.500   80.471    0.345    0.215    4.382
  341.750   91.958    0.336    0.209    4.037
  342.000  100.646    0.345    0.198    3.775
  342.250  101.728    0.347    0.202    3.664
  342.500  101.410    0.347    0.197    3.563
  342.750  110.158    0.344    0.190    3.510
  343.000   99.618    0.345    0.165    3.419
  343.250  107.636    0.360    0.190    3.400
  343.500  111.212    0.368    0.209    3.477
  343.750  105.113    0.376    0.228    3.759
  344.000  102.360    0.364    0.234    4.058
  344.250   99.851    0.365    0.239    4.437
  344.500   95.762    0.361    0.225    4.843
  344.750   88.081    0.345    0.245    5.017
  345.000   92.631    0.334    0.256    5.246
  345.250   97.790    0.333    0.267    5.435
  345.500   87.431    0.320    0.276    5.599
  345.750   82.732    0.322    0.286    5.672
  346.000   82.049    0.346    0.301    5.661
  346.250   79.054    0.351    0.311    5.546
  346.500   76.667    0.340    0.279    5.393
  346.750   72.514    0.330    0.244    5.273
  347.000   68.364    0.341    0.253    5.156
  347.250   84.596    0.350    0.249    5.070
  347.500   91.885    0.337    0.254    4.958
  347.750   90.956    0.335    0.269    4.903
  348.000   90.152    0.328    0.281    4.857
  348.250   89.469    0.339    0.290    4.929
  348.500   81.118    0.351    0.272    5.088
  348.750   74.350    0.354    0.258    5.193
  349.000   69.164    0.345    0.246    5.310
  349.250   70.431    0.338    0.240    5.369
  349.500   75.954    0.323    0.228    5.389
  349.750   84.763    0.337    0.218    5.399
  350.000   93.208    0.352    0.218    5.368
  350.250   88.326    0.355    0.212    5.328
  350.500   83.323    0.346    0.208    5.288
  350.750   88.176    0.340    0.207    5.161
  351.000   91.630    0.332    0.210    5.085
  351.250   93.261    0.333    0.214    4.963
  351.500   93.489    0.343    0.219    4.853
  351.750   97.431    0.357    0.234    4.745
  352.000   98.696    0.372    0.241    4.718
  352.250   88.153    0.371    0.240    4.798
  352.500   83.821    0.365    0.237    4.700
  352.750   78.757    0.364    0.230    4.824
  353.000   70.102    0.373    0.229    4.860
  353.250   72.644    0.385    0.238    4.851
