~VERSION INFORMATION
 VERS.                 2.0:   CWLS LOG ASCII STANDARD -VERSION 2.0
 WRAP.                  NO:   ONE LINE PER DEPTH STEP
~WELL INFORMATION BLOCK
#MNEM.UNIT           DATA                    DESCRIPTION OF MNEMONIC
#---------    -------------------            -------------------------------
# Generated from Intellog Unique Number	CS_71_72/WELL/886
WELL.         SULPETRO LIMITED               : Well_name    - WELL
LOC .         00/11-05-071-10W4/0            : Location     - LOCATION
UWI .         00/11-05-071-10W4/0            : Uwi          - UNIQUE WELL ID
ENTR.         SP                             : Entered      - ENTERED BY
SRVC.         SCHLUMBERGER                   : Scn          - SERVICE COMPANY
STRT.M        300                            : top_depth    - START DEPTH
STOP.M        535                            : bot_depth    - STOP DEPTH
STEP.M        0.25                           : increment    - STEP LENGTH
 NULL. -999.2500:NULL Value
~CURVE INFORMATION BLOCK
#MNEM UNIT       ERCB CURVE CODE    CURVE DESCRIPTION
#-----------   ------------------   ----------------------------------
DEPT.M        00 001 00 00         : DEPTH        - DEPTH
ILD .OHMM     00 120 00 00         : RESD         - DEEP RESISTIVITY (DIL)
DPHI.V/V      00 890 00 00         : PHID         - DENSITY POROSITY (LIMESTONE)
NPHI.V/V      00 330 00 00         : PHIN         - NEUTRON POROSITY (LIMESTONE)
GR  .API      00 310 00 00         : GR           - GAMMA RAY
~PARAMETER INFORMATION
#MNEM.UNIT           DATA             DESCRIPTION OF MNEMONIC
#---------         -----------     ------------------------------
GL  .M        651.97               : gl           - GROUND LEVEL ELEVATION
EREF.M        654.8                : kb           - ELEVATION OF DEPTH REFERENCE
DATM.M        651.97               : datum        - DATUM ELEVATION
TDD .M        539                  : tdd          - TOTAL DEPTH DRILLER
RUN .         ONE                  : Run          - RUN NUMBER
ENG .         BILL                 : Engineer     - RECORDING ENGINEER
WIT .         JIM                  : Witness      - WITNESSED BY
MUD .         GEL                  : Mud_type     - MUD TYPE
MATR.         LIMESTONE            : Logunit      - NEUTRON MATRIX
TMAX.C        25                   : BHT          - MAXIMUM RECORDED TEMPERATURE
BHTD.M        539                  : BHTDEP       - MAXIMUM RECORDED TEMPERATURE
MATR.         1                    : LOGUNIT      - NEUTRON MATRIX
RMT .C        25                   : MDTP         - TEMPERATURE OF MUD
NEUT.         1                    : NEUTRON      - NEUTRON TYPE
RESI.         0                    : RESIST       - RESISTIVITY TYPE
RMC .OHMM     0.25                 : RMC          - RESISTIVITY OF MUD CAKE
RMF .OHMM     0.25                 : RMF          - RESISTIVITY OF MUD FILTRATE
SUFT.C        15                   : SUFT         - SURFACE TEMPERATURE
~A  DEPTH     RESD     PHID     PHIN       GR
# ...
  343.500   14.003    0.303    0.319   49.593
  343.750   14.159    0.305    0.319   54.744
  344.000   14.291    0.311    0.334   58.303
  344.250   14.451    0.313    0.358   60.944
  344.500   14.585    0.312    0.367   59.114
  344.750   14.639    0.313    0.371   53.183
  345.000   14.747    0.315    0.357   48.538
  345.250   14.829    0.318    0.345   48.668
  345.500   14.855    0.316    0.344   50.696
  345.750   14.771    0.308    0.348   50.398
  346.000   14.715    0.303    0.348   47.406
  346.250   14.659    0.305    0.336   44.474
  346.500   14.603    0.309    0.328   41.788
  346.750   14.521    0.302    0.321   41.306
  347.000   14.519    0.295    0.315   43.396
  347.250   14.518    0.291    0.324   45.179
  347.500   14.544    0.287    0.329   46.534
  347.750   14.543    0.286    0.335   47.828
  348.000   14.542    0.288    0.345   48.815
  348.250   14.514    0.300    0.356   48.945
  348.500   14.486    0.314    0.351   43.443
  348.750   14.430    0.313    0.337   40.205
  349.000   14.375    0.308    0.323   38.499
  349.250   14.241    0.306    0.314   37.649
  349.500   14.134    0.306    0.304   36.677
  349.750   14.027    0.309    0.313   35.338
  350.000   13.870    0.316    0.339   34.856
  350.250   13.638    0.321    0.357   36.026
  350.500   13.360    0.326    0.369   36.770
  350.750   13.111    0.331    0.355   36.348
  351.000   12.844    0.323    0.349   35.438
  351.250   12.465    0.318    0.359   40.894
  351.500   12.097    0.318    0.346   64.046
  351.750   11.480    0.306    0.315   82.727
  352.000   10.895    0.286    0.303   98.653
  352.250   10.495    0.225    0.352  106.130
  352.500   10.147    0.210    0.389  108.158
  352.750   10.203    0.228    0.436   99.839
  353.000   10.375    0.258    0.387   82.643
  353.250   10.394    0.285    0.358   84.487
  353.500   10.258    0.299    0.333   93.251
  353.750    9.937    0.289    0.349   97.911
  354.000    9.483    0.280    0.380  100.736
  354.250    9.117    0.276    0.412  102.519
  354.500    8.848    0.259    0.432  105.527
  354.750    9.031    0.230    0.449  105.351
  355.000    9.409    0.226    0.413   98.134
  355.250    9.858    0.248    0.378   89.570
  355.500   10.100    0.259    0.356   83.884
  355.750   10.251    0.270    0.339   84.381
  356.000   10.327    0.278    0.357   87.879
  356.250   10.249    0.275    0.388   90.519
  356.500   10.059    0.266    0.424   90.527
  356.750   10.077    0.262    0.452   88.514
  357.000   10.323    0.270    0.426   90.481
  357.250   10.458    0.273    0.393   91.652
  357.500   10.477    0.269    0.375   92.703
  357.750   10.321    0.260    0.365   91.915
  358.000   10.129    0.251    0.367   91.064
  358.250    9.849    0.244    0.370   90.338
  358.500    9.522    0.243    0.393   92.487
  358.750    9.207    0.238    0.406   97.393
  359.000    8.803    0.229    0.423  101.441
  359.250    8.401    0.219    0.436  103.898
  359.500    7.987    0.221    0.436  100.233
  359.750    7.987    0.238    0.425   95.894
  360.000    8.031    0.248    0.410   95.289
  360.250    7.956    0.254    0.416  101.357
  360.500    7.779    0.243    0.421  105.836
  360.750    7.479    0.229    0.440  106.822
  361.000    7.151    0.216    0.460  103.524
  361.250    7.071    0.222    0.443  101.817
  361.500    7.436    0.239    0.412   97.846
  361.750    7.952    0.259    0.372   91.057
  362.000    8.441    0.290    0.352   84.759
  362.250    9.078    0.311    0.332   81.276
  362.500    9.854    0.273    0.329   81.039
  362.750   10.499    0.243    0.347   86.496
  363.000   11.041    0.259    0.362   92.260
  363.250   11.375    0.272    0.383   94.104
  363.500   11.459    0.270    0.398   93.132
  363.750   11.437    0.267    0.412   93.384
  364.000   11.330    0.271    0.411   93.086
  364.250   11.265    0.278    0.396   89.298
  364.500   11.181    0.289    0.382   89.244
  364.750   11.097    0.292    0.375   90.662
  365.000   11.055    0.286    0.367   91.832
  365.250   10.930    0.280    0.366   93.370
  365.500   10.848    0.277    0.358   94.604
  365.750   10.787    0.271    0.345   95.407
  366.000   10.646    0.242    0.351   96.393
  366.250   10.487    0.221    0.360   97.196
  366.500   10.235    0.222    0.347   95.306
  366.750   10.026    0.240    0.318   97.212
  367.000    9.785    0.256    0.300   96.301
  367.250    9.461    0.246    0.320   94.595
  367.500    9.182    0.234    0.347   98.154
  367.750    9.062    0.226    0.370   99.570
  368.000    8.960    0.221    0.371   98.659
  368.250    8.794    0.229    0.362   96.035
  368.500    8.424    0.241    0.346   95.490
  368.750    7.934    0.252    0.327  104.376
  369.000    7.614    0.239    0.342  116.445
  369.250    7.501    0.221    0.369  123.800
  369.500    7.873    0.207    0.360  122.032
  369.750    8.531    0.196    0.354  115.060
  370.000    9.400    0.234    0.402   90.700
  370.250   10.612    0.303    0.432   80.912
  370.500   11.891    0.320    0.439   73.206
  370.750   12.981    0.329    0.363   67.519
  371.000   13.473    0.327    0.338   65.445
  371.250   13.447    0.317    0.325   67.290
  371.500   13.099    0.328    0.345   68.889
  371.750   12.713    0.344    0.368   68.653
  372.000   12.291    0.348    0.394   72.028
  372.250   12.018    0.327    0.373   76.811
  372.500   11.664    0.303    0.352   82.084
  372.750   11.426    0.285    0.337   86.991
  373.000   11.234    0.285    0.357   87.303
  373.250   11.255    0.298    0.379   83.332
  373.500   11.359    0.309    0.411   80.340
  373.750   11.572    0.320    0.376   81.572
  374.000   11.615    0.324    0.359   81.702
  374.250   11.657    0.314    0.361   81.097
  374.500   11.548    0.306    0.382   83.615
  374.750   11.419    0.293    0.378   87.725
  375.000   11.418    0.286    0.362   91.286
  375.250   11.417    0.281    0.355   93.006
  375.500   11.226    0.286    0.380   94.117
  375.750   10.475    0.296    0.379   89.961
  376.000   10.185    0.286    0.355   82.806
  376.250    9.469    0.264    0.327   85.017
  376.500    9.190    0.248    0.320   88.759
  376.750    9.104    0.234    0.324   86.746
  377.000    9.450    0.227    0.338   80.938
  377.250    9.717    0.225    0.348   75.802
  377.500   10.124    0.282    0.361   69.504
  377.750   10.469    0.310    0.353   64.430
  378.000   10.646    0.322    0.346   66.213
  378.250   10.967    0.326    0.340   73.079
  378.500   11.215    0.316    0.354   71.555
  378.750   11.533    0.306    0.357   70.094
  379.000   11.749    0.303    0.379   73.163
  379.250   12.014    0.309    0.406   74.579
  379.500   12.286    0.311    0.430   71.892
  379.750   12.824    0.303    0.400   66.819
  380.000   13.460    0.310    0.371   63.459
  380.250   13.867    0.318    0.350   64.141
  380.500   14.075    0.323    0.338   64.148
  380.750   14.286    0.322    0.352   62.381
  381.000   14.445    0.321    0.350   62.878
  381.250   14.607    0.324    0.345   67.600
  381.500   14.579    0.328    0.343   71.097
  381.750   14.577    0.331    0.342   72.391
  382.000   14.549    0.329    0.345   69.276
  382.250   14.494    0.325    0.350   68.182
  382.500   14.385    0.322    0.355   66.843
  382.750   14.276    0.321    0.362   64.401
  383.000   14.275    0.321    0.373   69.736
  383.250   14.274    0.324    0.387   73.233
  383.500   14.273    0.327    0.384   74.711
  383.750   14.219    0.325    0.366   70.065
  384.000   14.271    0.321    0.357   65.359
  384.250   14.270    0.320    0.361   62.917
  384.500   14.269    0.322    0.382   61.088
  384.750   14.268    0.324    0.388   61.342
  385.000   14.267    0.328    0.368   63.002
  385.250   14.212    0.332    0.356   65.213
  385.500   14.185    0.335    0.375   68.650
  385.750   14.104    0.341    0.392   71.045
  386.000   14.103    0.343    0.403   69.033
  386.250   14.049    0.345    0.391   65.918
  386.500   13.996    0.345    0.402   67.456
  386.750   13.917    0.343    0.417   68.199
