~VERSION INFORMATION
 VERS.                 2.0:   CWLS LOG ASCII STANDARD -VERSION 2.0
 WRAP.                  NO:   ONE LINE PER DEPTH STEP
~WELL INFORMATION BLOCK
#MNEM.UNIT           DATA                    DESCRIPTION OF MNEMONIC
#---------    -------------------            -------------------------------
# Generated from Intellog Unique Number	CS_67_68/WELL/2216
WELL.         CAVALIER FLAT LAKE             : Well_name    - WELL
LOC .         00/14-03-067-18W4/0            : Location     - LOCATION
UWI .         00/14-03-067-18W4/0            : Uwi          - UNIQUE WELL ID
ENTR.         SP                             : Entered      - ENTERED BY
SRVC.         SCHLUMBERGER                   : Scn          - SERVICE COMPANY
STRT.M        395                            : top_depth    - START DEPTH
STOP.M        551                            : bot_depth    - STOP DEPTH
STEP.M        0.25                           : increment    - STEP LENGTH
 NULL. -999.2500:NULL Value
~CURVE INFORMATION BLOCK
#MNEM UNIT       ERCB CURVE CODE    CURVE DESCRIPTION
#-----------   ------------------   ----------------------------------
DEPT.M        00 001 00 00         : DEPTH        - DEPTH
ILD .OHMM     00 120 00 00         : RESD         - DEEP RESISTIVITY (DIL)
DPHI.V/V      00 890 00 00         : PHID         - DENSITY POROSITY (LIMESTONE)
NPHI.V/V      00 330 00 00         : PHIN         - NEUTRON POROSITY (LIMESTONE)
GR  .API      00 310 00 00         : GR           - GAMMA RAY
CALI.MM       00 280 01 00         : CAL          - CALIPER
~PARAMETER INFORMATION
#MNEM.UNIT           DATA             DESCRIPTION OF MNEMONIC
#---------         -----------     ------------------------------
GL  .M        616.5                : gl           - GROUND LEVEL ELEVATION
EREF.M        620.5                : kb           - ELEVATION OF DEPTH REFERENCE
DATM.M        620.5                : datum        - DATUM ELEVATION
TDD .M        570                  : tdd          - TOTAL DEPTH DRILLER
RUN .         ONE                  : Run          - RUN NUMBER
ENG .         BILL                 : Engineer     - RECORDING ENGINEER
WIT .         JIM                  : Witness      - WITNESSED BY
MUD .         GEL                  : Mud_type     - MUD TYPE
MATR.         LIMESTONE            : Logunit      - NEUTRON MATRIX
TMAX.C        23                   : BHT          - MAXIMUM RECORDED TEMPERATURE
BHTD.M        570                  : BHTDEP       - MAXIMUM RECORDED TEMPERATURE
MATR.         1                    : LOGUNIT      - NEUTRON MATRIX
RMT .C        25                   : MDTP         - TEMPERATURE OF MUD
NEUT.         1                    : NEUTRON      - NEUTRON TYPE
RESI.         0                    : RESIST       - RESISTIVITY TYPE
RMC .OHMM     0.25                 : RMC          - RESISTIVITY OF MUD CAKE
RMF .OHMM     0.25                 : RMF          - RESISTIVITY OF MUD FILTRATE
SUFT.C        15                   : SUFT         - SURFACE TEMPERATURE
~A  DEPTH     RESD     PHID     PHIN       GR      CAL
# ...
  431.500    3.236    0.217    0.447  104.116  168.122
  431.750    3.288    0.216    0.442   97.500  167.295
  432.000    3.290    0.202    0.436   91.007  166.056
  432.250    3.237    0.175    0.430   86.349  164.818
  432.500    3.186    0.176    0.440   86.645  163.581
  432.750    3.147    0.198    0.437   88.839  162.751
  433.000    3.132    0.201    0.427   90.605  162.021
  433.250    3.158    0.194    0.422   92.309  161.498
  433.500    3.209    0.198    0.418   88.874  160.362
  433.750    3.273    0.191    0.432   84.216  160.245
  434.000    3.364    0.184    0.440   81.454  160.230
  434.250    3.451    0.221    0.429   78.937  159.808
  434.500    3.447    0.320    0.463   77.950  158.772
  434.750    3.316    0.362    0.511   77.329  157.738
  435.000    3.172    0.334    0.416   75.302  157.213
  435.250    3.035    0.329    0.393   74.376  156.384
  435.500    2.886    0.329    0.382   77.670  155.452
  435.750    2.776    0.323    0.384   78.946  154.519
  436.000    2.636    0.315    0.384   73.859  153.893
  436.250    2.507    0.301    0.385   71.527  153.267
  436.500    2.380    0.291    0.387   73.231  152.845
  436.750    2.298    0.279    0.396   73.772  152.625
  437.000    2.274    0.277    0.407   73.213  152.100
  437.250    2.267    0.279    0.417   72.837  151.675
  437.500    2.252    0.282    0.425   71.972  151.765
  437.750    2.237    0.287    0.420   72.636  152.058
  438.000    2.210    0.280    0.414   72.016  153.674
  438.250    2.238    0.292    0.442   71.028  155.801
  438.500    2.299    0.318    0.458   71.936  157.417
  438.750    2.463    0.330    0.438   69.542  158.523
  439.000    2.735    0.278    0.418   66.046  159.019
  439.250    3.107    0.211    0.435   63.652  159.717
  439.500    3.651    0.173    0.344   66.457  160.212
  439.750    4.024    0.139    0.292   67.488  160.707
  440.000    4.418    0.099    0.257   68.153  161.200
  440.250    4.315    0.068    0.319   77.075  161.800
  440.500    3.989    0.152    0.395   85.141  162.704
  440.750    3.702    0.215    0.434   87.763  163.912
  441.000    3.429    0.222    0.439   88.733  164.815
  441.250    3.183    0.225    0.431   84.992  165.717
  441.500    3.073    0.229    0.424   89.816  166.723
  441.750    3.117    0.213    0.418   94.823  167.932
  442.000    3.289    0.201    0.446   97.445  168.833
  442.250    3.451    0.190    0.442   96.702  168.920
  442.500    3.581    0.212    0.431   90.208  168.601
  442.750    3.624    0.234    0.425   84.450  168.076
  443.000    3.600    0.240    0.433   81.138  167.859
  443.250    3.523    0.226    0.438   85.166  167.537
  443.500    3.427    0.214    0.413   88.400  167.726
  443.750    3.334    0.208    0.399   91.999  168.120
  444.000    3.220    0.208    0.412   95.172  169.125
  444.250    3.180    0.205    0.436   97.243  169.720
  444.500    3.148    0.195    0.454   98.947  169.911
  444.750    3.109    0.199    0.437   91.536  170.506
  445.000    3.013    0.208    0.424   88.836  171.002
  445.250    2.965    0.198    0.418   92.007  171.805
  445.500    3.013    0.201    0.447   93.896  172.707
  445.750    3.120    0.215    0.473   95.477  172.795
  446.000    3.237    0.223    0.485   96.265  172.677
  446.250    3.409    0.223    0.474   97.172  171.540
  446.500    3.618    0.220    0.468   98.021  170.507
  446.750    3.891    0.217    0.457   98.134  169.984
  447.000    4.021    0.207    0.446   98.064  169.251
  447.250    4.025    0.205    0.439   96.588  168.933
  447.500    3.930    0.204    0.434   94.560  168.512
  447.750    3.724    0.193    0.433   97.365  167.172
  448.000    3.502    0.190    0.439   97.049  165.730
  448.250    4.187    0.244    0.420   87.620  164.082
  448.500    4.409    0.304    0.374   73.665  162.845
  448.750    4.480    0.319    0.337   71.270  161.914
  449.000    4.197    0.328    0.314   71.996  161.592
  449.250    3.970    0.325    0.311   74.555  161.271
  449.500    3.748    0.311    0.317   77.177  161.255
  449.750    3.459    0.299    0.329   78.882  160.936
  450.000    3.240    0.290    0.346   78.872  161.126
  450.250    3.065    0.277    0.374   80.820  161.519
  450.500    3.079    0.257    0.396   84.543  163.339
  450.750    3.280    0.231    0.406   88.022  164.854
  451.000    3.520    0.203    0.421   89.726  166.877
  451.250    3.792    0.205    0.437   87.577  168.393
  451.500    4.055    0.214    0.447   81.755  170.113
  451.750    4.247    0.231    0.416   78.261  170.200
  452.000    4.381    0.252    0.383   75.559  167.431
  452.250    4.426    0.272    0.371   74.206  164.665
  452.500    4.372    0.289    0.365   77.683  162.509
  452.750    4.262    0.293    0.365   74.983  161.372
  453.000    4.250    0.293    0.379   70.752  161.358
  453.250    4.142    0.298    0.382   68.297  161.342
  453.500    3.874    0.320    0.352   65.046  161.635
  453.750    3.501    0.337    0.333   62.163  161.620
  454.000    3.195    0.346    0.314   63.622  162.217
  454.250    2.948    0.333    0.293   65.019  162.712
  454.500    2.778    0.325    0.339   64.216  163.103
  454.750    2.687    0.317    0.371   62.128  163.090
  455.000    2.690    0.313    0.410   61.322  163.175
  455.250    2.728    0.322    0.429   61.253  163.367
  455.500    2.694    0.332    0.414   60.633  163.658
  455.750    2.572    0.320    0.402   59.829  163.642
  456.000    2.507    0.310    0.389   60.554  163.527
  456.250    2.486    0.304    0.404   62.686  163.613
  456.500    2.447    0.307    0.410   63.534  163.702
  456.750    2.463    0.316    0.395   58.692  165.215
  457.000    2.545    0.322    0.384   59.418  166.934
  457.250    2.666    0.327    0.380   67.360  168.347
  457.500    2.840    0.314    0.382   76.528  168.434
  457.750    3.025    0.283    0.372   82.576  168.725
  458.000    3.296    0.237    0.367   88.379  168.915
  458.250    3.551    0.184    0.383   70.752  169.919
  458.500    3.790    0.157    0.433   57.652  170.720
  458.750    4.053    0.106    0.316   56.787  170.706
  459.000    4.204    0.063    0.251   63.996  170.485
  459.250    4.075    0.081    0.265   69.249  170.779
  459.500    3.669    0.120    0.293   74.500  170.661
  459.750    3.273    0.144    0.326   78.162  169.627
  460.000    3.003    0.163    0.362   82.618  169.817
  460.250    2.808    0.203    0.397   82.305  170.004
  460.500    2.743    0.238    0.415   79.298  169.991
  460.750    2.933    0.244    0.403   83.632  170.283
  461.000    3.166    0.219    0.413   87.356  170.778
  461.250    3.502    0.203    0.435   91.629  172.496
  461.500    3.794    0.197    0.434   95.535  173.910
  461.750    4.027    0.189    0.404   98.585  171.955
  462.000    4.209    0.176    0.387   92.091  170.618
  462.250    4.205    0.254    0.385   82.173  168.461
  462.500    3.413    0.328    0.317   72.743  166.714
  462.750    2.713    0.383    0.239   65.822  164.150
  463.000    2.313    0.380    0.220   59.941  162.912
  463.250    1.953    0.346    0.324   59.442  162.082
  463.500    1.668    0.321    0.367   59.494  161.760
  463.750    1.482    0.313    0.379   59.425  161.339
  464.000    1.394    0.312    0.383   58.926  161.222
  464.250    1.318    0.317    0.386   58.000  161.310
  464.500    1.388    0.329    0.385   62.151  162.111
  464.750    1.548    0.310    0.384   67.035  164.644
  465.000    1.788    0.236    0.383   73.144  166.771
  465.250    2.141    0.182    0.396   79.863  168.897
  465.500    2.488    0.154    0.423   84.934  170.716
  465.750    2.722    0.139    0.447   90.492  171.927
  466.000    2.729    0.231    0.476   93.480  171.708
  466.250    2.601    0.255    0.466   84.723  168.225
  466.500    2.320    0.264    0.447   77.129  166.274
  466.750    2.081    0.267    0.428   71.125  165.343
  467.000    1.953    0.260    0.431   71.484  164.819
  467.250    1.851    0.258    0.426   74.594  164.701
  467.500    1.787    0.281    0.415   74.769  164.178
  467.750    1.713    0.296    0.408   73.048  163.652
