~VERSION INFORMATION
 VERS.                 2.0:   CWLS LOG ASCII STANDARD -VERSION 2.0
 WRAP.                  NO:   ONE LINE PER DEPTH STEP
~WELL INFORMATION BLOCK
#MNEM.UNIT           DATA                    DESCRIPTION OF MNEMONIC
#---------    -------------------            -------------------------------
# Generated from Intellog Unique Number	CS_71_72/WELL/907
WELL.         KISSINGER PETROLEUM LIMITE     : Well_name    - WELL
LOC .         00/11-29-071-11W4/0            : Location     - LOCATION
UWI .         00/11-29-071-11W4/0            : Uwi          - UNIQUE WELL ID
ENTR.         SP                             : Entered      - ENTERED BY
SRVC.         SCHLUMBERGER                   : Scn          - SERVICE COMPANY
STRT.M        250                            : top_depth    - START DEPTH
STOP.M        470                            : bot_depth    - STOP DEPTH
STEP.M        0.25                           : increment    - STEP LENGTH
 NULL. -999.2500:NULL Value
~CURVE INFORMATION BLOCK
#MNEM UNIT       ERCB CURVE CODE    CURVE DESCRIPTION
#-----------   ------------------   ----------------------------------
DEPT.M        00 001 00 00         : DEPTH        - DEPTH
ILD .OHMM     00 120 00 00         : RESD         - DEEP RESISTIVITY (DIL)
DPHI.V/V      00 890 00 00         : PHID         - DENSITY POROSITY (LIMESTONE)
NPHI.V/V      00 330 00 00         : PHIN         - NEUTRON POROSITY (LIMESTONE)
GR  .API      00 310 00 00         : GR           - GAMMA RAY
~PARAMETER INFORMATION
#MNEM.UNIT           DATA             DESCRIPTION OF MNEMONIC
#---------         -----------     ------------------------------
GL  .M        590.76               : gl           - GROUND LEVEL ELEVATION
EREF.M        594.59               : kb           - ELEVATION OF DEPTH REFERENCE
DATM.M        590.76               : datum        - DATUM ELEVATION
TDD .M        479                  : tdd          - TOTAL DEPTH DRILLER
RUN .         ONE                  : Run          - RUN NUMBER
ENG .         BILL                 : Engineer     - RECORDING ENGINEER
WIT .         JIM                  : Witness      - WITNESSED BY
MUD .         GEL                  : Mud_type     - MUD TYPE
MATR.         LIMESTONE            : Logunit      - NEUTRON MATRIX
TMAX.C        28                   : BHT          - MAXIMUM RECORDED TEMPERATURE
BHTD.M        479                  : BHTDEP       - MAXIMUM RECORDED TEMPERATURE
MATR.         1                    : LOGUNIT      - NEUTRON MATRIX
RMT .C        25                   : MDTP         - TEMPERATURE OF MUD
NEUT.         1                    : NEUTRON      - NEUTRON TYPE
RESI.         0                    : RESIST       - RESISTIVITY TYPE
RMC .OHMM     0.25                 : RMC          - RESISTIVITY OF MUD CAKE
RMF .OHMM     0.25                 : RMF          - RESISTIVITY OF MUD FILTRATE
SUFT.C        15                   : SUFT         - SURFACE TEMPERATURE
~A  DEPTH     RESD     PHID     PHIN       GR
# ...
  293.500    5.689    0.220    0.416  118.168
  293.750    6.030    0.235    0.377  112.343
  294.000    6.264    0.245    0.358  103.162
  294.250    6.580    0.253    0.340   91.964
  294.500    6.929    0.265    0.331   78.689
  294.750    7.474    0.290    0.356   72.073
  295.000    7.945    0.314    0.385   71.867
  295.250    8.228    0.318    0.402   73.979
  295.500    8.479    0.308    0.411   75.301
  295.750    8.663    0.303    0.391   76.008
  296.000    8.759    0.306    0.379   75.926
  296.250    8.764    0.317    0.365   74.985
  296.500    8.720    0.322    0.366   73.257
  296.750    8.782    0.318    0.365   69.571
  297.000    8.909    0.315    0.353   66.680
  297.250    8.964    0.315    0.363   65.131
  297.500    8.994    0.315    0.376   70.849
  297.750    8.999    0.312    0.367   78.336
  298.000    8.947    0.312    0.355   79.720
  298.250    8.698    0.314    0.360   77.805
  298.500    8.384    0.311    0.365   75.522
  298.750    8.120    0.305    0.374   81.788
  299.000    7.798    0.294    0.396   89.151
  299.250    7.484    0.282    0.414   94.872
  299.500    7.129    0.266    0.416   99.919
  299.750    6.864    0.253    0.419  103.257
  300.000    6.714    0.238    0.414  105.004
  300.250    6.760    0.234    0.406  105.897
  300.500    6.937    0.242    0.404  103.373
  300.750    7.138    0.241    0.409  101.213
  301.000    7.176    0.224    0.398  102.776
  301.250    7.132    0.203    0.383  105.686
  301.500    6.883    0.187    0.369  107.495
  301.750    6.619    0.201    0.367  108.326
  302.000    6.444    0.216    0.383  108.788
  302.250    6.433    0.229    0.404  108.772
  302.500    6.511    0.243    0.415  107.589
  302.750    6.680    0.259    0.421  102.620
  303.000    6.882    0.244    0.404   96.370
  303.250    7.181    0.222    0.390   98.420
  303.500    7.399    0.223    0.381  100.171
  303.750    7.699    0.254    0.410  100.027
  304.000    8.023    0.281    0.422   89.135
  304.250    8.478    0.299    0.403   81.784
  304.500    9.006    0.294    0.396   85.121
  304.750    9.526    0.289    0.402   87.844
  305.000    9.908    0.285    0.410   89.715
  305.250   10.175    0.282    0.401   87.555
  305.500   10.360    0.272    0.391   83.627
  305.750   10.095    0.266    0.392   83.910
  306.000    9.953    0.262    0.405   85.535
  306.250    9.909    0.266    0.387   83.681
  306.500    9.963    0.272    0.373   81.338
  306.750   10.082    0.273    0.378   79.421
  307.000   10.194    0.270    0.387   77.990
  307.250   10.321    0.265    0.389   79.867
  307.500   10.400    0.262    0.387   88.027
  307.750   10.495    0.258    0.385   86.233
  308.000   10.565    0.256    0.373   85.784
  308.250   10.587    0.245    0.354   89.670
  308.500   10.568    0.229    0.340   92.820
  308.750   10.508    0.218    0.357   94.264
  309.000   10.406    0.219    0.379   95.158
  309.250   10.297    0.225    0.393   94.037
  309.500   10.131    0.235    0.388   93.219
  309.750    9.791    0.243    0.377   93.931
  310.000    9.322    0.241    0.373   96.411
  310.250    8.869    0.238    0.370   98.466
  310.500    8.351    0.234    0.366   98.567
  310.750    7.981    0.235    0.369  101.350
  311.000    7.749    0.228    0.380  105.789
  311.250    7.573    0.211    0.375  109.429
  311.500    7.571    0.197    0.353  109.409
  311.750    7.977    0.195    0.339   98.515
  312.000    8.906    0.212    0.337   85.241
  312.250    9.827    0.234    0.407   73.189
  312.500   10.633    0.267    0.443   66.019
  312.750   11.285    0.290    0.447   63.130
  313.000   11.592    0.302    0.403   74.340
  313.250   11.491    0.286    0.376   84.024
  313.500   10.948    0.273    0.365   89.012
  313.750   10.553    0.265    0.365   89.359
  314.000   10.075    0.260    0.379   82.006
  314.250   10.138    0.273    0.396   74.410
  314.500   10.567    0.302    0.404   70.909
  314.750   10.826    0.320    0.404   66.975
  315.000   11.060    0.316    0.400   64.880
  315.250   11.359    0.309    0.399   64.187
  315.500   11.423    0.304    0.399   63.977
  315.750   11.232    0.300    0.390   64.141
  316.000   10.950    0.301    0.370   65.267
  316.250   10.538    0.303    0.357   65.438
  316.500   10.019    0.298    0.357   65.846
  316.750    9.582    0.290    0.370   67.649
  317.000    9.310    0.280    0.354   68.672
  317.250    8.840    0.280    0.354   71.028
  317.500    8.691    0.271    0.371   73.752
  317.750    8.482    0.255    0.391   76.417
  318.000    8.438    0.249    0.384   79.076
  318.250    8.428    0.254    0.376   79.671
  318.500    8.432    0.268    0.369   80.078
  318.750    8.478    0.281    0.368   81.032
  319.000    8.598    0.272    0.358   82.354
  319.250    8.768    0.267    0.352   82.941
  319.500    9.303    0.263    0.341   82.492
  319.750    9.644    0.262    0.346   81.432
  320.000   10.230    0.272    0.385   77.622
  320.250   10.849    0.292    0.407   68.746
  320.500   11.550    0.315    0.404   51.930
  320.750   12.356    0.316    0.383   50.197
  321.000   13.334    0.306    0.364   48.402
  321.250   13.977    0.305    0.363   48.260
  321.500   14.121    0.319    0.367   50.432
  321.750   13.889    0.337    0.401   52.490
  322.000   13.551    0.350    0.428   53.932
  322.250   13.049    0.359    0.450   54.397
  322.500   12.310    0.348    0.444   54.194
  322.750   12.053    0.342    0.392   53.560
  323.000   12.459    0.349    0.376   49.993
  323.250   12.767    0.366    0.353   44.721
  323.500   13.156    0.382    0.361   40.547
  323.750   13.521    0.341    0.378   43.333
  324.000   13.869    0.321    0.403   45.693
  324.250   14.136    0.312    0.426   48.536
  324.500   14.272    0.312    0.411   50.706
  324.750   14.360    0.315    0.388   50.511
  325.000   14.414    0.325    0.383   46.579
  325.250   14.444    0.329    0.374   44.847
  325.500   14.351    0.324    0.361   49.830
  325.750   13.848    0.320    0.357   54.079
  326.000   13.370    0.328    0.369   56.440
  326.250   13.074    0.332    0.383   58.192
  326.500   12.734    0.334    0.403   60.122
  326.750   12.518    0.335    0.410   60.955
  327.000   12.484    0.333    0.413   60.870
  327.250   12.481    0.328    0.420   60.359
  327.500   12.633    0.322    0.427   60.521
  327.750   12.972    0.322    0.431   61.111
  328.000   13.044    0.327    0.421   61.392
  328.250   13.008    0.331    0.403   60.823
  328.500   12.939    0.335    0.392   59.758
  328.750   12.887    0.342    0.380   58.090
  329.000   12.876    0.341    0.359   59.711
  329.250   12.954    0.334    0.348   60.488
  329.500   13.074    0.330    0.380   60.833
  329.750   13.349    0.323    0.413   59.650
  330.000   13.739    0.312    0.428   57.914
  330.250   13.973    0.312    0.417   55.634
  330.500   14.378    0.314    0.423   53.658
  330.750   14.613    0.308    0.415   53.329
  331.000   14.953    0.299    0.392   55.746
  331.250   15.122    0.293    0.368   56.886
  331.500   15.274    0.292    0.367   58.146
  331.750   15.394    0.294    0.381   57.882
  332.000   15.383    0.296    0.392   54.194
  332.250   14.979    0.300    0.403   51.485
  332.500   14.706    0.308    0.406   49.632
  332.750   14.563    0.313    0.403   52.353
  333.000   14.577    0.311    0.389   54.287
  333.250   14.761    0.305    0.372   55.610
  333.500   14.864    0.300    0.359   56.797
  333.750   14.895    0.300    0.355   57.029
  334.000   14.835    0.304    0.358   56.215
  334.250   14.366    0.304    0.373   50.755
  334.500   13.708    0.302    0.382   47.864
  334.750   13.264    0.299    0.390   47.110
  335.000   12.917    0.303    0.389   50.743
  335.250   12.652    0.315    0.376   52.743
  335.500   12.485    0.322    0.367   55.037
  335.750   12.350    0.324    0.368   54.957
  336.000   12.316    0.321    0.381   52.918
  336.250   12.272    0.319    0.389   52.897
  336.500   12.211    0.311    0.401   54.216
  336.750   12.159    0.305    0.392   55.477
