~VERSION INFORMATION
 VERS.                 2.0:   CWLS LOG ASCII STANDARD -VERSION 2.0
 WRAP.                  NO:   ONE LINE PER DEPTH STEP
~WELL INFORMATION BLOCK
#MNEM.UNIT           DATA                    DESCRIPTION OF MNEMONIC
#---------    -------------------            -------------------------------
# Generated from Intellog Unique Number	CS_73_76/WELL/3252
WELL.         10-32-076-12W4                 : Well_name    - WELL
LOC .         00/10-32-076-12W4/0            : Location     - LOCATION
UWI .         00/10-32-076-12W4/0            : Uwi          - UNIQUE WELL ID
ENTR.         SP                             : Entered      - ENTERED BY
SRVC.         SCHLUMBERGER                   : Scn          - SERVICE COMPANY
STRT.M        295.656                        : top_depth    - START DEPTH
STOP.M        533.156                        : bot_depth    - STOP DEPTH
STEP.M        0.25                           : increment    - STEP LENGTH
 NULL. -999.2500:NULL Value
~CURVE INFORMATION BLOCK
#MNEM UNIT       ERCB CURVE CODE    CURVE DESCRIPTION
#-----------   ------------------   ----------------------------------
DEPT.M        00 001 00 00         : DEPTH        - DEPTH
GR  .API      00 310 00 00         : GR           - GAMMA RAY
DPHI.V/V      00 890 00 00         : PHID         - DENSITY POROSITY (SANDSTONE)
NPHI.V/V      00 330 00 00         : PHIN         - NEUTRON POROSITY (SANDSTONE)
ILD .OHMM     00 120 00 00         : RESD         - DEEP RESISTIVITY (DIL)
~PARAMETER INFORMATION
#MNEM.UNIT           DATA             DESCRIPTION OF MNEMONIC
#---------         -----------     ------------------------------
GL  .M        686.653              : gl           - GROUND LEVEL ELEVATION
EREF.M        689.762              : kb           - ELEVATION OF DEPTH REFERENCE
DATM.M        686.653              : datum        - DATUM ELEVATION
TDD .M        544.068              : tdd          - TOTAL DEPTH DRILLER
RUN .         ONE                  : Run          - RUN NUMBER
ENG .         BILL                 : Engineer     - RECORDING ENGINEER
WIT .         JIM                  : Witness      - WITNESSED BY
MUD .         GEL                  : Mud_type     - MUD TYPE
MATR.         SANDSTONE            : Logunit      - NEUTRON MATRIX
TMAX.C        25.5556              : BHT          - MAXIMUM RECORDED TEMPERATURE
BHTD.M        544.068              : BHTDEP       - MAXIMUM RECORDED TEMPERATURE
MATR.         1                    : LOGUNIT      - NEUTRON MATRIX
RMT .C        25                   : MDTP         - TEMPERATURE OF MUD
NEUT.         1                    : NEUTRON      - NEUTRON TYPE
RESI.         0                    : RESIST       - RESISTIVITY TYPE
RMC .OHMM     0.25                 : RMC          - RESISTIVITY OF MUD CAKE
RMF .OHMM     0.25                 : RMF          - RESISTIVITY OF MUD FILTRATE
SUFT.C        15                   : SUFT         - SURFACE TEMPERATURE
~A  DEPTH       GR     PHID     PHIN     RESD
# ...
  469.656   79.613    0.104    0.319    8.985
  469.906   84.275    0.136    0.347   10.290
  470.156   88.644    0.181    0.375   11.377
  470.406   92.576    0.193    0.377   11.746
  470.656   91.570    0.160    0.359   10.710
  470.906   83.421    0.144    0.350    9.680
  471.156   76.691    0.151    0.339    8.382
  471.406   71.561    0.154    0.333    7.832
  471.656   68.878    0.158    0.338    8.589
  471.906   69.525    0.191    0.347   10.138
  472.156   69.201    0.245    0.368   11.919
  472.406   70.196    0.244    0.379   13.639
  472.656   73.902    0.206    0.386   15.484
  472.906   76.442    0.190    0.391   17.495
  473.156   74.853    0.191    0.394   19.968
  473.406   72.931    0.199    0.396   20.473
  473.656   69.286    0.217    0.391   19.557
  473.906   66.816    0.234    0.380   18.832
  474.156   65.461    0.231    0.373   18.721
  474.406   57.014    0.229    0.384   21.299
  474.656   51.389    0.247    0.393   23.548
  474.906   52.211    0.274    0.381   26.075
  475.156   56.255    0.283    0.383   33.530
  475.406   59.180    0.289    0.371   42.685
  475.656   75.794    0.291    0.375   62.728
  475.906   87.411    0.265    0.392   75.780
  476.156   97.985    0.248    0.403   70.151
  476.406   95.388    0.239    0.405   39.664
  476.656   87.525    0.250    0.415   32.080
  476.906   82.415    0.259    0.405   24.393
  477.156   75.336    0.272    0.396   21.862
  477.406   75.543    0.275    0.386   21.582
  477.656   77.134    0.271    0.381   22.363
  477.906   78.180    0.254    0.376   23.424
  478.156   79.394    0.242    0.387   23.853
  478.406   81.434    0.244    0.392   22.590
  478.656   78.960    0.253    0.402   22.857
  478.906   76.055    0.270    0.395   24.639
  479.156   75.915    0.265    0.388   25.835
  479.406   78.862    0.243    0.379   28.662
  479.656   90.363    0.223    0.380   27.968
  479.906  101.122    0.204    0.394   25.906
  480.156  104.458    0.199    0.412   18.845
  480.406  101.189    0.208    0.420   14.535
  480.656   95.536    0.221    0.427   12.701
  480.906   82.150    0.239    0.414   14.613
  481.156   68.138    0.262    0.398   18.507
  481.406   61.042    0.280    0.389   24.189
  481.656   58.096    0.293    0.379   29.576
  481.906   57.546    0.305    0.371   44.925
  482.156   58.918    0.310    0.367   60.653
  482.406   61.717    0.299    0.362   67.877
  482.656   62.993    0.281    0.366   71.722
  482.906   64.552    0.265    0.361   64.657
  483.156   67.165    0.251    0.351   51.934
  483.406   70.701    0.249    0.346   39.969
  483.656   74.433    0.217    0.330   31.896
  483.906   76.428    0.197    0.322   26.127
  484.156   74.748    0.200    0.326   22.767
  484.406   73.697    0.195    0.340   20.776
  484.656   67.977    0.202    0.355   19.402
  484.906   64.876    0.247    0.360   19.350
  485.156   66.939    0.238    0.345   19.907
  485.406   71.512    0.230    0.351   21.395
  485.656   69.149    0.234    0.362   22.754
  485.906   60.079    0.254    0.366   26.256
  486.156   58.096    0.279    0.369   29.220
  486.406   60.803    0.306    0.369   34.235
  486.656   67.692    0.285    0.352   37.139
  486.906   73.049    0.218    0.333   39.362
  487.156   78.303    0.195    0.323   33.763
  487.406   83.325    0.186    0.317   24.381
  487.656   85.231    0.191    0.315   19.199
  487.906   87.874    0.176    0.315   17.406
  488.156   91.230    0.165    0.318   15.217
  488.406   93.251    0.171    0.320   15.076
  488.656   94.698    0.182    0.324   14.975
  488.906   92.842    0.171    0.345   15.270
  489.156   93.631    0.163    0.338   15.425
  489.406   93.195    0.160    0.326   15.891
  489.656   92.381    0.162    0.318   16.763
  489.906   90.348    0.177    0.316   15.723
  490.156   88.318    0.178    0.315   16.197
  490.406   86.343    0.166    0.316   16.730
  490.656   83.331    0.153    0.326   16.908
  490.906   81.045    0.179    0.335   17.098
  491.156   78.457    0.204    0.342   17.143
  491.406   76.653    0.211    0.332   17.077
  491.656   75.701    0.194    0.326   17.065
  491.906   74.788    0.178    0.325   16.804
  492.156   76.631    0.165    0.329   17.126
  492.406   80.555    0.169    0.340   16.748
  492.656   80.960    0.189    0.347   16.552
  492.906   79.204    0.179    0.358   16.424
  493.156   78.239    0.193    0.361   16.719
  493.406   78.614    0.212    0.364   16.901
  493.656   82.054    0.226    0.364   17.046
  493.906   83.427    0.219    0.350   17.056
  494.156   84.228    0.208    0.340   17.101
  494.406   85.647    0.193    0.344   16.374
  494.656   86.387    0.197    0.353   16.147
  494.906   84.310    0.179    0.360   15.815
  495.156   84.285    0.170    0.353   15.529
  495.406   84.952    0.183    0.356   15.528
  495.656   82.668    0.197    0.358   15.456
  495.906   71.835    0.207    0.362   15.236
  496.156   64.919    0.206    0.373   15.066
  496.406   59.788    0.227    0.379   14.916
  496.656   54.752    0.251    0.367   14.672
  496.906   50.225    0.281    0.364   14.653
  497.156   44.113    0.276    0.371   14.981
  497.406   42.102    0.278    0.380   16.089
  497.656   43.480    0.289    0.369   18.745
  497.906   45.868    0.287    0.385   21.843
  498.156   48.231    0.280    0.414   27.227
  498.406   49.998    0.302    0.408   31.203
  498.656   55.553    0.317    0.418   36.495
  498.906   56.923    0.298    0.414   38.412
  499.156   58.224    0.290    0.406   38.405
  499.406   58.114    0.288    0.366   35.358
  499.656   57.132    0.276    0.383   32.641
  499.906   51.452    0.262    0.392   29.466
  500.156   53.152    0.272    0.378   27.267
  500.406   59.935    0.288    0.366   26.791
  500.656   67.578    0.302    0.363   27.736
  500.906   72.198    0.274    0.363   30.515
  501.156   73.736    0.246    0.375   31.152
  501.406   70.766    0.242    0.382   28.600
  501.656   69.809    0.248    0.373   24.333
  501.906   69.591    0.226    0.366   21.765
  502.156   66.675    0.222    0.369   20.535
  502.406   63.551    0.233    0.369   20.111
  502.656   63.153    0.247    0.362   20.173
  502.906   64.562    0.229    0.349   20.839
  503.156   68.665    0.207    0.353   21.715
  503.406   72.647    0.213    0.367   22.073
  503.656   70.845    0.220    0.365   21.775
  503.906   70.827    0.232    0.359   20.083
  504.156   70.832    0.231    0.352   18.289
  504.406   71.864    0.217    0.341   17.196
  504.656   72.929    0.207    0.347   16.249
  504.906   72.642    0.195    0.352   15.790
  505.156   73.007    0.198    0.345   15.504
  505.406   74.132    0.188    0.341   12.790
  505.656   76.177    0.178    0.349   12.429
  505.906   77.992    0.161    0.354   11.922
  506.156   77.376    0.211    0.349   11.694
  506.406   76.348    0.216    0.339   11.711
  506.656   76.218    0.225    0.344   11.607
  506.906   76.028    0.219    0.336   11.480
  507.156   70.539    0.202    0.352   11.293
  507.406   69.133    0.235    0.359   11.067
  507.656   68.397    0.224    0.348   10.865
  507.906   70.741    0.211    0.338   10.873
  508.156   76.501    0.172    0.338   10.869
  508.406   79.258    0.163    0.328   10.867
  508.656   80.237    0.194    0.324   10.867
  508.906   81.081    0.181    0.329   10.866
  509.156   80.064    0.186    0.343   10.866
  509.406   77.353    0.199    0.351   10.871
  509.656   76.195    0.206    0.342   10.582
  509.906   77.309    0.195    0.330    9.920
  510.156   77.916    0.175    0.318    9.636
  510.406   79.338    0.164    0.325    9.351
  510.656   80.898    0.179    0.333    9.480
  510.906   81.490    0.176    0.326    9.791
  511.156   82.356    0.172    0.322    9.895
  511.406   80.692    0.180    0.342   10.095
  511.656   79.712    0.200    0.362   10.081
  511.906   79.300    0.236    0.351    9.933
  512.156   77.319    0.221    0.348    8.504
  512.406   67.835    0.206    0.354    7.855
  512.656   54.958    0.242    0.384    6.899
  512.906   50.935    0.260    0.391    6.415
