~VERSION INFORMATION
 VERS.                 2.0:   CWLS LOG ASCII STANDARD -VERSION 2.0
 WRAP.                  NO:   ONE LINE PER DEPTH STEP
~WELL INFORMATION BLOCK
#MNEM.UNIT           DATA                    DESCRIPTION OF MNEMONIC
#---------    -------------------            -------------------------------
# Generated from Intellog Unique Number	CS_73_76/WELL/849
WELL.         PEX KIRBY                      : Well_name    - WELL
LOC .         00/11-21-073-07W4/0            : Location     - LOCATION
UWI .         00/11-21-073-07W4/0            : Uwi          - UNIQUE WELL ID
ENTR.         SP                             : Entered      - ENTERED BY
SRVC.         SCHLUMBERGER                   : Scn          - SERVICE COMPANY
STRT.M        345                            : top_depth    - START DEPTH
STOP.M        570                            : bot_depth    - STOP DEPTH
STEP.M        0.25                           : increment    - STEP LENGTH
 NULL. -999.2500:NULL Value
~CURVE INFORMATION BLOCK
#MNEM UNIT       ERCB CURVE CODE    CURVE DESCRIPTION
#-----------   ------------------   ----------------------------------
DEPT.M        00 001 00 00         : DEPTH        - DEPTH
ILD .OHMM     00 120 00 00         : RESD         - DEEP RESISTIVITY (DIL)
DPHI.V/V      00 890 00 00         : PHID         - DENSITY POROSITY (LIMESTONE)
NPHI.V/V      00 330 00 00         : PHIN         - NEUTRON POROSITY (LIMESTONE)
GR  .API      00 310 00 00         : GR           - GAMMA RAY
~PARAMETER INFORMATION
#MNEM.UNIT           DATA             DESCRIPTION OF MNEMONIC
#---------         -----------     ------------------------------
GL  .M        731                  : gl           - GROUND LEVEL ELEVATION
EREF.M        734.2                : kb           - ELEVATION OF DEPTH REFERENCE
DATM.M        731                  : datum        - DATUM ELEVATION
TDD .M        582                  : tdd          - TOTAL DEPTH DRILLER
RUN .         ONE                  : Run          - RUN NUMBER
ENG .         BILL                 : Engineer     - RECORDING ENGINEER
WIT .         JIM                  : Witness      - WITNESSED BY
MUD .         GEL                  : Mud_type     - MUD TYPE
MATR.         LIMESTONE            : Logunit      - NEUTRON MATRIX
TMAX.C        29                   : BHT          - MAXIMUM RECORDED TEMPERATURE
BHTD.M        582                  : BHTDEP       - MAXIMUM RECORDED TEMPERATURE
MATR.         1                    : LOGUNIT      - NEUTRON MATRIX
RMT .C        25                   : MDTP         - TEMPERATURE OF MUD
NEUT.         1                    : NEUTRON      - NEUTRON TYPE
RESI.         0                    : RESIST       - RESISTIVITY TYPE
RMC .OHMM     0.25                 : RMC          - RESISTIVITY OF MUD CAKE
RMF .OHMM     0.25                 : RMF          - RESISTIVITY OF MUD FILTRATE
SUFT.C        15                   : SUFT         - SURFACE TEMPERATURE
~A  DEPTH     RESD     PHID     PHIN       GR
# ...
  388.500   13.091    0.193    0.352   92.981
  388.750   13.094    0.205    0.358   95.410
  389.000   12.856    0.207    0.358   89.303
  389.250   12.621    0.223    0.368   82.588
  389.500   11.712    0.253    0.380   80.750
  389.750   10.277    0.267    0.390   80.129
  390.000    9.900    0.250    0.399   78.904
  390.250    9.361    0.183    0.405   99.016
  390.500    8.689    0.171    0.412  107.544
  390.750    8.371    0.187    0.418  113.023
  391.000    7.770    0.208    0.410  117.893
  391.250    7.772    0.203    0.410  109.955
  391.500    8.072    0.201    0.410  106.900
  391.750    8.542    0.211    0.409  104.452
  392.000    9.212    0.202    0.402  102.612
  392.250    9.567    0.202    0.389   99.557
  392.500   10.124    0.197    0.397   98.937
  392.750   10.714    0.198    0.401   96.490
  393.000   11.555    0.208    0.404   94.043
  393.250   11.776    0.236    0.393   94.643
  393.500   12.698    0.266    0.412   95.854
  393.750   12.942    0.285    0.406   97.674
  394.000   13.442    0.291    0.374   95.837
  394.250   13.701    0.273    0.367   88.510
  394.500   14.230    0.257    0.367   93.987
  394.750   15.059    0.242    0.376   97.030
  395.000   16.546    0.245    0.375   93.970
  395.250   18.525    0.220    0.361   89.085
  395.500   19.602    0.204    0.359   76.881
  395.750   21.537    0.186    0.377   69.555
  396.000   21.545    0.236    0.396   65.279
  396.250   18.900    0.273    0.406   64.657
  396.500   15.971    0.295    0.393   64.648
  396.750   14.277    0.314    0.400   64.641
  397.000   13.248    0.328    0.404   65.853
  397.250   11.195    0.231    0.404   70.718
  397.500    9.821    0.208    0.400   74.371
  397.750    8.779    0.186    0.394   82.899
  398.000    8.301    0.191    0.389   92.035
  398.250    7.849    0.191    0.390   95.687
  398.500    7.563    0.202    0.416   95.676
  398.750    7.709    0.220    0.437   96.277
  399.000    8.794    0.211    0.416   98.709
  399.250   10.032    0.225    0.406   99.309
  399.500   11.442    0.247    0.399   97.472
  399.750   13.551    0.256    0.387   90.756
  400.000   14.889    0.273    0.378   82.820
  400.250   14.896    0.262    0.367   79.153
  400.500   14.353    0.244    0.373   79.144
  400.750   14.090    0.229    0.371   77.305
  401.000   13.575    0.221    0.371   78.514
  401.250   12.839    0.235    0.382   80.335
  401.500   12.603    0.230    0.382   82.765
  401.750   11.918    0.230    0.392   83.368
  402.000   11.270    0.216    0.410   80.921
  402.250   10.657    0.167    0.404   80.300
  402.500   10.078    0.141    0.399   79.073
  402.750    9.894    0.169    0.388   79.063
  403.000    9.533    0.210    0.381   81.495
  403.250    9.185    0.216    0.387   83.316
  403.500    8.851    0.210    0.392   82.083
  403.750    8.853    0.194    0.403   81.469
  404.000    8.531    0.195    0.394   80.851
  404.250    8.694    0.202    0.409   85.109
  404.500    9.031    0.212    0.416   89.979
  404.750    9.378    0.225    0.411   89.359
  405.000   10.304    0.233    0.389   88.742
  405.250   11.322    0.254    0.383   83.853
  405.500   11.758    0.273    0.383   79.579
  405.750   11.763    0.282    0.379   76.521
  406.000   11.334    0.265    0.381   81.388
  406.250   10.719    0.250    0.377   87.477
  406.500   10.326    0.227    0.383   88.690
  406.750    9.766    0.220    0.390   82.582
  407.000    9.587    0.227    0.396   77.694
  407.250    9.237    0.266    0.395   74.635
  407.500    9.068    0.293    0.408   73.410
  407.750    8.739    0.291    0.419   73.401
  408.000    8.578    0.291    0.421   71.563
  408.250    8.422    0.296    0.408   75.212
  408.500    8.584    0.299    0.392   70.934
  408.750    8.916    0.293    0.396   67.268
  409.000    9.088    0.296    0.392   71.525
  409.250    9.263    0.309    0.384   72.129
  409.500    9.805    0.325    0.375   64.193
  409.750    9.993    0.343    0.378   59.917
  410.000   10.185    0.329    0.391   56.249
  410.250   10.189    0.334    0.401   62.337
  410.500   10.384    0.346    0.411   58.060
  410.750   10.388    0.329    0.407   58.661
  411.000   10.393    0.309    0.414   54.994
  411.250   10.397    0.314    0.403   58.034
  411.500   10.597    0.301    0.392   56.195
  411.750   10.801    0.291    0.389   56.797
  412.000   11.010    0.297    0.390   56.788
  412.250   11.223    0.307    0.392   52.509
  412.500   11.438    0.318    0.405   51.892
  412.750   11.443    0.351    0.437   52.493
  413.000   11.446    0.397    0.394   46.996
  413.250   11.029    0.572    0.372   46.988
  413.500   10.828    0.259    0.377   49.418
  413.750   10.630    0.299    0.388   50.018
  414.000   10.437    0.323    0.376   50.619
  414.250   10.057    0.335    0.360   51.829
  414.500   10.059    0.327    0.365   49.382
  414.750   10.063    0.317    0.383   48.154
  415.000    9.882    0.322    0.389   49.974
  415.250    9.885    0.313    0.382   51.796
  415.500    9.887    0.322    0.373   53.007
  415.750    9.891    0.344    0.373   52.385
  416.000    9.893    0.345    0.361   52.986
  416.250    9.714    0.337    0.362   52.980
  416.500    9.717    0.345    0.372   52.970
  416.750    9.720    0.342    0.388   49.303
  417.000    9.725    0.327    0.379   50.513
  417.250    9.728    0.328    0.390   51.116
  417.500    9.730    0.340    0.400   50.496
  417.750    9.554    0.343    0.393   52.928
  418.000    9.556    0.340    0.389   55.968
  418.250    9.383    0.343    0.392   54.739
  418.500    9.385    0.347    0.393   56.559
  418.750    9.216    0.354    0.402   52.277
  419.000    9.218    0.359    0.415   51.054
  419.250    9.220    0.358    0.417   51.654
  419.500    9.223    0.356    0.419   55.304
  419.750    9.057    0.358    0.408   54.073
  420.000    9.059    0.348    0.409   54.677
  420.250    8.895    0.353    0.422   55.888
  420.500    8.896    0.367    0.414   52.828
  420.750    8.900    0.356    0.388   50.992
  421.000    9.072    0.348    0.372   53.422
  421.250    9.076    0.343    0.369   57.679
  421.500    9.078    0.331    0.371   60.721
  421.750    9.082    0.320    0.365   61.932
  422.000    9.085    0.341    0.382   60.704
  422.250    9.089    0.349    0.383   62.522
  422.500    8.923    0.348    0.390   64.344
  422.750    9.095    0.347    0.406   61.285
  423.000    9.097    0.347    0.398   57.007
  423.250    9.102    0.346    0.425   54.562
  423.500    9.104    0.347    0.425   51.503
  423.750    9.107    0.344    0.419   49.667
  424.000    9.111    0.332    0.423   53.313
  424.250    9.286    0.313    0.423   54.528
  424.500    9.290    0.335    0.401   55.129
  424.750    9.293    0.365    0.409   53.898
  425.000    9.473    0.369    0.419   55.108
  425.250    9.476    0.357    0.412   56.931
  425.500    9.478    0.370    0.403   58.139
  425.750    9.663    0.359    0.400   58.744
  426.000    9.850    0.352    0.408   58.732
  426.250    9.852    0.351    0.419   58.723
  426.500    9.855    0.358    0.412   58.717
  426.750   10.047    0.369    0.408   59.925
  427.000   10.049    0.370    0.409   59.306
  427.250   10.436    0.359    0.412   58.078
  427.500   11.253    0.369    0.414   56.851
  427.750   12.837    0.356    0.408   55.623
  428.000   15.204    0.348    0.395   54.396
  428.250   15.790    0.361    0.377   58.045
  428.500   15.214    0.363    0.352   59.865
  428.750   12.857    0.185    0.322   58.028
  429.000   11.710    0.126    0.295   51.920
  429.250   10.665    0.000    0.341   48.864
  429.500    9.714    0.182    0.385   52.513
  429.750    9.185    0.241    0.413   58.602
  430.000    8.849    0.327    0.402   61.641
  430.250    8.528    0.332    0.395   61.629
  430.500    8.531    0.338    0.396   61.623
  430.750    8.375    0.352    0.410   59.785
  431.000    8.222    0.352    0.412   56.118
  431.250    8.072    0.343    0.415   60.377
  431.500    7.925    0.339    0.418   62.200
  431.750    7.635    0.327    0.438   65.848
