~VERSION INFORMATION
 VERS.                 2.0:   CWLS LOG ASCII STANDARD -VERSION 2.0
 WRAP.                  NO:   ONE LINE PER DEPTH STEP
~WELL INFORMATION BLOCK
#MNEM.UNIT           DATA                    DESCRIPTION OF MNEMONIC
#---------    -------------------            -------------------------------
# Generated from Intellog Unique Number	CC_88_90/WELL/3154
WELL.         PETRO-CANADA INC.              : Well_name    - WELL
LOC .         00/11-33-090-17W4/0            : Location     - LOCATION
UWI .         00/11-33-090-17W400            : Uwi          - UNIQUE WELL ID
ENTR.         JOETTE                         : Entered      - ENTERED BY
SRVC.         SCHLUMBERGER                   : Scn          - SERVICE COMPANY
DATE.         03/04/92                       : Date         - LOG DATE
STRT.M        85.000                         : top_depth    - START DEPTH
STOP.M        186.000                        : bot_depth    - STOP DEPTH
STEP.M        0.25                           : increment    - STEP LENGTH
 NULL. -999.2500:NULL Value
~CURVE INFORMATION BLOCK
#MNEM UNIT       ERCB CURVE CODE    CURVE DESCRIPTION
#-----------   ------------------   ----------------------------------
DEPT.M        00 001 00 00         : DEPTH        - DEPTH
GR  .API      00 310 00 00         : GR           - GAMMA RAY
CALI.MM       00 280 01 00         : CAL          - CALIPER
NPHI.V/V      00 330 00 00         : PHIN         - NEUTRON POROSITY (SANDSTONE)
DPHI.V/V      00 890 00 00         : PHID         - DENSITY POROSITY (SANDSTONE)
ILD .OHMM     00 120 00 00         : RESD         - DEEP RESISTIVITY (DIL)
~PARAMETER INFORMATION
#MNEM.UNIT           DATA             DESCRIPTION OF MNEMONIC
#---------         -----------     ------------------------------
GL  .M        499.9                : gl           - GROUND LEVEL ELEVATION
EREF.M        503.3                : kb           - ELEVATION OF DEPTH REFERENCE
DATM.M        503.3                : datum        - DATUM ELEVATION
TDD .M        239                  : tdd          - TOTAL DEPTH DRILLER
RUN .         ONE                  : Run          - RUN NUMBER
ENG .         BILL                 : Engineer     - RECORDING ENGINEER
WIT .         JIM                  : Witness      - WITNESSED BY
MUD .         GEL                  : Mud_type     - MUD TYPE
MATR.         SANDSTONE            : Logunit      - NEUTRON MATRIX
TMAX.C        25                   : BHT          - MAXIMUM RECORDED TEMPERATURE
BHTD.M        238                  : BHTDEP       - MAXIMUM RECORDED TEMPERATURE
RMT .C        14                   : MDTP         - TEMPERATURE OF MUD
MUDD.KG/M     1110                 : MWT          - MUD DENSITY
NEUT.         1                    : NEUTRON      - NEUTRON TYPE
RESI.         0                    : RESIST       - RESISTIVITY TYPE
RM  .OHMM     2.55                 : RM           - RESISTIVITY OF MUD
RMC .OHMM     2.55                 : RMC          - RESISTIVITY OF MUD CAKE
RMF .OHMM     2.55                 : RMF          - RESISTIVITY OF MUD FILTRATE
SUFT.C        4                    : SUFT         - SURFACE TEMPERATURE
~A  DEPTH       GR      CAL     PHIN     PHID     RESD
   85.000   85.425  152.347    0.433    0.339   33.578
   85.250   84.199  152.338    0.421    0.338   32.933
   85.500   87.275  153.340    0.417    0.343   33.554
   85.750   96.496  153.329    0.429    0.349   39.800
   86.000  112.478  153.325    0.468    0.352   57.078
   86.250  106.336  149.265    0.365    0.327   68.995
   86.500  105.725  147.228    0.202    0.118   77.293
   86.750  119.863  151.271    0.183    0.041   77.261
   87.000  127.241  155.314    0.271    0.145   77.243
   87.250  113.723  156.321    0.390    0.178   71.563
   87.500  111.268  157.318    0.414    0.298   67.588
   87.750  124.792  156.299    0.427    0.322   59.155
   88.000  121.108  156.295    0.440    0.327   47.986
   88.250  110.048  155.271    0.439    0.317   39.669
   88.500  109.437  154.251    0.421    0.321   36.063
   88.750  105.138  153.228    0.425    0.327   34.054
   89.000  102.683  154.232    0.476    0.318   25.122
   89.250  103.916  156.249    0.533    0.290   13.676
   89.500  112.523  159.279    0.514    0.275   10.479
   89.750  105.765  160.283    0.514    0.291    9.895
   90.000   93.477  157.234    0.512    0.306   13.923
   90.250  100.855  155.204    0.500    0.321   15.600
   90.500   95.942  151.139    0.444    0.321   18.503
   90.750  108.237  150.119    0.430    0.317   23.677
   91.000  115.614  149.094    0.432    0.323   25.538
   91.250  119.920  149.087    0.437    0.324   27.024
   91.500  127.297  149.076    0.442    0.322   27.018
   91.750  112.551  150.083    0.445    0.316   26.497
   92.000  104.565  150.076    0.432    0.309   25.992
   92.250  107.641  151.080    0.424    0.317   23.626
   92.500  118.706  152.085    0.421    0.339   22.313
   92.750  121.168  153.085    0.426    0.331   20.285
   93.000  121.171  153.080    0.437    0.255   16.771
   93.250  109.497  155.097    0.452    0.266   14.960
   93.500   90.449  158.123    0.470    0.288   13.342
   93.750   89.838  158.117    0.472    0.306   13.088
   94.000   93.528  159.121    0.462    0.312   13.334
   94.250   94.760  159.114    0.449    0.316   14.113
   94.500  108.899  159.106    0.451    0.298   13.327
   94.750  120.578  158.082    0.460    0.296   12.346
   95.000  126.727  157.058    0.493    0.298   11.884
   95.250  125.501  156.041    0.467    0.298   12.338
   95.500  106.453  154.006    0.444    0.310   13.309
   95.750   84.331  153.996    0.444    0.306   15.783
   96.000   97.856  153.989    0.459    0.296   17.683
   96.250   89.255  153.978    0.428    0.290   17.676
   96.500   91.102  153.967    0.423    0.277   16.693
   96.750   99.094  153.959    0.444    0.264   14.610
   97.000   99.712  154.963    0.461    0.274    9.990
   97.250  102.173  155.965    0.482    0.303    8.743
   97.500   96.030  156.974    0.499    0.312    7.799
   97.750  102.794  160.004    0.511    0.307    5.753
   98.000  124.307  161.008    0.521    0.264    5.330
   98.250  135.987  160.999    0.528    0.205    4.939
   98.500  129.230  157.952    0.538    0.144    4.405
   98.750  116.941  154.905    0.552    0.189    4.240
   99.000  102.195  152.870    0.586    0.310    4.080
   99.250  112.646  151.848    0.578    0.335    4.002
   99.500  114.493  151.838    0.542    0.326    3.925
   99.750  118.183  152.844    0.546    0.315    3.925
  100.000  121.874  154.859    0.558    0.326    3.849
  100.250  118.189  156.876    0.573    0.327    3.848
  100.500  115.734  160.919    0.561    0.309    3.847
  100.750  118.196  162.936    0.528    0.311    3.919
  101.000  120.043  160.904    0.537    0.321    3.993
  101.250  108.984  156.844    0.547    0.318    4.068
  101.500  100.998  155.822    0.560    0.304    4.305
  101.750  102.229  154.801    0.562    0.193    4.470
  102.000  113.295  157.828    0.509    0.146    4.642
  102.250  102.850  158.833    0.563    0.290    4.640
  102.500  101.625  157.811    0.575    0.312    4.639
  102.750  104.701  159.828    0.594    0.317    4.464
  103.000  110.849  164.882    0.575    0.306    4.380
  103.250  112.082  164.873    0.543    0.297    4.378
  103.500  105.325  166.888    0.534    0.300    4.546
  103.750  109.630  166.884    0.530    0.305    4.811
  104.000  109.633  166.875    0.531    0.306    5.091
  104.250  107.792  164.841    0.531    0.305    5.491
  104.500  108.410  164.832    0.525    0.299    5.812
  104.750   99.809  168.873    0.514    0.294    6.511
  105.000   99.812  171.903    0.489    0.290    7.295
  105.250   97.972  174.931    0.494    0.284    7.720
  105.500   83.225  174.927    0.506    0.275    8.650
  105.750   88.145  168.841    0.510    0.213   11.718
  106.000   94.909  157.690    0.418    0.168   12.401
  106.250   89.380  153.629    0.439    0.179   13.631
  106.500   91.842  152.608    0.444    0.249   14.155
  106.750  101.678  152.597    0.431    0.275   14.980
  107.000  102.296  152.588    0.434    0.270   14.692
  107.250   93.081  153.590    0.444    0.274   13.612
  107.500  105.375  153.586    0.449    0.275   13.100
  107.750  120.742  152.560    0.450    0.250   13.603
  108.000  120.131  151.538    0.434    0.229   15.242
  108.250  117.061  150.519    0.418    0.247   18.077
  108.500  120.137  150.506    0.437    0.262   21.037
  108.750  109.079  150.502    0.455    0.283   23.569
  109.000   99.249  150.491    0.454    0.286   26.403
  109.250   94.949  150.480    0.448    0.264   28.478
  109.500   98.640  150.474    0.431    0.240   30.141
  109.750   99.258  150.463    0.416    0.244   31.295
  110.000  100.490  149.443    0.414    0.242   31.288
  110.250   98.650  149.432    0.397    0.222   30.107
  110.500   91.892  149.428    0.381    0.197   28.433
  110.750   96.197  149.417    0.375    0.205   25.362
  111.000  108.492  151.432    0.381    0.244   22.625
  111.250   94.975  151.428    0.390    0.278   21.363
  111.500   95.593  152.430    0.397    0.289   21.358
  111.750  102.356  152.424    0.405    0.294   22.174
  112.000   92.526  152.411    0.420    0.274   23.469
  112.250  101.747  151.391    0.443    0.269   25.313
  112.500  100.522  149.354    0.443    0.285   27.302
  112.750   89.463  149.348    0.375    0.257   27.815
  113.000   88.852  149.337    0.339    0.191   27.808
  113.250   94.386  150.344    0.390    0.220   26.257
  113.500   98.691  151.348    0.387    0.202   26.247
  113.750   95.621  151.337    0.329    0.185   26.743
  114.000   88.864  150.315    0.350    0.246   27.250
  114.250   91.325  149.296    0.400    0.285   27.241
  114.500  118.369  148.274    0.421    0.283   23.842
  114.750  104.852  148.266    0.432    0.297   18.619
  115.000   93.178  149.270    0.444    0.295    9.393
  115.250   90.723  153.313    0.440    0.283    7.915
  115.500   89.498  157.356    0.440    0.282    6.669
  115.750  112.239  156.334    0.449    0.282    5.619
  116.000  123.919  152.274    0.503    0.274    5.306
  116.250  113.475  151.252    0.517    0.228    5.107
  116.500  114.708  153.267    0.481    0.179    5.105
  116.750  114.710  156.298    0.477    0.167    5.201
  117.000  104.266  158.317    0.491    0.223    5.300
  117.250   98.738  163.369    0.505    0.261    5.826
  117.500   97.512  164.375    0.505    0.292    6.909
  117.750  109.806  163.353    0.507    0.292   10.098
  118.000  120.258  158.280    0.519    0.297   10.486
  118.250  110.427  156.246    0.529    0.295   10.482
  118.500  107.357  160.291    0.520    0.288   10.479
  118.750  109.819  165.342    0.436    0.277    9.709
  119.000  108.593  166.351    0.438    0.274    9.524
  119.250  108.597  167.353    0.448    0.271    9.703
  119.500  116.589  165.319    0.452    0.282   11.508
  119.750  112.290  161.256    0.472    0.283   13.911
  120.000   93.241  157.198    0.482    0.282   21.524
  120.250   87.099  152.122    0.471    0.288   23.217
  120.500   82.800  152.114    0.450    0.262   26.009
  120.750   80.960  152.107    0.427    0.279   28.053
  121.000   72.974  152.096    0.419    0.308   29.130
  121.250   64.987  153.103    0.322    0.238   24.547
