~VERSION INFORMATION
 VERS.                 2.0:   CWLS LOG ASCII STANDARD -VERSION 2.0
 WRAP.                  NO:   ONE LINE PER DEPTH STEP
~WELL INFORMATION BLOCK
#MNEM.UNIT           DATA                    DESCRIPTION OF MNEMONIC
#---------    -------------------            -------------------------------
# Generated from Intellog Unique Number	CS_71_72/WELL/3327
WELL.         ALLIED ROXANA MINERALS LTD.    : Well_name    - WELL
LOC .         00/10-32-072-13W4/0            : Location     - LOCATION
UWI .         00/10-32-072-13W4/0            : Uwi          - UNIQUE WELL ID
ENTR.         JOETTE                         : Entered      - ENTERED BY
SRVC.         SCHLUMBERGER                   : Scn          - SERVICE COMPANY
DATE.         05/13/92                       : Date         - LOG DATE
STRT.M        320.04                         : top_depth    - START DEPTH
STOP.M        533.29                         : bot_depth    - STOP DEPTH
STEP.M        0.25                           : increment    - STEP LENGTH
 NULL. -999.2500:NULL Value
~CURVE INFORMATION BLOCK
#MNEM UNIT       ERCB CURVE CODE    CURVE DESCRIPTION
#-----------   ------------------   ----------------------------------
DEPT.M        00 001 00 00         : DEPTH        - DEPTH
NPHI.V/V      00 330 00 00         : PHIN         - NEUTRON POROSITY (SANDSTONE)
GR  .API      00 310 00 00         : GR           - GAMMA RAY
CALI.MM       00 280 01 00         : CAL          - CALIPER
DPHI.V/V      00 890 00 00         : PHID         - DENSITY POROSITY (SANDSTONE)
ILD .OHMM     00 120 00 00         : RESD         - DEEP RESISTIVITY (DIL)
~PARAMETER INFORMATION
#MNEM.UNIT           DATA             DESCRIPTION OF MNEMONIC
#---------         -----------     ------------------------------
GL  .M        656.692              : gl           - GROUND LEVEL ELEVATION
EREF.M        659.74               : kb           - ELEVATION OF DEPTH REFERENCE
DATM.M        659.74               : datum        - DATUM ELEVATION
TDD .M        554.126              : tdd          - TOTAL DEPTH DRILLER
RUN .         ONE                  : Run          - RUN NUMBER
ENG .         BILL                 : Engineer     - RECORDING ENGINEER
WIT .         JIM                  : Witness      - WITNESSED BY
MUD .         GEL                  : Mud_type     - MUD TYPE
MATR.         SANDSTONE            : Logunit      - NEUTRON MATRIX
TMAX.C        25.5556              : BHT          - MAXIMUM RECORDED TEMPERATURE
BHTD.M        554.126              : BHTDEP       - MAXIMUM RECORDED TEMPERATURE
MATR.         1                    : LOGUNIT      - NEUTRON MATRIX
RMT .C        21.1111              : MDTP         - TEMPERATURE OF MUD
NEUT.         1                    : NEUTRON      - NEUTRON TYPE
RESI.         0                    : RESIST       - RESISTIVITY TYPE
RMC .OHMM     3.41                 : RMC          - RESISTIVITY OF MUD CAKE
RMF .OHMM     3.47                 : RMF          - RESISTIVITY OF MUD FILTRATE
SUFT.C        4                    : SUFT         - SURFACE TEMPERATURE
~A  DEPTH     PHIN       GR      CAL     PHID     RESD
# ...
  466.040    0.564   96.988  196.904    0.191   19.346
  466.290    0.536   98.253  193.846    0.206   18.544
  466.540    0.500  100.130  184.588    0.222   17.131
  466.790    0.516  100.170  186.729    0.223   15.718
  467.040    0.529   95.927  195.107    0.203   14.713
  467.290    0.521   92.917  199.355    0.219   14.117
  467.540    0.528   95.396  199.390    0.227   13.932
  467.790    0.533   99.119  200.512    0.220   13.941
  468.040    0.505  101.608  190.200    0.221   13.746
  468.290    0.483  101.047  180.958    0.244   13.758
  468.540    0.470   96.793  181.027    0.237   13.774
  468.790    0.475   99.282  182.132    0.233   13.582
  469.040    0.491   99.955  185.310    0.232   13.597
  469.290    0.506   96.925  193.670    0.218   13.612
  469.540    0.503   92.069  196.848    0.199   13.418
  469.790    0.490   87.836  190.699    0.216   13.430
  470.040    0.503   86.040  184.549    0.201   13.448
  470.290    0.527   84.245  183.582    0.192   13.457
  470.540    0.544   81.827  198.177    0.181   13.262
  470.790    0.543   80.644  194.101    0.176   13.071
  471.040    0.537   82.531  189.005    0.211   12.676
  471.290    0.542   88.692  189.074    0.240   11.470
  471.540    0.552   86.906  194.307    0.242   10.665
  471.790    0.577   83.887  204.757    0.232    8.642
  472.040    0.630   82.714  211.062    0.250    7.229
  472.290    0.635   83.958  209.058    0.252    6.224
  472.540    0.641   87.059  207.037    0.254    5.431
  472.790    0.655   92.628  201.923    0.249    5.230
  473.040    0.664   93.893  198.917    0.250    5.045
  473.290    0.650   94.556  198.969    0.254    5.260
  473.540    0.635   95.188  196.965    0.247    5.269
  473.790    0.617   97.697  189.779    0.242    5.688
  474.040    0.565   98.962  179.484    0.241    6.518
  474.290    0.519   93.484  172.315    0.220    7.754
  474.540    0.528   87.404  171.365    0.206    8.577
  474.790    0.537   83.783  172.436    0.235    9.810
  475.040    0.526   80.753  173.558    0.235   10.840
  475.290    0.495   80.182  174.663    0.205   11.672
  475.540    0.489   82.059  174.749    0.194   11.684
  475.790    0.514   89.454  175.872    0.184   11.490
  476.040    0.559   91.341  176.960    0.167   11.095
  476.290    0.577   89.535  177.012    0.204   11.113
  476.540    0.526   84.690  177.115    0.204   11.119
  476.790    0.499   81.048  178.203    0.171   12.151
  477.040    0.475   78.028  178.306    0.151   13.184
  477.290    0.455   77.457  178.358    0.123   13.804
  477.540    0.485   80.568  179.463    0.128   14.426
  477.790    0.507   86.117  180.551    0.182   14.441
  478.040    0.556   91.054  181.691    0.182   13.639
  478.290    0.586   94.767  182.813    0.211   11.619
  478.540    0.599   99.123  182.865    0.222   10.611
  478.790    0.615   99.755  184.989    0.215    8.794
  479.040    0.587   99.796  185.058    0.216    7.989
  479.290    0.577   98.010  184.090    0.207    7.393
  479.540    0.580   97.429  184.176    0.186    7.406
  479.790    0.592   96.867  184.245    0.180    7.418
  480.040    0.593   96.918  185.350    0.214    7.430
  480.290    0.575   97.561  186.456    0.225    7.645
  480.540    0.576   99.448  187.561    0.240    7.861
  480.790    0.603  101.947  188.666    0.226    7.873
  481.040    0.628  103.191  189.789    0.202    7.684
  481.290    0.640  102.650  190.894    0.227    7.089
  481.540    0.630   99.610  194.106    0.213    6.897
  481.790    0.634   92.918  195.194    0.206    6.700
  482.040    0.640   88.685  195.246    0.211    6.308
  482.290    0.632   91.184  195.366    0.205    6.320
  482.540    0.632   91.816  193.328    0.198    6.335
  482.790    0.620   93.693  191.324    0.202    6.344
  483.040    0.609   96.192  190.357    0.192    6.359
  483.290    0.599   98.681  188.370    0.198    6.368
  483.540    0.596  100.568  187.402    0.211    6.587
  483.790    0.603  101.210  187.454    0.201    6.602
  484.040    0.607  101.873  185.467    0.209    6.611
  484.290    0.593  101.934  184.500    0.226    7.036
  484.540    0.583  101.353  182.513    0.199    7.452
  484.790    0.591   98.945  180.509    0.199    8.078
  485.040    0.598   95.926  179.541    0.196    8.904
  485.290    0.546   94.130  178.556    0.193    9.117
  485.540    0.541   94.783  178.625    0.187    9.135
  485.790    0.566   98.496  177.675    0.205    8.937
  486.040    0.589  101.607  177.744    0.219    8.746
  486.290    0.609  104.085  176.793    0.229    7.950
  486.540    0.633  106.574  175.826    0.232    7.145
  486.790    0.621  101.719  174.858    0.224    6.953
  487.040    0.568   87.070  173.891    0.208    7.983
  487.290    0.535   82.214  172.923    0.185    9.216
  487.540    0.462   80.419  172.992    0.173   11.877
  487.790    0.406   82.306  172.024    0.159   13.724
  488.040    0.433   86.039  172.111    0.137   14.957
  488.290    0.465   87.294  172.197    0.138   15.172
  488.540    0.491   87.334  171.195    0.163   14.984
  488.790    0.467   84.305  171.298    0.161   15.200
  489.040    0.420   79.459  171.384    0.156   16.232
  489.290    0.407   75.215  171.436    0.156   17.259
  489.540    0.365   71.574  171.487    0.144   18.696
  489.790    0.335   68.554  171.573    0.127   20.336
  490.040    0.366   68.615  171.625    0.112   22.383
  490.290    0.390   69.870  171.711    0.088   24.634
  490.540    0.422   73.582  171.780    0.174   23.221
  490.790    0.442   79.744  171.849    0.202   23.847
  491.040    0.440   90.199  171.935    0.213   28.340
  491.290    0.428   96.972  172.003    0.234   33.236
  491.540    0.422  103.133  171.036    0.265   35.691
  491.790    0.421  103.807  170.068    0.258   41.404
  492.040    0.394   99.553  170.154    0.243   24.114
  492.290    0.430   95.309  170.223    0.230   23.315
  492.540    0.445  103.918  170.292    0.214   23.734
  492.790    0.415  104.571  170.361    0.205   24.354
  493.040    0.394   88.698  170.430    0.214   25.383
  493.290    0.398   82.629  171.535    0.222   26.622
  493.540    0.405   86.954  171.655    0.220   27.038
  493.790    0.409   93.115  171.673    0.211   26.033
  494.040    0.417  100.500  172.778    0.187   23.399
  494.290    0.426  108.497  172.847    0.183   20.969
  494.540    0.418  115.291  172.915    0.184   18.745
  494.790    0.417  117.168  173.002    0.194   17.333
  495.040    0.428  116.586  173.088    0.200   16.734
  495.290    0.449  113.577  173.156    0.195   16.950
  495.540    0.466  111.771  173.225    0.183   17.776
  495.790    0.496  105.691  172.275    0.208   19.213
  496.040    0.494   98.387  171.290    0.221   21.463
  496.290    0.461   85.575  169.303    0.236   25.139
  496.540    0.402   73.987  166.297    0.265   29.224
  496.790    0.391   56.288  166.332    0.273   44.100
  497.040    0.417   61.215  166.383    0.264   51.849
  497.290    0.445   67.376  167.506    0.257   49.822
  497.540    0.455   74.772  167.558    0.263   45.764
  497.790    0.404   74.822  169.716    0.234   43.944
  498.040    0.407   71.803  169.820    0.209   41.107
  498.290    0.423   73.057  170.890    0.248   38.883
  498.540    0.432   81.075  170.994    0.260   37.471
  498.790    0.405   79.290  171.045    0.255   36.055
  499.040    0.377   76.872  171.097    0.249   33.829
  499.290    0.376   76.902  169.110    0.232   32.212
  499.540    0.378   83.064  165.033    0.213   30.602
  499.790    0.364   84.961  163.047    0.220   30.204
  500.040    0.362   79.483  163.098    0.225   29.806
  500.290    0.363   80.145  163.167    0.223   29.414
  500.540    0.361   82.012  165.326    0.217   29.019
  500.790    0.370   83.889  167.485    0.208   28.624
  501.040    0.389   85.776  168.590    0.181   28.229
  501.290    0.393   85.194  167.605    0.179   28.044
  501.540    0.382   76.666  165.601    0.204   28.463
  501.790    0.370   66.312  163.597    0.220   28.879
  502.040    0.370   67.577  161.611    0.215   29.502
  502.290    0.376   71.902  160.660    0.211   29.517
