~VERSION INFORMATION
 VERS.                 2.0:   CWLS LOG ASCII STANDARD -VERSION 2.0
 WRAP.                  NO:   ONE LINE PER DEPTH STEP
~WELL INFORMATION BLOCK
#MNEM.UNIT           DATA                    DESCRIPTION OF MNEMONIC
#---------    -------------------            -------------------------------
# Generated from Intellog Unique Number	CS_71_72/WELL/915
WELL.         AMOCO AEC IPIATIK INDIA        : Well_name    - WELL
LOC .         00/12-04-072-06W4/0            : Location     - LOCATION
UWI .         00/12-04-072-06W4/0            : Uwi          - UNIQUE WELL ID
ENTR.         SP                             : Entered      - ENTERED BY
SRVC.         SCHLUMBERGER                   : Scn          - SERVICE COMPANY
STRT.M        320                            : top_depth    - START DEPTH
STOP.M        545                            : bot_depth    - STOP DEPTH
STEP.M        0.25                           : increment    - STEP LENGTH
 NULL. -999.2500:NULL Value
~CURVE INFORMATION BLOCK
#MNEM UNIT       ERCB CURVE CODE    CURVE DESCRIPTION
#-----------   ------------------   ----------------------------------
DEPT.M        00 001 00 00         : DEPTH        - DEPTH
ILD .OHMM     00 120 00 00         : RESD         - DEEP RESISTIVITY (DIL)
DPHI.V/V      00 890 00 00         : PHID         - DENSITY POROSITY (LIMESTONE)
NPHI.V/V      00 330 00 00         : PHIN         - NEUTRON POROSITY (LIMESTONE)
GR  .API      00 310 00 00         : GR           - GAMMA RAY
~PARAMETER INFORMATION
#MNEM.UNIT           DATA             DESCRIPTION OF MNEMONIC
#---------         -----------     ------------------------------
GL  .M        690.3                : gl           - GROUND LEVEL ELEVATION
EREF.M        694.56               : kb           - ELEVATION OF DEPTH REFERENCE
DATM.M        690.3                : datum        - DATUM ELEVATION
TDD .M        561                  : tdd          - TOTAL DEPTH DRILLER
RUN .         ONE                  : Run          - RUN NUMBER
ENG .         BILL                 : Engineer     - RECORDING ENGINEER
WIT .         JIM                  : Witness      - WITNESSED BY
MUD .         GEL                  : Mud_type     - MUD TYPE
MATR.         LIMESTONE            : Logunit      - NEUTRON MATRIX
TMAX.C        23                   : BHT          - MAXIMUM RECORDED TEMPERATURE
BHTD.M        561                  : BHTDEP       - MAXIMUM RECORDED TEMPERATURE
MATR.         1                    : LOGUNIT      - NEUTRON MATRIX
RMT .C        25                   : MDTP         - TEMPERATURE OF MUD
NEUT.         1                    : NEUTRON      - NEUTRON TYPE
RESI.         0                    : RESIST       - RESISTIVITY TYPE
RMC .OHMM     0.25                 : RMC          - RESISTIVITY OF MUD CAKE
RMF .OHMM     0.25                 : RMF          - RESISTIVITY OF MUD FILTRATE
SUFT.C        15                   : SUFT         - SURFACE TEMPERATURE
~A  DEPTH     RESD     PHID     PHIN       GR
# ...
  363.500    7.926    0.240    0.427  100.239
  363.750    7.639    0.219    0.437  105.723
  364.000    7.229    0.194    0.449  107.554
  364.250    7.098    0.192    0.458  111.215
  364.500    6.843    0.199    0.465  113.049
  364.750    6.844    0.210    0.465  111.242
  365.000    6.721    0.218    0.466  107.612
  365.250    6.724    0.221    0.470  105.197
  365.500    6.852    0.220    0.476  102.177
  365.750    6.854    0.212    0.466  102.186
  366.000    7.250    0.194    0.461  102.808
  366.250    7.959    0.190    0.456  103.434
  366.500    8.262    0.228    0.456  102.839
  366.750    8.739    0.239    0.479  102.249
  367.000    9.074    0.227    0.487  101.649
  367.250    9.419    0.251    0.466   98.631
  367.500    9.780    0.257    0.437   96.214
  367.750    9.784    0.265    0.410   93.798
  368.000    9.789    0.270    0.421   91.993
  368.250    9.793    0.267    0.426   90.184
  368.500    9.795    0.262    0.440   88.984
  368.750    9.798    0.256    0.438   88.388
  369.000    9.985    0.254    0.430   89.620
  369.250   10.561    0.249    0.429   89.631
  369.500   11.594    0.245    0.432   87.827
  369.750   12.493    0.243    0.440   84.196
  370.000   12.970    0.241    0.450   78.137
  370.250   13.217    0.230    0.442   72.684
  370.500   12.980    0.219    0.440   72.697
  370.750   12.281    0.226    0.440   75.751
  371.000   11.406    0.257    0.447   79.409
  371.250   10.207    0.257    0.461   85.501
  371.500    8.966    0.239    0.461   88.546
  371.750    7.731    0.230    0.465   94.636
  372.000    6.667    0.224    0.476   98.897
  372.250    5.856    0.213    0.471  104.988
  372.500    5.438    0.207    0.468  106.820
  372.750    5.646    0.200    0.469  105.619
  373.000    6.677    0.190    0.488   99.562
  373.250    7.328    0.209    0.505   91.682
  373.500    8.828    0.230    0.510   85.622
  373.750    9.689    0.250    0.483   78.957
  374.000   10.440    0.273    0.469   74.718
  374.250   11.251    0.283    0.454   68.056
  374.500   11.680    0.308    0.446   66.244
  374.750   11.683    0.324    0.443   66.867
  375.000   11.689    0.334    0.449   67.488
  375.250   11.268    0.323    0.453   69.325
  375.500   10.860    0.307    0.450   71.772
  375.750   10.665    0.291    0.447   72.391
  376.000   10.472    0.288    0.452   72.403
  376.250   10.475    0.288    0.449   72.422
  376.500   10.480    0.288    0.444   72.433
  376.750   10.483    0.291    0.443   73.669
  377.000   10.490    0.319    0.438   74.894
  377.250   11.091    0.323    0.436   75.511
  377.500   11.097    0.323    0.434   77.354
  377.750   11.308    0.319    0.433   77.971
  378.000   11.315    0.303    0.433   77.987
  378.250   11.318    0.289    0.427   77.392
  378.500   11.321    0.285    0.422   75.582
  378.750   11.118    0.281    0.421   74.379
  379.000   11.121    0.275    0.426   74.400
  379.250   11.124    0.269    0.432   73.806
  379.500   10.924    0.267    0.427   73.814
  379.750   10.727    0.267    0.424   75.047
  380.000   10.534    0.268    0.427   76.275
  380.250   10.343    0.269    0.436   76.903
  380.500   10.347    0.269    0.440   77.523
  380.750   10.162    0.274    0.446   77.531
  381.000    9.796    0.282    0.451   78.154
  381.250    9.617    0.291    0.453   78.772
  381.500    9.270    0.297    0.446   82.438
  381.750    8.610    0.288    0.435   85.489
  382.000    8.299    0.266    0.431   87.323
  382.250    7.852    0.252    0.437   89.764
  382.500    7.855    0.229    0.447   91.596
  382.750    8.309    0.220    0.461   91.617
  383.000    8.954    0.221    0.463   88.589
  383.250    9.124    0.244    0.460   75.246
  383.500    9.472    0.267    0.459   64.934
  383.750    9.654    0.298    0.468   60.087
  384.000    9.838    0.315    0.459   60.103
  384.250    9.842    0.329    0.438   62.551
  384.500    9.665    0.333    0.436   63.169
  384.750    9.490    0.321    0.435   62.574
  385.000    9.319    0.314    0.432   61.384
  385.250    9.152    0.308    0.438   61.390
  385.500    9.153    0.312    0.454   63.227
  385.750    9.158    0.314    0.472   65.066
  386.000    9.332    0.316    0.470   65.681
  386.250    9.511    0.313    0.446   66.303
  386.500    9.693    0.305    0.464   63.892
  386.750   10.063    0.302    0.462   60.865
  387.000   10.844    0.300    0.439   56.025
  387.250   11.257    0.298    0.430   54.214
  387.500   13.067    0.290    0.424   53.620
  387.750   14.341    0.274    0.433   54.857
  388.000   17.930    0.241    0.416   54.870
  388.250   20.048    0.170    0.239   55.492
  388.500   23.705    0.026    0.196   56.116
  388.750   27.006    0.004    0.188   56.736
  389.000   26.031    0.024    0.189   56.746
  389.250   22.444    0.041    0.195   57.363
  389.500   18.647    0.050    0.213   57.377
  389.750   14.385    0.104    0.239   57.999
  390.000   12.175    0.270    0.314   58.012
  390.250    9.392    0.302    0.389   60.461
  390.500    8.404    0.313    0.418   62.294
  390.750    8.101    0.305    0.421   64.135
  391.000    8.257    0.300    0.424   64.751
  391.250    8.571    0.296    0.435   64.162
  391.500    8.735    0.293    0.446   62.354
  391.750    8.578    0.315    0.458   62.362
  392.000    7.677    0.326    0.472   62.383
  392.250    7.130    0.325    0.456   62.392
  392.500    6.745    0.321    0.444   63.630
  392.750    6.874    0.317    0.462   63.639
  393.000    7.271    0.310    0.471   64.868
  393.250    7.691    0.309    0.484   64.877
  393.500    7.985    0.321    0.499   64.891
  393.750    8.137    0.318    0.477   62.478
  394.000    8.294    0.299    0.458   61.883
  394.250    8.295    0.286    0.448   65.545
  394.500    8.147    0.271    0.442   67.376
  394.750    7.999    0.265    0.438   71.037
  395.000    8.003    0.248    0.436   74.089
  395.250    7.857    0.243    0.434   75.316
  395.500    7.298    0.255    0.431   72.295
  395.750    7.034    0.261    0.426   70.486
  396.000    6.656    0.263    0.431   71.715
  396.250    6.299    0.257    0.438   75.986
  396.500    6.071    0.232    0.442   78.428
  396.750    5.961    0.231    0.444   79.653
  397.000    5.746    0.237    0.441   81.487
  397.250    5.642    0.232    0.437   82.716
  397.500    5.644    0.230    0.449   84.557
  397.750    5.646    0.246    0.459   85.182
  398.000    5.648    0.234    0.472   84.583
  398.250    5.650    0.221    0.477   83.382
  398.500    5.866    0.228    0.465   82.179
  398.750    6.090    0.234    0.459   81.587
  399.000    6.442    0.239    0.460   80.384
  399.250    6.565    0.244    0.465   76.754
  399.500    6.815    0.251    0.466   70.702
  399.750    7.209    0.262    0.457   68.888
  400.000    7.347    0.265    0.448   67.083
  400.250    7.349    0.275    0.457   70.139
  400.500    6.826    0.267    0.468   71.973
  400.750    6.580    0.265    0.474   72.590
  401.000    6.461    0.281    0.463   72.609
  401.250    6.463    0.290    0.455   72.013
  401.500    6.466    0.280    0.450   70.811
  401.750    6.469    0.273    0.469   69.618
  402.000    6.470    0.272    0.479   69.625
  402.250    6.472    0.274    0.473   70.853
  402.500    6.475    0.272    0.470   73.300
  402.750    6.478    0.272    0.469   74.527
  403.000    6.480    0.285    0.479   75.754
  403.250    6.483    0.280    0.486   76.374
  403.500    6.486    0.275    0.480   77.001
  403.750    6.610    0.263    0.475   76.409
  404.000    6.613    0.271    0.473   75.814
  404.250    6.615    0.278    0.475   75.220
  404.500    6.617    0.284    0.477   75.235
  404.750    6.743    0.275    0.477   74.036
  405.000    6.746    0.276    0.481   72.831
  405.250    6.876    0.287    0.492   71.025
  405.500    6.877    0.298    0.499   69.822
  405.750    7.009    0.307    0.508   71.057
  406.000    7.143    0.298    0.496   71.673
  406.250    7.415    0.295    0.486   71.081
  406.500    7.557    0.304    0.481   71.092
  406.750    7.993    0.293    0.475   69.902
