~VERSION INFORMATION
 VERS.                 2.0:   CWLS LOG ASCII STANDARD -VERSION 2.0
 WRAP.                  NO:   ONE LINE PER DEPTH STEP
~WELL INFORMATION BLOCK
#MNEM.UNIT           DATA                    DESCRIPTION OF MNEMONIC
#---------    -------------------            -------------------------------
# Generated from Intellog Unique Number	CS_77_79/WELL/3305
WELL.         12-28-078-15W4                 : Well_name    - WELL
LOC .         00/12-28-078-15W4/0            : Location     - LOCATION
UWI .         00/12-28-078-15W4/0            : Uwi          - UNIQUE WELL ID
ENTR.         JOETTE                         : Entered      - ENTERED BY
SRVC.         SCHLUMBERGER                   : Scn          - SERVICE COMPANY
DATE.         08/18/92                       : Date         - LOG DATE
STRT.M        250                            : top_depth    - START DEPTH
STOP.M        473                            : bot_depth    - STOP DEPTH
STEP.M        0.25                           : increment    - STEP LENGTH
 NULL. -999.2500:NULL Value
~CURVE INFORMATION BLOCK
#MNEM UNIT       ERCB CURVE CODE    CURVE DESCRIPTION
#-----------   ------------------   ----------------------------------
DEPT.M        00 001 00 00         : DEPTH        - DEPTH
GR  .API      00 310 00 00         : GR           - GAMMA RAY
NPHI.V/V      00 330 00 00         : PHIN         - NEUTRON POROSITY (SANDSTONE)
DPHI.V/V      00 890 00 00         : PHID         - DENSITY POROSITY (SANDSTONE)
ILD .OHMM     00 120 00 00         : RESD         - DEEP RESISTIVITY (DIL)
~PARAMETER INFORMATION
#MNEM.UNIT           DATA             DESCRIPTION OF MNEMONIC
#---------         -----------     ------------------------------
GL  .M        656.5                : gl           - GROUND LEVEL ELEVATION
EREF.M        660.5                : kb           - ELEVATION OF DEPTH REFERENCE
DATM.M        660.5                : datum        - DATUM ELEVATION
TDD .M        476                  : tdd          - TOTAL DEPTH DRILLER
RUN .         ONE                  : Run          - RUN NUMBER
ENG .         BILL                 : Engineer     - RECORDING ENGINEER
WIT .         JIM                  : Witness      - WITNESSED BY
MUD .         GEL                  : Mud_type     - MUD TYPE
MATR.         SANDSTONE            : Logunit      - NEUTRON MATRIX
TMAX.C        31                   : BHT          - MAXIMUM RECORDED TEMPERATURE
BHTD.M        476                  : BHTDEP       - MAXIMUM RECORDED TEMPERATURE
RMT .C        22                   : MDTP         - TEMPERATURE OF MUD
MUDD.KG/M     1120                 : MWT          - MUD DENSITY
NEUT.         1                    : NEUTRON      - NEUTRON TYPE
RESI.         0                    : RESIST       - RESISTIVITY TYPE
RM  .OHMM     5.7                  : RM           - RESISTIVITY OF MUD
RMC .OHMM     3.2                  : RMC          - RESISTIVITY OF MUD CAKE
RMF .OHMM     7.8                  : RMF          - RESISTIVITY OF MUD FILTRATE
SUFT.C        4                    : SUFT         - SURFACE TEMPERATURE
~A  DEPTH       GR     PHIN     PHID     RESD
# ...
  424.000   72.275    0.717    0.274    4.898
  424.250   72.869    0.681    0.249    5.475
  424.500   71.662    0.622    0.243    6.354
  424.750   70.456    0.526    0.237    7.654
  425.000   70.452    0.465    0.225    8.557
  425.250   69.847    0.427    0.219    9.044
  425.500   68.041    0.411    0.210    8.708
  425.750   66.233    0.399    0.193    7.780
  426.000   69.833    0.390    0.149    7.083
  426.250   74.633    0.388    0.172    6.095
  426.500   78.232    0.403    0.208    5.653
  426.750   75.825    0.424    0.208    5.146
  427.000   72.216    0.433    0.196    4.685
  427.250   72.812    0.431    0.149    4.265
  427.500   75.210    0.427    0.147    4.030
  427.750   75.205    0.478    0.183    3.533
  428.000   73.998    0.510    0.208    3.339
  428.250   73.993    0.518    0.216    3.155
  428.500   73.387    0.510    0.213    2.981
  428.750   74.582    0.507    0.225    3.036
  429.000   78.181    0.527    0.249    3.209
  429.250   80.579    0.528    0.250    3.392
  429.500   81.776    0.518    0.220    3.654
  429.750   82.373    0.491    0.207    4.009
  430.000   82.967    0.479    0.181    4.399
  430.250   83.563    0.472    0.192    4.737
  430.500   84.160    0.466    0.201    4.822
  430.750   84.755    0.454    0.191    4.731
  431.000   84.750    0.459    0.179    4.642
  431.250   83.544    0.482    0.171    4.467
  431.500   85.943    0.489    0.198    4.464
  431.750   92.545    0.512    0.218    4.463
  432.000   96.143    0.514    0.230    4.630
  432.250   97.340    0.514    0.230    4.804
  432.500   88.326    0.508    0.224    5.269
  432.750   76.909    0.482    0.209    5.892
  433.000   74.499    0.473    0.201    7.507
  433.250   75.697    0.442    0.209    9.388
  433.500   48.663    0.410    0.173   12.189
  433.750   34.844    0.239    0.130   15.529
  434.000   36.040    0.207    0.108   21.723
  434.250   46.246    0.263    0.232   23.394
  434.500   51.647    0.252    0.275   22.107
  434.750   46.237    0.305    0.288   18.675
  435.000   42.028    0.338    0.305   14.636
  435.250   51.032    0.357    0.306   12.600
  435.500   60.037    0.359    0.287   11.257
  435.750   68.441    0.357    0.248   11.679
  436.000   76.845    0.356    0.237   13.553
  436.250   85.850    0.359    0.232   15.438
  436.500   85.844    0.378    0.234   17.913
  436.750   82.235    0.398    0.248   20.400
  437.000   78.027    0.393    0.252   21.170
  437.250   70.814    0.388    0.254   17.884
  437.500   65.403    0.389    0.250   16.587
  437.750   59.991    0.395    0.246   15.674
  438.000   62.991    0.400    0.243   14.264
  438.250   67.791    0.409    0.238   13.737
  438.500   71.989    0.419    0.230   13.473
  438.750   71.986    0.435    0.233   13.721
  439.000   70.780    0.422    0.230   14.773
  439.250   74.979    0.379    0.207   15.912
  439.500   76.776    0.341    0.201   18.817
  439.750   69.564    0.344    0.195   21.836
  440.000   64.153    0.309    0.205   24.869
  440.250   62.347    0.320    0.215   26.782
  440.500   61.139    0.332    0.220   27.785
  440.750   57.532    0.337    0.242   27.769
  441.000   58.728    0.337    0.260   27.244
  441.250   62.327    0.340    0.224   25.264
  441.500   67.126    0.355    0.242   23.432
  441.750   71.326    0.359    0.269   20.548
  442.000   62.310    0.349    0.283   19.058
  442.250   65.907    0.327    0.269   17.344
  442.500   67.106    0.331    0.214   17.018
  442.750   69.505    0.340    0.212   17.328
  443.000   70.101    0.353    0.217   20.104
  443.250   67.692    0.362    0.227   20.098
  443.500   70.091    0.363    0.242   20.459
  443.750   67.083    0.358    0.235   20.836
  444.000   64.075    0.355    0.206   21.219
  444.250   68.875    0.350    0.193   22.014
  444.500   69.471    0.334    0.241   23.701
  444.750   62.859    0.305    0.261   24.593
  445.000   58.649    0.340    0.263   27.489
  445.250   60.446    0.351    0.257   28.000
  445.500   61.642    0.363    0.229   31.297
  445.750   58.634    0.376    0.214   34.983
  446.000   55.025    0.317    0.207   36.304
  446.250   53.818    0.302    0.203   39.087
  446.500   51.411    0.295    0.244   39.812
  446.750   47.804    0.301    0.262   42.076
  447.000   48.399    0.301    0.327   42.052
  447.250   51.998    0.285    0.346   41.250
  447.500   49.591    0.273    0.343   41.232
  447.750   44.181    0.286    0.328   46.095
  448.000   45.377    0.297    0.314   52.503
  448.250   48.976    0.289    0.326   54.470
  448.500   50.773    0.274    0.333   53.431
  448.750   47.164    0.266    0.322   50.483
  449.000   44.155    0.268    0.319   46.821
  449.250   50.757    0.271    0.331   46.794
  449.500   53.155    0.267    0.343   48.554
  449.750   52.550    0.266    0.338   55.304
  450.000   51.944    0.283    0.314   81.819
  450.250   50.738    0.271    0.308  108.212
  450.500   47.729    0.249    0.315  118.719
  450.750   42.920    0.237    0.328  118.650
  451.000   42.313    0.225    0.342  114.250
  451.250   45.313    0.234    0.354  102.079
  451.500   47.711    0.255    0.352   86.234
  451.750   48.906    0.248    0.342   86.172
  452.000   46.500    0.214    0.337   92.803
  452.250   41.690    0.199    0.345   99.929
  452.500   37.481    0.226    0.354   96.209
  452.750   47.086    0.228    0.345   82.820
  453.000   48.282    0.200    0.330   73.997
  453.250   45.874    0.171    0.334   82.712
  453.500   42.867    0.142    0.358   96.001
  453.750   41.661    0.165    0.375  105.337
  454.000   47.061    0.284    0.382  109.268
  454.250   51.259    0.295    0.346  105.215
  454.500   52.456    0.288    0.320   77.990
  454.750   52.452    0.277    0.306   64.656
  455.000   51.846    0.270    0.302   67.088
  455.250   51.842    0.262    0.301   77.844
  455.500   50.636    0.255    0.306   85.414
  455.750   47.026    0.254    0.314   88.614
  456.000   45.821    0.258    0.319   91.947
  456.250   47.016    0.259    0.327   88.512
  456.500   47.612    0.253    0.335   80.585
  456.750   47.607    0.247    0.330   74.730
  457.000   45.799    0.237    0.330   77.540
  457.250   43.995    0.227    0.338   86.685
  457.500   43.388    0.222    0.354  100.583
  457.750   43.383    0.211    0.367  106.334
  458.000   43.379    0.194    0.360  112.381
  458.250   42.172    0.169    0.359  118.806
  458.500   40.366    0.174    0.365  123.257
  458.750   39.759    0.207    0.381  120.906
  459.000   41.556    0.197    0.378  114.251
  459.250   40.351    0.181    0.368   87.899
  459.500   38.544    0.185    0.375   84.627
  459.750   36.738    0.269    0.389   84.578
  460.000   34.329    0.325    0.381   24.184
  460.250   37.326    0.344    0.348   16.026
  460.500   37.923    0.356    0.339   12.799
  460.750   39.120    0.366    0.338   11.869
  461.000   38.513    0.373    0.338   12.084
  461.250   37.909    0.379    0.338   12.080
  461.500   37.302    0.383    0.337   12.073
  461.750   37.300    0.386    0.336   12.064
  462.000   36.694    0.390    0.336   12.059
  462.250   36.088    0.397    0.336   12.280
  462.500   35.481    0.399    0.336   12.504
  462.750   35.476    0.398    0.336   13.213
  463.000   35.471    0.396    0.336   13.710
  463.250   35.467    0.383    0.335   14.489
  463.500   34.861    0.381    0.335   14.756
  463.750   32.455    0.383    0.336   14.746
  464.000   30.047    0.374    0.337   14.741
  464.250   29.442    0.372    0.343   13.930
  464.500   33.641    0.388    0.348   12.920
  464.750   36.038    0.390    0.344   12.435
  465.000   36.635    0.384    0.342   12.664
  465.250   33.626    0.380    0.335   12.893
  465.500   31.220    0.383    0.332   13.133
  465.750   29.413    0.377    0.331   13.369
  466.000   28.207    0.371    0.335   13.365
  466.250   26.400    0.376    0.342   12.864
  466.500   24.593    0.380    0.347   12.156
  466.750   22.784    0.376    0.349   11.705
  467.000   21.578    0.366    0.346   11.478
  467.250   22.174    0.361    0.341   11.691
