~VERSION INFORMATION
 VERS.                 2.0:   CWLS LOG ASCII STANDARD -VERSION 2.0
 WRAP.                  NO:   ONE LINE PER DEPTH STEP
~WELL INFORMATION BLOCK
#MNEM.UNIT           DATA                    DESCRIPTION OF MNEMONIC
#---------    -------------------            -------------------------------
# Generated from Intellog Unique Number	CS_73_76/WELL/3251
WELL.         10-32-076-08W4                 : Well_name    - WELL
LOC .         00/10-32-076-08W4/0            : Location     - LOCATION
UWI .         00/10-32-076-08W4/0            : Uwi          - UNIQUE WELL ID
ENTR.         SP                             : Entered      - ENTERED BY
SRVC.         SCHLUMBERGER                   : Scn          - SERVICE COMPANY
STRT.M        198.12                         : top_depth    - START DEPTH
STOP.M        426.37                         : bot_depth    - STOP DEPTH
STEP.M        0.25                           : increment    - STEP LENGTH
 NULL. -999.2500:NULL Value
~CURVE INFORMATION BLOCK
#MNEM UNIT       ERCB CURVE CODE    CURVE DESCRIPTION
#-----------   ------------------   ----------------------------------
DEPT.M        00 001 00 00         : DEPTH        - DEPTH
GR  .API      00 310 00 00         : GR           - GAMMA RAY
DPHI.V/V      00 890 00 00         : PHID         - DENSITY POROSITY (SANDSTONE)
NPHI.V/V      00 330 00 00         : PHIN         - NEUTRON POROSITY (SANDSTONE)
ILD .OHMM     00 120 00 00         : RESD         - DEEP RESISTIVITY (DIL)
~PARAMETER INFORMATION
#MNEM.UNIT           DATA             DESCRIPTION OF MNEMONIC
#---------         -----------     ------------------------------
GL  .M        615.696              : gl           - GROUND LEVEL ELEVATION
EREF.M        618.134              : kb           - ELEVATION OF DEPTH REFERENCE
DATM.M        615.696              : datum        - DATUM ELEVATION
TDD .M        426.72               : tdd          - TOTAL DEPTH DRILLER
RUN .         ONE                  : Run          - RUN NUMBER
ENG .         BILL                 : Engineer     - RECORDING ENGINEER
WIT .         JIM                  : Witness      - WITNESSED BY
MUD .         GEL                  : Mud_type     - MUD TYPE
MATR.         SANDSTONE            : Logunit      - NEUTRON MATRIX
TMAX.C        13.3333              : BHT          - MAXIMUM RECORDED TEMPERATURE
BHTD.M        426.72               : BHTDEP       - MAXIMUM RECORDED TEMPERATURE
MATR.         1                    : LOGUNIT      - NEUTRON MATRIX
RMT .C        25                   : MDTP         - TEMPERATURE OF MUD
NEUT.         1                    : NEUTRON      - NEUTRON TYPE
RESI.         0                    : RESIST       - RESISTIVITY TYPE
RMC .OHMM     0.25                 : RMC          - RESISTIVITY OF MUD CAKE
RMF .OHMM     0.25                 : RMF          - RESISTIVITY OF MUD FILTRATE
SUFT.C        15                   : SUFT         - SURFACE TEMPERATURE
~A  DEPTH       GR     PHID     PHIN     RESD
# ...
  328.620   69.068    0.353    0.479    5.629
  328.870   69.674    0.353    0.469    5.633
  329.120   69.265    0.352    0.459    5.691
  329.370   65.922    0.354    0.476    5.737
  329.620   65.613    0.350    0.481    5.735
  329.870   64.444    0.348    0.483    5.915
  330.120   63.210    0.341    0.474    5.975
  330.370   58.455    0.348    0.459    6.249
  330.620   54.019    0.301    0.445    6.685
  330.870   49.089    0.238    0.420    6.652
  331.120   53.328    0.210    0.356    6.557
  331.370   61.709    0.299    0.400    6.093
  331.620   67.388    0.335    0.490    5.865
  331.870   64.427    0.357    0.490    5.749
  332.120   62.282    0.373    0.476    5.757
  332.370   61.334    0.378    0.465    5.759
  332.620   63.548    0.375    0.471    5.758
  332.870   64.975    0.354    0.463    5.750
  333.120   65.978    0.367    0.465    5.656
  333.370   65.753    0.363    0.486    5.664
  333.620   66.107    0.354    0.492    5.669
  333.870   67.153    0.338    0.481    5.786
  334.120   66.516    0.336    0.474    5.655
  334.370   67.202    0.357    0.461    5.668
  334.620   69.557    0.367    0.458    5.560
  334.870   70.788    0.360    0.461    5.569
  335.120   69.597    0.357    0.466    5.570
  335.370   68.045    0.355    0.479    5.515
  335.620   65.073    0.357    0.477    5.476
  335.870   64.679    0.363    0.470    5.473
  336.120   65.706    0.352    0.463    5.431
  336.370   65.945    0.341    0.462    5.390
  336.620   66.399    0.343    0.455    5.494
  336.870   67.585    0.352    0.449    5.372
  337.120   68.896    0.349    0.448    5.384
  337.370   69.843    0.358    0.467    5.385
  337.620   70.692    0.368    0.460    5.387
  337.870   70.048    0.362    0.454    5.389
  338.120   67.698    0.355    0.445    5.391
  338.370   67.403    0.350    0.456    5.392
  338.620   70.436    0.343    0.480    5.394
  338.870   71.185    0.342    0.511    5.409
  339.120   71.159    0.353    0.501    5.308
  339.370   71.100    0.353    0.473    5.321
  339.620   70.220    0.351    0.456    5.308
  339.870   67.584    0.355    0.453    5.311
  340.120   67.914    0.365    0.451    5.406
  340.370   70.464    0.348    0.445    5.372
  340.620   71.693    0.357    0.454    5.309
  340.870   70.614    0.357    0.484    5.310
  341.120   71.398    0.372    0.504    5.312
  341.370   72.887    0.365    0.515    5.313
  341.620   70.645    0.355    0.506    5.315
  341.870   69.949    0.355    0.487    5.317
  342.120   70.493    0.347    0.480    5.318
  342.370   70.461    0.357    0.472    5.320
  342.620   70.427    0.359    0.470    5.321
  342.870   68.931    0.356    0.471    5.323
  343.120   67.833    0.354    0.478    5.324
  343.370   67.515    0.361    0.495    5.326
  343.620   67.074    0.362    0.485    5.325
  343.870   66.952    0.353    0.462    5.299
  344.120   66.326    0.339    0.465    5.234
  344.370   65.422    0.348    0.469    5.238
  344.620   69.391    0.363    0.479    5.259
  344.870   72.042    0.355    0.474    5.338
  345.120   72.236    0.333    0.457    5.338
  345.370   70.240    0.317    0.459    5.339
  345.620   69.260    0.324    0.462    5.340
  345.870   69.140    0.329    0.464    5.342
  346.120   69.793    0.342    0.469    5.344
  346.370   69.769    0.339    0.480    5.348
  346.620   70.094    0.328    0.488    5.383
  346.870   72.108    0.309    0.498    5.447
  347.120   75.443    0.296    0.499    5.385
  347.370   77.561    0.303    0.477    5.387
  347.620   77.933    0.315    0.470    5.358
  347.870   76.634    0.322    0.481    5.358
  348.120   75.502    0.332    0.482    5.357
  348.370   76.073    0.321    0.474    5.358
  348.620   76.094    0.312    0.468    5.360
  348.870   76.042    0.315    0.472    5.362
  349.120   75.638    0.330    0.481    5.363
  349.370   73.252    0.340    0.489    5.365
  349.620   74.431    0.350    0.481    5.366
  349.870   75.940    0.332    0.487    5.368
  350.120   76.872    0.336    0.492    5.374
  350.370   78.386    0.316    0.485    5.276
  350.620   84.177    0.291    0.478    4.978
  350.870   90.013    0.268    0.454    4.579
  351.120   95.792    0.260    0.444    4.114
  351.370   97.845    0.246    0.459    3.823
  351.620   98.277    0.259    0.482    3.719
  351.870   98.295    0.272    0.526    3.609
  352.120   98.294    0.260    0.541    3.647
  352.370   98.307    0.243    0.537    3.966
  352.620   99.390    0.244    0.521    4.147
  352.870   98.600    0.244    0.502    4.391
  353.120   97.656    0.240    0.476    4.660
  353.370   98.063    0.240    0.459    4.896
  353.620   99.356    0.243    0.467    5.047
  353.870  103.959    0.236    0.480    5.104
  354.120  106.588    0.236    0.467    5.257
  354.370  107.627    0.247    0.460    5.399
  354.620  107.552    0.245    0.451    5.488
  354.870  108.542    0.253    0.449    5.496
  355.120  107.952    0.246    0.466    5.497
  355.370  104.508    0.256    0.468    5.172
  355.620  101.640    0.250    0.454    4.830
  355.870  101.086    0.246    0.445    4.407
  356.120   99.965    0.214    0.447    4.168
  356.370  100.562    0.219    0.469    3.722
  356.620  100.488    0.233    0.501    3.305
  356.870   99.101    0.226    0.504    2.930
  357.120   98.940    0.243    0.507    2.576
  357.370   98.231    0.277    0.531    2.301
  357.620   97.727    0.293    0.569    2.147
  357.870   99.457    0.296    0.590    2.045
  358.120   99.857    0.292    0.600    2.018
  358.370   99.682    0.275    0.608    2.074
  358.620   97.998    0.258    0.598    2.183
  358.870   96.214    0.266    0.572    2.213
  359.120   93.324    0.282    0.566    2.262
  359.370   93.385    0.291    0.575    2.258
  359.620   93.403    0.295    0.583    2.261
  359.870   93.962    0.280    0.588    2.282
  360.120   96.835    0.265    0.595    2.386
  360.370   97.703    0.258    0.602    2.609
  360.620   99.237    0.268    0.576    3.040
  360.870   99.806    0.268    0.566    3.538
  361.120   97.655    0.266    0.571    3.999
  361.370   99.964    0.262    0.558    4.411
  361.620  102.368    0.241    0.525    5.081
  361.870  103.286    0.226    0.495    5.443
  362.120  102.549    0.227    0.512    5.547
  362.370   99.963    0.239    0.518    5.485
  362.620   99.018    0.227    0.430    5.125
  362.870  100.289    0.219    0.430    4.711
  363.120  101.755    0.202    0.444    4.478
  363.370  104.236    0.227    0.462    4.097
  363.620  108.283    0.218    0.472    3.932
  363.870  110.122    0.225    0.491    3.777
  364.120  108.817    0.227    0.499    3.638
  364.370  106.209    0.236    0.496    3.589
  364.620  109.293    0.235    0.491    3.486
  364.870  113.338    0.226    0.483    3.463
  365.120  116.714    0.221    0.503    3.419
  365.370  118.730    0.249    0.518    3.362
  365.620  116.348    0.252    0.511    3.336
  365.870  111.579    0.255    0.511    3.278
  366.120  114.369    0.255    0.518    3.281
  366.370  116.594    0.239    0.515    3.282
  366.620  116.329    0.217    0.524    3.276
  366.870  114.545    0.213    0.540    3.349
  367.120  112.559    0.230    0.537    3.394
  367.370  112.315    0.222    0.526    3.541
  367.620  110.632    0.228    0.515    3.616
  367.870  111.151    0.233    0.521    3.670
  368.120  113.046    0.231    0.550    3.641
  368.370  114.239    0.240    0.555    3.606
  368.620  109.971    0.238    0.555    3.605
  368.870  104.878    0.247    0.529    3.604
  369.120   97.183    0.243    0.539    3.676
  369.370   90.472    0.246    0.548    3.965
  369.620   83.915    0.243    0.534    4.971
  369.870   79.842    0.259    0.506    6.190
  370.120   76.713    0.286    0.471    7.649
  370.370   79.570    0.288    0.401    8.851
  370.620   82.412    0.272    0.385    9.652
  370.870   85.547    0.259    0.376   10.238
  371.120   87.984    0.265    0.376   10.855
  371.370   86.869    0.247    0.380   11.511
  371.620   80.840    0.222    0.382   12.310
  371.870   75.758    0.188    0.380   13.780
