~VERSION INFORMATION
 VERS.                 2.0:   CWLS LOG ASCII STANDARD -VERSION 2.0
 WRAP.                  NO:   ONE LINE PER DEPTH STEP
~WELL INFORMATION BLOCK
#MNEM.UNIT           DATA                    DESCRIPTION OF MNEMONIC
#---------    -------------------            -------------------------------
# Generated from Intellog Unique Number	CN_94_101/WELL/3801
WELL.         16-23-096-16W4                 : Well_name    - WELL
LOC .         00/16-23-096-16W4/0            : Location     - LOCATION
UWI .         00/16-23-096-16W400            : Uwi          - UNIQUE WELL ID
ENTR.         T                              : Entered      - ENTERED BY
SRVC.         SCHLUMBERGER                   : Scn          - SERVICE COMPANY
DATE.         07/20/92                       : Date         - LOG DATE
STRT.M        210                            : top_depth    - START DEPTH
STOP.M        399.75                         : bot_depth    - STOP DEPTH
STEP.M        0.25                           : increment    - STEP LENGTH
 NULL. -999.2500:NULL Value
~CURVE INFORMATION BLOCK
#MNEM UNIT       ERCB CURVE CODE    CURVE DESCRIPTION
#-----------   ------------------   ----------------------------------
DEPT.M        00 001 00 00         : DEPTH        - DEPTH
GR  .API      00 310 00 00         : GR           - GAMMA RAY
CALI.MM       00 280 01 00         : CAL          - CALIPER
NPHI.V/V      00 330 00 00         : PHIN         - NEUTRON POROSITY (SANDSTONE)
DPHI.V/V      00 890 00 00         : PHID         - DENSITY POROSITY (SANDSTONE)
ILD .OHMM     00 120 00 00         : RESD         - DEEP RESISTIVITY (DIL)
~PARAMETER INFORMATION
#MNEM.UNIT           DATA             DESCRIPTION OF MNEMONIC
#---------         -----------     ------------------------------
GL  .M        658                  : gl           - GROUND LEVEL ELEVATION
EREF.M        661.2                : kb           - ELEVATION OF DEPTH REFERENCE
DATM.M        661.2                : datum        - DATUM ELEVATION
TDD .M        400                  : tdd          - TOTAL DEPTH DRILLER
RUN .         0.000000             : Run          - RUN NUMBER
MUD .         GEL                  : Mud_type     - MUD TYPE
MATR.         SANDSTONE            : Logunit      - NEUTRON MATRIX
TMAX.C        0                    : BHT          - MAXIMUM RECORDED TEMPERATURE
BHTD.M        45                   : BHTDEP       - MAXIMUM RECORDED TEMPERATURE
RMT .C        5                    : MDTP         - TEMPERATURE OF MUD
MUDD.KG/M     1                    : MWT          - MUD DENSITY
NEUT.         1                    : NEUTRON      - NEUTRON TYPE
RESI.         0                    : RESIST       - RESISTIVITY TYPE
RM  .OHMM     7.8                  : RM           - RESISTIVITY OF MUD
RMC .OHMM     7.8                  : RMC          - RESISTIVITY OF MUD CAKE
RMF .OHMM     0                    : RMF          - RESISTIVITY OF MUD FILTRATE
SUFT.C        4                    : SUFT         - SURFACE TEMPERATURE
BTZC.MM       0                    : BITZC        - BIT SIZE CONSTANT
MDW .KG/M     0                    : MDW          - MUD WEIGHT
~A  DEPTH       GR      CAL     PHIN     PHID     RESD
# ...
  356.000  117.944  155.242    0.415    0.287    3.682
  356.250  119.758  155.242    0.470    0.291    3.682
  356.500  115.524  155.242    0.468    0.294    3.821
  356.750  114.315  155.242    0.414    0.294    3.966
  357.000  117.944  156.250    0.416    0.293    4.117
  357.250  120.363  156.250    0.420    0.289    4.273
  357.500  119.153  156.250    0.424    0.289    4.518
  357.750  115.524  156.250    0.431    0.291    4.959
  358.000  108.266  156.250    0.442    0.277    6.201
  358.250  100.403  156.250    0.428    0.281    7.470
  358.500   84.677  156.250    0.357    0.284    9.340
  358.750   61.694  156.250    0.265    0.289   10.840
  359.000   62.298  156.250    0.294    0.288   11.463
  359.250   64.113  156.250    0.294    0.293   12.122
  359.500   59.274  156.250    0.135    0.301   13.304
  359.750   53.226  156.250    0.127    0.299   16.027
  360.000   49.597  156.250    0.133    0.299   21.589
  360.250   48.992  156.250    0.141    0.298   31.330
  360.500   49.597  156.250    0.147    0.303   33.752
  360.750   52.016  156.250    0.155    0.309   38.451
  361.000   53.831  156.250    0.160    0.318   35.691
  361.250   51.411  156.250    0.162    0.318   33.130
  361.500   50.806  156.250    0.167    0.317   31.330
  361.750   53.226  156.250    0.185    0.314   29.081
  362.000   56.250  156.250    0.196    0.311   25.527
  362.250   56.250  156.250    0.204    0.308   25.057
  362.500   56.855  156.250    0.214    0.304   23.695
  362.750   59.274  156.250    0.224    0.304   21.589
  363.000   59.274  156.250    0.234    0.323   19.670
  363.250   61.089  156.250    0.249    0.343   18.258
  363.500   59.879  156.250    0.273    0.356   16.635
  363.750   57.460  156.250    0.291    0.347   15.731
  364.000   54.435  156.250    0.314    0.338   15.441
  364.250   52.621  156.250    0.345    0.311   15.441
  364.500   53.226  156.250    0.387    0.296   15.731
  364.750   59.879  156.250    0.382    0.266   15.731
  365.000   68.952  156.250    0.390    0.264   15.731
  365.250   68.952  156.250    0.386    0.264   15.731
  365.500   68.347  156.250    0.372    0.281   16.027
  365.750   64.718  156.250    0.379    0.298   16.027
  366.000   61.694  156.250    0.397    0.318   16.948
  366.250   62.903  156.250    0.395    0.322   17.591
  366.500   65.323  156.250    0.391    0.324   18.258
  366.750   62.903  156.250    0.391    0.326   18.951
  367.000   62.298  156.250    0.385    0.326   19.307
  367.250   64.113  156.250    0.399    0.326   19.670
  367.500   65.927  156.250    0.409    0.326   19.670
  367.750   63.508  155.242    0.396    0.326   19.670
  368.000   59.274  155.242    0.374    0.327   19.670
  368.250   55.645  155.242    0.381    0.328   19.670
  368.500   50.202  155.242    0.386    0.336   19.307
  368.750   45.363  155.242    0.370    0.347   19.307
  369.000   44.153  155.242    0.367    0.347   17.921
  369.250   41.734  155.242    0.371    0.342   16.635
  369.500   35.081  155.242    0.370    0.333   13.304
  369.750   29.032  155.242    0.331    0.324   10.840
  370.000   21.774  154.234    0.340    0.322    8.353
  370.250   23.589  154.234    0.333    0.319   37.742
  370.500   22.379  154.234    0.333    0.317   42.996
  370.750   22.984  154.234    0.330    0.312   50.839
  371.000   21.169  154.234    0.330    0.312   63.567
  371.250   27.218  154.234    0.330    0.308   87.237
  371.500   32.056  154.234    0.330    0.306   53.760
  371.750   42.944  154.234    0.382    0.304   51.795
  372.000   44.758  154.234    0.399    0.299   48.981
  372.250   42.339  154.234    0.420    0.299   44.627
  372.500   40.524  153.226    0.429    0.301   43.804
  372.750   42.944  153.226    0.413    0.298   44.627
  373.000   44.758  153.226    0.399    0.291   44.627
  373.250   46.573  153.226    0.391    0.278   45.465
  373.500   45.363  153.226    0.394    0.269   44.627
  373.750   43.548  165.323    0.384    0.262   42.996
  374.000   44.153  151.210    0.371    0.262   41.424
  374.250   44.758  151.210    0.375    0.259   39.910
  374.500   46.573  154.234    0.380    0.262   38.451
  374.750   46.573  150.202    0.391    0.266   39.173
  375.000   44.758  151.210    0.401    0.281   42.202
  375.250   31.452  158.266    0.358    0.279   50.839
  375.500   19.960  154.234    0.294    0.281   68.482
  375.750   19.960  151.210    0.304    0.288   97.548
  376.000   21.774  151.210    0.311    0.291  131.401
  376.250   23.589  150.202    0.334    0.306  170.532
  376.500   25.403  150.202    0.328    0.319  144.221
  376.750   25.403  150.202    0.354    0.321  113.216
  377.000   25.403  150.202    0.353    0.319   92.249
  377.250   25.403  158.266    0.359    0.317   72.417
  377.500   24.798  156.250    0.369    0.292   56.848
  377.750   27.823  156.250    0.369    0.313   56.848
  378.000   28.427  156.250    0.365    0.311   63.567
  378.250   24.194  156.250    0.362    0.308   71.081
  378.500   19.960  157.258    0.362    0.314  126.598
  378.750   21.169  157.258    0.362    0.328  138.950
  379.000   19.960  157.258    0.362    0.351  152.507
  379.250   18.145  158.266    0.362    0.352  170.532
  379.500   16.331  159.274    0.365    0.354  197.923
  379.750   16.331  156.250    0.359    0.351  217.234
  380.000   18.750  156.250    0.362    0.347  205.432
  380.250   19.355  156.250    0.369    0.339  194.272
  380.500   24.798  156.250    0.372    0.323  144.221
  380.750   23.589  156.250    0.369    0.307  115.344
  381.000   30.847  156.250    0.365    0.304   67.219
  381.250   40.524  156.250    0.378    0.317   42.202
  381.500   42.339  156.250    0.378    0.324   32.518
  381.750   48.992  156.250    0.378    0.337   26.007
  382.000   48.387  156.250    0.375    0.339   21.191
  382.250   48.992  156.250    0.398    0.347   21.995
  382.500   48.992  156.250    0.407    0.348   25.527
  382.750   49.597  156.250    0.411    0.347   25.527
  383.000   52.621  156.250    0.411    0.334   20.416
  383.250   57.460  156.250    0.414    0.333   19.307
  383.500   55.040  156.250    0.414    0.329   19.307
  383.750   52.621  156.250    0.411    0.327   19.670
  384.000   52.016  156.250    0.404    0.323   20.800
  384.250   51.411  156.250    0.404    0.323   24.141
  384.500   50.806  156.250    0.407    0.322   25.527
  384.750   51.411  156.250    0.411    0.318   21.191
  385.000   52.016  156.250    0.411    0.313   19.307
  385.250   50.202  156.250    0.401    0.306   17.921
  385.500   51.411  156.250    0.398    0.309   14.877
  385.750   53.226  157.258    0.407    0.313   13.059
  386.000   56.250  156.250    0.414    0.323   11.252
  386.250   58.065  156.250    0.417    0.323   10.444
  386.500   56.250  157.258    0.423    0.314    9.694
  386.750   53.226  157.258    0.423    0.297    9.168
  387.000   48.992  157.258    0.420    0.288    8.670
  387.250   48.387  157.258    0.411    0.289    8.353
  387.500   47.177  157.258    0.404    0.306    8.401
  387.750   49.597  157.258    0.401    0.329    8.401
  388.000   50.202  158.266    0.401    0.356    8.093
  388.250   47.177  158.266    0.436    0.353    7.652
  388.500   52.336  158.266    0.433    0.344    7.796
  388.750   53.141  158.266    0.430    0.323    7.652
  389.000   54.751  158.266    0.420    0.319    7.652
  389.250   54.751  159.274    0.449    0.319    7.235
  389.500   56.361  159.274    0.449    0.322    7.102
  389.750   58.777  159.274    0.449    0.333    6.469
  390.000   59.582  159.274    0.449    0.336    6.591
  390.250   61.193  159.274    0.449    0.341    6.715
  390.500   61.193  160.282    0.446    0.351    7.796
  390.750   61.193  160.282    0.443    0.360    8.720
  391.000   57.972  160.282    0.436    0.377    9.574
  391.250   57.972  160.282    0.436    0.375   11.116
  391.500   57.972  160.282    0.436    0.373   13.150
  391.750   57.972  161.290    0.436    0.365   17.400
  392.000   57.972  161.290    0.436    0.348   12.434
  392.250   55.556  161.290    0.436    0.332   11.978
