~VERSION INFORMATION
 VERS.                 2.0:   CWLS LOG ASCII STANDARD -VERSION 2.0
 WRAP.                  NO:   ONE LINE PER DEPTH STEP
~WELL INFORMATION BLOCK
#MNEM.UNIT           DATA                    DESCRIPTION OF MNEMONIC
#---------    -------------------            -------------------------------
# Generated from Intellog Unique Number	CS_77_79/WELL/1001
WELL.         PCI PCEJ CHARD                 : Well_name    - WELL
LOC .         00/11-28-079-06W4/0            : Location     - LOCATION
UWI .         00/11-28-079-06W4/0            : Uwi          - UNIQUE WELL ID
ENTR.         JHS                            : Entered      - ENTERED BY
SRVC.         SCHLUMBERGER                   : Scn          - SERVICE COMPANY
STRT.M        70                             : top_depth    - START DEPTH
STOP.M        335                            : bot_depth    - STOP DEPTH
STEP.M        0.25                           : increment    - STEP LENGTH
 NULL. -999.2500:NULL Value
~CURVE INFORMATION BLOCK
#MNEM UNIT       ERCB CURVE CODE    CURVE DESCRIPTION
#-----------   ------------------   ----------------------------------
DEPT.M        00 001 00 00         : DEPTH        - DEPTH
DPHI.V/V      00 890 00 00         : PHID         - DENSITY POROSITY (LIMESTONE)
NPHI.V/V      00 330 00 00         : PHIN         - NEUTRON POROSITY (LIMESTONE)
GR  .API      00 310 00 00         : GR           - GAMMA RAY
ILD .OHMM     00 120 00 00         : RESD         - DEEP RESISTIVITY (DIL)
RHOB.KG/M3    00 350 00 00         : DENS         - BULK DENSITY
~PARAMETER INFORMATION
#MNEM.UNIT           DATA             DESCRIPTION OF MNEMONIC
#---------         -----------     ------------------------------
GL  .M        513.8                : gl           - GROUND LEVEL ELEVATION
EREF.M        516.9                : kb           - ELEVATION OF DEPTH REFERENCE
DATM.M        516.9                : datum        - DATUM ELEVATION
TDD .M        341                  : tdd          - TOTAL DEPTH DRILLER
RUN .         ONE                  : Run          - RUN NUMBER
ENG .         BILL                 : Engineer     - RECORDING ENGINEER
WIT .         JIM                  : Witness      - WITNESSED BY
MUD .         GEL                  : Mud_type     - MUD TYPE
MATR.         LIMESTONE            : Logunit      - NEUTRON MATRIX
TMAX.C        18                   : BHT          - MAXIMUM RECORDED TEMPERATURE
BHTD.M        341                  : BHTDEP       - MAXIMUM RECORDED TEMPERATURE
MATR.         1                    : LOGUNIT      - NEUTRON MATRIX
RMT .C        25                   : MDTP         - TEMPERATURE OF MUD
NEUT.         1                    : NEUTRON      - NEUTRON TYPE
RESI.         0                    : RESIST       - RESISTIVITY TYPE
RMC .OHMM     0.25                 : RMC          - RESISTIVITY OF MUD CAKE
RMF .OHMM     0.25                 : RMF          - RESISTIVITY OF MUD FILTRATE
SUFT.C        15                   : SUFT         - SURFACE TEMPERATURE
~A  DEPTH     PHID     PHIN       GR     RESD     DENS
# ...
  216.000    0.287    0.439   81.722    7.983    0.000
  216.250    0.290    0.460   82.935    7.988    0.000
  216.500    0.296    0.485   82.325    7.994    0.000
  216.750    0.296    0.503   79.893    7.850    0.000
  217.000    0.262    0.492   78.677    7.708    0.000
  217.250    0.240    0.459   79.889    7.570    0.000
  217.500    0.261    0.452   85.958    7.433    0.000
  217.750    0.279    0.484   87.170    7.162    0.000
  218.000    0.283    0.466   88.383    7.032    0.000
  218.250    0.273    0.477   92.631    6.652    0.000
  218.500    0.263    0.490   93.843    6.408    0.000
  218.750    0.256    0.493   92.019    6.175    0.000
  219.000    0.242    0.479   92.623    6.065    0.000
  219.250    0.236    0.476   94.442    6.068    0.000
  219.500    0.253    0.492   92.619    6.188    0.000
  219.750    0.261    0.476   89.580    6.678    0.000
  220.000    0.262    0.455   85.934    7.073    0.000
  220.250    0.286    0.438   76.822    7.211    0.000
  220.500    0.299    0.435   74.390    7.217    0.000
  220.750    0.303    0.449   74.994    7.086    0.000
  221.000    0.308    0.464   79.243    6.958    0.000
  221.250    0.291    0.443   87.743    6.581    0.000
  221.500    0.268    0.443   87.133    6.107    0.000
  221.750    0.258    0.470   83.487    5.773    0.000
  222.000    0.258    0.479   87.127    5.158    0.000
  222.250    0.282    0.482   88.947    4.524    0.000
  222.500    0.262    0.500   90.158    4.441    0.000
  222.750    0.252    0.517   90.156    4.445    0.000
  223.000    0.260    0.498   89.546    4.619    0.000
  223.250    0.273    0.480   89.544    4.622    0.000
  223.500    0.274    0.465   90.148    4.371    0.000
  223.750    0.279    0.451   90.754    4.292    0.000
  224.000    0.282    0.504   91.966    4.376    0.000
  224.250    0.274    0.511   95.000    4.548    0.000
  224.500    0.275    0.528   91.353    5.002 2238.940
  224.750    0.293    0.549   76.777    5.397 2209.680
  225.000    0.328    0.506   68.879    6.049 2149.070
  225.250    0.344    0.469   68.876    6.527 2121.890
  225.500    0.333    0.449   70.088    7.045 2140.690
  225.750    0.312    0.440   71.301    7.049 2176.200
  226.000    0.301    0.439   74.335    6.540 2194.990
  226.250    0.299    0.448   84.049    5.419 2199.160
  226.500    0.289    0.480   87.689    4.490 2215.870
  226.750    0.280    0.535   85.258    4.166 2230.480
  227.000    0.274    0.544   84.649    4.092 2240.920
  227.250    0.276    0.510   85.860    4.415 2238.820
  227.500    0.273    0.485   88.287    4.949 2242.990
  227.750    0.258    0.458   87.677    5.442 2268.050
  228.000    0.260    0.443   84.638    6.333 2265.950
  228.250    0.300    0.448   80.385    7.369 2196.980
  228.500    0.236    0.466   63.379    8.260 2305.630
  228.750    0.136    0.338   56.089    8.422 2476.960
  229.000    0.164    0.266   59.123    8.272 2428.890
  229.250    0.232    0.366   65.800    7.969 2313.950
  229.500    0.276    0.433   71.871    7.257 2238.720
  229.750    0.291    0.477   73.082    6.733 2211.530
  230.000    0.295    0.491   70.043    6.249 2205.260
  230.250    0.303    0.459   72.470    6.022 2192.710
  230.500    0.303    0.433   80.969    5.694 2192.700
  230.750    0.274    0.425   84.003    5.184 2240.750
  231.000    0.249    0.437   84.608    4.547 2284.620
  231.250    0.246    0.471   86.427    4.298 2288.780
  231.500    0.267    0.516   90.676    3.698 2253.250
  231.750    0.272    0.532   94.924    3.498 2244.880
  232.000    0.259    0.545   90.671    3.634 2267.850
  232.250    0.265    0.554   87.632    3.997 2257.390
  232.500    0.268    0.530   88.844    4.395 2251.110
  232.750    0.272    0.521   85.198    4.834 2244.830
  233.000    0.284    0.536   84.588    5.119 2223.930
  233.250    0.265    0.538   90.658    5.319 2257.350
  233.500    0.267    0.516   91.263    5.851 2253.160
  233.750    0.273    0.505   90.046    6.195 2242.700
  234.000    0.255    0.488   89.436    6.561 2274.030
  234.250    0.240    0.419   91.862    6.690 2299.090
  234.500    0.246    0.419   91.860    6.695 2288.630
  234.750    0.260    0.447   89.428    6.452 2265.630
  235.000    0.266    0.433   90.033    6.215 2255.180
  235.250    0.267    0.425   91.245    5.450 2253.070
  235.500    0.264    0.437   88.206    4.431 2259.330
  235.750    0.254    0.476   85.775    3.885 2276.040
  236.000    0.251    0.482   85.772    3.407 2280.200
  236.250    0.271    0.496   86.984    2.618 2246.760
  236.500    0.315    0.537   82.123    2.339 2171.520
  236.750    0.317    0.569   79.084    2.212 2167.330
  237.000    0.298    0.545   80.296    2.172 2200.750
  237.250    0.301    0.551   82.115    2.133 2194.470
  237.500    0.312    0.539   79.684    2.135 2175.660
  237.750    0.316    0.535   74.216    2.177 2169.380
  238.000    0.303    0.552   77.250    2.261 2192.350
  238.250    0.306    0.561   82.713    2.395 2186.070
  238.500    0.300    0.580   85.747    2.634 2196.510
  238.750    0.288    0.552   86.959    2.842 2217.390
  239.000    0.273    0.536   83.920    3.126 2242.450
  239.250    0.261    0.530   85.132    3.502 2263.340
  239.500    0.253    0.482   89.380    4.000 2277.950
  239.750    0.239    0.464   90.593    4.655 2300.930
  240.000    0.239    0.465   87.554    5.317 2300.920
  240.250    0.270    0.445   81.478    5.847 2248.660
  240.500    0.271    0.401   76.617    6.075 2246.560
  240.750    0.248    0.381   74.793    6.080 2286.250
  241.000    0.228    0.364   73.576    5.749 2319.680
  241.250    0.209    0.361   82.683    5.136 2353.100
  241.500    0.237    0.447   89.968    4.505 2305.030
  241.750    0.251    0.476   88.143    4.179 2279.940
  242.000    0.245    0.479   87.533    3.735 2290.370
  242.250    0.243    0.474   87.531    3.532 2294.540
  242.500    0.248    0.474   86.921    3.403 2286.170
  242.750    0.256    0.484   89.347    3.341 2271.540
  243.000    0.259    0.526   91.167    3.281 2267.340
  243.250    0.256    0.536   89.342    3.222 2271.510
  243.500    0.254    0.540   88.732    3.224 2275.680
  243.750    0.254    0.523   91.159    3.226 2275.670
  244.000    0.258    0.505   92.371    3.353 2269.390
  244.250    0.261    0.512   92.976    3.484 2263.110
  244.500    0.261    0.528   95.403    3.621 2263.090
  244.750    0.258    0.496   92.971    3.908 2269.350
  245.000    0.254    0.474   94.183    3.984 2275.610
  245.250    0.252    0.520   92.359    4.300 2279.770
  245.500    0.255    0.501   88.106    4.641 2273.500
  245.750    0.267    0.483   84.459    5.008 2252.590
  246.000    0.277    0.473   82.027    5.303 2235.860
  246.250    0.272    0.458   79.596    5.616 2244.210
  246.500    0.266    0.447   85.059    5.835 2254.640
  246.750    0.264    0.445   89.914    5.518 2258.810
  247.000    0.255    0.447   87.482    5.122 2273.430
  247.250    0.258    0.450   84.444    5.124 2269.240
  247.500    0.241    0.468   84.442    5.529 2298.480
  247.750    0.173    0.475   82.617    6.315 2413.400
  248.000    0.134    0.441   77.149    7.077 2480.250
  248.250    0.107    0.397   71.074    7.782 2526.210
  248.500    0.197    0.390   66.213    8.241 2373.660
  248.750    0.252    0.390   66.818    9.237 2279.620
  249.000    0.316    0.290   66.815   10.752 2168.860
  249.250    0.336    0.265   64.383   10.960 2135.410
  249.500    0.335    0.275   63.167   11.390 2137.490
  249.750    0.320    0.299   66.200   10.570 2162.550
  250.000    0.294    0.334   73.786    8.877 2207.490
  250.250    0.296    0.367   75.018    7.218    0.000
  250.500    0.322    0.382   70.151    6.695 2159.410
  250.750    0.421    0.247   57.968    6.954 1989.840
  251.000    0.459    0.078   35.418    9.223 1924.980
  251.250    0.458    0.043   26.895   16.848 1927.120
  251.500    0.438    0.028   26.909   36.456 1960.660
  251.750    0.421    0.038   31.189   56.217 1990.020
  252.000    0.404    0.084   39.737   58.383 2019.380
  252.250    0.399    0.125   49.506   56.234 2027.790
