~VERSION INFORMATION
 VERS.                 2.0:   CWLS LOG ASCII STANDARD -VERSION 2.0
 WRAP.                  NO:   ONE LINE PER DEPTH STEP
~WELL INFORMATION BLOCK
#MNEM.UNIT           DATA                    DESCRIPTION OF MNEMONIC
#---------    -------------------            -------------------------------
# Generated from Intellog Unique Number	CS_77_79/WELL/1007
WELL.         CAVALIER ENERGY INC            : Well_name    - WELL
LOC .         00/11-33-077-17W4/0            : Location     - LOCATION
UWI .         00/11-33-077-17W4/0            : Uwi          - UNIQUE WELL ID
ENTR.         SP                             : Entered      - ENTERED BY
SRVC.         SCHLUMBERGER                   : Scn          - SERVICE COMPANY
STRT.M        182.88                         : top_depth    - START DEPTH
STOP.M        389.88                         : bot_depth    - STOP DEPTH
STEP.M        0.25                           : increment    - STEP LENGTH
 NULL. -999.2500:NULL Value
~CURVE INFORMATION BLOCK
#MNEM UNIT       ERCB CURVE CODE    CURVE DESCRIPTION
#-----------   ------------------   ----------------------------------
DEPT.M        00 001 00 00         : DEPTH        - DEPTH
GR  .API      00 310 00 00         : GR           - GAMMA RAY
DPHI.V/V      00 890 00 00         : PHID         - DENSITY POROSITY (SANDSTONE)
NPHI.V/V      00 330 00 00         : PHIN         - NEUTRON POROSITY (SANDSTONE)
ILD .OHMM     00 120 00 00         : RESD         - DEEP RESISTIVITY (DIL)
~PARAMETER INFORMATION
#MNEM.UNIT           DATA             DESCRIPTION OF MNEMONIC
#---------         -----------     ------------------------------
GL  .M        568.452              : gl           - GROUND LEVEL ELEVATION
EREF.M        571.5                : kb           - ELEVATION OF DEPTH REFERENCE
DATM.M        568.452              : datum        - DATUM ELEVATION
TDD .M        389.839              : tdd          - TOTAL DEPTH DRILLER
RUN .         ONE                  : Run          - RUN NUMBER
ENG .         BILL                 : Engineer     - RECORDING ENGINEER
WIT .         JIM                  : Witness      - WITNESSED BY
MUD .         GEL                  : Mud_type     - MUD TYPE
MATR.         SANDSTONE            : Logunit      - NEUTRON MATRIX
TMAX.C        20                   : BHT          - MAXIMUM RECORDED TEMPERATURE
BHTD.M        389.839              : BHTDEP       - MAXIMUM RECORDED TEMPERATURE
MATR.         1                    : LOGUNIT      - NEUTRON MATRIX
RMT .C        25                   : MDTP         - TEMPERATURE OF MUD
NEUT.         1                    : NEUTRON      - NEUTRON TYPE
RESI.         0                    : RESIST       - RESISTIVITY TYPE
RMC .OHMM     0.25                 : RMC          - RESISTIVITY OF MUD CAKE
RMF .OHMM     0.25                 : RMF          - RESISTIVITY OF MUD FILTRATE
SUFT.C        15                   : SUFT         - SURFACE TEMPERATURE
~A  DEPTH       GR     PHID     PHIN     RESD
# ...
  313.380   92.160    0.259    0.438    5.080
  313.630   90.587    0.263    0.433    5.272
  313.880   89.582    0.259    0.430    5.611
  314.130   88.600    0.254    0.423    5.975
  314.380   87.048    0.250    0.418    6.276
  314.630   85.608    0.248    0.417    6.709
  314.880   81.875    0.253    0.411    7.143
  315.130   80.599    0.262    0.410    7.286
  315.380   77.536    0.270    0.420    7.513
  315.630   75.422    0.260    0.401    7.714
  315.880   72.532    0.250    0.381    7.896
  316.130   68.784    0.285    0.394    8.128
  316.380   67.146    0.310    0.420    8.118
  316.630   64.497    0.314    0.414    7.921
  316.880   63.601    0.323    0.411    7.710
  317.130   63.590    0.322    0.412    7.545
  317.380   62.694    0.334    0.411    7.552
  317.630   64.946    0.328    0.419    7.315
  317.880   65.815    0.329    0.425    7.354
  318.130   66.289    0.324    0.432    7.117
  318.380   65.180    0.324    0.436    7.143
  318.630   64.696    0.327    0.428    6.993
  318.880   62.981    0.333    0.433    6.948
  319.130   61.025    0.329    0.437    6.949
  319.380   60.941    0.332    0.431    6.737
  319.630   62.624    0.328    0.434    6.755
  319.880   63.403    0.331    0.432    6.757
  320.130   63.432    0.339    0.426    6.647
  320.380   62.622    0.348    0.418    6.567
  320.630   62.153    0.344    0.425    6.582
  320.880   62.151    0.334    0.437    6.352
  321.130   62.137    0.334    0.439    6.374
  321.380   62.619    0.342    0.429    6.378
  321.630   62.727    0.348    0.436    6.380
  321.880   62.739    0.353    0.442    6.383
  322.130   63.352    0.350    0.444    6.380
  322.380   63.307    0.354    0.441    6.330
  322.630   63.293    0.352    0.442    6.191
  322.880   63.355    0.344    0.449    6.195
  323.130   62.654    0.340    0.451    6.200
  323.380   62.116    0.336    0.454    6.198
  323.630   61.765    0.330    0.456    6.098
  323.880   61.472    0.331    0.451    6.010
  324.130   61.450    0.337    0.450    6.027
  324.380   61.441    0.342    0.450    5.794
  324.630   61.435    0.340    0.442    5.816
  324.880   61.367    0.341    0.421    5.821
  325.130   62.084    0.339    0.413    5.823
  325.380   62.009    0.338    0.410    5.826
  325.630   60.895    0.338    0.407    5.829
  325.880   58.789    0.334    0.405    5.832
  326.130   58.345    0.334    0.407    5.835
  326.380   60.137    0.342    0.415    5.837
  326.630   63.384    0.345    0.427    5.840
  326.880   64.884    0.343    0.428    5.843
  327.130   63.410    0.343    0.429    5.846
  327.380   61.868    0.347    0.432    5.849
  327.630   61.845    0.342    0.437    5.853
  327.880   63.479    0.335    0.445    5.872
  328.130   63.698    0.329    0.451    5.653
  328.380   63.745    0.323    0.452    5.665
  328.630   62.871    0.327    0.444    5.664
  328.880   61.900    0.333    0.433    5.668
  329.130   60.972    0.339    0.429    5.783
  329.380   59.229    0.328    0.412    6.151
  329.630   58.884    0.306    0.391    6.996
  329.880   57.860    0.280    0.349    8.295
  330.130   57.581    0.236    0.295    9.906
  330.380   57.009    0.167    0.244   11.871
  330.630   56.627    0.126    0.219   13.665
  330.880   53.843    0.093    0.187   14.941
  331.130   51.831    0.075    0.167   15.942
  331.380   50.417    0.060    0.148   16.787
  331.630   49.222    0.039    0.144   16.645
  331.880   49.218    0.046    0.172   15.711
  332.130   50.145    0.072    0.215   13.898
  332.380   52.127    0.098    0.244   11.952
  332.630   54.050    0.121    0.299    9.941
  332.880   56.940    0.145    0.337    8.725
  333.130   62.008    0.203    0.369    7.013
  333.380   63.757    0.290    0.411    6.318
  333.630   65.381    0.325    0.426    5.919
  333.880   65.270    0.325    0.436    5.762
  334.130   65.057    0.326    0.444    5.739
  334.380   64.714    0.326    0.440    5.740
  334.630   65.308    0.323    0.444    5.909
  334.880   65.301    0.319    0.447    6.433
  335.130   64.663    0.312    0.444    6.731
  335.380   63.689    0.305    0.434    7.346
  335.630   62.756    0.299    0.429    8.480
  335.880   60.580    0.278    0.401    9.091
  336.130   59.515    0.214    0.356    9.563
  336.380   58.370    0.172    0.295    9.536
  336.630   55.796    0.145    0.262    8.690
  336.880   55.107    0.240    0.281    7.800
  337.130   54.569    0.297    0.341    6.714
  337.380   59.858    0.308    0.414    6.126
  337.630   62.444    0.307    0.446    5.470
  337.880   65.177    0.311    0.454    5.373
  338.130   65.789    0.317    0.457    5.352
  338.380   65.868    0.316    0.457    5.584
  338.630   66.907    0.313    0.454    5.772
  338.880   66.907    0.314    0.448    5.755
  339.130   66.937    0.321    0.441    6.003
  339.380   66.349    0.319    0.440    5.986
  339.630   65.968    0.330    0.448    5.984
  339.880   66.451    0.333    0.453    5.970
  340.130   68.446    0.339    0.466    5.789
  340.380   69.207    0.332    0.479    5.815
  340.630   66.786    0.324    0.487    5.595
  340.880   66.924    0.321    0.486    5.630
  341.130   66.015    0.321    0.477    5.385
  341.380   65.041    0.316    0.458    5.414
  341.630   64.314    0.312    0.455    5.201
  341.880   64.950    0.306    0.453    5.217
  342.130   64.354    0.293    0.450    5.222
  342.380   66.294    0.294    0.441    5.225
  342.630   71.996    0.287    0.437    5.227
  342.880   74.767    0.274    0.439    5.231
  343.130   76.891    0.265    0.441    5.234
  343.380   78.111    0.272    0.441    5.237
  343.630   78.677    0.271    0.443    5.240
  343.880   77.171    0.272    0.446    5.242
  344.130   76.277    0.270    0.452    5.245
  344.380   77.025    0.273    0.461    5.221
  344.630   78.872    0.275    0.462    5.410
  344.880   80.396    0.275    0.445    5.256
  345.130   81.996    0.269    0.439    5.033
  345.380   82.701    0.261    0.433    5.016
  345.630   83.255    0.260    0.436    4.871
  345.880   84.116    0.249    0.442    4.648
  346.130   88.154    0.226    0.446    4.671
  346.380   91.365    0.232    0.443    4.657
  346.630   96.036    0.235    0.444    4.901
  346.880   99.119    0.232    0.457    4.888
  347.130  100.363    0.221    0.464    5.211
  347.380   99.314    0.235    0.455    5.830
  347.630   97.690    0.238    0.437    6.481
  347.880   94.726    0.212    0.416    7.111
  348.130   91.826    0.209    0.423    7.961
  348.380   87.793    0.219    0.433    8.453
  348.630   82.837    0.223    0.412    8.791
  348.880   78.353    0.197    0.385    9.130
  349.130   74.238    0.162    0.399    9.305
  349.380   77.727    0.191    0.427    9.010
  349.630   80.630    0.204    0.439    8.458
  349.880   84.744    0.219    0.452    8.153
  350.130   86.684    0.218    0.446    7.882
  350.380   85.608    0.220    0.447    7.899
  350.630   85.598    0.234    0.439    7.839
  350.880   86.350    0.237    0.427    7.894
  351.130   88.557    0.234    0.420    8.107
  351.380   89.596    0.227    0.411    8.441
  351.630   88.737    0.223    0.415    8.793
  351.880   86.897    0.196    0.407    9.645
  352.130   84.549    0.175    0.400   10.548
  352.380   84.656    0.151    0.368   11.211
  352.630   85.322    0.092    0.321   12.058
  352.880   81.996    0.082    0.291   12.348
  353.130   79.321    0.139    0.336   12.105
  353.380   82.076    0.159    0.348   11.640
  353.630   87.214    0.160    0.364   10.931
  353.880   89.709    0.185    0.390    9.933
  354.130   90.294    0.197    0.411    9.248
  354.380   89.886    0.202    0.412    9.101
  354.630   87.343    0.208    0.400    8.957
  354.880   88.620    0.206    0.392    8.761
  355.130   91.243    0.201    0.399    8.559
  355.380   95.353    0.201    0.408    8.204
  355.630   97.182    0.202    0.421    7.997
  355.880   97.404    0.197    0.427    7.549
  356.130   97.300    0.196    0.424    7.220
  356.380   98.896    0.212    0.431    6.898
  356.630   99.789    0.214    0.428    6.573
