~VERSION INFORMATION
 VERS.                 2.0:   CWLS LOG ASCII STANDARD -VERSION 2.0
 WRAP.                  NO:   ONE LINE PER DEPTH STEP
~WELL INFORMATION BLOCK
#MNEM.UNIT           DATA                    DESCRIPTION OF MNEMONIC
#---------    -------------------            -------------------------------
# Generated from Intellog Unique Number	CS_73_76/WELL/3230
WELL.         HOME OIL COMPANY LIMITED       : Well_name    - WELL
LOC .         00/10-06-076-07W4/0            : Location     - LOCATION
UWI .         00/10-06-076-07W4/0            : Uwi          - UNIQUE WELL ID
ENTR.         SP                             : Entered      - ENTERED BY
SRVC.         SCHLUMBERGER                   : Scn          - SERVICE COMPANY
STRT.M        237.744                        : top_depth    - START DEPTH
STOP.M        459.994                        : bot_depth    - STOP DEPTH
STEP.M        0.25                           : increment    - STEP LENGTH
 NULL. -999.2500:NULL Value
~CURVE INFORMATION BLOCK
#MNEM UNIT       ERCB CURVE CODE    CURVE DESCRIPTION
#-----------   ------------------   ----------------------------------
DEPT.M        00 001 00 00         : DEPTH        - DEPTH
GR  .API      00 310 00 00         : GR           - GAMMA RAY
DPHI.V/V      00 890 00 00         : PHID         - DENSITY POROSITY (SANDSTONE)
NPHI.V/V      00 330 00 00         : PHIN         - NEUTRON POROSITY (SANDSTONE)
ILD .OHMM     00 120 00 00         : RESD         - DEEP RESISTIVITY (DIL)
~PARAMETER INFORMATION
#MNEM.UNIT           DATA             DESCRIPTION OF MNEMONIC
#---------         -----------     ------------------------------
GL  .M        647.669              : gl           - GROUND LEVEL ELEVATION
EREF.M        651.51               : kb           - ELEVATION OF DEPTH REFERENCE
DATM.M        647.669              : datum        - DATUM ELEVATION
TDD .M        488.899              : tdd          - TOTAL DEPTH DRILLER
RUN .         ONE                  : Run          - RUN NUMBER
ENG .         BILL                 : Engineer     - RECORDING ENGINEER
WIT .         JIM                  : Witness      - WITNESSED BY
MUD .         GEL                  : Mud_type     - MUD TYPE
MATR.         SANDSTONE            : Logunit      - NEUTRON MATRIX
TMAX.C        15                   : BHT          - MAXIMUM RECORDED TEMPERATURE
BHTD.M        488.899              : BHTDEP       - MAXIMUM RECORDED TEMPERATURE
MATR.         1                    : LOGUNIT      - NEUTRON MATRIX
RMT .C        25                   : MDTP         - TEMPERATURE OF MUD
NEUT.         1                    : NEUTRON      - NEUTRON TYPE
RESI.         0                    : RESIST       - RESISTIVITY TYPE
RMC .OHMM     0.25                 : RMC          - RESISTIVITY OF MUD CAKE
RMF .OHMM     0.25                 : RMF          - RESISTIVITY OF MUD FILTRATE
SUFT.C        15                   : SUFT         - SURFACE TEMPERATURE
~A  DEPTH       GR     PHID     PHIN     RESD
# ...
  368.244   64.238    0.259    0.439    5.713
  368.494   64.817    0.277    0.445    5.822
  368.744   65.166    0.288    0.461    5.821
  368.994   65.442    0.277    0.448    5.806
  369.244   64.920    0.285    0.439    5.809
  369.494   63.619    0.282    0.435    5.824
  369.744   62.266    0.271    0.428    5.830
  369.994   60.586    0.271    0.419    6.125
  370.244   60.256    0.253    0.409    6.202
  370.494   60.530    0.247    0.395    6.280
  370.744   60.925    0.241    0.387    6.197
  370.994   61.098    0.251    0.393    6.165
  371.244   61.086    0.248    0.400    6.161
  371.494   62.072    0.255    0.403    6.170
  371.744   63.045    0.262    0.408    6.012
  371.994   64.034    0.283    0.422    5.929
  372.244   65.072    0.276    0.437    5.883
  372.494   65.308    0.273    0.448    5.698
  372.744   64.823    0.281    0.458    5.439
  372.994   63.706    0.265    0.425    5.305
  373.244   64.091    0.247    0.407    5.204
  373.494   63.975    0.237    0.402    5.475
  373.744   64.708    0.235    0.406    5.587
  373.994   64.636    0.251    0.410    5.396
  374.244   64.957    0.268    0.419    5.582
  374.494   65.827    0.263    0.416    5.646
  374.744   66.908    0.245    0.403    5.925
  374.994   69.972    0.238    0.406    5.996
  375.244   71.311    0.243    0.416    5.881
  375.494   70.736    0.240    0.419    5.605
  375.744   69.154    0.254    0.401    5.553
  375.994   67.513    0.248    0.398    5.504
  376.244   67.453    0.226    0.414    5.678
  376.494   67.807    0.229    0.416    5.823
  376.744   68.190    0.253    0.416    5.813
  376.994   68.801    0.261    0.415    5.734
  377.244   68.586    0.253    0.415    5.706
  377.494   68.146    0.254    0.420    5.702
  377.744   68.413    0.260    0.430    5.708
  377.994   69.125    0.263    0.429    5.543
  378.244   68.094    0.270    0.428    5.303
  378.494   68.297    0.261    0.428    5.064
  378.744   70.000    0.251    0.427    5.194
  378.994   69.939    0.268    0.422    5.189
  379.244   68.972    0.251    0.416    5.230
  379.494   68.706    0.238    0.417    5.284
  379.744   67.737    0.248    0.419    5.286
  379.994   67.443    0.249    0.427    5.292
  380.244   68.053    0.256    0.433    5.184
  380.494   68.910    0.272    0.435    5.187
  380.744   71.406    0.286    0.435    5.185
  380.994   71.125    0.277    0.432    5.184
  381.244   69.799    0.273    0.436    5.183
  381.494   69.159    0.268    0.444    5.179
  381.744   69.151    0.265    0.443    5.272
  381.994   69.563    0.253    0.440    5.330
  382.244   69.198    0.245    0.436    5.389
  382.494   69.100    0.245    0.426    5.488
  382.744   69.630    0.253    0.430    5.489
  382.994   68.511    0.263    0.448    5.373
  383.244   67.899    0.258    0.456    5.265
  383.494   67.944    0.244    0.447    5.415
  383.744   67.325    0.228    0.444    5.581
  383.994   67.002    0.243    0.444    5.685
  384.244   68.193    0.252    0.433    5.807
  384.494   69.586    0.263    0.420    5.802
  384.744   71.991    0.267    0.416    5.678
  384.994   72.001    0.260    0.419    5.691
  385.244   71.981    0.239    0.423    5.596
  385.494   73.636    0.223    0.434    5.557
  385.744   78.539    0.221    0.430    5.267
  385.994   85.094    0.199    0.419    5.200
  386.244   90.567    0.161    0.411    5.180
  386.494   92.725    0.172    0.425    5.176
  386.744   92.455    0.171    0.436    5.272
  386.994   93.070    0.155    0.447    5.412
  387.244   94.480    0.153    0.460    5.472
  387.494   94.352    0.154    0.450    5.653
  387.744   92.164    0.158    0.451    5.702
  387.994   95.451    0.161    0.443    5.786
  388.244   98.401    0.162    0.422    5.911
  388.494  101.358    0.159    0.416    5.900
  388.744   99.549    0.166    0.419    5.896
  388.994   94.250    0.173    0.426    5.853
  389.244   93.835    0.178    0.435    5.788
  389.494   94.927    0.177    0.451    5.798
  389.744   94.009    0.190    0.467    5.676
  389.994   91.975    0.204    0.479    5.573
  390.244   89.944    0.218    0.474    5.519
  390.494   88.924    0.231    0.468    5.365
  390.744   91.163    0.239    0.473    5.271
  390.994   90.980    0.223    0.469    5.213
  391.244   89.417    0.222    0.469    5.168
  391.494   87.896    0.229    0.474    5.165
  391.744   84.734    0.239    0.462    5.155
  391.994   86.193    0.239    0.439    5.265
  392.244   93.059    0.234    0.425    5.401
  392.494   95.953    0.196    0.419    5.720
  392.744   95.421    0.161    0.413    5.892
  392.994   92.146    0.162    0.411    5.897
  393.244   92.486    0.157    0.426    5.509
  393.494   95.400    0.174    0.435    5.072
  393.744   97.844    0.163    0.439    4.601
  393.994   97.086    0.178    0.451    3.919
  394.244   93.864    0.172    0.466    3.455
  394.494   90.872    0.184    0.480    3.153
  394.744   87.973    0.204    0.520    2.679
  394.994   86.410    0.220    0.539    2.437
  395.244   85.562    0.207    0.521    2.317
  395.494   86.279    0.216    0.501    2.254
  395.744   85.329    0.202    0.495    2.296
  395.994   82.699    0.202    0.499    2.359
  396.244   81.400    0.180    0.500    2.384
  396.494   82.680    0.189    0.503    2.384
  396.744   85.419    0.207    0.509    2.384
  396.994   87.329    0.228    0.522    2.383
  397.244   88.979    0.236    0.535    2.383
  397.494   90.719    0.219    0.547    2.383
  397.744   92.625    0.195    0.534    2.381
  397.994   95.218    0.164    0.519    2.483
  398.244   97.711    0.176    0.502    2.791
  398.494   96.362    0.181    0.486    3.053
  398.744   97.335    0.179    0.472    3.456
  398.994   98.320    0.162    0.457    3.748
  399.244   96.741    0.139    0.447    4.125
  399.494   92.410    0.149    0.443    4.433
  399.744   89.195    0.161    0.438    4.683
  399.994   87.140    0.143    0.430    5.100
  400.244   87.066    0.125    0.421    5.144
  400.494   92.431    0.108    0.411    5.165
  400.744   96.026    0.120    0.419    4.759
  400.994  101.095    0.129    0.440    4.487
  401.244  101.086    0.134    0.457    4.211
  401.494   99.312    0.141    0.477    4.069
  401.744  100.079    0.148    0.468    4.030
  401.994   97.790    0.120    0.457    4.088
  402.244   95.317    0.139    0.447    4.105
  402.494   93.912    0.136    0.444    4.106
  402.744   94.034    0.149    0.448    3.941
  402.994   95.411    0.171    0.462    3.294
  403.244   96.875    0.132    0.474    2.996
  403.494   97.482    0.121    0.491    2.542
  403.744   98.063    0.141    0.501    2.427
  403.994   97.512    0.156    0.487    2.511
  404.244   96.707    0.157    0.480    2.289
  404.494   98.203    0.154    0.474    2.147
  404.744   99.152    0.142    0.473    1.923
  404.994   98.777    0.146    0.480    1.725
  405.244   98.742    0.163    0.498    1.628
  405.494  101.054    0.154    0.506    1.551
  405.744  100.064    0.133    0.499    1.463
  405.994   98.656    0.194    0.487    1.404
  406.244   97.882    0.162    0.480    1.333
  406.494   99.621    0.157    0.480    1.293
  406.744   99.949    0.160    0.493    1.313
  406.994   97.867    0.170    0.506    1.624
  407.244   92.659    0.174    0.515    1.959
  407.494   90.280    0.168    0.507    2.243
  407.744   89.471    0.161    0.505    2.588
  407.994   92.618    0.159    0.502    2.769
  408.244   96.420    0.164    0.498    2.950
  408.494   98.986    0.156    0.494    3.051
  408.744   99.739    0.170    0.488    3.148
  408.994   99.094    0.172    0.495    3.189
  409.244   99.141    0.161    0.507    3.222
  409.494   98.563    0.175    0.516    3.269
  409.744   98.417    0.183    0.523    3.267
  409.994  100.301    0.190    0.526    3.257
  410.244   98.752    0.166    0.526    3.203
  410.494   95.665    0.159    0.528    3.176
  410.744   94.218    0.158    0.538    3.146
  410.994   96.457    0.159    0.542    2.947
  411.244   96.395    0.155    0.542    2.923
  411.494   95.364    0.149    0.530    2.919
