~VERSION INFORMATION
 VERS.                 2.0:   CWLS LOG ASCII STANDARD -VERSION 2.0
 WRAP.                  NO:   ONE LINE PER DEPTH STEP
~WELL INFORMATION BLOCK
#MNEM.UNIT           DATA                    DESCRIPTION OF MNEMONIC
#---------    -------------------            -------------------------------
# Generated from Intellog Unique Number	CS_77_79/WELL/996
WELL.         NORTHSTAR ET AL THORNBURY      : Well_name    - WELL
LOC .         00/11-18-079-12W4/0            : Location     - LOCATION
UWI .         00/11-18-079-12W4/0            : Uwi          - UNIQUE WELL ID
ENTR.         JHS                            : Entered      - ENTERED BY
SRVC.         SCHLUMBERGER                   : Scn          - SERVICE COMPANY
STRT.M        275                            : top_depth    - START DEPTH
STOP.M        520                            : bot_depth    - STOP DEPTH
STEP.M        0.25                           : increment    - STEP LENGTH
 NULL. -999.2500:NULL Value
~CURVE INFORMATION BLOCK
#MNEM UNIT       ERCB CURVE CODE    CURVE DESCRIPTION
#-----------   ------------------   ----------------------------------
DEPT.M        00 001 00 00         : DEPTH        - DEPTH
DPHI.V/V      00 890 00 00         : PHID         - DENSITY POROSITY (LIMESTONE)
NPHI.V/V      00 330 00 00         : PHIN         - NEUTRON POROSITY (LIMESTONE)
GR  .API      00 310 00 00         : GR           - GAMMA RAY
ILD .OHMM     00 120 00 00         : RESD         - DEEP RESISTIVITY (DIL)
RHOB.KG/M3    00 350 00 00         : DENS         - BULK DENSITY
~PARAMETER INFORMATION
#MNEM.UNIT           DATA             DESCRIPTION OF MNEMONIC
#---------         -----------     ------------------------------
GL  .M        707.3                : gl           - GROUND LEVEL ELEVATION
EREF.M        711.3                : kb           - ELEVATION OF DEPTH REFERENCE
DATM.M        711.3                : datum        - DATUM ELEVATION
TDD .M        526.6                : tdd          - TOTAL DEPTH DRILLER
RUN .         ONE                  : Run          - RUN NUMBER
ENG .         BILL                 : Engineer     - RECORDING ENGINEER
WIT .         JIM                  : Witness      - WITNESSED BY
MUD .         GEL                  : Mud_type     - MUD TYPE
MATR.         LIMESTONE            : Logunit      - NEUTRON MATRIX
TMAX.C        25.1                 : BHT          - MAXIMUM RECORDED TEMPERATURE
BHTD.M        526.6                : BHTDEP       - MAXIMUM RECORDED TEMPERATURE
MATR.         1                    : LOGUNIT      - NEUTRON MATRIX
RMT .C        25                   : MDTP         - TEMPERATURE OF MUD
NEUT.         1                    : NEUTRON      - NEUTRON TYPE
RESI.         0                    : RESIST       - RESISTIVITY TYPE
RMC .OHMM     0.25                 : RMC          - RESISTIVITY OF MUD CAKE
RMF .OHMM     0.25                 : RMF          - RESISTIVITY OF MUD FILTRATE
SUFT.C        15                   : SUFT         - SURFACE TEMPERATURE
~A  DEPTH     PHID     PHIN       GR     RESD     DENS
# ...
  384.500    0.305    0.459   66.931    8.740    0.000
  384.750    0.296    0.462   74.311    6.126    0.000
  385.000    0.283    0.463   81.690    5.081    0.000
  385.250    0.277    0.484   86.611    3.766    0.000
  385.500    0.295    0.514   86.614    3.700    0.000
  385.750    0.288    0.491   82.314    4.469    0.000
  386.000    0.290    0.475   78.627    5.603    0.000
  386.250    0.292    0.481   74.327    7.025    0.000
  386.500    0.295    0.475   78.632    8.171    0.000
  386.750    0.279    0.475   81.709    7.307    0.000
  387.000    0.266    0.486   82.941    5.026    0.000
  387.250    0.252    0.485   89.706    3.868    0.000
  387.500    0.229    0.469   97.086    3.331    0.000
  387.750    0.222    0.486  103.851    2.870    0.000
  388.000    0.223    0.520  106.313    2.665    0.000
  388.250    0.234    0.536  106.316    2.521    0.000
  388.500    0.240    0.547  105.704    2.477    0.000
  388.750    0.236    0.552  106.936    2.433    0.000
  389.000    0.230    0.562  110.626    2.346    0.000
  389.250    0.228    0.580  111.859    2.348    0.000
  389.500    0.235    0.587  108.787    2.442    0.000
  389.750    0.250    0.579  106.331    2.489    0.000
  390.000    0.234    0.587  108.178    2.685    0.000
  390.250    0.238    0.577  107.566    3.008    0.000
  390.500    0.278    0.557  103.881    3.370    0.000
  390.750    0.235    0.556  102.653    3.847    0.000
  391.000    0.266    0.562   98.967    4.391    0.000
  391.250    0.241    0.540   98.970    4.650    0.000
  391.500    0.231    0.511  101.432    4.401    0.000
  391.750    0.235    0.487  106.353    4.165    0.000
  392.000    0.235    0.480  107.584    4.013    0.000
  392.250    0.222    0.479  103.898    4.171    0.000
  392.500    0.219    0.506   99.597    4.587    0.000
  392.750    0.241    0.503   97.141    5.044    0.000
  393.000    0.251    0.495   96.529    5.441    0.000
  393.250    0.257    0.511   94.073    5.872    0.000
  393.500    0.247    0.523   89.157    6.218    0.000
  393.750    0.234    0.490   86.700    6.583    0.000
  394.000    0.233    0.482   84.859    6.972    0.000
  394.250    0.275    0.479   78.100    7.111    0.000
  394.500    0.296    0.475   75.643    6.856    0.000
  394.750    0.296    0.480   80.564    6.247    0.000
  395.000    0.283    0.512   85.484    5.183    0.000
  395.250    0.279    0.498   91.635    4.465    0.000
  395.500    0.267    0.495  104.547    3.846    0.000
  395.750    0.248    0.503  109.468    3.504    0.000
  396.000    0.237    0.522  108.242    3.194    0.000
  396.250    0.230    0.534  108.244    2.966    0.000
  396.500    0.244    0.544  113.164    2.913    0.000
  396.750    0.250    0.551  115.011    2.862    0.000
  397.000    0.244    0.559  111.941    2.707    0.000
  397.250    0.247    0.572  109.484    2.377    0.000
  397.500    0.236    0.586  110.102    1.304    0.000
  397.750    0.224    0.593  110.104    0.730    0.000
  398.000    0.246    0.600  109.492    0.583    0.000
  398.250    0.245    0.572  109.494    0.521    0.000
  398.500    0.247    0.559  107.653    0.563    0.000
  398.750    0.253    0.558  105.812    0.680    0.000
  399.000    0.251    0.553  104.584    1.028    0.000
  399.250    0.237    0.561  100.898    2.061    0.000
  399.500    0.242    0.568   99.671    2.892    0.000
  399.750    0.247    0.545  100.903    3.302    0.000
  400.000    0.236    0.523  103.366    3.432    0.000
  400.250    0.237    0.515  103.984    3.370    0.000
  400.500    0.256    0.520  104.600    3.189    0.000
  400.750    0.236    0.572  104.602    3.132    0.000
  401.000    0.234    0.595  104.605    3.382    0.000
  401.250    0.237    0.592  100.304    3.447    0.000
  401.500    0.220    0.570   97.847    3.720    0.000
  401.750    0.226    0.558   97.236    4.169    0.000
  402.000    0.236    0.542  100.312    4.414    0.000
  402.250    0.237    0.521  106.463    4.674    0.000
  402.500    0.234    0.518  107.695    4.856    0.000
  402.750    0.224    0.520  105.238    4.862    0.000
  403.000    0.258    0.524   96.020    4.866    0.000
  403.250    0.237    0.492   90.490    5.252    0.000
  403.500    0.230    0.482   85.574    5.456    0.000
  403.750    0.263    0.502   80.044    5.888    0.000
  404.000    0.285    0.515   78.201    6.235    0.000
  404.250    0.290    0.459   82.508    6.728    0.000
  404.500    0.291    0.443   84.354    7.125    0.000
  404.750    0.276    0.434   86.202    7.404    0.000
  405.000    0.232    0.425   84.974    7.552    0.000
  405.250    0.226    0.443   83.134    7.564    0.000
  405.500    0.240    0.482   83.750    7.428    0.000
  405.750    0.262    0.463   85.598    7.294    0.000
  406.000    0.268    0.454   84.986    7.168    0.000
  406.250    0.276    0.466   84.988    7.039    0.000
  406.500    0.257    0.465   89.294    6.788    0.000
  406.750    0.251    0.469   94.215    6.668    0.000
  407.000    0.238    0.480   94.832    6.674    0.000
  407.250    0.220    0.470   95.450    6.805    0.000
  407.500    0.235    0.456   96.681    6.813    0.000
  407.750    0.236    0.449   98.529    6.821    0.000
  408.000    0.230    0.445   95.457    6.701    0.000
  408.250    0.231    0.449   91.771    6.339    0.000
  408.500    0.243    0.474   94.233    6.110    0.000
  408.750    0.254    0.493   93.620    6.003    0.000
  409.000    0.259    0.498   89.934    6.010    0.000
  409.250    0.273    0.516   89.323    6.015    0.000
  409.500    0.268    0.496   95.473    6.137    0.000
  409.750    0.264    0.474   95.476    6.257    0.000
  410.000    0.268    0.469   93.019    6.383    0.000
  410.250    0.268    0.481   92.408    6.511    0.000
  410.500    0.248    0.499   93.639    6.514    0.000
  410.750    0.240    0.480   94.257    6.520    0.000
  411.000    0.231    0.469   91.800    6.527    0.000
  411.250    0.247    0.472   87.500    6.536    0.000
  411.500    0.237    0.478   87.501    6.418    0.000
  411.750    0.232    0.470   89.963    6.305    0.000
  412.000    0.241    0.467   91.196    6.312    0.000
  412.250    0.248    0.476   90.585    6.317    0.000
  412.500    0.237    0.483   89.971    6.326    0.000
  412.750    0.231    0.482   88.746    6.449    0.000
  413.000    0.241    0.456   88.132    6.458    0.000
  413.250    0.259    0.442   89.365    6.462    0.000
  413.500    0.243    0.434   93.055    6.231    0.000
  413.750    0.237    0.435   91.215    6.006    0.000
  414.000    0.237    0.450   91.832    5.899    0.000
  414.250    0.221    0.457   94.293    5.906    0.000
  414.500    0.226    0.473   94.296    5.802    0.000
  414.750    0.249    0.476   93.069    5.593    0.000
  415.000    0.252    0.460   94.302    5.194    0.000
  415.250    0.252    0.445   95.533    4.823    0.000
  415.500    0.266    0.453   99.225    4.394    0.000
  415.750    0.251    0.457   97.383    3.858    0.000
  416.000    0.237    0.471   94.926    3.718    0.000
  416.250    0.224    0.487   94.930    3.452    0.000
  416.500    0.219    0.505   96.776    3.392    0.000
  416.750    0.230    0.527   97.394    3.661    0.000
  417.000    0.253    0.557   96.168    3.876    0.000
  417.250    0.257    0.539   94.940    4.104    0.000
  417.500    0.232    0.537   92.483    4.514    0.000
  417.750    0.230    0.530   91.871    4.779    0.000
  418.000    0.239    0.508   93.104    5.158    0.000
  418.250    0.244    0.511   93.107    5.259    0.000
  418.500    0.264    0.501   94.338    5.569    0.000
  418.750    0.255    0.457   97.415    5.574    0.000
  419.000    0.232    0.446   99.263    5.376    0.000
  419.250    0.243    0.450   99.879    5.085    0.000
  419.500    0.242    0.459   98.651    4.812    0.000
  419.750    0.221    0.464   95.580    4.907    0.000
  420.000    0.204    0.468   98.658    5.100    0.000
  420.250    0.226    0.499  101.119    5.299    0.000
  420.500    0.249    0.505  100.506    5.721    0.000
  420.750    0.241    0.487   98.665    5.943    0.000
