~VERSION INFORMATION
 VERS.                 2.0:   CWLS LOG ASCII STANDARD -VERSION 2.0
 WRAP.                  NO:   ONE LINE PER DEPTH STEP
~WELL INFORMATION BLOCK
#MNEM.UNIT           DATA                    DESCRIPTION OF MNEMONIC
#---------    -------------------            -------------------------------
# Generated from Intellog Unique Number	CW_70_72/WELL/1063
NULL.         -999.25                        : NULL_VALUE
WELL.         JOFFRE ET AL CALLW 11-35       : Well_name    - WELL              
LOC .         11-35-072-20W4                 : Location     - LOCATION          
UWI .         00/11-35-072-20W4/0            : Uwi          - UNIQUE WELL ID    
ENTR.         JAYE                           : Entered      - ENTERED BY        
SRVC.         SCHLUMBERGER                   : Scn          - SERVICE COMPANY   
DATE.         5 JAN 79                       : Date         - LOG DATE          
STRT.M        355                            : top_depth    - START DEPTH       
STOP.M        565                            : bot_depth    - STOP DEPTH        
STEP.M        0.25                           : increment    - STEP LENGTH       
~CURVE INFORMATION BLOCK
#MNEM UNIT       ERCB CURVE CODE    CURVE DESCRIPTION
#-----------   ------------------   ----------------------------------
DEPT.M        00 001 00 00         : DEPTH        - DEPTH                       
DPHI.V/V      00 890 00 00         : PHID         - DENSITY POROSITY (SANDSTONE)
NPHI.V/V      00 330 00 00         : PHIN         - NEUTRON POROSITY (SANDSTONE)
GR  .API      00 310 00 00         : GR           - GAMMA RAY                   
CALI.MM       00 280 01 00         : CAL          - CALIPER                     
ILD .OHMM     00 120 00 00         : RESD         - DEEP RESISTIVITY (DIL)      
~PARAMETER INFORMATION       
#MNEM.UNIT           DATA             DESCRIPTION OF MNEMONIC
#---------         -----------     ------------------------------
GL  .M        643.2                : gl           - GROUND LEVEL ELEVATION      
EREF.M        646.5                : kb           - ELEVATION OF DEPTH REFERENCE
DATM.M        643.2                : datum        - DATUM ELEVATION             
TDD .M        605                  : tdd          - TOTAL DEPTH DRILLER         
RUN .         ONE                  : Run          - RUN NUMBER                  
WIT .         O'REILY              : Witness      - WITNESSED BY                
BASE.         LLOYD                : Branch       - HOME BASE OF LOGGING UNIT   
MUD .         GEL CHEM             : Mud_type     - MUD TYPE                    
MATR.         SANDSTONE            : Logunit      - NEUTRON MATRIX              
TMAX.C        0                    : BHT          - MAXIMUM RECORDED TEMPERATURE
BHTD.M        604.5                : BHTDEP       - MAXIMUM RECORDED TEMPERATURE
RMT .C        10                   : MDTP         - TEMPERATURE OF MUD          
MUDD.KG/M     1102                 : MWT          - MUD DENSITY                 
NEUT.         1                    : NEUTRON      - NEUTRON TYPE                
RESI.         0                    : RESIST       - RESISTIVITY TYPE            
RM  .OHMM     5.21                 : RM           - RESISTIVITY OF MUD          
RMC .OHMM     0                    : RMC          - RESISTIVITY OF MUD CAKE     
RMF .OHMM     3.6                  : RMF          - RESISTIVITY OF MUD FILTRATE 
SUFT.C        0                    : SUFT         - SURFACE TEMPERATURE         
~A  DEPTH     PHID     PHIN       GR      CAL     RESD
  355.000    0.206    0.497  153.950  175.064    3.264
  355.250    0.216    0.490  149.146  175.281    3.239
  355.500    0.223    0.485  147.796  176.322    3.243
  355.750    0.225    0.481  148.235  178.184    3.284
  356.000    0.201    0.486  149.662  180.046    3.313
  356.250    0.198    0.483  149.483  181.188    3.192
  356.500    0.218    0.474  149.305  181.716    3.126
  356.750    0.228    0.481  148.943  182.139    3.142
  357.000    0.240    0.499  147.470  182.252    3.235
  357.250    0.234    0.461  145.071  180.928    3.380
  357.500    0.233    0.428  141.254  178.574    3.685
  357.750    0.235    0.401  140.644  174.785    4.318
  358.000    0.229    0.383  141.947  171.607    5.004
  358.250    0.232    0.374  139.425  166.480    5.557
  358.500    0.245    0.380  134.066  162.687    5.959
  358.750    0.260    0.395  132.716  159.411    6.034
  359.000    0.261    0.409  135.560  157.163    6.009
  359.250    0.241    0.405  141.303  156.145    5.940
  359.500    0.249    0.391  144.580  156.465    5.839
  359.750    0.244    0.396  142.181  155.552    5.751
  360.000    0.229    0.406  139.660  155.255    5.675
  360.250    0.217    0.412  143.060  156.808    5.620
  360.500    0.199    0.416  144.608  158.979    5.535
  360.750    0.225    0.417  145.356  160.738    5.462
  361.000    0.229    0.419  145.054  163.217    5.410
  361.250    0.221    0.421  145.061  169.500    5.417
  361.500    0.221    0.415  145.993  173.726    5.465
  361.750    0.208    0.423  147.728  173.947    5.533
  362.000    0.230    0.420  149.277  175.909    5.656
  362.250    0.231    0.407  146.200  170.576    5.758
  362.500    0.232    0.394  141.952  165.757    5.873
  362.750    0.234    0.407  142.576  166.693    5.969
  363.000    0.239    0.425  144.001  168.555    5.762
  363.250    0.249    0.420  146.599  169.801    5.580
  363.500    0.242    0.403  149.443  163.027    5.405
  363.750    0.242    0.423  150.808  164.273    5.206
  364.000    0.222    0.441  149.580  169.116    5.147
  364.250    0.246    0.440  147.305  173.446    5.191
  364.500    0.240    0.431  146.450  175.000    5.356
  364.750    0.246    0.423  146.395  174.601    5.534
  365.000    0.243    0.410  151.768  169.472    5.826
  365.250    0.239    0.390  167.009  160.746    6.053
  365.500    0.246    0.368  176.269  162.096    6.419
  365.750    0.216    0.361  176.152  165.088    6.719
  366.000    0.212    0.373  173.568  173.221    6.956
  366.250    0.222    0.385  167.469  176.933    6.980
  366.500    0.232    0.396  165.257  175.197    6.925
  366.750    0.236    0.402  162.241  166.575    6.897
  367.000    0.224    0.407  156.636  164.222    6.881
  367.250    0.201    0.396  151.770  168.037    6.904
  367.500    0.182    0.377  143.328  172.572    6.964
  367.750    0.151    0.357  142.842  168.678    7.013
  368.000    0.123    0.375  147.104  170.952    7.049
  368.250    0.126    0.385  150.256  175.075    6.993
  368.500    0.153    0.392  151.251  177.863    6.863
  368.750    0.173    0.401  151.566  182.501    6.745
  369.000    0.191    0.400  149.538  185.596    6.619
  369.250    0.204    0.390  147.016  186.739    6.449
  369.500    0.219    0.393  145.728  187.676    6.317
  369.750    0.204    0.399  146.661  188.098    6.221
  370.000    0.208    0.404  147.099  184.410    6.148
  370.250    0.189    0.397  149.080  178.048    6.044
  370.500    0.199    0.388  153.281  173.434    6.019
  370.750    0.185    0.379  153.412  174.064    6.039
  371.000    0.175    0.389  151.754  174.897    6.059
  371.250    0.184    0.396  147.258  175.834    6.112
  371.500    0.203    0.387  144.058  178.107    6.269
  371.750    0.212    0.383  144.928  183.670    6.466
  372.000    0.196    0.390  149.315  185.533    6.559
  372.250    0.195    0.403  153.516  182.256    6.593
  372.500    0.191    0.415  154.819  182.267    6.603
  372.750    0.177    0.422  155.257  182.690    6.611
  373.000    0.166    0.417  153.784  181.366    6.598
  373.250    0.177    0.400  151.324  176.854    6.569
  373.500    0.186    0.398  147.631  175.325    6.579
  373.750    0.200    0.399  142.950  172.458    6.723
  374.000    0.212    0.402  140.182  167.844    6.896
  374.250    0.201    0.405  150.489  165.492    7.087
  374.500    0.189    0.411  147.598  169.205    7.165
  374.750    0.204    0.412  143.225  170.758    7.239
  375.000    0.212    0.405  138.915  168.508    7.290
  375.250    0.223    0.392  137.627  164.100    7.409
  375.500    0.223    0.384  139.547  160.513    7.545
  375.750    0.216    0.384  142.082  158.880    7.598
  376.000    0.204    0.396  145.173  162.490    7.525
  376.250    0.195    0.413  148.942  170.007    7.368
  376.500    0.197    0.426  152.342  175.261    7.045
  376.750    0.173    0.428  150.253  176.610    6.737
  377.000    0.185    0.422  147.175  176.109    6.709
  377.250    0.171    0.404  143.543  175.503    6.571
  377.500    0.181    0.386  137.629  174.692    6.283
  377.750    0.193    0.373  138.006  172.546    6.109
  378.000    0.205    0.376  136.533  170.091    6.105
  378.250    0.218    0.398  134.259  168.251    6.149
  378.500    0.241    0.412  130.750  172.170    6.533
  378.750    0.259    0.417  131.189  172.490    7.176
  379.000    0.264    0.417  136.006  163.866    7.681
  379.250    0.266    0.429  137.741  163.570    8.128
  379.500    0.271    0.430  136.576  166.460    8.619
  379.750    0.272    0.422  133.315  163.287    9.040
  380.000    0.278    0.426  130.299  161.961    9.515
  380.250    0.286    0.440  125.372  161.049    9.743
  380.500    0.298    0.465  121.123  160.238    9.437
  380.750    0.303    0.459  120.699  160.866    9.209
  381.000    0.299    0.447  121.939  162.625    9.292
  381.250    0.293    0.435  125.709  164.694    9.691
  381.500    0.282    0.417  128.554  164.500   10.642
  381.750    0.278    0.422  129.856  163.277   11.756
  382.000    0.283    0.430  127.334  161.852   12.511
  382.250    0.277    0.432  129.315  161.347   12.739
  382.500    0.273    0.435  131.481  161.566   12.184
  382.750    0.275    0.445  134.756  162.297   11.585
  383.000    0.263    0.434  136.367  163.543   10.852
  383.250    0.244    0.435  135.696  166.124    9.946
  383.500    0.235    0.437  134.901  168.911    9.267
  383.750    0.246    0.447  136.203  169.540    8.635
  384.000    0.257    0.459  137.814  167.805    7.987
  384.250    0.269    0.475  136.897  165.968    7.496
  384.500    0.277    0.473  133.943  164.847    7.168
  384.750    0.280    0.465  137.404  162.803    6.982
  385.000    0.279    0.462  141.298  161.788    6.978
  385.250    0.255    0.461  143.339  162.313    7.292
  385.500    0.255    0.460  145.505  164.586    7.507
  385.750    0.253    0.454  151.804  166.448    7.643
  386.000    0.254    0.452  153.353  170.264    7.528
  386.250    0.239    0.449  153.360  172.434    7.185
  386.500    0.246    0.441  154.539  170.699    6.757
  386.750    0.247    0.431  159.048  166.496    6.285
  387.000    0.245    0.433  167.012  161.574    5.954
  387.250    0.240    0.438  172.200  163.127    5.809
  387.500    0.233    0.440  166.903  168.998    5.949
  387.750    0.241    0.439  157.596  175.898    6.112
  388.000    0.258    0.434  148.660  174.265    6.282
  388.250    0.272    0.426  140.402  169.549    6.372
  388.500    0.255    0.411  138.498  160.617    6.406
  388.750    0.241    0.422  143.870  160.937    6.415
  389.000    0.223    0.443  148.997  162.491    6.518
  389.250    0.209    0.475  154.864  163.633    6.589
  389.500    0.222    0.512  160.422  162.925    6.720
  389.750    0.224    0.527  167.954  163.452    6.971
  390.000    0.236    0.538  170.428  171.070    7.163
  390.250    0.244    0.517  169.448  183.933    6.863
  390.500    0.260    0.510  163.349  187.234    6.208
  390.750    0.267    0.519  150.466  176.658    5.382
  391.000    0.276    0.510  143.503  169.987    4.666
  391.250    0.273    0.496  139.871  161.672    4.097
