~VERSION INFORMATION
 VERS.                 2.0:   CWLS LOG ASCII STANDARD -VERSION 2.0
 WRAP.                  NO:   ONE LINE PER DEPTH STEP
~WELL INFORMATION BLOCK
#MNEM.UNIT           DATA                    DESCRIPTION OF MNEMONIC
#---------    -------------------            -------------------------------
# Generated from Intellog Unique Number	CS_67_68/WELL/804
WELL.         DOME PETROLEUM LIMITED         : Well_name    - WELL
LOC .         00/10-08-068-02W4/0            : Location     - LOCATION
UWI .         00/10-08-068-02W4/0            : Uwi          - UNIQUE WELL ID
ENTR.         SP                             : Entered      - ENTERED BY
SRVC.         SCHLUMBERGER                   : Scn          - SERVICE COMPANY
STRT.M        410                            : top_depth    - START DEPTH
STOP.M        665                            : bot_depth    - STOP DEPTH
STEP.M        0.25                           : increment    - STEP LENGTH
 NULL. -999.2500:NULL Value
~CURVE INFORMATION BLOCK
#MNEM UNIT       ERCB CURVE CODE    CURVE DESCRIPTION
#-----------   ------------------   ----------------------------------
DEPT.M        00 001 00 00         : DEPTH        - DEPTH
ILD .OHMM     00 120 00 00         : RESD         - DEEP RESISTIVITY (DIL)
DPHI.V/V      00 890 00 00         : PHID         - DENSITY POROSITY (LIMESTONE)
NPHI.V/V      00 330 00 00         : PHIN         - NEUTRON POROSITY (LIMESTONE)
GR  .API      00 310 00 00         : GR           - GAMMA RAY
~PARAMETER INFORMATION
#MNEM.UNIT           DATA             DESCRIPTION OF MNEMONIC
#---------         -----------     ------------------------------
GL  .M        743.94               : gl           - GROUND LEVEL ELEVATION
EREF.M        746.86               : kb           - ELEVATION OF DEPTH REFERENCE
DATM.M        743.94               : datum        - DATUM ELEVATION
TDD .M        667                  : tdd          - TOTAL DEPTH DRILLER
RUN .         ONE                  : Run          - RUN NUMBER
ENG .         BILL                 : Engineer     - RECORDING ENGINEER
WIT .         JIM                  : Witness      - WITNESSED BY
MUD .         GEL                  : Mud_type     - MUD TYPE
MATR.         LIMESTONE            : Logunit      - NEUTRON MATRIX
TMAX.C        31                   : BHT          - MAXIMUM RECORDED TEMPERATURE
BHTD.M        667                  : BHTDEP       - MAXIMUM RECORDED TEMPERATURE
MATR.         1                    : LOGUNIT      - NEUTRON MATRIX
RMT .C        25                   : MDTP         - TEMPERATURE OF MUD
NEUT.         1                    : NEUTRON      - NEUTRON TYPE
RESI.         0                    : RESIST       - RESISTIVITY TYPE
RMC .OHMM     0.25                 : RMC          - RESISTIVITY OF MUD CAKE
RMF .OHMM     0.25                 : RMF          - RESISTIVITY OF MUD FILTRATE
SUFT.C        15                   : SUFT         - SURFACE TEMPERATURE
~A  DEPTH     RESD     PHID     PHIN       GR
# ...
  627.500    5.513    0.308    0.376   61.946
  627.750    5.702    0.283    0.377   74.398
  628.000    5.746    0.271    0.363   77.069
  628.250    5.610    0.291    0.358   70.626
  628.500    5.643    0.313    0.357   64.184
  628.750    5.761    0.287    0.383   68.374
  629.000    5.948    0.268    0.399   74.143
  629.250    6.130    0.259    0.392   77.118
  629.500    6.247    0.252    0.383   84.102
  629.750    6.401    0.261    0.380   81.002
  630.000    6.573    0.275    0.393   71.036
  630.250    6.636    0.287    0.385   64.108
  630.500    6.625    0.266    0.360   70.181
  630.750    6.676    0.243    0.347   79.474
  631.000    6.728    0.228    0.352   81.902
  631.250    6.856    0.330    0.390   67.440
  631.500    6.807    0.350    0.407   57.231
  631.750    6.498    0.328    0.394   50.425
  632.000    6.285    0.299    0.383   43.618
  632.250    6.287    0.286    0.376   58.196
  632.500    6.324    0.272    0.372   67.550
  632.750    6.384    0.259    0.368   74.717
  633.000    6.567    0.252    0.369   79.697
  633.250    6.870    0.264    0.370   81.091
  633.500    7.066    0.272    0.370   78.598
  633.750    7.254    0.280    0.373   76.652
  634.000    7.203    0.272    0.376   78.655
  634.250    7.058    0.252    0.379   82.054
  634.500    6.891    0.238    0.371   83.267
  634.750    6.566    0.241    0.365   81.807
  635.000    6.304    0.265    0.381   76.641
  635.250    6.063    0.292    0.392   67.039
  635.500    5.997    0.309    0.361   59.989
  635.750    6.089    0.281    0.340   66.002
  636.000    6.228    0.267    0.356   76.936
  636.250    6.311    0.281    0.377   83.798
  636.500    6.266    0.305    0.390   65.266
  636.750    5.993    0.324    0.373   56.698
  637.000    5.574    0.334    0.360   53.415
  637.250    5.272    0.320    0.356   50.132
  637.500    5.099    0.344    0.365   44.418
  637.750    4.979    0.357    0.364   40.407
  638.000    4.934    0.360    0.363   56.747
  638.250    4.907    0.358    0.362   69.017
  638.500    4.927    0.356    0.356   71.506
  638.750    5.030    0.355    0.346   57.470
  639.000    5.155    0.355    0.352   50.116
  639.250    5.263    0.356    0.369   47.198
  639.500    5.274    0.354    0.376   46.406
  639.750    5.295    0.351    0.378   44.034
  640.000    5.316    0.347    0.362   42.513
  640.250    5.317    0.335    0.347   48.282
  640.500    5.309    0.323    0.336   52.715
  640.750    5.410    0.298    0.339   60.124
  641.000    5.691    0.269    0.353   67.169
  641.250    6.008    0.253    0.366   74.579
  641.500    6.204    0.269    0.373   78.830
  641.750    6.228    0.277    0.382   76.337
  642.000    6.104    0.276    0.398   73.357
  642.250    5.981    0.293    0.391   63.088
  642.500    5.742    0.314    0.372   54.337
  642.750    5.574    0.320    0.365   51.783
  643.000    5.514    0.285    0.360   68.670
  643.250    5.536    0.255    0.377   75.533
  643.500    5.589    0.242    0.401   77.900
  643.750    5.538    0.277    0.411   68.968
  644.000    5.327    0.339    0.393   54.263
  644.250    4.964    0.361    0.373   46.545
  644.500    4.625    0.369    0.359   37.916
  644.750    4.465    0.371    0.353   33.600
  645.000    4.508    0.359    0.349   32.747
  645.250    4.629    0.353    0.346   35.539
  645.500    4.699    0.352    0.344   37.360
  645.750    4.843    0.351    0.342   36.811
  646.000    4.889    0.344    0.338   35.776
  646.250    4.918    0.342    0.336   35.956
  646.500    4.938    0.344    0.339   35.954
  646.750    4.976    0.346    0.333   35.708
  647.000    5.042    0.342    0.328   35.281
  647.250    5.129    0.327    0.325   34.671
  647.500    5.207    0.320    0.323   33.818
  647.750    5.297    0.322    0.319   32.357
  648.000    5.378    0.328    0.317   30.594
  648.250    5.390    0.336    0.321   30.531
  648.500    5.401    0.340    0.324   32.229
  648.750    5.452    0.335    0.321   33.381
  649.000    5.525    0.331    0.313   34.047
  649.250    5.834    0.329    0.306   34.228
  649.500    5.695    0.330    0.309   33.800
  649.750    5.783    0.336    0.319   33.859
  650.000    5.784    0.340    0.328   34.707
  650.250    5.753    0.339    0.334   37.742
  650.500    5.722    0.327    0.335   39.623
  650.750    5.618    0.333    0.335   40.897
  651.000    5.505    0.351    0.339   37.189
  651.250    5.476    0.363    0.346   31.111
  651.500    5.447    0.359    0.351   31.595
  651.750    5.428    0.352    0.344   34.205
  652.000    5.470    0.346    0.334   36.025
  652.250    5.512    0.339    0.325   36.874
  652.500    5.617    0.332    0.321   36.628
  652.750    5.703    0.327    0.319   34.499
  653.000    5.812    0.323    0.317   34.194
  653.250    5.857    0.321    0.309   34.981
  653.500    5.793    0.319    0.306   35.465
  653.750    5.719    0.312    0.309   35.159
  654.000    5.646    0.310    0.311   34.063
  654.250    5.595    0.322    0.310   33.757
  654.500    5.514    0.322    0.311   34.848
  654.750    5.423    0.313    0.318   34.238
  655.000    5.395    0.320    0.321   32.170
  655.250    5.356    0.342    0.322   28.827
  655.500    5.317    0.365    0.353   25.119
  655.750    5.230    0.384    0.388   24.145
  656.000    5.173    0.377    0.396   29.245
  656.250    5.107    0.369    0.362   29.000
  656.500    5.099    0.358    0.341   24.259
  656.750    5.129    0.350    0.329   20.976
  657.000    5.188    0.343    0.319   20.974
  657.250    5.296    0.336    0.314   22.187
  657.500    5.489    0.329    0.311   22.488
  657.750    5.785    0.326    0.307   23.032
  658.000    6.096    0.328    0.305   24.367
  658.250    6.681    0.303    0.318   27.342
  658.500    7.934    0.246    0.343   29.102
  658.750    8.842    0.206    0.369   27.155
  659.000   10.499    0.165    0.351   26.302
  659.250   12.679    0.113    0.291   26.118
  659.500   14.078    0.072    0.255   24.536
  659.750   15.285    0.039    0.222   21.071
  660.000   16.877    0.020    0.202   19.367
  660.250   18.985    0.051    0.218   19.365
  660.500   21.398    0.078    0.239   18.451
  660.750   24.252    0.085    0.231   17.356
  661.000   26.978    0.070    0.209   16.017
  661.250   29.789    0.059    0.195   15.346
  661.500   31.805    0.113    0.185   15.830
  661.750   34.022    0.180    0.203   16.861
  662.000   40.854    0.231    0.232   17.709
  662.250   50.169    0.268    0.256   17.221
  662.500   60.581    0.236    0.283   17.157
  662.750   78.090    0.150    0.273   16.973
  663.000   94.826    0.082    0.247   17.153
  663.250  119.974    0.046    0.223   17.515
  663.500  142.465    0.022    0.206   17.391
  663.750  145.997    0.014    0.202   17.389
  664.000  141.474    0.008    0.201   17.266
  664.250  135.570    0.008    0.200   17.567
  664.500  133.595    0.024    0.199   17.565
  664.750  135.384    0.044    0.198   17.441
  665.000  140.298    0.041    0.197   17.135
