~VERSION INFORMATION
 VERS.                 2.0:   CWLS LOG ASCII STANDARD -VERSION 2.0
 WRAP.                  NO:   ONE LINE PER DEPTH STEP
~WELL INFORMATION BLOCK
#MNEM.UNIT           DATA                    DESCRIPTION OF MNEMONIC
#---------    -------------------            -------------------------------
# Generated from Intellog Unique Number	CS_69_70/WELL/866
WELL.         BRALORNE RESOURCES LIMITED     : Well_name    - WELL
LOC .         00/10-12-069-10W4/0            : Location     - LOCATION
UWI .         00/10-12-069-10W4/0            : Uwi          - UNIQUE WELL ID
ENTR.         SP                             : Entered      - ENTERED BY
SRVC.         SCHLUMBERGER                   : Scn          - SERVICE COMPANY
STRT.M        478.536                        : top_depth    - START DEPTH
STOP.M        685.536                        : bot_depth    - STOP DEPTH
STEP.M        0.25                           : increment    - STEP LENGTH
 NULL. -999.2500:NULL Value
~CURVE INFORMATION BLOCK
#MNEM UNIT       ERCB CURVE CODE    CURVE DESCRIPTION
#-----------   ------------------   ----------------------------------
DEPT.M        00 001 00 00         : DEPTH        - DEPTH
GR  .API      00 310 00 00         : GR           - GAMMA RAY
DPHI.V/V      00 890 00 00         : PHID         - DENSITY POROSITY (SANDSTONE)
NPHI.V/V      00 330 00 00         : PHIN         - NEUTRON POROSITY (SANDSTONE)
ILD .OHMM     00 120 00 00         : RESD         - DEEP RESISTIVITY (DIL)
~PARAMETER INFORMATION
#MNEM.UNIT           DATA             DESCRIPTION OF MNEMONIC
#---------         -----------     ------------------------------
GL  .M        798.119              : gl           - GROUND LEVEL ELEVATION
EREF.M        801.624              : kb           - ELEVATION OF DEPTH REFERENCE
DATM.M        798.119              : datum        - DATUM ELEVATION
TDD .M        687.019              : tdd          - TOTAL DEPTH DRILLER
RUN .         ONE                  : Run          - RUN NUMBER
ENG .         BILL                 : Engineer     - RECORDING ENGINEER
WIT .         JIM                  : Witness      - WITNESSED BY
MUD .         GEL                  : Mud_type     - MUD TYPE
MATR.         SANDSTONE            : Logunit      - NEUTRON MATRIX
TMAX.C        20                   : BHT          - MAXIMUM RECORDED TEMPERATURE
BHTD.M        687.019              : BHTDEP       - MAXIMUM RECORDED TEMPERATURE
MATR.         1                    : LOGUNIT      - NEUTRON MATRIX
RMT .C        25                   : MDTP         - TEMPERATURE OF MUD
NEUT.         1                    : NEUTRON      - NEUTRON TYPE
RESI.         0                    : RESIST       - RESISTIVITY TYPE
RMC .OHMM     0.25                 : RMC          - RESISTIVITY OF MUD CAKE
RMF .OHMM     0.25                 : RMF          - RESISTIVITY OF MUD FILTRATE
SUFT.C        15                   : SUFT         - SURFACE TEMPERATURE
~A  DEPTH       GR     PHID     PHIN     RESD
# ...
  565.536   71.453    0.242    0.425    6.135
  565.786   72.465    0.246    0.427    6.450
  566.036   73.979    0.268    0.454    6.589
  566.286   75.766    0.284    0.467    6.626
  566.536   78.297    0.283    0.460    6.585
  566.786   80.704    0.284    0.455    6.387
  567.036   81.267    0.286    0.451    6.243
  567.286   78.981    0.286    0.456    6.143
  567.536   77.913    0.287    0.470    6.161
  567.786   77.487    0.289    0.476    6.211
  568.036   77.569    0.294    0.468    6.240
  568.286   77.312    0.298    0.463    6.245
  568.536   76.886    0.305    0.460    6.232
  568.786   76.713    0.298    0.456    6.216
  569.036   78.902    0.291    0.457    6.171
  569.286   81.506    0.281    0.460    6.156
  569.536   84.594    0.275    0.467    6.128
  569.786   87.582    0.264    0.473    6.136
  570.036   88.861    0.257    0.464    6.109
  570.286   88.025    0.264    0.457    6.120
  570.536   83.859    0.256    0.462    6.130
  570.786   82.920    0.264    0.468    6.135
  571.036   82.877    0.265    0.457    6.157
  571.286   83.078    0.253    0.447    6.161
  571.536   83.689    0.246    0.442    6.166
  571.786   84.843    0.256    0.446    6.170
  572.036   85.711    0.245    0.447    6.176
  572.286   86.490    0.239    0.447    6.180
  572.536   87.010    0.244    0.452    6.205
  572.786   87.623    0.250    0.460    6.209
  573.036   88.345    0.258    0.452    6.215
  573.286   90.076    0.269    0.446    6.181
  573.536   93.414    0.274    0.439    6.166
  573.786   96.656    0.272    0.439    6.127
  574.036   99.731    0.244    0.452    6.102
  574.286  102.558    0.220    0.457    6.097
  574.536  101.370    0.200    0.446    6.199
  574.786   98.833    0.187    0.440    6.387
  575.036   96.894    0.189    0.438    6.781
  575.286   95.061    0.186    0.437    7.099
  575.536   93.782    0.183    0.433    7.312
  575.786   95.412    0.182    0.426    7.597
  576.036   97.499    0.177    0.418    7.780
  576.286   99.486    0.188    0.426    7.655
  576.536   97.231    0.199    0.435    7.313
  576.786   94.751    0.213    0.440    6.937
  577.036   94.086    0.223    0.446    6.524
  577.286   95.414    0.209    0.461    6.370
  577.536   96.845    0.188    0.440    6.229
  577.786   97.924    0.176    0.425    6.198
  578.036   98.172    0.175    0.421    6.233
  578.286   97.651    0.168    0.427    6.234
  578.536   98.256    0.175    0.433    5.984
  578.786   99.826    0.183    0.451    5.677
  579.036  100.808    0.189    0.467    5.114
  579.286  101.834    0.193    0.480    4.775
  579.536  102.142    0.192    0.490    4.556
  579.786  101.266    0.182    0.467    4.591
  580.036  100.925    0.176    0.447    4.779
  580.286  102.210    0.178    0.455    5.019
  580.536  103.303    0.182    0.454    5.253
  580.786  103.953    0.191    0.460    5.335
  581.036  103.583    0.194    0.462    5.322
  581.286  104.039    0.190    0.476    5.255
  581.536  106.822    0.180    0.482    5.161
  581.786  109.153    0.171    0.486    5.045
  582.036  110.887    0.166    0.494    4.892
  582.286  110.538    0.166    0.476    4.789
  582.536  108.384    0.169    0.462    4.625
  582.786  106.314    0.179    0.447    4.426
  583.036  104.849    0.189    0.456    4.123
  583.286  103.125    0.195    0.464    3.769
  583.536  103.415    0.202    0.469    3.363
  583.786  106.276    0.186    0.480    3.195
  584.036  107.803    0.177    0.501    2.938
  584.286  107.983    0.185    0.531    2.750
  584.536  106.925    0.176    0.512    2.659
  584.786  107.784    0.172    0.491    2.630
  585.036  110.051    0.182    0.482    2.643
  585.286  111.368    0.192    0.500    2.712
  585.536  109.436    0.199    0.515    2.821
  585.786  106.241    0.208    0.525    2.982
  586.036  102.808    0.220    0.516    3.237
  586.286  100.735    0.227    0.507    3.462
  586.536  103.137    0.213    0.491    3.748
  586.786  103.990    0.204    0.480    4.010
  587.036  101.199    0.198    0.472    4.349
  587.286   97.656    0.198    0.468    4.573
  587.536   95.361    0.205    0.458    4.710
  587.786   92.918    0.218    0.459    4.832
  588.036   93.004    0.226    0.479    4.877
  588.286   95.980    0.228    0.479    4.838
  588.536   97.521    0.236    0.480    4.732
  588.786   96.536    0.242    0.475    4.492
  589.036   94.900    0.249    0.469    4.339
  589.286   93.750    0.255    0.464    4.268
  589.536   92.988    0.263    0.477    4.291
  589.786   89.439    0.270    0.486    4.366
  590.036   85.709    0.269    0.483    4.492
  590.286   84.412    0.256    0.478    4.725
  590.536   83.848    0.252    0.462    4.863
  590.786   80.704    0.262    0.450    4.876
  591.036   75.695    0.270    0.444    4.780
  591.286   71.348    0.276    0.445    4.669
  591.536   67.470    0.279    0.431    4.583
  591.786   67.932    0.282    0.428    4.577
  592.036   72.565    0.244    0.443    4.755
  592.286   76.761    0.199    0.456    5.204
  592.536   79.605    0.170    0.443    6.074
  592.786   78.325    0.095    0.347    8.188
  593.036   75.543    0.025    0.266   10.408
  593.286   72.274    0.028    0.237   12.975
  593.536   67.668    0.062    0.237   13.276
  593.786   74.381    0.098    0.276   10.594
  594.036   79.917    0.123    0.330    7.968
  594.286   84.853    0.140    0.382    6.571
  594.536   88.348    0.157    0.414    5.613
  594.786   90.466    0.172    0.433    4.906
  595.036   92.304    0.187    0.427    4.447
  595.286   92.493    0.198    0.424    4.206
  595.536   92.063    0.208    0.426    4.009
  595.786   92.192    0.203    0.430    3.948
  596.036   92.545    0.204    0.435    3.927
  596.286   93.823    0.213    0.442    3.924
  596.536   92.636    0.216    0.447    3.902
  596.786   94.853    0.214    0.450    3.893
  597.036   97.875    0.215    0.451    3.846
  597.286   97.501    0.218    0.448    3.801
  597.536   96.835    0.213    0.450    3.785
  597.786   95.781    0.201    0.458    3.793
  598.036   95.032    0.193    0.467    3.783
  598.286   94.936    0.189    0.473    3.761
  598.536   95.234    0.204    0.480    3.757
  598.786   95.790    0.193    0.484    3.750
  599.036   96.638    0.193    0.465    3.736
  599.286   98.035    0.198    0.456    3.735
  599.536   99.079    0.195    0.450    3.737
  599.786   99.845    0.190    0.454    3.742
  600.036   99.317    0.187    0.456    3.757
  600.286   95.137    0.197    0.450    3.765
  600.536   93.171    0.187    0.451    3.784
  600.786   93.969    0.179    0.461    3.803
  601.036   96.177    0.185    0.480    3.841
  601.286   97.629    0.195    0.464    3.891
  601.536   99.235    0.195    0.463    3.925
  601.786   95.854    0.198    0.466    3.921
  602.036   96.197    0.204    0.468    3.857
  602.286   98.653    0.200    0.466    3.688
  602.536  101.135    0.213    0.461    3.436
  602.786  103.525    0.201    0.470    3.235
  603.036  106.022    0.185    0.483    2.979
  603.286  107.485    0.204    0.489    2.646
  603.536  108.320    0.218    0.502    2.419
  603.786  107.921    0.229    0.524    2.146
  604.036  107.795    0.224    0.544    2.006
  604.286  110.449    0.223    0.555    1.850
  604.536  113.265    0.225    0.566    1.733
  604.786  115.844    0.229    0.562    1.657
  605.036  113.887    0.235    0.562    1.605
  605.286  110.384    0.242    0.572    1.590
  605.536  108.526    0.247    0.566    1.606
  605.786  107.155    0.246    0.555    1.653
  606.036  106.468    0.238    0.550    1.756
  606.286  105.862    0.223    0.541    1.828
  606.536  106.083    0.209    0.539    1.946
  606.786  108.135    0.212    0.531    2.060
  607.036  109.564    0.222    0.519    2.173
  607.286  110.275    0.217    0.523    2.286
  607.536  110.043    0.207    0.521    2.436
  607.786  105.697    0.200    0.500    2.611
  608.036   97.519    0.222    0.484    2.794
  608.286   87.778    0.229    0.470    2.905
  608.536   83.403    0.223    0.460    3.007
  608.786   82.646    0.233    0.453    3.056
