~VERSION INFORMATION
 VERS.                 2.0:   CWLS LOG ASCII STANDARD -VERSION 2.0
 WRAP.                  NO:   ONE LINE PER DEPTH STEP
~WELL INFORMATION BLOCK
#MNEM.UNIT           DATA                    DESCRIPTION OF MNEMONIC
#---------    -------------------            -------------------------------
# Generated from Intellog Unique Number	CC_80_83/WELL/2411
NULL.         -999.25                        : NULL_VALUE
WELL.         BVX ET AL HOUSE                : Well_name    - WELL
LOC .         11-27-083-15W4                 : Location     - LOCATION          
UWI .         00/11-27-083-15W400            : Uwi          - UNIQUE WELL ID    
ENTR.         DW                             : Entered      - ENTERED BY        
SRVC.         SCHLUMBERGER                   : Scn          - SERVICE COMPANY   
DATE.         09 MAR 80                      : Date         - LOG DATE
STRT.M        100                            : top_depth    - START DEPTH       
STOP.M        291.1                          : bot_depth    - STOP DEPTH        
STEP.M        0.3                            : increment    - STEP LENGTH       
~CURVE INFORMATION BLOCK
#MNEM UNIT       ERCB CURVE CODE    CURVE DESCRIPTION
#-----------   ------------------   ----------------------------------
DEPT.M        00 001 00 00         : DEPTH        - DEPTH                       
DPHI.V/V      00 890 00 00         : PHID         - DENSITY POROSITY (LIMESTONE)
NPHI.V/V      00 330 00 00         : PHIN         - NEUTRON POROSITY (LIMESTONE)
GR  .API      00 310 00 00         : GR           - GAMMA RAY                   
ILD .OHMM     00 120 00 00         : RESD         - DEEP RESISTIVITY (DIL)      
~PARAMETER INFORMATION       
#MNEM.UNIT           DATA             DESCRIPTION OF MNEMONIC
#---------         -----------     ------------------------------
GL  .M        549.8                : gl           - GROUND LEVEL ELEVATION      
EREF.M        552.8                : kb           - ELEVATION OF DEPTH REFERENCE
DATM.M        552.8                : datum        - DATUM ELEVATION             
TDD .M        290                  : tdd          - TOTAL DEPTH DRILLER         
RUN .         ONE                  : Run          - RUN NUMBER                  
ENG .         BILL                 : Engineer     - RECORDING ENGINEER          
WIT .         JIM                  : Witness      - WITNESSED BY                
MUD .         GEL                  : Mud_type     - MUD TYPE                    
MATR.         LIMESTONE            : Logunit      - NEUTRON MATRIX              
TMAX.C        20                   : BHT          - MAXIMUM RECORDED TEMPERATURE
BHTD.M        290                  : BHTDEP       - MAXIMUM RECORDED TEMPERATURE
MATR.         1                    : LOGUNIT      - NEUTRON MATRIX              
RMT .C        25                   : MDTP         - TEMPERATURE OF MUD          
NEUT.         1                    : NEUTRON      - NEUTRON TYPE                
RESI.         0                    : RESIST       - RESISTIVITY TYPE            
RMC .OHMM     0.25                 : RMC          - RESISTIVITY OF MUD CAKE     
RMF .OHMM     0.25                 : RMF          - RESISTIVITY OF MUD FILTRATE 
SUFT.C        15                   : SUFT         - SURFACE TEMPERATURE         
~A  DEPTH     PHID     PHIN       GR     RESD
  100.000    0.331    0.399   84.564    4.041
  100.300    0.400    0.134   76.530    5.066
  100.600    0.400    0.110   57.388   12.068
  100.900    0.418    0.113   49.352   81.148
  101.200    0.418    0.117   47.494  140.232
  101.500    0.411    0.115   47.485  132.472
  101.800    0.423    0.117   48.709  118.272
  102.100    0.428    0.119   51.168  118.241
  102.400    0.415    0.119   53.014  129.907
  102.700    0.401    0.118   53.006  142.722
  103.000    0.403    0.131   48.676  140.020
  103.300    0.393    0.168   46.811  129.820
  103.600    0.383    0.211   49.275  120.352
  103.900    0.384    0.225   54.819  111.573
  104.200    0.417    0.246   56.046  115.839
  104.500    0.476    0.269   52.951  113.645
  104.800    0.490    0.302   48.621  103.390
  105.100    0.474    0.306   51.081   83.991
  105.400    0.426    0.291   55.396   57.570
  105.700    0.403    0.240   59.091   41.761
  106.000    0.418    0.236   59.697   41.752
  106.300    0.409    0.263   63.394   49.470
  106.600    0.370    0.302   68.940   38.698
  106.900    0.317    0.418   76.956   28.072
  107.200    0.289    0.438   83.736   19.609
  107.500    0.300    0.454   86.816   14.495
  107.800    0.339    0.453   81.251   12.461
  108.100    0.358    0.393   74.453   13.434
  108.400    0.340    0.429   77.530   12.221
  108.700    0.273    0.439   82.460   11.767
  109.000    0.251    0.421   88.006   10.705
  109.300    0.252    0.426   89.848    9.202
  109.600    0.283    0.448   89.224    7.763
  109.900    0.299    0.468   81.190    7.063
  110.200    0.264    0.447   80.563    7.195
  110.500    0.236    0.440   95.368    7.470
  110.800    0.229    0.473   99.682    7.057
  111.100    0.235    0.496   97.820    6.300
  111.400    0.251    0.485   92.873    5.952
  111.700    0.291    0.473   87.927    5.313
  112.000    0.304    0.452   86.065    5.313
  112.300    0.290    0.452   90.997    6.415
  112.600    0.231    0.480  102.098    6.916
  112.900    0.219    0.498  105.173    5.945
  113.200    0.244    0.531  106.402    5.111
  113.500    0.261    0.550   98.368    4.231
  113.800    0.289    0.549   91.570    3.707
  114.100    0.327    0.532   78.600    3.502
  114.400    0.336    0.450   69.331    4.391
  114.700    0.273    0.463   77.964    6.524
  115.000    0.254    0.509   98.326    7.444
  115.300    0.261    0.527  108.191    7.584
  115.600    0.257    0.524  110.652    5.821
  115.900    0.252    0.549  109.409    4.819
  116.200    0.251    0.562  114.957    3.770
  116.500    0.248    0.563  110.010    3.562
  116.800    0.235    0.556  101.977    3.365
  117.100    0.222    0.532   95.794    3.240
  117.400    0.273    0.439   92.701    3.427
  117.700    0.307    0.419   81.581    4.217
  118.000    0.347    0.362   71.696    9.314
  118.300    0.365    0.350   71.070   12.834
  118.600    0.332    0.350   79.704   16.092
  118.900    0.291    0.353   88.953   18.710
  119.200    0.282    0.400   93.266   18.012
  119.500    0.326    0.428   77.209   15.195
  119.800    0.358    0.369   71.642   12.344
  120.100    0.358    0.397   81.510   12.341
  120.400    0.301    0.412   90.144   14.622
  120.700    0.280    0.444   93.840   17.001
  121.000    0.256    0.455   95.066   16.997
  121.300    0.294    0.460   84.562   13.808
  121.600    0.310    0.443   78.380   11.870
  121.900    0.285    0.431   77.138   11.645
  122.200    0.282    0.437   90.093   12.556
  122.500    0.280    0.416   92.553   15.158
  122.800    0.304    0.421   86.989   16.343
  123.100    0.304    0.426   95.004   16.968
  123.400    0.297    0.421   89.441   17.288
  123.700    0.300    0.427   86.346   16.961
  124.000    0.323    0.427   89.421   15.725
  124.300    0.336    0.444   92.501   15.427
  124.600    0.327    0.447   98.046   16.947
  124.900    0.292    0.428  106.061   16.945
  125.200    0.247    0.451  110.375   16.314
  125.500    0.194    0.463  116.537   12.761
  125.800    0.211    0.475  118.383   10.174
  126.100    0.214    0.479  116.521    6.466
  126.400    0.201    0.457  110.340    5.353
  126.700    0.217    0.475   99.222    5.252
  127.000    0.232    0.471   89.336    5.880
  127.300    0.246    0.424   85.624    6.583
  127.600    0.254    0.427   85.615    8.100
  127.900    0.231    0.429   96.716    9.597
  128.200    0.248    0.422   97.326   10.347
  128.500    0.214    0.393   89.293    9.592
  128.800    0.245    0.393   86.198    9.411
  129.100    0.254    0.400   91.743    9.589
  129.400    0.262    0.397   96.057   10.735
  129.700    0.275    0.415   83.702   10.938
  130.000    0.281    0.407   84.311   10.529
  130.300    0.180    0.451  105.289    9.052
  130.600    0.162    0.480  123.798    6.444
  130.900    0.224    0.507  126.256    4.946
  131.200    0.237    0.539  126.250    3.797
  131.500    0.263    0.553  121.918    3.454
  131.800    0.273    0.534  115.121    3.454
  132.100    0.286    0.484   93.509    4.015
  132.400    0.296    0.444   89.794    5.533
  132.700    0.283    0.437   94.108    8.068
  133.000    0.289    0.451  105.827   11.328
  133.300    0.289    0.431  107.671   11.541
  133.600    0.273    0.434  107.046   11.112
  133.900    0.239    0.442  115.676   10.301
  134.200    0.231    0.444  115.668    9.023
  134.500    0.240    0.449  111.956    8.687
  134.800    0.255    0.451  105.775    8.524
  135.100    0.266    0.438   99.595    8.849
  135.400    0.306    0.436   95.263   10.289
  135.700    0.317    0.460   95.256   12.191
  136.000    0.344    0.451  113.765   15.000
  136.300    0.352    0.461  108.201   15.572
  136.600    0.316    0.477   97.082   14.712
  136.900    0.287    0.463   85.346   13.134
  137.200    0.267    0.460   78.547   10.874
  137.500    0.279    0.451   74.835    9.001
  137.800    0.310    0.437   68.653    9.170
  138.100    0.325    0.418   63.706    9.888
  138.400    0.345    0.418   66.160   13.624
  138.700    0.347    0.440   67.389   16.450
  139.000    0.326    0.450   71.085   17.403
  139.300    0.308    0.451   71.079   16.755
  139.600    0.314    0.453   72.921   14.958
  139.900    0.320    0.454   69.828   12.858
  140.200    0.323    0.453   64.262   12.854
  140.500    0.329    0.450   63.018   13.347
  140.800    0.320    0.444   61.775   15.812
  141.100    0.313    0.443   63.001   17.704
  141.400    0.330    0.448   64.228   18.382
  141.700    0.339    0.454   63.602   19.084
  142.000    0.344    0.454   62.975   18.724
  142.300    0.324    0.447   62.967   18.025
  142.600    0.335    0.443   62.958   17.685
  142.900    0.331    0.448   61.099   18.018
  143.200    0.335    0.445   63.559   19.060
  143.500    0.344    0.447   67.254   19.057
  143.800    0.341    0.457   65.393   19.417
  144.100    0.329    0.459   66.620   19.048
  144.400    0.323    0.453   70.931   19.046
  144.700    0.298    0.452   75.242   17.003
  145.000    0.279    0.460   78.937   12.333
  145.300    0.266    0.481   85.101    9.291
  145.600    0.264    0.459   90.648    7.987
  145.900    0.254    0.459  102.367    7.129
  146.200    0.226    0.469  115.938    6.736
  146.500    0.221    0.473  116.548    6.485
  146.800    0.210    0.470  112.832    6.484
  147.100    0.216    0.485  112.826    6.361
  147.400    0.241    0.495  115.901    5.897
  147.700    0.248    0.507  115.894    4.974
  148.000    0.281    0.512  112.800    4.699
  148.300    0.301    0.500  108.469    4.788
  148.600    0.330    0.474  104.142    4.971
  148.900    0.322    0.451   93.023    5.566
  149.201    0.306    0.434   84.990   14.296
  149.501    0.312    0.431   91.153   14.842
  149.801    0.299    0.442   97.317   13.502
  150.101    0.296    0.446   93.603   12.053
  150.401    0.313    0.448   81.250   11.605
  150.701    0.315    0.446   69.515   12.049
  151.001    0.308    0.436   59.628   13.238
  151.301    0.333    0.437   54.682   15.392
  151.601    0.328    0.430   51.587   18.236
  151.901    0.321    0.416   55.280   21.202
