~VERSION INFORMATION
 VERS.                 2.0:   CWLS LOG ASCII STANDARD -VERSION 2.0
 WRAP.                  NO:   ONE LINE PER DEPTH STEP
~WELL INFORMATION BLOCK
#MNEM.UNIT           DATA                    DESCRIPTION OF MNEMONIC
#---------    -------------------            -------------------------------
# Generated from Intellog Unique Number	CW_76_78/WELL/2804
WELL.         10-07-076-23W4                 : Well_name    - WELL
LOC .         00/10-07-076-23W4/0            : Location     - LOCATION
UWI .         00/10-07-076-23W4/0            : Uwi          - UNIQUE WELL ID
ENTR.         JJ                             : Entered      - ENTERED BY
SRVC.         SCHLUMBERGER                   : Scn          - SERVICE COMPANY
DATE.         11 MAR 67                      : Date         - LOG DATE
STRT.M        670.56                         : top_depth    - START DEPTH
STOP.M        768.06                         : bot_depth    - STOP DEPTH
STEP.M        0.25                           : increment    - STEP LENGTH
 NULL. -999.2500:NULL Value
~CURVE INFORMATION BLOCK
#MNEM UNIT       ERCB CURVE CODE    CURVE DESCRIPTION
#-----------   ------------------   ----------------------------------
DEPT.M        00 001 00 00         : DEPTH        - DEPTH
ILD .OHMM     00 120 00 00         : RESD         - DEEP RESISTIVITY (DIL)
GR  .API      00 310 00 00         : GR           - GAMMA RAY
DELT.US/F     00 520 00 00         : DELT         - SONIC TRAVEL TIME
~PARAMETER INFORMATION
#MNEM.UNIT           DATA             DESCRIPTION OF MNEMONIC
#---------         -----------     ------------------------------
GL  .M        854.964              : gl           - GROUND LEVEL ELEVATION
EREF.M        858.317              : kb           - ELEVATION OF DEPTH REFERENCE
DATM.M        858.317              : datum        - DATUM ELEVATION
TDD .M        787.908              : tdd          - TOTAL DEPTH DRILLER
RUN .         ONE                  : Run          - RUN NUMBER
ENG .         STUEHMER             : Engineer     - RECORDING ENGINEER
WIT .         CHRAPKO              : Witness      - WITNESSED BY
BASE.         SLAVE LAKE           : Branch       - HOME BASE OF LOGGING UNIT
MUD .         NATURAL BASE         : Mud_type     - MUD TYPE
MATR.         SANDSTONE            : Logunit      - NEUTRON MATRIX
TMAX.C        22.2222              : BHT          - MAXIMUM RECORDED TEMPERATURE
BHTD.M        786.994              : BHTDEP       - MAXIMUM RECORDED TEMPERATURE
RMT .C        22.2222              : MDTP         - TEMPERATURE OF MUD
MUDD.KG/M     1080                 : MWT          - MUD DENSITY
NEUT.         1                    : NEUTRON      - NEUTRON TYPE
RESI.         0                    : RESIST       - RESISTIVITY TYPE
RM  .OHMM     0                    : RM           - RESISTIVITY OF MUD
RMC .OHMM     0                    : RMC          - RESISTIVITY OF MUD CAKE
RMF .OHMM     0                    : RMF          - RESISTIVITY OF MUD FILTRATE
SUFT.C        5                    : SUFT         - SURFACE TEMPERATURE
~A  DEPTH     RESD       GR     DELT
# ...
  724.810   12.251   82.350  305.480
  725.060   12.576   86.251  316.293
  725.310   12.714   92.969  322.358
  725.560   12.545   98.877  330.564
  725.810   12.063  100.212  346.460
  726.060   11.089   92.535  332.528
  726.310   10.158   87.794  345.681
  726.560    9.535   83.559  333.556
  726.810    8.973   84.519  292.805
  727.060    8.655   87.293  344.683
  727.310    8.258   90.195  344.593
  727.560    7.963   90.592  352.934
  727.810    7.733   85.352  342.009
  728.060    7.580   84.374  332.693
  728.310    7.513   85.957  332.674
  728.560    7.489   86.795  318.073
  728.810    7.687   89.881  346.809
  729.060    8.136   94.095  306.727
  729.310    8.521   89.798  304.433
  729.560    8.681   92.698  347.148
  729.810    8.552   97.541  351.137
  730.060    8.361   98.689  346.236
  730.310    8.295   98.397  343.873
  730.560    8.350   97.664  337.700
  730.810    8.345   97.872  349.317
  731.060    8.421   97.708  328.764
  731.310    8.560   95.974  317.975
  731.560    8.596   92.614  333.336
  731.810    8.673   86.312  325.491
  732.060    8.666   76.253  269.956
  732.310    8.619   70.450  297.627
  732.560    8.345   80.739  348.835
  732.810    7.557   89.901  347.276
  733.060    6.478   94.057  335.283
  733.310    5.465   96.391  410.770
  733.560    4.818   99.793  453.217
  733.810    3.701  103.449  468.847
  734.060    2.706  103.341  445.686
  734.310    2.101  101.547  428.943
  734.560    2.219   96.870  346.727
  734.810    2.811   86.812  318.684
  735.060    4.271   77.502  310.570
  735.310    5.893   68.887  294.899
  735.560    9.082   63.958  250.270
  735.810   12.541   58.970  231.655
  736.060   13.854   55.359  302.059
  736.310   14.158   59.013  324.978
  736.560   13.369   56.592  334.383
  736.810   11.922   52.854  342.124
  737.060   10.575   49.683  345.848
  737.310    8.921   60.973  333.855
  737.560    7.617   77.650  330.222
  737.810    6.970   87.938  355.149
  738.060    6.306   94.470  385.423
  738.310    5.866   98.310  362.597
  738.560    5.533   87.814  355.820
  738.810    5.837   73.245  343.628
  739.060    6.778   60.307  352.302
  739.310    8.586   51.565  372.542
  739.560   10.684   45.383  379.681
  739.810   12.616   39.142  370.631
  740.060   14.548   50.120  347.536
  740.310   13.739   66.044  320.694
  740.560   13.179   75.644  316.260
  740.810   13.131   69.719  312.093
  741.060   13.412   60.284  319.026
  741.310   14.974   51.414  372.977
  741.560   16.988   45.988  366.267
  741.810   19.251   50.019  358.957
  742.060   19.267   52.732  348.835
  742.310   17.921   51.872  337.515
  742.560   16.161   54.210  334.414
  742.810   14.569   58.051  332.655
  743.060   14.027   58.951  329.426
  743.310   13.776   57.216  329.401
  743.560   13.768   56.803  329.112
  743.810   14.158   57.449  327.218
  744.060   14.502   58.533  325.793
  744.310   14.782   62.371  324.773
  744.560   15.148   65.713  323.210
  744.810   15.474   66.735  322.790
  745.060   15.612   65.503  324.509
  745.310   15.667   60.639  327.299
  745.560   15.707   60.410  324.262
  745.810   15.846   61.057  322.774
  746.060   16.003   58.822  325.095
  746.310   16.349   57.716  327.480
  746.560   16.714   57.801  327.259
  746.810   17.203   59.761  323.426
  747.060   17.814   60.783  326.948
  747.310   18.881   53.419  287.736
  747.560   20.091   51.937  261.834
  747.810   21.447   53.713  250.910
  748.060   21.215   57.050  270.219
  748.310   20.094   65.584  309.053
  748.560   18.646   82.824  297.665
  748.810   17.404  101.252  284.267
  749.060   16.225  101.460  289.931
  749.310   15.785   85.954  277.069
  749.560   15.202   74.329  274.439
  749.810   14.248   67.963  275.623
  750.060   12.595   67.297  304.026
  750.310   11.167   74.892  324.537
  750.560    9.717   79.923  316.156
  750.810    8.537   86.578  335.798
  751.060    8.365   75.519  353.097
  751.310   10.132   55.502  195.106
  751.560   14.167   42.125  186.526
  751.810   28.550   28.934  180.883
  752.060   32.710   21.317  177.386
  752.310   31.797   21.032  247.190
  752.560   25.999   22.798  289.834
  752.810   18.984   27.581  302.590
  753.060   14.010   32.609  320.895
  753.310   11.078   39.272  308.635
  753.560    8.950   43.419  364.726
  753.810    7.562   53.020  432.521
  754.060    6.669   87.290  423.604
  754.310    5.718   98.265  424.320
  754.560    5.256   85.892  437.272
  754.810    5.418   79.336  389.902
  755.060    6.214   81.425  396.235
  755.310    7.012   89.652  382.637
  755.560    7.750   91.106  391.775
  755.810    8.178   82.680  340.927
  756.060    8.522   81.193  340.836
  756.310    9.031   82.719  351.119
  756.560    9.376   88.497  346.548
  756.810    8.631   97.724  362.110
  757.060    7.983  106.196  380.215
  757.310    7.606   93.444  430.020
  757.560    7.952   83.572  451.200
  757.810    9.473   69.442  328.186
  758.060   11.383   60.698  345.621
  758.310   15.274   53.018  363.992
  758.560   20.525   55.230  380.622
  758.810   23.406   55.878  371.307
  759.060   23.608   55.716  370.818
  759.310   21.416   55.737  387.784
  759.560   18.134   56.450  365.156
  759.810   15.571   57.406  347.145
  760.060   13.669   59.865  381.098
  760.310   12.694   66.085  357.132
  760.560   13.018   73.805  350.159
  760.810   13.940   73.262  347.797
  761.060   15.337   62.140  362.490
  761.310   17.250   56.086  359.526
  761.560   18.686   57.484  355.358
  761.810   19.526   63.580  355.739
  762.060   19.478   67.733  353.377
  762.310   17.495   72.322  352.421
  762.560   15.241   79.610  351.931
  762.810   13.919   86.326  358.196
  763.060   13.561   93.047  368.739
  763.310   13.554   87.121  381.296
  763.560   13.569   76.248  357.261
  763.810   13.543   70.195  342.261
  764.060   12.960   67.209  330.604
  764.310   11.986   66.921  333.120
  764.560   11.465   82.403  355.640
  764.810   11.583   92.191  375.416
  765.060   12.567   94.840  337.675
  765.310   16.643   78.520  298.128
  765.560   24.079   62.513  307.000
  765.810   31.412   50.011  303.501
  766.060   38.169   44.274  289.104
  766.310   43.256   35.842  305.668
  766.560   45.744   28.788  355.273
  766.810   48.275   22.671  397.654
  767.060   84.891   17.496  437.159
  767.310   84.323   14.575  433.793
  767.560   82.101   14.221  433.639
  767.810   80.102   14.179  408.270
  768.060   80.320   15.141  416.810
