~VERSION INFORMATION
 VERS.                 2.0:   CWLS LOG ASCII STANDARD -VERSION 2.0
 WRAP.                  NO:   ONE LINE PER DEPTH STEP
~WELL INFORMATION BLOCK
#MNEM.UNIT           DATA                    DESCRIPTION OF MNEMONIC
#---------    -------------------            -------------------------------
# Generated from Intellog Unique Number	CC_80_83/WELL/2392
NULL.         -999.25                        : NULL_VALUE
WELL.         BVX ET ALWATCHUSK              : Well_name    - WELL
LOC .         11-08-082-04W4                 : Location     - LOCATION          
UWI .         00/11-08-082-04W4/0            : Uwi          - UNIQUE WELL ID    
ENTR.         DW                             : Entered      - ENTERED BY        
SRVC.         SCHLUMBERGER                   : Scn          - SERVICE COMPANY   
DATE.         13 FEB 78                      : Date         - LOG DATE
STRT.M        97.536                         : top_depth    - START DEPTH       
STOP.M        307.847                        : bot_depth    - STOP DEPTH        
STEP.M        0.3048                         : increment    - STEP LENGTH       
~CURVE INFORMATION BLOCK
#MNEM UNIT       ERCB CURVE CODE    CURVE DESCRIPTION
#-----------   ------------------   ----------------------------------
DEPT.M        00 001 00 00         : DEPTH        - DEPTH                       
DPHI.V/V      00 890 00 00         : PHID         - DENSITY POROSITY (LIMESTONE)
NPHI.V/V      00 330 00 00         : PHIN         - NEUTRON POROSITY (LIMESTONE)
GR  .API      00 310 00 00         : GR           - GAMMA RAY                   
ILD .OHMM     00 120 00 00         : RESD         - DEEP RESISTIVITY (DIL)      
~PARAMETER INFORMATION       
#MNEM.UNIT           DATA             DESCRIPTION OF MNEMONIC
#---------         -----------     ------------------------------
GL  .M        457.2                : gl           - GROUND LEVEL ELEVATION      
EREF.M        460.248              : kb           - ELEVATION OF DEPTH REFERENCE
DATM.M        460.248              : datum        - DATUM ELEVATION             
TDD .M        320.04               : tdd          - TOTAL DEPTH DRILLER         
RUN .         ONE                  : Run          - RUN NUMBER                  
ENG .         BILL                 : Engineer     - RECORDING ENGINEER          
WIT .         JIM                  : Witness      - WITNESSED BY                
MUD .         GEL                  : Mud_type     - MUD TYPE                    
MATR.         LIMESTONE            : Logunit      - NEUTRON MATRIX              
TMAX.C        20                   : BHT          - MAXIMUM RECORDED TEMPERATURE
BHTD.M        320.04               : BHTDEP       - MAXIMUM RECORDED TEMPERATURE
MATR.         1                    : LOGUNIT      - NEUTRON MATRIX              
RMT .C        25                   : MDTP         - TEMPERATURE OF MUD          
NEUT.         1                    : NEUTRON      - NEUTRON TYPE                
RESI.         0                    : RESIST       - RESISTIVITY TYPE            
RMC .OHMM     0.25                 : RMC          - RESISTIVITY OF MUD CAKE     
RMF .OHMM     0.25                 : RMF          - RESISTIVITY OF MUD FILTRATE 
SUFT.C        15                   : SUFT         - SURFACE TEMPERATURE         
~A  DEPTH     PHID     PHIN       GR     RESD
   97.536    0.322    0.513   64.815   10.664
   97.841    0.335    0.536   66.049   10.658
   98.146    0.328    0.557   68.519   10.449
   98.450    0.317    0.573   69.753   10.249
   98.755    0.319    0.590   69.753   10.052
   99.060    0.354    0.567   69.136    9.314
   99.365    0.372    0.508   63.580    8.792
   99.670    0.348    0.521   61.111    9.303
   99.974    0.361    0.495   61.111   11.447
  100.279    0.361    0.486   61.111   12.819
  100.584    0.349    0.480   61.111   13.562
  100.889    0.333    0.500   61.111   14.898
  101.194    0.344    0.523   60.494   15.177
  101.498    0.353    0.505   59.259   14.882
  101.803    0.349    0.495   59.259   14.051
  102.108    0.341    0.482   59.259   13.269
  102.413    0.348    0.474   59.259   13.013
  102.718    0.345    0.490   56.790   13.006
  103.022    0.353    0.486   53.086   13.246
  103.327    0.360    0.487   52.469   13.491
  103.632    0.364    0.500   54.938   14.001
  103.937    0.362    0.500   58.025   13.995
  104.242    0.351    0.470   58.642   13.723
  104.546    0.340    0.466   51.235   13.717
  104.851    0.350    0.474   45.062   13.704
  105.156    0.361    0.508   42.593   13.441
  105.461    0.365    0.484   40.123   13.182
  105.766    0.377    0.475   39.506   12.930
  106.070    0.392    0.494   38.272   12.208
  106.375    0.412    0.525   35.803   11.748
  106.680    0.438    0.549   36.420   11.091
  106.985    0.470    0.563   38.889   10.672
  107.290    0.447    0.527   45.679   10.669
  107.594    0.424    0.507   48.765   10.863
  107.899    0.369    0.495   50.000   11.066
  108.204    0.351    0.475   51.852   11.488
  108.509    0.356    0.466   51.235   11.262
  108.814    0.353    0.470   50.617   11.048
  109.118    0.350    0.482   44.444   10.236
  109.423    0.365    0.486   40.741    9.484
  109.728    0.388    0.486   41.358    9.658
  110.033    0.379    0.506   46.914   10.027
  110.338    0.406    0.564   56.790   10.211
  110.642    0.422    0.599   83.951    9.283
  110.947    0.301    0.611   98.148    7.974
  111.252    0.282    0.615  102.469    6.350
  111.557    0.287    0.605  104.321    4.346
  111.862    0.270    0.600  100.617    3.269
  112.166    0.238    0.579  103.704    2.972
  112.471    0.241    0.570   98.765    2.859
  112.776    0.255    0.558   93.210    2.858
  113.081    0.261    0.543   91.975    2.911
  113.386    0.266    0.553   92.593    3.138
  113.691    0.270    0.560   95.062    3.258
  113.995    0.250    0.572   96.296    4.086
  114.300    0.246    0.576   96.914    4.663
  114.605    0.252    0.580   96.914    4.749
  114.910    0.283    0.574   96.914    4.400
  115.215    0.276    0.594   96.914    3.851
  115.519    0.297    0.609   96.914    3.568
  115.824    0.280    0.622   97.531    3.370
  116.129    0.273    0.627   98.148    3.243
  116.434    0.314    0.630   96.296    3.061
  116.739    0.343    0.630   90.124    3.059
  117.043    0.322    0.605   83.333    3.001
  117.348    0.330    0.575   67.284    3.056
  117.653    0.343    0.495   59.877    3.172
  117.958    0.355    0.471   56.790    3.831
  118.263    0.355    0.485   54.321    5.284
  118.567    0.355    0.487   54.938    6.884
  118.872    0.361    0.470   58.025    8.004
  119.177    0.366    0.471   61.728    9.307
  119.482    0.348    0.474   61.111    9.663
  119.787    0.338    0.470   56.790   10.030
  120.091    0.348    0.461   51.852   10.214
  120.396    0.355    0.459   50.000   10.018
  120.701    0.350    0.471   50.617    9.457
  121.006    0.346    0.492   56.790    9.453
  121.311    0.350    0.501   59.259    9.271
  121.615    0.366    0.480   61.111    9.439
  121.920    0.374    0.439   61.728    9.434
  122.225    0.351    0.458   59.877    9.430
  122.530    0.346    0.464   56.790    9.073
  122.835    0.343    0.465   55.556    8.899
  123.139    0.353    0.466   53.704    8.894
  123.444    0.355    0.442   52.469    8.889
  123.749    0.341    0.455   54.938    9.054
  124.054    0.356    0.480   59.877    9.047
  124.359    0.359    0.480   61.111    9.043
  124.663    0.351    0.474   61.728    9.212
  124.968    0.354    0.474   59.259    9.203
  125.273    0.360    0.474   53.086    9.026
  125.578    0.364    0.473   51.852    8.852
  125.883    0.362    0.468   53.086    8.682
  126.187    0.345    0.464   56.790    8.676
  126.492    0.334    0.497   59.259    8.672
  126.797    0.334    0.505   53.086    8.668
  127.102    0.339    0.486   55.556    8.662
  127.407    0.334    0.479   59.877    8.493
  127.711    0.333    0.484   62.346    8.652
  128.016    0.353    0.494   62.963    8.645
  128.321    0.365    0.487   62.963    8.480
  128.626    0.367    0.473   61.728    8.474
  128.931    0.351    0.464   55.556    8.469
  129.235    0.291    0.444   53.704    8.464
  129.540    0.257    0.417   52.469    8.619
  129.845    0.285    0.408   49.383    8.614
  130.150    0.318    0.434   51.852    8.775
  130.455    0.351    0.478   60.494    8.938
  130.759    0.340    0.480   58.025    9.104
  131.064    0.334    0.476   56.790    8.930
  131.369    0.328    0.479   58.642    8.754
  131.674    0.328    0.484   59.877    8.586
  131.979    0.348    0.507   62.346    8.420
  132.283    0.344    0.507   62.963    8.415
  132.588    0.333    0.481   62.963    8.410
  132.893    0.336    0.468   59.259    8.405
  133.198    0.344    0.470   59.877    8.561
  133.502    0.349    0.482   61.111    8.719
  133.807    0.353    0.487   61.728    8.882
  134.112    0.339    0.482   58.642    9.047
  134.417    0.332    0.473   58.025    9.214
  134.722    0.335    0.473   59.877    9.210
  135.026    0.322    0.475   61.728    9.380
  135.331    0.212    0.313   59.259   10.306
  135.636    0.032    0.182   54.938   13.428
  135.941    0.052    0.178   50.000   19.973
  136.246    0.092    0.271   51.235   28.605
  136.550    0.132    0.323   53.086   30.255
  136.855    0.242    0.408   56.173   22.762
  137.160    0.330    0.480   58.025   14.997
  137.465    0.364    0.496   59.877   10.263
  137.770    0.369    0.502   59.877    8.330
  138.074    0.364    0.486   61.111    7.717
  138.379    0.354    0.470   62.963    7.426
  138.684    0.350    0.470   61.728    7.283
  138.989    0.343    0.478   59.259    7.142
  139.294    0.336    0.468   58.025    7.275
  139.598    0.330    0.466   58.025    7.840
  139.903    0.338    0.474   57.407    7.986
  140.208    0.349    0.469   58.025    7.983
  140.513    0.351    0.456   61.111    7.976
  140.818    0.351    0.468   61.111    7.971
  141.122    0.351    0.474   58.642    7.817
  141.427    0.350    0.476   58.025    7.813
  141.732    0.348    0.480   55.556    7.661
  142.037    0.341    0.491   54.321    7.803
  142.342    0.345    0.499   53.086    7.947
  142.646    0.351    0.490   51.852    8.406
  142.951    0.355    0.480   51.852    8.401
  143.256    0.350    0.474   53.086    8.558
  143.561    0.344    0.470   55.556    8.718
  143.865    0.339    0.474   58.642    8.714
  144.170    0.343    0.495   60.494    8.543
  144.475    0.330    0.506   60.494    8.378
  144.780    0.319    0.491   60.494    8.216
  145.085    0.318    0.486   60.494    8.211
  145.389    0.323    0.485   62.963    8.052
  145.694    0.333    0.497   63.580    7.896
  145.999    0.351    0.506   62.346    8.043
  146.304    0.370    0.502   56.790    8.193
  146.609    0.358    0.485   54.321    8.188
  146.913    0.359    0.470   59.259    8.340
  147.218    0.360    0.465   59.259    8.494
  147.523    0.351    0.470   60.494    8.488
  147.828    0.341    0.520   64.815    8.483
  148.133    0.327    0.534   67.901    8.478
  148.437    0.324    0.504   67.901    8.316
  148.742    0.332    0.495   67.284    8.312
  149.047    0.356    0.532   74.074    7.999
  149.352    0.341    0.555   77.778    7.844
  149.657    0.339    0.568   80.247    7.266
  149.961    0.338    0.548   76.543    6.994
  150.266    0.334    0.579   84.568    6.008
