~VERSION INFORMATION
 VERS.                 2.0:   CWLS LOG ASCII STANDARD -VERSION 2.0
 WRAP.                  NO:   ONE LINE PER DEPTH STEP
~WELL INFORMATION BLOCK
#MNEM.UNIT           DATA                    DESCRIPTION OF MNEMONIC
#---------    -------------------            -------------------------------
# Generated from Intellog Unique Number	CS_73_76/WELL/3240
WELL.         10-25-075-15W4                 : Well_name    - WELL
LOC .         00/10-25-075-15W4/0            : Location     - LOCATION
UWI .         00/10-25-075-15W4/0            : Uwi          - UNIQUE WELL ID
ENTR.         SP                             : Entered      - ENTERED BY
SRVC.         SCHLUMBERGER                   : Scn          - SERVICE COMPANY
STRT.M        365                            : top_depth    - START DEPTH
STOP.M        570                            : bot_depth    - STOP DEPTH
STEP.M        0.25                           : increment    - STEP LENGTH
 NULL. -999.2500:NULL Value
~CURVE INFORMATION BLOCK
#MNEM UNIT       ERCB CURVE CODE    CURVE DESCRIPTION
#-----------   ------------------   ----------------------------------
DEPT.M        00 001 00 00         : DEPTH        - DEPTH
GR  .API      00 310 00 00         : GR           - GAMMA RAY
NPHI.V/V      00 330 00 00         : PHIN         - NEUTRON POROSITY (LIMESTONE)
DPHI.V/V      00 890 00 00         : PHID         - DENSITY POROSITY (LIMESTONE)
ILD .OHMM     00 120 00 00         : RESD         - DEEP RESISTIVITY (DIL)
~PARAMETER INFORMATION
#MNEM.UNIT           DATA             DESCRIPTION OF MNEMONIC
#---------         -----------     ------------------------------
GL  .M        741.17               : gl           - GROUND LEVEL ELEVATION
EREF.M        745.67               : kb           - ELEVATION OF DEPTH REFERENCE
DATM.M        741.17               : datum        - DATUM ELEVATION
TDD .M        574.4                : tdd          - TOTAL DEPTH DRILLER
RUN .         ONE                  : Run          - RUN NUMBER
ENG .         BILL                 : Engineer     - RECORDING ENGINEER
WIT .         JIM                  : Witness      - WITNESSED BY
MUD .         GEL                  : Mud_type     - MUD TYPE
MATR.         LIMESTONE            : Logunit      - NEUTRON MATRIX
TMAX.C        22                   : BHT          - MAXIMUM RECORDED TEMPERATURE
BHTD.M        574.4                : BHTDEP       - MAXIMUM RECORDED TEMPERATURE
MATR.         1                    : LOGUNIT      - NEUTRON MATRIX
RMT .C        25                   : MDTP         - TEMPERATURE OF MUD
NEUT.         1                    : NEUTRON      - NEUTRON TYPE
RESI.         0                    : RESIST       - RESISTIVITY TYPE
RMC .OHMM     0.25                 : RMC          - RESISTIVITY OF MUD CAKE
RMF .OHMM     0.25                 : RMF          - RESISTIVITY OF MUD FILTRATE
SUFT.C        15                   : SUFT         - SURFACE TEMPERATURE
~A  DEPTH       GR     PHIN     PHID     RESD
# ...
  495.500   79.598    0.370    0.226    4.761
  495.750   80.217    0.368    0.185    4.944
  496.000   75.960    0.368    0.185    5.038
  496.250   72.314    0.358    0.208    5.332
  496.500   68.058    0.339    0.226    5.642
  496.750   63.800    0.333    0.245    5.970
  497.000   60.152    0.344    0.287    6.084
  497.250   57.116    0.360    0.327    6.084
  497.500   55.908    0.357    0.333    6.085
  497.750   55.922    0.346    0.337    6.085
  498.000   55.323    0.350    0.345    5.972
  498.250   55.330    0.357    0.348    5.972
  498.500   52.298    0.358    0.336    5.973
  498.750   51.084    0.354    0.323    6.320
  499.000   49.265    0.345    0.304    6.944
  499.250   49.889    0.319    0.261    7.488
  499.500   49.897    0.186    0.137    8.384
  499.750   48.690    0.192    0.156    8.543
  500.000   49.316    0.264    0.208    8.544
  500.250   50.541    0.341    0.269    7.925
  500.500   54.216    0.383    0.331    7.491
  500.750   55.443    0.395    0.355    7.214
  501.000   57.898    0.389    0.345    7.080
  501.250   59.124    0.354    0.331    7.927
  501.500   60.966    0.300    0.289    8.548
  501.750   62.196    0.246    0.231    8.876
  502.000   62.815    0.229    0.182    8.711
  502.250   60.386    0.233    0.175    8.390
  502.500   54.911    0.266    0.225    7.930
  502.750   57.969    0.301    0.285    7.218
  503.000   60.422    0.343    0.321    6.695
  503.250   62.263    0.361    0.337    6.210
  503.500   64.716    0.358    0.330    5.870
  503.750   65.942    0.350    0.324    5.653
  504.000   67.173    0.348    0.323    5.444
  504.250   67.183    0.345    0.321    5.343
  504.500   65.976    0.343    0.318    5.146
  504.750   66.596    0.348    0.324    5.147
  505.000   67.216    0.355    0.329    5.147
  505.250   61.743    0.365    0.329    5.148
  505.500   59.312    0.365    0.303    5.246
  505.750   58.714    0.354    0.282    5.447
  506.000   60.554    0.349    0.271    5.656
  506.250   61.784    0.361    0.280    5.986
  506.500   63.624    0.366    0.287    6.334
  506.750   66.075    0.355    0.282    6.829
  507.000   62.429    0.348    0.267    7.092
  507.250   58.780    0.350    0.241    7.227
  507.500   53.913    0.367    0.245    7.093
  507.750   49.656    0.378    0.271    6.831
  508.000   55.767    0.389    0.300    6.218
  508.250   61.876    0.385    0.309    5.989
  508.500   64.934    0.381    0.323    5.451
  508.750   64.945    0.387    0.323    5.250
  509.000   63.128    0.389    0.309    5.057
  509.250   60.702    0.384    0.298    4.963
  509.500   60.101    0.378    0.304    4.963
  509.750   60.111    0.374    0.299    4.963
  510.000   60.732    0.368    0.292    4.964
  510.250   61.967    0.367    0.285    4.964
  510.500   63.194    0.367    0.290    4.964
  510.750   63.815    0.372    0.298    4.965
  511.000   63.216    0.375    0.306    4.965
  511.250   64.448    0.368    0.303    4.873
  511.500   65.676    0.359    0.296    4.873
  511.750   65.688    0.354    0.300    4.874
  512.000   65.700    0.349    0.300    4.874
  512.250   63.881    0.356    0.304    4.874
  512.500   61.456    0.365    0.312    4.784
  512.750   60.854    0.371    0.317    4.784
  513.000   62.089    0.376    0.318    4.695
  513.250   64.539    0.380    0.309    4.695
  513.500   66.383    0.379    0.302    4.785
  513.750   67.000    0.366    0.306    4.876
  514.000   67.011    0.366    0.310    5.258
  514.250   65.799    0.359    0.292    5.669
  514.500   62.762    0.347    0.180    6.113
  514.750   59.115    0.310    0.154    6.348
  515.000   57.907    0.287    0.151    6.469
  515.250   58.528    0.312    0.169    6.349
  515.500   58.542    0.321    0.205    6.001
  515.750   59.159    0.343    0.247    5.672
  516.000   60.999    0.359    0.259    5.361
  516.250   62.839    0.366    0.268    5.163
  516.500   64.069    0.367    0.277    5.067
  516.750   64.081    0.364    0.286    5.067
  517.000   66.534    0.344    0.286    4.973
  517.250   67.765    0.334    0.279    4.974
  517.500   67.775    0.328    0.279    4.974
  517.750   65.345    0.333    0.281    5.069
  518.000   62.308    0.338    0.280    5.069
  518.250   62.323    0.341    0.269    5.166
  518.500   64.161    0.349    0.258    5.166
  518.750   66.001    0.350    0.246    5.167
  519.000   67.840    0.352    0.239    4.976
  519.250   69.680    0.356    0.241    4.884
  519.500   70.913    0.370    0.251    4.530
  519.750   72.141    0.366    0.252    4.281
  520.000   74.593    0.361    0.251    3.971
  520.250   74.602    0.366    0.267    3.971
  520.500   73.394    0.377    0.282    4.047
  520.750   74.627    0.368    0.296    4.282
  521.000   75.245    0.320    0.299    4.795
  521.250   73.430    0.297    0.267    5.574
  521.500   72.223    0.299    0.139    6.360
  521.750   73.453    0.303    0.140    7.394
  522.000   73.461    0.299    0.155    8.759
  522.250   61.891    0.280    0.128    9.624
  522.500   56.410    0.234    0.086   10.377
  522.750   50.324    0.226    0.108   10.378
  523.000   51.555    0.288    0.138    9.995
  523.250   59.499    0.321    0.187    8.929
  523.500   63.165    0.347    0.224    7.260
  523.750   67.441    0.364    0.235    6.485
  524.000   71.723    0.358    0.221    5.903
  524.250   74.784    0.346    0.209    5.793
  524.500   73.574    0.333    0.194    5.579
  524.750   69.317    0.354    0.193    5.686
  525.000   66.279    0.376    0.194    5.686
  525.250   68.728    0.386    0.194    5.687
  525.500   72.398    0.358    0.194    5.687
  525.750   72.409    0.365    0.193    5.796
  526.000   73.640    0.379    0.192    5.796
  526.250   76.704    0.387    0.200    5.796
  526.500   78.543    0.374    0.205    5.797
  526.750   80.992    0.361    0.199    5.797
  527.000   82.832    0.352    0.189    5.908
  527.250   84.063    0.354    0.186    6.020
  527.500   81.634    0.363    0.202    6.135
  527.750   74.938    0.358    0.211    6.492
  528.000   74.951    0.332    0.202    6.741
  528.250   78.622    0.325    0.202    7.269
  528.500   80.459    0.313    0.195    7.548
  528.750   82.909    0.318    0.188    7.838
  529.000   75.603    0.318    0.176    8.452
  529.250   70.127    0.318    0.165    8.613
  529.500   66.479    0.316    0.186    8.944
  529.750   68.322    0.312    0.205    9.464
  530.000   69.550    0.302    0.196   10.597
  530.250   64.075    0.262    0.158   11.864
  530.500   62.255    0.252    0.097   12.320
  530.750   64.097    0.263    0.094   11.005
  531.000   72.036    0.319    0.117    9.648
  531.250   78.751    0.348    0.157    8.457
  531.500   85.469    0.366    0.179    7.007
  531.750   91.583    0.362    0.193    6.622
  532.000   94.028    0.346    0.201    6.259
  532.250   98.918    0.338    0.198    6.143
  532.500   94.055    0.334    0.216    6.143
  532.750   89.794    0.344    0.227    6.380
  533.000   92.857    0.350    0.228    6.380
  533.250   93.475    0.346    0.222    6.145
  533.500   87.390    0.342    0.213    5.918
  533.750   85.575    0.342    0.209    5.808
  534.000   86.192    0.345    0.214    5.809
  534.250   87.423    0.345    0.217    5.701
  534.500   86.823    0.353    0.186    5.388
  534.750   83.786    0.361    0.167    5.189
  535.000   85.019    0.357    0.172    4.724
  535.250   88.689    0.358    0.188    3.913
  535.500   91.137    0.386    0.205    3.367
  535.750   92.366    0.421    0.230    2.636
  536.000   90.548    0.449    0.253    2.355
  536.250   88.121    0.461    0.271    2.064
  536.500   85.695    0.470    0.278    1.844
  536.750   83.265    0.461    0.280    1.743
  537.000   78.402    0.449    0.267    1.678
  537.250   77.800    0.441    0.257    1.710
  537.500   81.471    0.434    0.256    1.810
  537.750   86.971    0.430    0.254    1.989
  538.000   89.418    0.428    0.248    2.227
  538.250   88.212    0.416    0.233    2.447
  538.500   85.173    0.401    0.221    2.791
  538.750   83.356    0.369    0.185    3.370
