~VERSION INFORMATION
 VERS.                 2.0:   CWLS LOG ASCII STANDARD -VERSION 2.0
 WRAP.                  NO:   ONE LINE PER DEPTH STEP
~WELL INFORMATION BLOCK
#MNEM.UNIT           DATA                    DESCRIPTION OF MNEMONIC
#---------    -------------------            -------------------------------
# Generated from Intellog Unique Number	CW_73_75/WELL/1030
WELL.         CHEVRON ET AL ROCK 10-33       : Well_name    - WELL
LOC .         00/10-33-075-22W4/0            : Location     - LOCATION
UWI .         00/10-33-075-22W4/0            : Uwi          - UNIQUE WELL ID
ENTR.         JAYE                           : Entered      - ENTERED BY
SRVC.         SCHLUMBERGER                   : Scn          - SERVICE COMPANY
DATE.         14 JAN 73                      : Date         - LOG DATE
STRT.M        371.856                        : top_depth    - START DEPTH
STOP.M        655.356                        : bot_depth    - STOP DEPTH
STEP.M        0.25                           : increment    - STEP LENGTH
 NULL. -999.2500:NULL Value
~CURVE INFORMATION BLOCK
#MNEM UNIT       ERCB CURVE CODE    CURVE DESCRIPTION
#-----------   ------------------   ----------------------------------
DEPT.M        00 001 00 00         : DEPTH        - DEPTH
ILD .OHMM     00 120 00 00         : RESD         - DEEP RESISTIVITY (DLL)
NPHI.V/V      00 330 00 00         : PHIN         - NEUTRON POROSITY (SANDSTONE)
DPHI.V/V      00 890 00 00         : PHID         - DENSITY POROSITY (SANDSTONE)
GR  .API      00 310 00 00         : GR           - GAMMA RAY
CALI.MM       00 280 01 00         : CAL          - CALIPER
~PARAMETER INFORMATION
#MNEM.UNIT           DATA             DESCRIPTION OF MNEMONIC
#---------         -----------     ------------------------------
GL  .M        669.036              : gl           - GROUND LEVEL ELEVATION
EREF.M        672.267              : kb           - ELEVATION OF DEPTH REFERENCE
DATM.M        669.036              : datum        - DATUM ELEVATION
TDD .M        603.504              : tdd          - TOTAL DEPTH DRILLER
RUN .         ONE                  : Run          - RUN NUMBER
MATR.         SANDSTONE            : Logunit      - NEUTRON MATRIX
TMAX.C        32.7778              : BHT          - MAXIMUM RECORDED TEMPERATURE
BHTD.M        603.199              : BHTDEP       - MAXIMUM RECORDED TEMPERATURE
RMT .C        18.8889              : MDTP         - TEMPERATURE OF MUD
MUDD.KG/M     0                    : MWT          - MUD DENSITY
NEUT.         0                    : NEUTRON      - NEUTRON TYPE
RESI.         1                    : RESIST       - RESISTIVITY TYPE
RM  .OHMM     0                    : RM           - RESISTIVITY OF MUD
RMC .OHMM     3.5                  : RMC          - RESISTIVITY OF MUD CAKE
RMF .OHMM     3.51                 : RMF          - RESISTIVITY OF MUD FILTRATE
SUFT.C        -17.7778             : SUFT         - SURFACE TEMPERATURE
~A  DEPTH     RESD     PHIN     PHID       GR      CAL
# ...
  554.356   20.775    0.335    0.233   55.667  210.681
  554.606   18.613    0.327    0.239   59.886  210.561
  554.856   17.759    0.339    0.224   65.332  210.858
  555.106   17.699    0.370    0.205   70.531  210.947
  555.356   19.300    0.390    0.183   73.279  211.034
  555.606   23.209    0.407    0.212   62.363  210.709
  555.856   27.291    0.398    0.234   52.673  210.071
  556.106   32.090    0.382    0.241   45.985  209.848
  556.356   37.124    0.376    0.233   46.772  210.041
  556.606   36.928    0.359    0.236   47.928  210.647
  556.856   32.730    0.343    0.244   49.880  210.945
  557.106   28.792    0.349    0.241   51.648  211.760
  557.356   26.772    0.372    0.227   52.743  212.679
  557.606   25.765    0.381    0.215   53.407  213.285
  557.856   26.606    0.362    0.226   54.501  213.270
  558.106   28.476    0.360    0.226   56.025  212.943
  558.356   34.805    0.380    0.239   53.442  212.513
  558.606   43.894    0.398    0.260   51.166  212.395
  558.856   54.835    0.383    0.254   49.135  211.756
  559.106   59.153    0.377    0.246   48.759  211.744
  559.356   54.395    0.389    0.263   49.301  211.313
  559.606   45.550    0.380    0.258   50.763  210.986
  559.856   38.759    0.361    0.252   52.469  211.283
  560.106   34.598    0.359    0.248   54.237  211.681
  560.356   31.638    0.373    0.245   56.190  211.668
  560.606   30.117    0.380    0.239   58.509  211.757
  560.856   28.575    0.372    0.232   60.339  212.053
  561.106   26.803    0.353    0.223   62.046  212.453
  561.356   24.874    0.362    0.221   63.385  212.750
  561.606   23.381    0.369    0.223   65.642  213.251
  561.856   22.460    0.374    0.213   67.473  213.444
  562.106   21.233    0.378    0.227   70.712  213.638
  562.356   20.027    0.363    0.210   70.703  213.934
  562.606   19.063    0.341    0.189   68.242  214.642
  562.856   17.987    0.313    0.166   67.254  214.838
  563.106   17.062    0.294    0.160   67.490  215.032
  563.356   15.951    0.300    0.173   68.338  215.223
  563.606   15.069    0.331    0.192   69.249  215.313
  563.856   14.323    0.356    0.208   70.894  215.505
  564.106   14.067    0.366    0.199   71.989  215.694
  564.356   13.972    0.388    0.187   73.328  215.990
  564.606   14.056    0.366    0.164   75.096  216.183
  564.856   14.059    0.308    0.138   78.090  216.481
  565.106   13.486    0.276    0.118   79.795  216.571
  565.356   12.723    0.240    0.086   77.214  216.554
  565.606   11.870    0.266    0.033   78.982  216.645
  565.856   11.012    0.322    0.036   84.181  216.837
  566.106   10.106    0.355    0.119   88.645  217.133
  566.356    9.379    0.358    0.123   91.088  217.532
  566.606    8.735    0.340    0.136   91.385  217.515
  566.856    8.150    0.341    0.149   92.847  217.399
  567.106    7.829    0.352    0.142   96.392  217.073
  567.356    7.550    0.371    0.123  102.756  216.537
  567.606    7.283    0.367    0.118  101.644  216.523
  567.856    7.167    0.365    0.118   97.652  216.405
  568.106    7.091    0.358    0.141   97.214  216.492
  568.356    7.093    0.362    0.165  100.698  216.789
  568.606    7.097    0.375    0.142  103.691  216.775
  568.856    7.152    0.385    0.132  107.053  216.761
  569.106    7.196    0.374    0.113  107.290  216.329
  569.356    7.226    0.384    0.128  101.459  216.108
  569.606    7.283    0.394    0.127   96.119  215.988
  569.856    7.339    0.384    0.131   92.863  216.285
  570.106    7.395    0.387    0.138   92.854  216.685
  570.356    7.427    0.364    0.152   94.377  216.774
  570.606    7.268    0.380    0.163   97.064  216.966
  570.856    6.919    0.434    0.172   99.997  215.498
  571.106    6.467    0.554    0.257  101.398  212.060
  571.356    6.004    0.593    0.280  104.391  210.281
  571.606    6.014    0.605    0.220  109.162  210.992
  571.856    6.730    0.550    0.219  111.236  212.119
  572.106    8.181    0.502    0.243   94.315  213.866
  572.356   11.839    0.450    0.257   81.744  214.681
  572.606   13.545    0.417    0.272   78.182  215.395
  572.856   13.802    0.425    0.290   79.154  215.896
  573.106   12.145    0.401    0.244   88.335  216.090
  573.356    9.999    0.394    0.205  101.257  215.866
  573.606    8.129    0.432    0.178  108.478  215.850
  573.856    7.231    0.450    0.168  113.004  215.942
  574.106    7.063    0.477    0.159  113.608  216.030
  574.356    7.577    0.501    0.186  109.799  215.910
  574.606    8.750    0.596    0.213  104.459  216.208
  574.856   10.753    0.600    0.236  100.039  215.984
  575.106   13.732    0.534    0.267   90.839  214.827
  575.356   17.191    0.489    0.297   73.489  213.775
  575.606   20.180    0.483    0.357   63.676  212.827
  575.856   17.435    0.561    0.382   55.823  211.983
  576.106   14.998    0.591    0.504   50.361  210.929
  576.356   12.580    0.612    0.499   45.696  210.083
  576.606   10.455    0.352    0.326   43.725  210.380
  576.856    9.115    0.329    0.267   41.817  210.364
  577.106    8.243    0.308    0.257   40.215  210.660
  577.356    7.482    0.288    0.243   40.267  210.645
  577.606    6.852    0.289    0.248   42.158  210.319
  577.856    6.244    0.309    0.265   45.704  209.994
  578.106    5.867    0.336    0.262   50.045  209.668
  578.356    5.536    0.350    0.274   51.630  209.444
  578.606    5.329    0.371    0.286   52.907  209.327
  578.856    5.234    0.387    0.307   55.042  208.997
  579.106    5.140    0.373    0.308   60.549  208.879
  579.356    5.096    0.381    0.293   67.709  208.970
  579.606    5.144    0.402    0.279   83.081  208.954
  579.856    5.253    0.439    0.299   86.687  209.146
  580.106    5.412    0.526    0.319   80.857  209.132
  580.356    5.365    0.534    0.348   74.659  209.115
  580.606    5.193    0.438    0.335   68.829  209.207
  580.856    5.243    0.409    0.279   61.529  209.293
  581.106    5.393    0.363    0.268   69.486  209.488
  581.356    5.484    0.462    0.286   81.058  209.782
  581.606    5.309    0.543    0.311   84.236  210.080
  581.856    5.018    0.491    0.320   64.128  210.685
  582.106    4.795    0.361    0.275   58.236  211.086
  582.356    4.717    0.353    0.271   66.314  211.280
  582.606    4.860    0.359    0.263   73.047  211.368
  582.856    5.025    0.383    0.252   96.139  211.457
  583.106    5.343    0.413    0.244  101.278  211.442
  583.356    5.913    0.485    0.258  104.088  211.322
  583.606    6.954    0.562    0.277  109.165  210.997
  583.856    7.728    0.605    0.256  111.483  210.151
  584.106    8.106    0.606    0.255  111.842  209.617
  584.356    8.555    0.573    0.276  116.369  209.187
  584.606    8.844    0.551    0.304  116.789  209.070
  584.856    8.769    0.571    0.274  114.144  209.885
  585.106    8.518    0.576    0.307  122.409  213.190
  585.356    8.215    0.389    0.289  129.814  214.628
  585.606    8.086    0.353    0.263  135.320  209.633
  585.856    7.912    0.390    0.253  216.868  208.890
  586.106    7.615    0.406    0.248  250.868  209.185
  586.356    7.105    0.479    0.237  262.501  209.586
  586.606    6.378    0.478    0.248  283.203  209.884
  586.856    5.539    0.416    0.295  295.572  210.284
  587.106    4.883    0.378    0.280   88.452  209.851
  587.356    4.473    0.397    0.274   93.713  209.318
  587.606    4.360    0.447    0.228  101.547  208.991
  587.856    4.800    0.554    0.213  112.506  208.664
  588.106    5.264    0.402    0.230  118.563  208.443
  588.356    5.637    0.396    0.230  106.974  208.118
  588.606    6.161    0.440    0.237  113.093  208.830
  588.856    6.645    0.505    0.254  130.976  210.889
  589.106    7.129    0.529    0.273  133.664  211.808
  589.356    7.647    0.543    0.247  107.061  211.586
  589.606    8.233    0.380    0.209   76.905  209.185
  589.856    8.595    0.344    0.222   84.004  209.896
  590.106    8.613    0.326    0.171   89.081  211.851
  590.356    8.460    0.347    0.118   89.685  213.601
  590.606    8.219    0.373    0.094   92.923  216.906
