~VERSION INFORMATION
 VERS.                 2.0:   CWLS LOG ASCII STANDARD -VERSION 2.0
 WRAP.                  NO:   ONE LINE PER DEPTH STEP
~WELL INFORMATION BLOCK
#MNEM.UNIT           DATA                    DESCRIPTION OF MNEMONIC
#---------    -------------------            -------------------------------
# Generated from Intellog Unique Number	CC_84_87/WELL/2344
NULL.         -999.25                        : NULL_VALUE
WELL.         PARA ET AL SALESKI             : Well_name    - WELL
LOC .         13-23-086-18W4                 : Location     - LOCATION          
UWI .         00/13-23-086-18W400            : Uwi          - UNIQUE WELL ID    
ENTR.         DW                             : Entered      - ENTERED BY        
SRVC.         COMPUTALOG                     : Scn          - SERVICE COMPANY   
DATE.         01 FEB 86                      : Date         - LOG DATE
STRT.M        85                             : top_depth    - START DEPTH       
STOP.M        244.902                        : bot_depth    - STOP DEPTH        
STEP.M        0.3                            : increment    - STEP LENGTH       
~CURVE INFORMATION BLOCK
#MNEM UNIT       ERCB CURVE CODE    CURVE DESCRIPTION
#-----------   ------------------   ----------------------------------
DEPT.M        00 001 00 00         : DEPTH        - DEPTH                       
DPHI.V/V      00 890 00 00         : PHID         - DENSITY POROSITY (LIMESTONE)
NPHI.V/V      00 330 00 00         : PHIN         - NEUTRON POROSITY (LIMESTONE)
GR  .API      00 310 00 00         : GR           - GAMMA RAY                   
ILD .OHMM     00 120 00 00         : RESD         - DEEP RESISTIVITY (DIL)      
~PARAMETER INFORMATION       
#MNEM.UNIT           DATA             DESCRIPTION OF MNEMONIC
#---------         -----------     ------------------------------
GL  .M        507.1                : gl           - GROUND LEVEL ELEVATION      
EREF.M        510.9                : kb           - ELEVATION OF DEPTH REFERENCE
DATM.M        510.9                : datum        - DATUM ELEVATION             
TDD .M        248                  : tdd          - TOTAL DEPTH DRILLER         
RUN .         ONE                  : Run          - RUN NUMBER                  
ENG .         BILL                 : Engineer     - RECORDING ENGINEER          
WIT .         JIM                  : Witness      - WITNESSED BY                
MUD .         GEL                  : Mud_type     - MUD TYPE                    
MATR.         LIMESTONE            : Logunit      - NEUTRON MATRIX              
TMAX.C        38                   : BHT          - MAXIMUM RECORDED TEMPERATURE
BHTD.M        2482                 : BHTDEP       - MAXIMUM RECORDED TEMPERATURE
MATR.         1                    : LOGUNIT      - NEUTRON MATRIX              
RMT .C        25                   : MDTP         - TEMPERATURE OF MUD          
NEUT.         1                    : NEUTRON      - NEUTRON TYPE                
RESI.         0                    : RESIST       - RESISTIVITY TYPE            
RMC .OHMM     0.25                 : RMC          - RESISTIVITY OF MUD CAKE     
RMF .OHMM     0.25                 : RMF          - RESISTIVITY OF MUD FILTRATE 
SUFT.C        15                   : SUFT         - SURFACE TEMPERATURE         
~A  DEPTH     PHID     PHIN       GR     RESD
   85.000    0.410    0.249   63.550    0.000
   85.300    0.404    0.265   60.373   53.388
   85.600    0.396    0.297   58.468   47.555
   85.900    0.392    0.309   68.002   39.964
   86.200    0.390    0.306   71.180   32.301
   86.500    0.394    0.300   61.649   24.636
   86.800    0.395    0.296   55.931   20.304
   87.100    0.392    0.289   55.933   17.397
   87.400    0.382    0.289   58.475   16.105
   87.700    0.356    0.351   61.654   14.626
   88.000    0.337    0.391   61.020   14.079
   88.300    0.316    0.419   62.293   14.367
   88.600    0.291    0.390   63.565   15.837
   88.900    0.048    0.253   63.566   19.615
   89.200    0.001    0.213   59.754   24.296
   89.500    0.004    0.183   52.765   27.314
   89.800    0.073    0.182   52.766   27.866
   90.100    0.107    0.249   69.290   23.416
   90.400    0.158    0.283   92.805   18.206
   90.700    0.228    0.394  106.151   14.434
   91.000    0.278    0.438  100.433   14.443
   91.300    0.230    0.411   73.108   17.890
   91.600    0.097    0.226   57.858   21.318
   91.900    0.201    0.257   48.962   22.172
   92.200    0.300    0.309   45.150   21.762
   92.500    0.345    0.351   50.871   17.934
   92.800    0.345    0.392   59.769   15.072
   93.100    0.294    0.410   63.583   12.918
   93.400    0.263    0.404   59.136   12.194
   93.700    0.324    0.402   51.511   11.735
   94.000    0.350    0.420   50.241   11.741
   94.300    0.349    0.413   48.336   12.454
   94.600    0.352    0.397   45.160   12.703
   94.900    0.353    0.405   40.713   13.739
   95.200    0.358    0.414   40.714   14.859
   95.500    0.363    0.419   42.622   15.158
   95.800    0.364    0.420   42.623   15.765
   96.100    0.359    0.395   41.353   16.723
   96.400    0.362    0.386   39.448   17.057
   96.700    0.377    0.390   39.449   17.404
   97.000    0.380    0.392   41.992   17.760
   97.300    0.373    0.399   45.171   17.768
   97.600    0.376    0.411   45.808   17.785
   97.900    0.374    0.419   45.173   18.142
   98.200    0.372    0.402   44.539   18.505
   98.500    0.371    0.396   41.998   18.879
   98.800    0.374    0.396   43.271   19.259
   99.100    0.376    0.415   42.636   20.037
   99.400    0.371    0.410   40.096   20.045
   99.700    0.359    0.358   38.191   20.454
  100.000    0.355    0.347   38.827   20.467
  100.300    0.364    0.354   40.735   19.696
  100.600    0.382    0.386   43.278   18.241
  100.900    0.388    0.385   44.551   17.556
  101.200    0.387    0.374   44.551   16.901
  101.500    0.376    0.382   42.011   17.238
  101.800    0.363    0.410   41.376   17.587
  102.100    0.374    0.426   40.742   17.262
  102.400    0.376    0.420   43.285   16.616
  102.700    0.352    0.410   52.183   15.383
  103.000    0.307    0.429   62.353   14.243
  103.300    0.334    0.440   62.354   14.252
  103.600    0.369    0.449   56.000   15.119
  103.900    0.382    0.444   49.647   15.722
  104.200    0.381    0.424   47.106   17.003
  104.500    0.376    0.395   47.107   16.364
  104.800    0.373    0.379   49.015   16.379
  105.100    0.373    0.379   51.558   16.709
  105.400    0.376    0.400   50.924   16.716
  105.700    0.378    0.422   49.019   16.728
  106.000    0.377    0.438   49.020   16.738
  106.300    0.376    0.425   45.843   16.750
  106.600    0.377    0.378   48.387   16.441
  106.900    0.367    0.369   52.837   16.447
  107.200    0.358    0.397   53.473   16.144
  107.500    0.353    0.410   46.484   15.841
  107.800    0.364    0.396   43.307   15.547
  108.100    0.371    0.371   50.299   15.260
  108.400    0.363    0.396   56.655   14.686
  108.700    0.327    0.417   54.115   13.598
  109.000    0.300    0.429   54.752   12.348
  109.300    0.333    0.421   57.931   10.377
  109.600    0.338    0.406   60.474    9.607
  109.900    0.341    0.397   60.475    8.392
  110.200    0.350    0.403   61.111    7.332
  110.500    0.326    0.431   66.832    6.658
  110.800    0.311    0.444   73.824    6.285
  111.100    0.312    0.449   72.554    6.290
  111.400    0.317    0.432   73.191    6.294
  111.700    0.308    0.413   83.360    6.423
  112.000    0.320    0.449   91.622    6.552
  112.300    0.346    0.477   80.820    6.682
  112.600    0.354    0.481   63.028    7.513
  112.900    0.315    0.462   66.207    8.446
  113.200    0.263    0.410   66.208    9.133
  113.500    0.255    0.364   66.209    9.687
  113.800    0.278    0.379   68.752   10.075
  114.100    0.284    0.411   71.931   10.479
  114.400    0.288    0.402   73.203   10.488
  114.700    0.302    0.391   69.391   10.292
  115.000    0.316    0.393   63.673   10.499
  115.300    0.316    0.394   56.684   10.714
  115.600    0.311    0.394   56.049   10.932
  115.900    0.312    0.415   65.583   11.373
  116.200    0.320    0.431   63.042   11.602
  116.500    0.330    0.413   57.960   11.832
  116.800    0.334    0.398   59.232   12.074
  117.100    0.332    0.396   61.776   12.316
  117.400    0.327    0.405   61.776   12.810
  117.700    0.313    0.408   61.778   14.405
  118.000    0.183    0.379   61.143   14.691
  118.300    0.224    0.349   65.593   14.142
  118.600    0.267    0.368   58.604   12.117
  118.900    0.310    0.418   70.044   11.003
  119.200    0.324    0.437   63.055   10.590
  119.500    0.321    0.416   62.421   10.805
  119.800    0.263    0.353   65.599   11.461
  120.100    0.150    0.316   64.965   12.392
  120.400    0.115    0.283   59.247   13.401
  120.700    0.115    0.274   55.435   13.670
  121.000    0.179    0.291   54.166   13.161
  121.300    0.242    0.331   57.980   12.424
  121.600    0.282    0.379   60.523   11.959
  121.900    0.318    0.404   63.066   11.291
  122.200    0.323    0.420   64.338   10.867
  122.500    0.329    0.423   59.891   10.664
  122.800    0.330    0.396   63.705   10.266
  123.100    0.316    0.391   64.978   10.271
  123.400    0.308    0.398   63.072   10.480
  123.700    0.303    0.413   59.261   10.484
  124.000    0.306    0.423   56.720   10.905
  124.300    0.315    0.430   56.085   10.915
  124.600    0.316    0.435   61.806   10.920
  124.900    0.317    0.402   66.256   11.144
  125.200    0.318    0.389   66.892   11.148
  125.500    0.315    0.417   66.258   11.824
  125.800    0.309    0.394   64.353   12.063
  126.100    0.306    0.383   64.354   12.306
  126.400    0.316    0.404   65.627   12.556
  126.700    0.316    0.402   64.356   12.564
  127.000    0.311    0.393   63.087   12.573
  127.300    0.311    0.392   64.359   12.577
  127.600    0.320    0.399   64.996   12.587
  127.900    0.322    0.404   61.184   12.355
  128.200    0.323    0.403   60.550   12.361
  128.500    0.323    0.402   63.093   12.370
  128.800    0.314    0.399   64.365   12.376
  129.100    0.306    0.408   66.909   12.387
  129.400    0.311    0.418   64.368   12.394
  129.700    0.316    0.426   64.369   12.642
  130.000    0.287    0.411   68.183   13.668
  130.300    0.178    0.349   61.194   15.974
  130.600    0.216    0.302   56.747   15.983
  130.900    0.280    0.337   65.645   14.516
  131.200    0.302    0.378   66.282   13.181
  131.500    0.299    0.408   61.834   11.742
  131.800    0.312    0.413   62.471   11.299
  132.100    0.317    0.398   68.828   10.878
  132.400    0.309    0.392   72.642   10.884
  132.700    0.290    0.414   73.278   10.896
  133.000    0.289    0.440   73.279   10.692
  133.300    0.293    0.444   73.281   10.287
  133.600    0.283    0.428   72.646   10.297
  133.900    0.278    0.408   70.741   10.300
  134.201    0.285    0.384   68.836   10.308
  134.501    0.297    0.380   68.202   10.312
  134.801    0.285    0.414   70.109   10.521
  135.101    0.275    0.421   70.111   12.297
  135.401    0.256    0.408   69.476   13.296
  135.701    0.124    0.365   62.487   13.564
  136.001    0.165    0.288   55.498   13.059
  136.301    0.268    0.287   66.938   12.089
  136.601    0.276    0.326   74.565   10.769
  136.901    0.273    0.375   76.473   10.168
