~VERSION INFORMATION
 VERS.                 2.0:   CWLS LOG ASCII STANDARD -VERSION 2.0
 WRAP.                  NO:   ONE LINE PER DEPTH STEP
~WELL INFORMATION BLOCK
#MNEM.UNIT           DATA                    DESCRIPTION OF MNEMONIC
#---------    -------------------            -------------------------------
# Generated from Intellog Unique Number	CX_WELLS/WELL/2330
WELL.         CHIEFCO ET AL SALESKI          : Well_name    - WELL
LOC .         00/15-04-088-18W4/0            : Location     - LOCATION
UWI .         00/15-04-088-18W400            : Uwi          - UNIQUE WELL ID
ENTR.         RJA                            : Entered      - ENTERED BY
SRVC.         SCHLUMBERGER                   : Scn          - SERVICE COMPANY
STRT.M        100                            : top_depth    - START DEPTH
STOP.M        226                            : bot_depth    - STOP DEPTH
STEP.M        0.25                           : increment    - STEP LENGTH
 NULL. -999.2500:NULL Value
~CURVE INFORMATION BLOCK
#MNEM UNIT       ERCB CURVE CODE    CURVE DESCRIPTION
#-----------   ------------------   ----------------------------------
DEPT.M        00 001 00 00         : DEPTH        - DEPTH
GR  .API      00 310 00 00         : GR           - GAMMA RAY
NPHI.V/V      00 330 00 00         : PHIN         - NEUTRON POROSITY (SANDSTONE)
DPHI.V/V      00 890 00 00         : PHID         - DENSITY POROSITY (SANDSTONE)
ILD .OHMM     00 120 00 00         : RESD         - DEEP RESISTIVITY (DIL)
~PARAMETER INFORMATION
#MNEM.UNIT           DATA             DESCRIPTION OF MNEMONIC
#---------         -----------     ------------------------------
GL  .M        518.8                : gl           - GROUND LEVEL ELEVATION
EREF.M        522.2                : kb           - ELEVATION OF DEPTH REFERENCE
DATM.M        522.2                : datum        - DATUM ELEVATION
TDD .M        227.3                : tdd          - TOTAL DEPTH DRILLER
RUN .         ONE                  : Run          - RUN NUMBER
ENG .         BILL                 : Engineer     - RECORDING ENGINEER
WIT .         JIM                  : Witness      - WITNESSED BY
MUD .         GEL                  : Mud_type     - MUD TYPE
MATR.         SANDSTONE            : Logunit      - NEUTRON MATRIX
TMAX.C        27                   : BHT          - MAXIMUM RECORDED TEMPERATURE
BHTD.M        227.3                : BHTDEP       - MAXIMUM RECORDED TEMPERATURE
MATR.         1                    : LOGUNIT      - NEUTRON MATRIX
RMT .C        25                   : MDTP         - TEMPERATURE OF MUD
NEUT.         1                    : NEUTRON      - NEUTRON TYPE
RESI.         0                    : RESIST       - RESISTIVITY TYPE
RMC .OHMM     0.25                 : RMC          - RESISTIVITY OF MUD CAKE
RMF .OHMM     0.25                 : RMF          - RESISTIVITY OF MUD FILTRATE
SUFT.C        15                   : SUFT         - SURFACE TEMPERATURE
~A  DEPTH       GR     PHIN     PHID     RESD
# ...
  187.000  108.837    0.357    0.149    9.611
  187.250  109.513    0.358    0.141    9.821
  187.500  109.568    0.360    0.132   10.037
  187.750  109.590    0.361    0.123    9.698
  188.000  109.644    0.361    0.121    9.365
  188.250  109.677    0.360    0.138    9.570
  188.500  110.353    0.358    0.163    9.780
  188.750  111.019    0.354    0.165    9.807
  189.000  111.062    0.352    0.164    9.483
  189.250  111.095    0.350    0.155    9.318
  189.500  111.161    0.349    0.113    9.169
  189.750  111.204    0.347    0.123    9.036
  190.000  111.248    0.344    0.144    9.054
  190.250  111.281    0.343    0.153    8.910
  190.500  111.335    0.344    0.143    9.105
  190.750  110.746    0.344    0.128    9.482
  191.000  108.304    0.344    0.094    9.690
  191.250  106.483    0.339    0.090    9.902
  191.500  105.916    0.336    0.115    9.751
  191.750  107.813    0.336    0.179    9.778
  192.000  109.732    0.337    0.175   10.183
  192.250  110.409    0.337    0.170   11.223
  192.500  110.452    0.338    0.165   11.679
  192.750  109.253    0.337    0.163   11.952
  193.000  108.664    0.334    0.166   11.541
  193.250  108.086    0.331    0.184   11.144
  193.500  106.886    0.327    0.189   11.175
  193.750  105.687    0.323    0.192   11.646
  194.000  104.487    0.318    0.192   12.128
  194.250  104.531    0.311    0.191   12.385
  194.500  105.196    0.308    0.187   13.143
  194.750  106.505    0.307    0.183   13.688
  195.000  107.803    0.306    0.175   13.988
  195.250  108.446    0.306    0.154   14.027
  195.500  108.501    0.302    0.113   13.803
  195.750  108.544    0.297    0.115   13.337
  196.000  109.210    0.302    0.149   12.878
  196.250  109.875    0.306    0.166   11.975
  196.500  111.794    0.309    0.185   11.555
  196.750  112.449    0.311    0.195   11.370
  197.000  113.103    0.316    0.189   11.635
  197.250  114.412    0.319    0.182   11.652
  197.500  115.698    0.329    0.174   11.692
  197.750  116.364    0.329    0.166   11.505
  198.000  116.407    0.327    0.162   10.498
  198.250  117.073    0.325    0.163    9.578
  198.500  117.116    0.322    0.169    8.745
  198.750  117.149    0.321    0.176    8.275
  199.000  117.825    0.322    0.180    7.694
  199.250  118.490    0.326    0.182    7.430
  199.500  119.788    0.326    0.183    8.350
  199.750  121.075    0.327    0.183    9.209
  200.000  120.497    0.328    0.180    9.584
  200.250  117.444    0.330    0.169    9.981
  200.500  116.222    0.329    0.153   10.592
  200.750  113.780    0.327    0.117   10.438
  201.000  110.105    0.325    0.125    9.876
  201.250  108.284    0.321    0.143    9.189
  201.500  110.814    0.320    0.154    8.385
  201.750  112.711    0.326    0.156    7.796
  202.000  114.620    0.334    0.156    7.387
  202.250  119.025    0.339    0.155    7.269
  202.500  121.566    0.346    0.151    7.153
  202.750  123.464    0.352    0.150    7.039
  203.000  125.994    0.350    0.150    7.058
  203.250  126.659    0.347    0.150    7.223
  203.500  125.470    0.343    0.153    7.371
  203.750  125.514    0.340    0.158    7.533
  204.000  125.569    0.339    0.160    7.850
  204.250  125.601    0.336    0.170    8.331
  204.500  126.289    0.333    0.183    9.188
  204.750  126.310    0.331    0.187   10.119
  205.000  126.365    0.328    0.180   11.582
  205.250  125.787    0.326    0.168   13.265
  205.500  125.198    0.323    0.157   14.346
  205.750  124.620    0.319    0.149   14.386
  206.000  124.042    0.312    0.133   14.166
  206.250  121.611    0.306    0.084   13.940
  206.500  119.789    0.297    0.042   12.971
  206.750  117.968    0.290    0.026   12.290
  207.000  116.758    0.290    0.067   11.859
  207.250  116.191    0.298    0.129   11.662
  207.500  118.732    0.305    0.154   11.261
  207.750  120.640    0.310    0.165   10.881
  208.000  121.306    0.309    0.172   11.776
  208.250  118.863    0.303    0.178   12.745
  208.500  116.431    0.296    0.173   13.254
  208.750  114.588    0.284    0.168   14.334
  209.000  112.145    0.283    0.166   15.820
  209.250  110.324    0.280    0.164   16.166
  209.500  107.882    0.277    0.162   16.521
  209.750  106.061    0.274    0.159   15.654
  210.000  106.726    0.276    0.154   14.016
  210.250  109.256    0.282    0.147   13.023
  210.500  111.797    0.296    0.141   12.815
  210.750  113.705    0.306    0.136   12.851
  211.000  112.506    0.312    0.130   13.132
  211.250  110.696    0.317    0.111   13.420
  211.500  109.485    0.322    0.100   13.457
  211.750  106.432    0.324    0.088   12.513
  212.000  104.600    0.326    0.069   11.425
  212.250  101.546    0.330    0.065   10.438
  212.500  100.358    0.332    0.091   10.066
  212.750  100.380    0.335    0.123    9.352
  213.000  100.445    0.337    0.136    9.557
  213.250  100.467    0.338    0.152   10.336
  213.500  101.132    0.340    0.177   11.839
  213.750   97.446    0.342    0.204   14.082
  214.000   85.680    0.341    0.252   17.057
  214.250   82.626    0.339    0.290   21.055
  214.500   78.308    0.336    0.294   32.015
  214.750   71.514    0.333    0.295   45.998
  215.000   60.991    0.328    0.294   62.490
  215.250   56.062    0.322    0.289   68.824
  215.500   53.630    0.315    0.283   73.040
  215.750   52.431    0.312    0.280   76.064
  216.000   51.853    0.312    0.280   74.900
  216.250   51.885    0.314    0.285   72.325
  216.500   53.194    0.319    0.291   69.838
  216.750   53.837    0.325    0.292   68.722
  217.000   54.503    0.327    0.288   68.914
  217.250   56.433    0.329    0.282   71.767
  217.500   58.352    0.330    0.272   71.967
  217.750   59.007    0.331    0.268   72.168
  218.000   60.915    0.331    0.267   69.686
  218.250   62.813    0.332    0.268   66.030
  218.500   65.975    0.332    0.271   62.566
  218.750   67.873    0.333    0.272   60.415
  219.000   71.057    0.336    0.270   52.086
  219.250   72.954    0.338    0.268   43.241
  219.500   74.852    0.337    0.267   37.280
  219.750   78.636    0.335    0.265   34.639
  220.000   82.420    0.334    0.247   32.252
  220.250   84.928    0.335    0.223   31.693
  220.500   89.967    0.335    0.212   26.311
  220.750   93.729    0.336    0.129   17.744
  221.000   99.989    0.340    0.024   12.898
  221.250  106.248    0.340    0.083    9.199
  221.500  115.005    0.337    0.122    7.216
  221.750  118.778    0.346    0.148    5.150
  222.000  123.173    0.354    0.172    4.437
  222.250  125.081    0.360    0.164    3.684
  222.500  125.136    0.363    0.141    3.694
  222.750  123.326    0.364    0.119    4.312
  223.000  122.126    0.364    0.102    4.935
  223.250  122.170    0.367    0.098    5.439
  223.500  122.846    0.369    0.100    6.353
  223.750  124.111    0.369    0.107    7.001
  224.000  125.409    0.370    0.128    7.425
  224.250  127.306    0.377    0.159    8.339
  224.500  128.604    0.383    0.192   10.301
  224.750  128.637    0.390    0.205   12.716
  225.000  128.713    0.395    0.201   14.024
  225.250  128.735    0.395    0.171   14.605
  225.500  128.790    0.390    0.145   14.645
  225.750  128.833    0.387    0.150   14.697
  226.000  128.255    0.387    0.208   14.727
