~VERSION INFORMATION
 VERS.                 2.0:   CWLS LOG ASCII STANDARD -VERSION 2.0
 WRAP.                  NO:   ONE LINE PER DEPTH STEP
~WELL INFORMATION BLOCK
#MNEM.UNIT           DATA                    DESCRIPTION OF MNEMONIC
#---------    -------------------            -------------------------------
# Generated from Intellog Unique Number	CC_80_83/WELL/2379
NULL.         -999.25                        : NULL_VALUE
WELL.         GULF BOHN                      : Well_name    - WELL              
LOC .         10-27-081-07W4                 : Location     - LOCATION          
UWI .         00/10-27-081-07W4/0            : Uwi          - UNIQUE WELL ID    
ENTR.         DW                             : Entered      - ENTERED BY        
SRVC.         SCHLUMBERGER                   : Scn          - SERVICE COMPANY   
DATE.         19 FEB 79                      : Date         - LOG DATE
STRT.M        205                            : top_depth    - START DEPTH       
STOP.M        459.992                        : bot_depth    - STOP DEPTH        
STEP.M        0.3                            : increment    - STEP LENGTH       
~CURVE INFORMATION BLOCK
#MNEM UNIT       ERCB CURVE CODE    CURVE DESCRIPTION
#-----------   ------------------   ----------------------------------
DEPT.M        00 001 00 00         : DEPTH        - DEPTH                       
DPHI.V/V      00 890 00 00         : PHID         - DENSITY POROSITY (LIMESTONE)
NPHI.V/V      00 330 00 00         : PHIN         - NEUTRON POROSITY (LIMESTONE)
GR  .API      00 310 00 00         : GR           - GAMMA RAY                   
ILD .OHMM     00 120 00 00         : RESD         - DEEP RESISTIVITY (DIL)      
~PARAMETER INFORMATION       
#MNEM.UNIT           DATA             DESCRIPTION OF MNEMONIC
#---------         -----------     ------------------------------
GL  .M        656.2                : gl           - GROUND LEVEL ELEVATION      
EREF.M        659.9                : kb           - ELEVATION OF DEPTH REFERENCE
DATM.M        659.9                : datum        - DATUM ELEVATION             
TDD .M        510                  : tdd          - TOTAL DEPTH DRILLER         
RUN .         ONE                  : Run          - RUN NUMBER                  
ENG .         BILL                 : Engineer     - RECORDING ENGINEER          
WIT .         JIM                  : Witness      - WITNESSED BY                
MUD .         GEL                  : Mud_type     - MUD TYPE                    
MATR.         LIMESTONE            : Logunit      - NEUTRON MATRIX              
TMAX.C        20                   : BHT          - MAXIMUM RECORDED TEMPERATURE
BHTD.M        510                  : BHTDEP       - MAXIMUM RECORDED TEMPERATURE
MATR.         1                    : LOGUNIT      - NEUTRON MATRIX              
RMT .C        25                   : MDTP         - TEMPERATURE OF MUD          
NEUT.         1                    : NEUTRON      - NEUTRON TYPE                
RESI.         0                    : RESIST       - RESISTIVITY TYPE            
RMC .OHMM     0.25                 : RMC          - RESISTIVITY OF MUD CAKE     
RMF .OHMM     0.25                 : RMF          - RESISTIVITY OF MUD FILTRATE 
SUFT.C        4                    : SUFT         - SURFACE TEMPERATURE         
~A  DEPTH     PHID     PHIN       GR     RESD
# ...
  413.794    0.372    0.433   28.353  109.533
  414.094    0.373    0.430   27.107  134.827
  414.394    0.362    0.430   26.482  137.360
  414.694    0.357    0.433   27.102  134.766
  414.994    0.373    0.443   27.723  129.731
  415.294    0.374    0.452   28.343  122.537
  415.594    0.373    0.438   28.340  129.659
  415.894    0.374    0.435   28.338  139.809
  416.194    0.374    0.437   27.714  150.758
  416.494    0.368    0.435   25.845  156.540
  416.794    0.354    0.433   23.976  159.489
  417.094    0.346    0.427   23.352  159.448
  417.394    0.350    0.416   25.216  165.553
  417.694    0.353    0.411   29.570  175.173
  417.994    0.360    0.413   31.435  181.892
  418.294    0.357    0.408   30.811  185.306
  418.594    0.357    0.400   30.809  178.386
  418.894    0.342    0.403   32.051  165.341
  419.194    0.326    0.406   33.916  150.389
  419.494    0.310    0.411   38.893  131.701
  419.794    0.302    0.453   37.023  113.172
  420.094    0.334    0.447   35.777   93.645
  420.394    0.368    0.409   46.354   64.133
  420.694    0.320    0.425   50.086   51.094
  420.994    0.309    0.440   45.727   50.125
  421.294    0.330    0.438   40.747   51.069
  421.594    0.357    0.427   35.766   56.121
  421.894    0.356    0.414   31.408   66.518
  422.194    0.367    0.420   30.161   77.361
  422.494    0.379    0.447   27.670   80.332
  422.794    0.392    0.459   25.178   86.618
  423.094    0.410    0.463   23.932   88.249
  423.394    0.393    0.468   25.174   86.579
  423.694    0.384    0.473   28.283   80.241
  423.994    0.403    0.471   28.904   80.222
  424.294    0.384    0.455   27.657   83.297
  424.594    0.380    0.451   22.676   86.491
  424.894    0.384    0.448   22.674  100.595
  425.194    0.382    0.421   24.539  110.548
  425.494    0.378    0.422   26.404  100.545
  425.794    0.387    0.430   28.269   89.730
  426.094    0.382    0.462   28.889   93.160
  426.394    0.363    0.479   31.376   94.924
  426.694    0.346    0.422   36.353   94.894
  426.994    0.345    0.412   40.707   91.348
  427.294    0.321    0.417   44.439   84.676
  427.594    0.344    0.401   48.792   66.198
  427.894    0.342    0.399   51.902   56.887
  428.194    0.314    0.420   56.256   47.069
  428.493    0.308    0.423   59.988   38.216
  428.793    0.291    0.423   65.587   35.421
  429.093    0.304    0.422   68.696   36.090
  429.393    0.316    0.422   67.449   35.404
  429.693    0.328    0.412   65.580   31.597
  429.993    0.314    0.398   62.467   28.739
  430.293    0.275    0.399   54.997   27.147
  430.593    0.281    0.417   42.548   29.831
  430.893    0.307    0.434   32.589   34.698
  431.193    0.351    0.433   28.853   48.760
  431.493    0.355    0.421   28.229   63.526
  431.793    0.358    0.414   28.849   76.735
  432.093    0.347    0.415   31.336   89.250
  432.393    0.351    0.418   35.690  101.859
  432.693    0.355    0.416   33.199  105.766
  432.993    0.356    0.418   27.596   98.027
  433.293    0.361    0.418   26.349   85.849
  433.593    0.362    0.423   28.213   73.775
  433.893    0.362    0.439   29.456   64.606
  434.193    0.359    0.448   31.944   64.591
  434.493    0.353    0.430   37.542   68.344
  434.793    0.352    0.422   43.141   72.321
  435.093    0.348    0.422   43.139   76.521
  435.393    0.361    0.448   41.270   77.960
  435.693    0.364    0.457   40.023   77.938
  435.993    0.373    0.461   39.399   77.918
  436.293    0.362    0.468   38.774   77.894
  436.593    0.364    0.469   37.527   76.424
  436.893    0.357    0.455   35.036   76.405
  437.193    0.367    0.448   33.789   79.329
  437.493    0.374    0.450   35.031   79.303
  437.793    0.372    0.449   36.274   80.807
  438.093    0.375    0.460   40.006   83.895
  438.393    0.369    0.464   40.626   85.466
  438.693    0.374    0.455   37.512   85.454
  438.993    0.377    0.432   35.021   87.065
  439.293    0.377    0.433   33.774   87.044
  439.593    0.377    0.449   31.283   87.024
  439.893    0.374    0.469   30.659   83.765
  440.193    0.372    0.475   28.167   79.125
  440.493    0.368    0.453   27.543   77.628
  440.793    0.363    0.420   29.407   71.948
  441.093    0.357    0.409   30.650   70.585
  441.393    0.358    0.427   28.159   65.418
  441.693    0.351    0.443   26.912   58.385
  441.993    0.337    0.436   28.155   55.155
  442.293    0.329    0.388   35.620   48.300
  442.593    0.316    0.406   32.506   46.493
  442.893    0.324    0.409   28.770   43.919
  443.193    0.340    0.407   30.013   38.463
  443.493    0.331    0.401   41.213   32.432
  443.793    0.297    0.397   46.189   30.061
  444.093    0.286    0.417   31.874   28.938
  444.393    0.330    0.416   21.914   32.408
  444.693    0.337    0.393   25.024   46.413
  444.993    0.331    0.377   27.511   50.048
  445.293    0.305    0.365   28.131   47.274
  445.593    0.313    0.370   26.884   40.624
  445.893    0.309    0.385   23.770   34.258
  446.193    0.329    0.406   23.146   26.782
  446.493    0.354    0.434   26.256   15.765
  446.793    0.326    0.402   36.833   11.426
  447.093    0.249    0.342   47.410   10.393
  447.393    0.142    0.300   56.743   11.207
  447.693    0.001    0.273   60.474   12.790
  447.993    0.038    0.258   59.850   17.637
  448.293    0.040    0.242   59.226   20.129
  448.593    0.011    0.233   57.979   20.124
  448.893    0.000    0.228   57.977   19.009
  449.193    0.014    0.233   60.464   18.299
  449.493    0.046    0.245   62.329   17.614
  449.793    0.039    0.253   62.327   17.281
  450.093    0.006    0.252   62.325   17.941
  450.393    0.019    0.249   64.812   18.984
  450.693    0.038    0.249   66.054   19.712
  450.993    0.048    0.256   66.675   20.467
  451.293    0.043    0.260   66.673   20.077
  451.593    0.038    0.261   63.559   18.965
  451.893    0.035    0.258   59.200   18.256
  452.193    0.028    0.257   56.709   18.600
  452.493    0.025    0.249   46.750   20.441
  452.793    0.019    0.233   32.435   27.658
  453.092    0.009    0.124   15.008   42.724
  453.392    0.003    0.105   10.027   69.851
  453.692    0.003    0.102   13.136   85.980
  453.992    0.007    0.110   15.624   87.605
  454.292    0.009    0.110   16.866   81.196
  454.592    0.006    0.105   14.375   79.657
  454.892    0.005    0.103   16.239   79.636
  455.192    0.004    0.110   18.104   79.614
  455.492    0.004    0.118   19.347   78.104
  455.792    0.012    0.125   19.967   72.395
  456.092    0.027    0.134   19.965   67.096
  456.392    0.047    0.143   21.207   67.080
  456.692    0.043    0.137   20.583   70.982
  456.992    0.031    0.122   19.958   72.316
  457.292    0.006    0.119   20.579   69.617
  457.592    0.000    0.133   24.311   64.525
  457.892    0.021    0.149   25.553   58.686
  458.192    0.016    0.140   23.062   55.435
  458.492    0.000    0.133   25.549   53.365
  458.792    0.011    0.148   28.036   51.372
  459.092    0.015    0.159   27.411   57.531
  459.392    0.014    0.144   22.431   66.912
  459.692    0.010    0.121   14.961   77.827
  459.992    0.012    0.103   11.225   90.517
