~VERSION INFORMATION
 VERS.                 2.0:   CWLS LOG ASCII STANDARD -VERSION 2.0
 WRAP.                  NO:   ONE LINE PER DEPTH STEP
~WELL INFORMATION BLOCK
#MNEM.UNIT           DATA                    DESCRIPTION OF MNEMONIC
#---------    -------------------            -------------------------------
# Generated from Intellog Unique Number	CN_91_93/WELL/2683
WELL.         10-26-091-18W4                 : Well_name    - WELL
LOC .         00/10-26-091-18W4/0            : Location     - LOCATION
UWI .         00/10-26-091-18W400            : Uwi          - UNIQUE WELL ID
ENTR.         JOETTE                         : Entered      - ENTERED BY
SRVC.         WESTERN ATLAS                  : Scn          - SERVICE COMPANY
DATE.         02/11/92                       : Date         - LOG DATE
STRT.M        100                            : top_depth    - START DEPTH
STOP.M        255                            : bot_depth    - STOP DEPTH
STEP.M        0.25                           : increment    - STEP LENGTH
 NULL. -999.2500:NULL Value
~CURVE INFORMATION BLOCK
#MNEM UNIT       ERCB CURVE CODE    CURVE DESCRIPTION
#-----------   ------------------   ----------------------------------
DEPT.M        00 001 00 00         : DEPTH        - DEPTH
GR  .API      00 310 00 00         : GR           - GAMMA RAY
CALI.MM       00 280 01 00         : CAL          - CALIPER
NPHI.V/V      00 330 00 00         : PHIN         - NEUTRON POROSITY (SANDSTONE)
DPHI.V/V      00 890 00 00         : PHID         - DENSITY POROSITY (SANDSTONE)
ILD .OHMM     00 120 00 00         : RESD         - DEEP RESISTIVITY (DIL)
~PARAMETER INFORMATION
#MNEM.UNIT           DATA             DESCRIPTION OF MNEMONIC
#---------         -----------     ------------------------------
GL  .M        611.06               : gl           - GROUND LEVEL ELEVATION
EREF.M        614.42               : kb           - ELEVATION OF DEPTH REFERENCE
DATM.M        614.42               : datum        - DATUM ELEVATION
TDD .M        267                  : tdd          - TOTAL DEPTH DRILLER
RUN .         ONE                  : Run          - RUN NUMBER
ENG .         BILL                 : Engineer     - RECORDING ENGINEER
WIT .         JIM                  : Witness      - WITNESSED BY
MUD .         GEL                  : Mud_type     - MUD TYPE
MATR.         SANDSTONE            : Logunit      - NEUTRON MATRIX
TMAX.C        20                   : BHT          - MAXIMUM RECORDED TEMPERATURE
BHTD.M        267                  : BHTDEP       - MAXIMUM RECORDED TEMPERATURE
RMT .C        13                   : MDTP         - TEMPERATURE OF MUD
MUDD.KG/M     1140                 : MWT          - MUD DENSITY
NEUT.         1                    : NEUTRON      - NEUTRON TYPE
RESI.         0                    : RESIST       - RESISTIVITY TYPE
RM  .OHMM     3.2                  : RM           - RESISTIVITY OF MUD
RMC .OHMM     3.8                  : RMC          - RESISTIVITY OF MUD CAKE
RMF .OHMM     2.8                  : RMF          - RESISTIVITY OF MUD FILTRATE
SUFT.C        4                    : SUFT         - SURFACE TEMPERATURE
~A  DEPTH       GR      CAL     PHIN     PHID     RESD
# ...
  173.000  100.002  173.347    0.363    0.232   23.831
  173.250   95.139  173.347    0.351    0.236   30.931
  173.500   85.686  172.950    0.325    0.219   40.146
  173.750   85.106  172.500    0.311    0.177   50.219
  174.000   73.206  172.560    0.288    0.138   54.144
  174.250   68.036  172.600    0.304    0.156   55.717
  174.500   69.598  172.150    0.339    0.261   55.717
  174.750   67.178  172.150    0.375    0.278   55.817
  175.000   75.475  172.793    0.379    0.275   52.836
  175.250   73.985  174.349    0.366    0.253   49.562
  175.500   71.256  175.423    0.366    0.211   46.492
  175.750   69.456  177.516    0.352    0.065   45.246
  176.000   77.443  178.589    0.314    0.103   44.868
  176.250   80.844  179.145    0.356    0.128   45.358
  176.500   80.872  178.702    0.359    0.169   47.090
  176.750   79.374  177.735    0.346    0.137   52.204
  177.000   79.109  176.769    0.322    0.102   64.692
  177.250   81.274  176.312    0.320    0.094   65.347
  177.500   78.859  176.359    0.317    0.080   65.406
  177.750   74.607  177.432    0.290    0.069   64.860
  178.000   79.228  179.022    0.283    0.065   61.982
  178.250   81.410  179.022    0.267    0.061   57.066
  178.500   81.410  179.631    0.263    0.058   54.528
  178.750   79.944  179.631    0.273    0.062   53.072
  179.000   75.685  181.811    0.299    0.074   50.706
  179.250   75.105  183.367    0.358    0.096   34.055
  179.500   88.297  183.367    0.413    0.176   27.528
  179.750   98.425  185.540    0.444    0.214   21.247
  180.000   93.872  187.607    0.458    0.210   16.707
  180.250  101.247  190.216    0.459    0.196   12.897
  180.500  100.977  192.309    0.454    0.180   12.438
  180.750  112.329  194.906    0.467    0.157   12.107
  181.000  104.708  197.508    0.475    0.112   12.117
  181.250   95.260  200.125    0.457    0.114   14.601
  181.500  109.056  201.708    0.465    0.138   14.888
  181.750  110.622  202.781    0.470    0.176   15.467
  182.000  109.124  203.351    0.469    0.191   15.467
  182.250  112.831  203.404    0.468    0.194   15.793
  182.500  113.177  203.444    0.490    0.184   15.511
  182.750  113.197  202.987    0.492    0.177   15.511
  183.000  118.740  203.047    0.491    0.178   15.256
  183.250  111.119  205.147    0.487    0.183   15.265
  183.500  110.849  206.220    0.492    0.179   15.279
  183.750  105.982  206.783    0.482    0.179   15.875
  184.000  101.735  205.810    0.475    0.183   16.185
  184.250  102.382  204.334    0.475    0.185   16.350
  184.500  101.497  201.327    0.475    0.181   16.214
  184.750  104.274  199.341    0.487    0.132   15.928
  185.000   96.045  198.374    0.473    0.082   15.079
  185.250   93.630  198.951    0.447    0.115   13.885
  185.500  106.520  199.501    0.440    0.177   13.885
  185.750  110.525  199.554    0.443    0.215   13.530
  186.000  110.561  198.594    0.453    0.189   13.045
  186.250  108.753  197.628    0.453    0.157   12.936
  186.500  104.502  196.151    0.465    0.169   12.829
  186.750  100.552  193.661    0.479    0.210   12.829
  187.000  108.849  191.662    0.490    0.218   13.100
  187.250  119.284  189.165    0.496    0.214   13.858
  187.500  124.219  188.199    0.483    0.214   15.079
  187.750  116.900  189.285    0.460    0.214   17.834
  188.000  113.260  190.855    0.446    0.217   21.496
  188.250  121.251  191.941    0.420    0.223   21.513
  188.500  124.041  191.981    0.397    0.224   21.738
  188.750  124.987  190.518    0.373    0.176   20.962
  189.000  115.228  188.525    0.350    0.076   19.482
  189.250   83.739  188.075    0.337    0.022   16.650
  189.500   78.875  191.195    0.333    0.058   16.650
  189.750   94.213  194.294    0.446    0.144   16.524
  190.000  109.849  199.963    0.472    0.203   14.796
  190.250  123.649  204.599    0.488    0.197   13.498
  190.500  125.826  203.123    0.476    0.198   12.660
  190.750  122.803  200.130    0.474    0.202   11.656
  191.000  125.584  199.163    0.474    0.207   11.347
  191.250  125.616  200.230    0.477    0.211   11.252
  191.500  128.402  201.309    0.478    0.214   11.262
  191.750  130.882  202.389    0.474    0.215   11.168
  192.000  137.649  202.939    0.472    0.211   10.974
  192.250  124.214  202.482    0.475    0.212   10.782
  192.500  130.064  201.006    0.473    0.216   10.790
  192.750  134.077  196.993    0.442    0.236   10.790
  193.000  127.370  193.477    0.393    0.249   10.810
  193.250   98.944  191.484    0.322    0.255   11.229
  193.500   77.253  191.537    0.298    0.248   14.044
  193.750   66.573  194.133    0.287    0.234   16.770
  194.000   40.598  188.577    0.213    0.191   18.935
  194.250   25.324  171.293    0.158    0.293   24.806
  194.500   14.040  169.313    0.161    0.296   42.537
  194.750   11.318  168.863    0.178    0.330  153.282
  195.000   19.301  168.393    0.190    0.333  198.950
  195.250   19.031  168.963    0.194    0.322  202.860
  195.500   17.235  168.507    0.210    0.318  186.793
  195.750   17.875  168.507    0.221    0.313  156.736
  196.000   19.743  168.110    0.224    0.312  126.737
  196.250   20.383  166.633    0.229    0.315  105.350
  196.500   20.419  166.633    0.241    0.320   83.620
  196.750   20.141  166.230    0.253    0.325   69.493
  197.000   20.479  166.277    0.265    0.326   39.118
  197.250   21.738  166.277    0.280    0.320   27.263
  197.500   21.159  166.377    0.294    0.306   22.455
  197.750   21.159  166.953    0.304    0.301   19.737
  198.000   20.011  167.013    0.329    0.297   19.394
  198.250   19.109  167.570    0.358    0.296   19.592
  198.500   18.529  167.570    0.366    0.297   19.975
  198.750   18.875  167.716    0.366    0.297   21.534
  199.000   19.209  167.736    0.367    0.298   22.577
  199.250   18.323  167.736    0.371    0.298   22.577
  199.500   17.437  166.843    0.377    0.298   22.839
  199.750   16.861  166.359    0.379    0.297   23.940
  200.000   22.779  168.534    0.365    0.293   24.945
  200.250   25.205  171.058    0.362    0.292   25.858
  200.500   27.022  173.074    0.368    0.293   27.050
  200.750   23.677  173.568    0.371    0.295   28.816
  201.000   23.066  174.576    0.393    0.295   34.233
  201.250   25.187  174.572    0.394    0.299   35.489
  201.500   25.791  174.559    0.400    0.300   38.852
  201.750   23.052  175.064    0.416    0.300   53.379
  202.000   22.744  176.576    0.422    0.299   58.433
  202.250   25.171  187.705    0.423    0.296   70.695
  202.500   26.077  192.254    0.419    0.296   76.684
  202.750   22.124  196.296    0.417    0.301   81.694
  203.000   24.246  198.821    0.419    0.306   85.468
  203.250   26.671  200.332    0.415    0.310   90.220
  203.500   23.326  200.332    0.412    0.312   92.679
  203.750   23.625  201.329    0.414    0.315   89.338
  204.000   24.836  202.335    0.420    0.316   83.802
  204.250   26.957  201.822    0.425    0.317   77.898
  204.500   28.472  200.801    0.425    0.316   73.735
  204.750   30.289  201.301    0.424    0.314   71.726
  205.000   38.487  202.813    0.428    0.311   71.706
  205.250   41.216  205.842    0.435    0.307   72.334
  205.500   35.137  206.842    0.443    0.305   74.977
  205.750   35.437  207.854    0.451    0.309   74.977
  206.000   40.595  209.870    0.456    0.310   78.391
  206.250   33.605  210.364    0.455    0.308   89.017
  206.500   32.386  210.868    0.453    0.305   89.772
  206.750   28.736  210.868    0.454    0.304   90.583
  207.000   36.932  210.852    0.460    0.305   90.583
  207.250   38.448  210.852    0.475    0.307   93.014
  207.500   37.532  210.329    0.485    0.308   92.984
  207.750   40.565  209.819    0.497    0.310   91.272
  208.000   40.257  209.819    0.502    0.310   89.600
  208.250   42.682  208.792    0.506    0.308   84.811
  208.500   42.982  207.267    0.489    0.304   83.257
  208.750   41.155  205.235    0.473    0.302   82.477
  209.000   34.772  203.203    0.467    0.298   83.955
  209.250   41.450  200.664    0.464    0.295   83.924
