~VERSION INFORMATION
 VERS.                 2.0:   CWLS LOG ASCII STANDARD -VERSION 2.0
 WRAP.                  NO:   ONE LINE PER DEPTH STEP
~WELL INFORMATION BLOCK
#MNEM.UNIT           DATA                    DESCRIPTION OF MNEMONIC
#---------    -------------------            -------------------------------
# Generated from Intellog Unique Number	CS_77_79/WELL/3308
WELL.         ANDERSON EXPLORATION LTD.      : Well_name    - WELL
LOC .         00/14-33-077-03W4/0            : Location     - LOCATION
UWI .         00/14-33-077-03W4/0            : Uwi          - UNIQUE WELL ID
ENTR.         JOETTE                         : Entered      - ENTERED BY
SRVC.         COMPUTALOG                     : Scn          - SERVICE COMPANY
DATE.         08/26/92                       : Date         - LOG DATE
STRT.M        175                            : top_depth    - START DEPTH
STOP.M        435                            : bot_depth    - STOP DEPTH
STEP.M        0.25                           : increment    - STEP LENGTH
 NULL. -999.2500:NULL Value
~CURVE INFORMATION BLOCK
#MNEM UNIT       ERCB CURVE CODE    CURVE DESCRIPTION
#-----------   ------------------   ----------------------------------
DEPT.M        00 001 00 00         : DEPTH        - DEPTH
ILD .OHMM     00 120 00 00         : RESD         - DEEP RESISTIVITY (DIL)
NPHI.V/V      00 330 00 00         : PHIN         - NEUTRON POROSITY (SANDSTONE)
GR  .API      00 310 00 00         : GR           - GAMMA RAY
~PARAMETER INFORMATION
#MNEM.UNIT           DATA             DESCRIPTION OF MNEMONIC
#---------         -----------     ------------------------------
GL  .M        565.2                : gl           - GROUND LEVEL ELEVATION
EREF.M        568.8                : kb           - ELEVATION OF DEPTH REFERENCE
DATM.M        568.8                : datum        - DATUM ELEVATION
TDD .M        434.4                : tdd          - TOTAL DEPTH DRILLER
RUN .         ONE                  : Run          - RUN NUMBER
ENG .         BILL                 : Engineer     - RECORDING ENGINEER
WIT .         JIM                  : Witness      - WITNESSED BY
MUD .         GEL                  : Mud_type     - MUD TYPE
MATR.         SANDSTONE            : Logunit      - NEUTRON MATRIX
TMAX.C        25                   : BHT          - MAXIMUM RECORDED TEMPERATURE
BHTD.M        434.3                : BHTDEP       - MAXIMUM RECORDED TEMPERATURE
MATR.         1                    : LOGUNIT      - NEUTRON MATRIX
RMT .C        13                   : MDTP         - TEMPERATURE OF MUD
NEUT.         1                    : NEUTRON      - NEUTRON TYPE
RESI.         0                    : RESIST       - RESISTIVITY TYPE
RMC .OHMM     1.9                  : RMC          - RESISTIVITY OF MUD CAKE
RMF .OHMM     1.7                  : RMF          - RESISTIVITY OF MUD FILTRATE
SUFT.C        15                   : SUFT         - SURFACE TEMPERATURE
~A  DEPTH     RESD     PHIN       GR
  175.000    6.541    0.468   84.483
  175.250    6.421    0.457   94.021
  175.500    6.422    0.441   96.574
  175.750    7.188    0.421  103.569
  176.000    8.353    0.420  108.026
  176.250    9.891    0.415   88.981
  176.500   11.072    0.394   83.909
  176.750   11.714    0.388   77.568
  177.000   12.165    0.388   73.770
  177.250   12.167    0.393   77.589
  177.500   11.945    0.401   87.762
  177.750   11.725    0.434   98.576
  178.000   11.509    0.431  101.127
  178.250   11.512    0.404  101.135
  178.500   12.412    0.391   99.239
  178.750   13.382    0.384   94.803
  179.000   14.427    0.390   80.207
  179.250   15.266    0.395   76.406
  179.500   15.854    0.399   75.144
  179.750   16.155    0.401   91.036
  180.000   16.777    0.409   95.490
  180.250   17.422    0.420   93.595
  180.500   17.425    0.411   84.078
  180.750   17.106    0.394   78.371
  181.000   16.480    0.384   80.287
  181.250   16.177    0.379   86.014
  181.500   15.295    0.385   91.742
  181.750   14.194    0.396   96.198
  182.000   13.171    0.399  103.831
  182.250   12.689    0.395  115.910
  182.500   12.932    0.395  108.933
  182.750   13.180    0.399  103.867
  183.000   13.182    0.403  103.240
  183.250   13.186    0.410  103.250
  183.500   13.188    0.415  106.439
  183.750   12.707    0.414  103.906
  184.000   12.473    0.405   97.564
  184.250   11.794    0.403   89.317
  184.500   11.361    0.410   87.425
  184.750   10.543    0.423   88.703
  185.000   10.156    0.433   92.524
  185.250    9.079    0.400   96.981
  185.500    8.583    0.391   98.897
  185.750    7.817    0.405   93.826
  186.000    7.254    0.439   96.377
  186.250    6.989    0.462  104.645
  186.500    6.860    0.459  111.012
  186.750    7.824    0.456  112.925
  187.000    9.264    0.446  115.477
  187.250   10.565    0.421  114.217
  187.500   12.510    0.435  109.778
  187.750   14.269    0.411   99.625
  188.000   14.008    0.381   83.756
  188.250   13.494    0.365   98.381
  188.500   13.000    0.366   99.656
  188.750   12.064    0.365  102.210
  189.000   10.986    0.359  100.315
  189.250    9.820    0.360   95.879
  189.500    9.284    0.396   93.349
  189.750    8.298    0.451   92.724
  190.000    7.558    0.464  113.060
  190.250    6.883    0.464  107.354
  190.500    6.387    0.423  102.918
  190.750    6.153    0.423  100.390
  191.000    5.604    0.430  102.941
  191.250    5.398    0.458  122.005
  191.500    5.010    0.467  126.464
  191.750    4.737    0.494  124.569
  192.000    4.395    0.522  125.849
  192.250    4.079    0.550  129.033
  192.500    3.785    0.533  131.589
  192.750    3.646    0.526  130.959
  193.000    3.384    0.519  126.523
  193.250    3.384    0.526  124.631
  193.500    3.322    0.594  127.822
  193.750    3.323    0.564  129.098
  194.000    3.583    0.532  130.381
  194.250    3.936    0.518  129.121
  194.500    4.405    0.490  124.047
  194.750    5.518    0.467  116.435
  195.000    7.881    0.456  112.000
  195.250    9.158    0.468  113.283
  195.500   10.844    0.441  111.385
  195.750   13.083    0.411  104.408
  196.000   15.492    0.387   96.161
  196.250   16.703    0.355   85.374
  196.500   17.344    0.363   73.951
  196.750   18.011    0.384   68.244
  197.000   17.681    0.392   70.795
  197.250   17.355    0.393   75.254
  197.500   17.037    0.399   79.079
  197.750   17.364    0.411   80.354
  198.000   17.695    0.415   81.000
  198.250   18.375    0.407   77.834
  198.500   19.445    0.411   72.130
  198.750   19.816    0.411   70.235
  199.000   20.195    0.380   75.325
  199.250   20.199    0.374   81.054
  199.500   19.461    0.389   80.427
  199.750   19.103    0.413   76.629
  200.000   18.752    0.420   74.096
  200.250   19.474    0.402   75.379
  200.500   20.607    0.434   78.563
  200.750   20.611    0.464   83.654
  201.000   20.232    0.475   86.208
  201.250   19.861    0.466   86.856
  201.500   19.496    0.441   88.137
  201.750   18.783    0.427   85.607
  202.000   18.437    0.413   86.252
  202.250   17.433    0.398   90.071
  202.500   16.484    0.387   96.433
  202.750   16.180    0.386  102.163
  203.000   15.588    0.380  105.984
  203.250   16.493    0.355  110.441
  203.500   20.659    0.351  102.827
  203.750   23.563    0.359   93.309
  204.000   25.886    0.370   81.886
  204.250   26.880    0.377   68.558
  204.500   27.398    0.367   57.135
  204.750   27.401    0.362   57.783
  205.000   27.405    0.380   57.793
  205.250   26.404    0.391   51.449
  205.500   26.408    0.383   50.824
  205.750   25.925    0.386   53.378
  206.000   25.930    0.393   52.750
  206.250   26.425    0.404   52.128
  206.500   26.431    0.383   54.679
  206.750   26.439    0.376   59.769
  207.000   26.444    0.376   62.322
  207.250   26.450    0.384   69.320
  207.500   26.454    0.390   78.858
  207.750   26.460    0.395   83.952
  208.000   26.466    0.387   82.055
  208.250   25.982    0.379   78.254
  208.500   25.505    0.390   75.088
  208.750   25.035    0.396   70.655
  209.000   24.120    0.403   68.124
  209.250   22.807    0.408   66.229
  209.500   22.386    0.401   66.240
  209.750   21.567    0.390   67.518
  210.000   21.171    0.369   69.434
  210.250   20.397    0.372   71.350
  210.500   19.650    0.385   70.725
  210.750   18.931    0.390   70.735
  211.000   17.900    0.391   75.194
  211.250   17.244    0.408   75.202
  211.500   16.305    0.414   70.134
  211.750   15.130    0.404   70.141
  212.000   14.040    0.407   73.328
  212.250   13.275    0.418   80.960
  212.500   11.646    0.424   92.407
  212.750   11.011    0.425  101.945
  213.000   11.434    0.438  112.753
  213.250   11.874    0.440  122.291
  213.500   11.440    0.431  125.480
  213.750   11.020    0.422  119.136
  214.000   10.618    0.426  126.136
  214.250   10.619    0.436  128.685
  214.500   11.237    0.442  122.348
  214.750   12.577    0.432  121.083
  215.000   14.344    0.404  119.826
  215.250   15.758    0.386  119.198
  215.500   16.363    0.380  116.033
  215.750   16.676    0.391  110.962
  216.000   16.680    0.421  102.079
  216.250   16.684    0.429   88.751
  216.500   16.688    0.434   93.843
  216.750   16.691    0.424   98.935
  217.000   16.384    0.416   99.583
  217.250   16.083    0.412   97.050
  217.500   15.495    0.413   99.603
  217.750   14.651    0.411  106.601
  218.000   13.854    0.415  113.598
  218.250   13.598    0.428  118.690
  218.500   13.349    0.460  123.147
  218.750   13.862    0.456  121.254
  219.000   15.228    0.443  116.180
  219.250   17.045    0.420  108.569
  219.500   18.725    0.409  102.862
  219.750   19.443    0.397   95.885
  220.000   21.765    0.390   82.557
  220.250   22.180    0.407   76.218
  220.500   22.605    0.417   81.307
  220.750   23.037    0.411   92.116
  221.000   22.614    0.408   94.667
  221.250   22.200    0.402   97.853
  221.500   21.794    0.406   88.336
  221.750   21.392    0.413   81.362
  222.000   20.608    0.416   83.275
  222.250   19.486    0.421   84.558
  222.500   18.425    0.424   81.390
  222.750   17.750    0.421   81.403
  223.000   16.472    0.414   83.319
  223.250   16.170    0.408   83.329
  223.500   16.480    0.393   82.702
  223.750   17.437    0.387   83.348
  224.000   18.449    0.385   90.348
  224.250   20.268    0.400   92.901
  224.500   21.046    0.428   92.276
  224.750   21.450    0.443   91.652
  225.000   21.055    0.438   73.239
  225.250   19.176    0.409   59.913
  225.500   17.793    0.391   61.826
  225.750   15.319    0.415   66.283
  226.000   14.484    0.405   67.564
  226.250   13.441    0.398   68.209
  226.500   12.472    0.398   73.304
  226.750   12.243    0.401   79.028
  227.000   11.576    0.392   82.852
  227.250   11.797    0.394   79.052
  227.500   12.484    0.462   78.427
  227.750   13.208    0.465   79.070
  228.000   14.509    0.427   77.810
  228.250   16.241    0.396   72.103
  228.500   17.509    0.385   65.762
  228.750   18.526    0.376   59.423
  229.000   19.973    0.384   58.165
