~VERSION INFORMATION
 VERS.                 2.0:   CWLS LOG ASCII STANDARD -VERSION 2.0
 WRAP.                  NO:   ONE LINE PER DEPTH STEP
~WELL INFORMATION BLOCK
#MNEM.UNIT           DATA                    DESCRIPTION OF MNEMONIC
#---------    -------------------            -------------------------------
# Generated from Intellog Unique Number	CW_79_81/WELL/877
WELL.         10-32-079-21W4                 : Well_name    - WELL
LOC .         00/10-32-079-21W4/0            : Location     - LOCATION
UWI .         00/10-32-079-21W4/0            : Uwi          - UNIQUE WELL ID
ENTR.         MAX                            : Entered      - ENTERED BY
SRVC.         SCHLUMBERGER                   : Scn          - SERVICE COMPANY
STRT.M        195                            : top_depth    - START DEPTH
STOP.M        415                            : bot_depth    - STOP DEPTH
STEP.M        0.25                           : increment    - STEP LENGTH
 NULL. -999.2500:NULL Value
~CURVE INFORMATION BLOCK
#MNEM UNIT       ERCB CURVE CODE    CURVE DESCRIPTION
#-----------   ------------------   ----------------------------------
DEPT.M        00 001 00 00         : DEPTH        - DEPTH
ILD .OHMM     00 120 00 00         : RESD         - DEEP RESISTIVITY (DIL)
NPHI.V/V      00 330 00 00         : PHIN         - NEUTRON POROSITY (SANDSTONE)
DPHI.V/V      00 890 00 00         : PHID         - DENSITY POROSITY (SANDSTONE)
CALI.MM       00 280 01 00         : CAL          - CALIPER
GR  .API      00 310 00 00         : GR           - GAMMA RAY
~PARAMETER INFORMATION
#MNEM.UNIT           DATA             DESCRIPTION OF MNEMONIC
#---------         -----------     ------------------------------
GL  .M        576.83               : gl           - GROUND LEVEL ELEVATION
EREF.M        580.8                : kb           - ELEVATION OF DEPTH REFERENCE
DATM.M        576.83               : datum        - DATUM ELEVATION
TDD .M        446.75               : tdd          - TOTAL DEPTH DRILLER
RUN .         ONE                  : Run          - RUN NUMBER
ENG .         BILL                 : Engineer     - RECORDING ENGINEER
WIT .         JIM                  : Witness      - WITNESSED BY
MUD .         GEL                  : Mud_type     - MUD TYPE
MATR.         SANDSTONE            : Logunit      - NEUTRON MATRIX
TMAX.C        27.2                 : BHT          - MAXIMUM RECORDED TEMPERATURE
BHTD.M        446.75               : BHTDEP       - MAXIMUM RECORDED TEMPERATURE
RMT .C        12.2                 : MDTP         - TEMPERATURE OF MUD
MUDD.KG/M     1188                 : MWT          - MUD DENSITY
NEUT.         1                    : NEUTRON      - NEUTRON TYPE
RESI.         0                    : RESIST       - RESISTIVITY TYPE
RM  .OHMM     1.35                 : RM           - RESISTIVITY OF MUD
RMC .OHMM     0                    : RMC          - RESISTIVITY OF MUD CAKE
RMF .OHMM     4.93                 : RMF          - RESISTIVITY OF MUD FILTRATE
SUFT.C        -5                   : SUFT         - SURFACE TEMPERATURE
~A  DEPTH     RESD     PHIN     PHID      CAL       GR
  195.000   46.259    0.228    0.116  260.335   51.086
  195.250   28.210    0.271    0.129  265.323   54.362
  195.500   19.740    0.333    0.199  265.370   64.730
  195.750   14.201    0.445    0.228  264.440   74.504
  196.000   14.341    0.484    0.299  265.963   77.501
  196.250   14.886    0.495    0.318  279.307   75.459
  196.500   15.313    0.509    0.292  286.256   71.653
  196.750   14.371    0.513    0.299  273.019   70.505
  197.000   13.119    0.465    0.328  269.635   72.603
  197.250   11.653    0.436    0.285  271.657   76.473
  197.500   10.162    0.476    0.284  277.123   80.347
  197.750    9.624    0.490    0.279  282.104   75.656
  198.000   11.466    0.475    0.253  284.618   57.087
  198.250   13.533    0.440    0.217  288.109   45.020
  198.500   20.466    0.351    0.156  294.073   40.325
  198.750   29.018    0.240    0.118  299.539   35.937
  199.000   56.727    0.199    0.114  301.069   36.261
  199.250   89.811    0.183    0.118  299.162   37.470
  199.500   85.845    0.163    0.147  297.746   38.978
  199.750   77.654    0.169    0.163  300.739   39.309
  200.000   71.551    0.295    0.249  321.955   38.165
  200.250   74.967    0.286    0.280  344.655   36.717
  200.500   73.649    0.289    0.263  356.510   37.934
  200.750   66.025    0.305    0.260  336.884   37.963
  201.000   62.527    0.282    0.291  358.593   36.818
  201.250   67.340    0.237    0.152  336.991   38.031
  201.500   75.921    0.235    0.167  339.020   38.355
  201.750   84.046    0.237    0.172  335.138   36.620
  202.000   85.662    0.192    0.157  329.779   37.538
  202.250   80.383    0.188    0.138  330.817   38.751
  202.500   76.132    0.234    0.179  363.849   37.606
  202.750   74.800    0.245    0.235  339.296   36.454
  203.000   87.498    0.233    0.226  359.529   36.191
  203.250  110.114    0.189    0.178  350.234   37.707
  203.500  117.508    0.143    0.126  325.189   39.212
  203.750  114.388    0.137    0.073  320.822   38.358
  204.000  101.610    0.152    0.111  334.645   36.324
  204.250   82.335    0.177    0.120  339.127   36.360
  204.500   70.496    0.227    0.145  350.995   36.983
  204.750   64.967    0.221    0.172  340.717   39.385
  205.000   65.001    0.208    0.228  317.640   40.000
  205.250   66.872    0.190    0.191  304.908   40.626
  205.500   70.053    0.205    0.148  300.541   40.659
  205.750   71.412    0.232    0.136  297.636   39.809
  206.000   69.516    0.251    0.178  295.715   40.424
  206.250   67.682    0.231    0.180  293.801   42.232
  206.500   65.879    0.231    0.134  288.948   41.969
  206.750   62.970    0.228    0.170  286.542   40.529
  207.000   64.192    0.234    0.180  291.017   39.081
  207.250   59.692    0.289    0.226  304.355   40.885
  207.500   55.512    0.339    0.248  309.841   42.106
  207.750   55.043    0.354    0.278  314.801   41.548
  208.000   55.579    0.314    0.198  314.862   41.285
  208.250   58.233    0.306    0.188  282.928   39.542
  208.500   59.352    0.302    0.205  278.547   38.693
  208.750   59.394    0.266    0.209  274.672   39.315
  209.000   56.771    0.281    0.224  274.241   41.119
  209.250   52.791    0.321    0.270  301.847   44.107
  209.500   47.330    0.350    0.327  293.044   46.202
  209.750   43.606    0.366    0.240  287.686   46.529
  210.000   36.992    0.356    0.219  285.779   45.979
  210.250   34.085    0.355    0.234  266.631   46.008
  210.500   30.556    0.348    0.282  258.813   46.929
  210.750   28.412    0.377    0.305  254.937   47.257
  211.000   27.410    0.417    0.307  253.016   48.171
  211.250   27.410    0.470    0.309  251.607   48.502
  211.500   27.195    0.469    0.303  250.192   48.235
  211.750   27.467    0.449    0.291  250.192   46.501
  212.000   29.041    0.425    0.276  249.794   42.986
  212.250   31.567    0.376    0.259  247.388   42.727
  212.500   30.451    0.319    0.213  245.480   45.130
  212.750   29.102    0.292    0.150  244.550   48.114
  213.000   23.800    0.299    0.086  244.604   50.500
  213.250   14.250    0.351    0.063  243.188   53.492
  213.500   11.131    0.384    0.063  242.258   62.967
  213.750    8.154    0.403    0.048  241.820   69.202
  214.000    6.031    0.442    0.056  240.391   78.386
  214.250    6.031    0.474    0.204  237.500   89.345
  214.500    5.928    0.504    0.238  236.569   92.034
  214.750    4.804    0.500    0.250  236.131   89.709
  215.000    4.591    0.502    0.268  236.192   87.379
  215.250    4.042    0.522    0.265  235.754   87.124
  215.500    3.690    0.546    0.251  234.823   87.743
  215.750    3.400    0.584    0.259  233.395   87.480
  216.000    3.220    0.578    0.277  231.979   88.398
  216.250    3.164    0.549    0.278  231.049   87.541
  216.500    3.345    0.575    0.287  229.627   84.326
  216.750    4.059    0.590    0.278  229.182   82.591
  217.000    4.493    0.603    0.293  228.750   81.147
  217.250    5.303    0.588    0.293  227.834   80.294
  217.500    5.763    0.486    0.292  227.389   82.983
  217.750    5.983    0.467    0.256  226.465   86.853
  218.000    6.042    0.495    0.223  226.512   91.026
  218.250    5.883    0.516    0.220  227.065   94.597
  218.500    5.623    0.500    0.236  227.604   93.752
  218.750    5.181    0.516    0.237  228.156   92.308
  219.000    4.862    0.524    0.237  228.210   94.694
  219.250    4.733    0.515    0.209  227.772   92.660
  219.500    4.733    0.533    0.207  227.819   85.902
  219.750    4.919    0.539    0.222  227.886   76.193
  220.000    5.295    0.507    0.238  227.934   70.620
  220.250    7.648    0.504    0.252  226.518   64.154
  220.500   11.147    0.486    0.261  223.128   55.625
  220.750   13.525    0.467    0.287  221.699   50.340
  221.000   17.183    0.457    0.311  221.753   47.724
  221.250   22.026    0.453    0.317  223.296   47.760
  221.500   25.291    0.451    0.313  223.828   47.788
  221.750   25.781    0.457    0.334  220.944   48.415
  222.000   24.193    0.460    0.351  218.045   49.029
  222.250   20.338    0.468    0.334  215.639   50.243
  222.500   17.254    0.488    0.322  214.702   52.345
  222.750   16.644    0.491    0.308  214.763   51.201
  223.000   15.909    0.511    0.294  215.315   50.938
  223.250   15.346    0.517    0.299  215.362   50.970
  223.500   14.806    0.511    0.323  215.410   50.408
  223.750   14.548    0.496    0.311  214.985   51.326
  224.000   14.423    0.491    0.330  215.045   53.429
  224.250   14.433    0.493    0.329  215.584   53.760
  224.500   14.312    0.479    0.323  215.632   52.021
  224.750   13.933    0.461    0.324  216.683   53.821
  225.000   12.957    0.426    0.287  216.737   65.665
  225.250   12.047    0.420    0.239  216.790   68.063
  225.500   10.899    0.452    0.240  217.336   68.686
  225.750   10.043    0.452    0.237  216.891   70.789
  226.000    9.599    0.450    0.238  217.437   67.865
  226.250    9.261    0.478    0.266  217.983   61.698
  226.500    9.526    0.470    0.297  217.552   56.413
  226.750   10.257    0.475    0.317  218.097   52.320
  227.000   11.997    0.483    0.326  218.165   51.175
  227.250   13.038    0.482    0.311  218.212   51.200
  227.500   13.292    0.465    0.295  218.259   51.236
  227.750   13.058    0.468    0.270  218.805   50.674
  228.000   12.367    0.478    0.297  218.858   51.297
  228.250   12.039    0.480    0.304  219.418   51.333
  228.500   12.272    0.486    0.303  219.478   51.070
  228.750   12.624    0.460    0.298  219.525   50.225
  229.000   12.630    0.435    0.284  219.572   53.201
  229.250   12.412    0.425    0.266  219.626   57.075
  229.500   12.193    0.414    0.245  219.687   59.768
  229.750   11.550    0.441    0.208  219.747   63.339
  230.000   11.141    0.458    0.233  219.794   67.213
  230.250   10.648    0.464    0.261  220.347   69.910
  230.500    9.812    0.482    0.258  221.385   70.824
  230.750    9.040    0.489    0.260  221.439   71.742
  231.000    8.330    0.470    0.251  221.486   72.951
  231.250    8.035    0.455    0.245  223.521   75.644
