~VERSION INFORMATION
 VERS.                 2.0:   CWLS LOG ASCII STANDARD -VERSION 2.0
 WRAP.                  NO:   ONE LINE PER DEPTH STEP
~WELL INFORMATION BLOCK
#MNEM.UNIT           DATA                    DESCRIPTION OF MNEMONIC
#---------    -------------------            -------------------------------
# Generated from Intellog Unique Number	CW_76_78/WELL/901
WELL.         PCP MARTEN HILLS 10-22         : Well_name    - WELL
LOC .         00/10-22-076-04W5/0            : Location     - LOCATION
UWI .         00/10-22-076-04W5/0            : Uwi          - UNIQUE WELL ID
ENTR.         JAYE                           : Entered      - ENTERED BY
SRVC.         SCHLUMBERGER                   : Scn          - SERVICE COMPANY
DATE.         24 MAR 74                      : Date         - LOG DATE
STRT.M        524.256                        : top_depth    - START DEPTH
STOP.M        777.256                        : bot_depth    - STOP DEPTH
STEP.M        0.25                           : increment    - STEP LENGTH
 NULL. -999.2500:NULL Value
~CURVE INFORMATION BLOCK
#MNEM UNIT       ERCB CURVE CODE    CURVE DESCRIPTION
#-----------   ------------------   ----------------------------------
DEPT.M        00 001 00 00         : DEPTH        - DEPTH
ILD .OHMM     00 120 00 00         : RESD         - DEEP RESISTIVITY (DIL)
NPHI.V/V      00 330 00 00         : PHIN         - NEUTRON POROSITY (SANDSTONE)
DPHI.V/V      00 890 00 00         : PHID         - DENSITY POROSITY (SANDSTONE)
GR  .API      00 310 00 00         : GR           - GAMMA RAY
CALI.MM       00 280 01 00         : CAL          - CALIPER
~PARAMETER INFORMATION
#MNEM.UNIT           DATA             DESCRIPTION OF MNEMONIC
#---------         -----------     ------------------------------
GL  .M        833.476              : gl           - GROUND LEVEL ELEVATION
EREF.M        837.133              : kb           - ELEVATION OF DEPTH REFERENCE
DATM.M        833.476              : datum        - DATUM ELEVATION
TDD .M        790.346              : tdd          - TOTAL DEPTH DRILLER
RUN .         ONE                  : Run          - RUN NUMBER
ENG .         WILLIGER             : Engineer     - RECORDING ENGINEER
WIT .         BOND                 : Witness      - WITNESSED BY
BASE.         RD                   : Branch       - HOME BASE OF LOGGING UNIT
MUD .         CHEM GEL             : Mud_type     - MUD TYPE
MATR.         SANDSTONE            : Logunit      - NEUTRON MATRIX
TMAX.C        27.7778              : BHT          - MAXIMUM RECORDED TEMPERATURE
BHTD.M        790.651              : BHTDEP       - MAXIMUM RECORDED TEMPERATURE
RMT .C        9.44444              : MDTP         - TEMPERATURE OF MUD
MUDD.KG/M     1164                 : MWT          - MUD DENSITY
NEUT.         1                    : NEUTRON      - NEUTRON TYPE
RESI.         0                    : RESIST       - RESISTIVITY TYPE
RM  .OHMM     4.84                 : RM           - RESISTIVITY OF MUD
RMC .OHMM     0                    : RMC          - RESISTIVITY OF MUD CAKE
RMF .OHMM     5.54                 : RMF          - RESISTIVITY OF MUD FILTRATE
SUFT.C        -17.7778             : SUFT         - SURFACE TEMPERATURE
~A  DEPTH     RESD     PHIN     PHID       GR      CAL
# ...
  633.756    5.314    0.430    0.300   60.965  194.362
  634.006    5.493    0.451    0.294   60.975  194.276
  634.256    5.594    0.444    0.286   60.984  194.186
  634.506    5.624    0.433    0.282   61.906  194.204
  634.756    5.633    0.431    0.287   64.411  194.426
  635.006    5.663    0.434    0.291   65.395  194.236
  635.256    5.673    0.446    0.295   62.543  194.251
  635.506    5.682    0.466    0.297   63.162  194.268
  635.756    5.681    0.463    0.294   64.753  194.282
  636.006    5.659    0.445    0.286   64.580  194.300
  636.256    5.606    0.431    0.277   62.398  194.317
  636.506    5.522    0.419    0.295   59.546  194.329
  636.756    5.360    0.423    0.314   59.556  194.552
  637.006    5.127    0.449    0.315   59.808  195.084
  637.256    4.894    0.465    0.318   60.305  195.407
  637.506    4.698    0.479    0.328   60.863  195.321
  637.756    4.395    0.476    0.326   61.602  191.522
  638.006    4.165    0.475    0.331   62.648  191.847
  638.256    3.954    0.477    0.326   62.899  194.852
  638.506    3.775    0.479    0.332   62.665  195.592
  638.756    3.651    0.488    0.343   61.335  195.709
  639.006    3.570    0.494    0.334   60.979  195.727
  639.256    3.530    0.479    0.330   61.232  195.847
  639.506    3.516    0.462    0.335   62.459  195.861
  639.756    3.489    0.438    0.327   62.833  195.671
  640.006    3.457    0.445    0.311   64.426  195.376
  640.256    3.399    0.481    0.308   63.583  195.187
  640.506    3.355    0.457    0.295   60.122  195.101
  640.756    3.329    0.425    0.273   60.984  197.279
  641.006    3.384    0.394    0.227   62.698  200.078
  641.256    3.524    0.377    0.173   64.473  202.363
  641.506    3.717    0.449    0.168   66.247  204.029
  641.756    3.950    0.445    0.224   68.631  204.971
  642.006    4.190    0.409    0.206   74.789  205.298
  642.256    4.291    0.394    0.195   72.484  205.416
  642.506    4.228    0.384    0.192   69.755  205.639
  642.756    4.028    0.395    0.180   70.434  205.655
  643.006    3.910    0.430    0.185   71.662  205.978
  643.256    3.768    0.435    0.195   73.253  206.822
  643.506    3.617    0.422    0.201   75.210  207.763
  643.756    3.511    0.420    0.216   77.411  209.326
  644.006    3.401    0.449    0.200   80.160  210.785
  644.256    3.271    0.475    0.192   82.299  210.799
  644.506    3.077    0.479    0.199   82.918  210.301
  644.756    2.905    0.497    0.203   82.441  211.039
  645.006    2.738    0.483    0.213   80.319  210.332
  645.256    2.547    0.457    0.208   77.894  208.597
  645.506    2.523    0.436    0.200   75.955  206.755
  645.756    2.637    0.418    0.189   74.686  206.670
  646.006    2.908    0.419    0.223   74.269  207.821
  646.256    3.377    0.424    0.210   74.278  208.968
  646.506    3.696    0.424    0.192   75.140  210.117
  646.756    3.884    0.427    0.193   76.671  209.722
  647.006    3.985    0.436    0.200   78.872  209.324
  647.256    4.007    0.435    0.192   80.829  207.073
  647.506    3.984    0.424    0.200   79.135  203.173
  647.756    3.983    0.418    0.220   76.040  200.611
  648.006    4.012    0.419    0.236   75.623  199.904
  648.256    4.041    0.430    0.246   75.632  200.436
  648.506    4.063    0.441    0.243   75.154  200.967
  648.756    4.084    0.463    0.240   72.608  200.262
  649.006    4.106    0.455    0.258   69.572  200.278
  649.256    4.136    0.446    0.254   69.521  199.987
  649.506    4.143    0.431    0.237   71.782  199.693
  649.756    4.134    0.431    0.263   75.444  199.501
  650.006    4.118    0.438    0.282   71.315  199.418
  650.256    4.117    0.450    0.277   66.393  199.327
  650.506    4.124    0.433    0.270   64.393  198.933
  650.756    4.131    0.442    0.265   68.177  198.947
  651.006    4.153    0.451    0.255   70.804  198.858
  651.256    4.168    0.444    0.236   73.553  198.772
  651.506    4.152    0.445    0.229   76.667  198.891
  651.756    4.151    0.449    0.243   77.285  198.804
  652.006    4.157    0.449    0.262   73.398  198.303
  652.256    4.165    0.439    0.293   68.843  196.670
  652.506    4.210    0.433    0.294   66.173  194.418
  652.756    4.233    0.433    0.285   63.443  194.641
  653.006    4.248    0.429    0.285   61.870  194.965
  653.256    4.278    0.428    0.293   62.123  194.981
  653.506    4.293    0.424    0.287   63.410  194.687
  653.756    4.277    0.423    0.270   65.002  194.294
  654.006    4.268    0.422    0.269   66.047  194.205
  654.256    4.275    0.417    0.255   67.334  193.499
  654.506    4.266    0.421    0.265   70.204  191.866
  654.756    4.258    0.430    0.277   69.362  190.232
  655.006    4.320    0.451    0.279   69.555  189.424
  655.256    4.490    0.449    0.284   69.746  189.235
  655.506    4.888    0.444    0.290   70.242  189.663
  655.756    5.137    0.438    0.289   70.739  190.194
  656.006    5.060    0.448    0.283   70.261  190.932
  656.256    4.894    0.476    0.277   69.418  192.080
  656.506    4.689    0.465    0.274   67.115  192.610
  656.756    4.477    0.449    0.294   65.419  193.350
  657.006    4.274    0.478    0.288   61.593  193.881
  657.256    4.057    0.512    0.295   60.385  194.204
  657.506    3.931    0.493    0.290   60.760  194.428
  657.756    3.851    0.474    0.288   63.448  194.648
  658.006    3.773    0.479    0.290   64.858  194.563
  658.256    3.710    0.472    0.291   64.928  194.371
  658.506    3.675    0.457    0.304   64.145  193.770
  658.756    3.647    0.447    0.298   63.547  193.475
  659.006    3.647    0.435    0.289   65.382  194.419
  659.256    3.639    0.431    0.288   69.227  195.776
  659.506    3.645    0.427    0.284   74.227  196.512
  659.756    3.658    0.420    0.294   78.559  196.942
  660.006    3.650    0.412    0.307   75.099  196.853
  660.256    3.650    0.397    0.310   70.663  196.459
  660.506    3.636    0.434    0.307   65.560  195.958
  660.756    3.582    0.469    0.300   63.926  195.561
  661.006    3.535    0.497    0.331   65.335  195.477
  661.256    3.482    0.485    0.320   64.309  195.491
  661.506    3.437    0.466    0.314   62.858  195.506
  661.756    3.386    0.448    0.323   63.780  195.213
  662.006    3.335    0.434    0.315   65.738  194.815
  662.256    3.316    0.423    0.298   64.712  193.388
  662.506    3.346    0.436    0.280   61.374  192.271
  662.756    3.395    0.421    0.260   59.192  192.081
  663.006    3.529    0.394    0.232   57.558  192.923
  663.256    3.828    0.330    0.186   56.166  194.584
  663.506    4.707    0.254    0.098   54.349  198.827
  663.756    7.638    0.188    0.061   53.019  202.141
  664.006   12.814    0.170    0.065   52.785  203.806
  664.256   17.125    0.190    0.069   53.586  204.545
  664.506   21.177    0.209    0.098   55.300  203.840
  664.756   12.783    0.279    0.218   59.205  202.206
  665.006    8.962    0.344    0.290   63.841  197.995
  665.256    6.520    0.422    0.283   67.016  195.022
  665.506    4.805    0.443    0.273   66.599  195.140
  665.756    4.053    0.459    0.276   64.782  195.779
  666.006    3.708    0.480    0.291   61.078  195.791
  666.256    3.488    0.487    0.301   60.479  195.499
  666.506    3.330    0.481    0.292   64.141  195.410
  666.756    3.202    0.480    0.298   65.429  195.634
  667.006    3.126    0.475    0.304   65.560  195.856
  667.256    3.114    0.465    0.303   65.448  195.973
  667.506    3.153    0.446    0.297   65.640  196.713
  667.756    3.278    0.429    0.289   65.953  198.275
  668.006    3.490    0.422    0.276   66.693  199.835
  668.256    3.681    0.417    0.263   68.956  201.191
  668.506    3.883    0.428    0.254   69.634  202.239
  668.756    4.028    0.438    0.245   69.887  202.667
  669.006    4.088    0.451    0.291   69.653  201.341
  669.256    4.049    0.465    0.311   70.272  198.059
  669.506    3.952    0.474    0.309   70.828  196.013
  669.756    3.815    0.462    0.283   69.985  196.648
  670.006    3.717    0.429    0.252   69.751  197.904
