~VERSION INFORMATION
 VERS.                 2.0:   CWLS LOG ASCII STANDARD -VERSION 2.0
 WRAP.                  NO:   ONE LINE PER DEPTH STEP
~WELL INFORMATION BLOCK
#MNEM.UNIT           DATA                    DESCRIPTION OF MNEMONIC
#---------    -------------------            -------------------------------
# Generated from Intellog Unique Number	CW_76_78/WELL/2811
WELL.         AAMOCO ET ROCK 10-34           : Well_name    - WELL
LOC .         00/10-34-077-24W4/0            : Location     - LOCATION
UWI .         00/10-34-077-24W4/0            : Uwi          - UNIQUE WELL ID
ENTR.         JJ                             : Entered      - ENTERED BY
SRVC.         WESTERN ATLAS                  : Scn          - SERVICE COMPANY
DATE.         14 JAN 73                      : Date         - LOG DATE
STRT.M        396.24                         : top_depth    - START DEPTH
STOP.M        533.49                         : bot_depth    - STOP DEPTH
STEP.M        0.25                           : increment    - STEP LENGTH
 NULL. -999.2500:NULL Value
~CURVE INFORMATION BLOCK
#MNEM UNIT       ERCB CURVE CODE    CURVE DESCRIPTION
#-----------   ------------------   ----------------------------------
DEPT.M        00 001 00 00         : DEPTH        - DEPTH
DELT.US/F     00 520 00 00         : DELT         - SONIC TRAVEL TIME
NPHI.V/V      00 330 00 00         : PHIN         - NEUTRON POROSITY (SANDSTONE)
GR  .API      00 310 00 00         : GR           - GAMMA RAY
CALI.MM       00 280 01 00         : CAL          - CALIPER
ILD .OHMM     00 120 00 00         : RESD         - DEEP RESISTIVITY (DIL)
~PARAMETER INFORMATION
#MNEM.UNIT           DATA             DESCRIPTION OF MNEMONIC
#---------         -----------     ------------------------------
GL  .M        613.105              : gl           - GROUND LEVEL ELEVATION
EREF.M        617.281              : kb           - ELEVATION OF DEPTH REFERENCE
DATM.M        613.105              : datum        - DATUM ELEVATION
TDD .M        534.924              : tdd          - TOTAL DEPTH DRILLER
RUN .         ONE                  : Run          - RUN NUMBER
ENG .         MACLEAN-HETHERINGTON : Engineer     - RECORDING ENGINEER
WIT .         MACALDER-DAVIS       : Witness      - WITNESSED BY
BASE.         V.V                  : Branch       - HOME BASE OF LOGGING UNIT
MUD .         GEL                  : Mud_type     - MUD TYPE
MATR.         SANDSTONE            : Logunit      - NEUTRON MATRIX
TMAX.C        28.3333              : BHT          - MAXIMUM RECORDED TEMPERATURE
BHTD.M        535.534              : BHTDEP       - MAXIMUM RECORDED TEMPERATURE
RMT .C        18.3333              : MDTP         - TEMPERATURE OF MUD
MUDD.KG/M     1140                 : MWT          - MUD DENSITY
NEUT.         1                    : NEUTRON      - NEUTRON TYPE
RESI.         0                    : RESIST       - RESISTIVITY TYPE
RM  .OHMM     4.1                  : RM           - RESISTIVITY OF MUD
RMC .OHMM     4.5                  : RMC          - RESISTIVITY OF MUD CAKE
RMF .OHMM     3.5                  : RMF          - RESISTIVITY OF MUD FILTRATE
SUFT.C        5                    : SUFT         - SURFACE TEMPERATURE
~A  DEPTH     DELT     PHIN       GR      CAL     RESD
# ...
  505.740  347.824    0.233   53.895  220.171    5.270
  505.990  333.669    0.240   58.453  221.785    5.621
  506.240  271.164    0.237   60.874  222.467    5.940
  506.490  305.623    0.227   57.981  222.543    6.452
  506.740  336.102    0.217   53.004  222.389    7.165
  506.990  337.021    0.212   46.265  221.423    8.102
  507.240  345.117    0.219   40.983  220.149    9.488
  507.490  352.496    0.226   36.128  219.698   10.789
  507.740  359.941    0.233   32.377  219.439   11.720
  507.990  355.314    0.248   30.823  219.599   11.853
  508.240  349.968    0.257   30.499  219.990   10.919
  508.490  344.559    0.258   31.338  220.052   10.132
  508.740  342.084    0.256   31.974  219.588    9.282
  508.990  347.180    0.253   33.723  218.733    8.919
  509.240  340.399    0.244   35.657  218.050    8.840
  509.490  346.343    0.240   38.080  217.392    8.907
  509.740  340.476    0.243   40.191  216.841    9.108
  509.990  320.384    0.240   43.285  216.998    9.416
  510.240  306.231    0.225   46.256  218.102    9.646
  510.490  305.323    0.207   48.493  219.416    9.561
  510.740  270.744    0.196   50.669  220.505    8.728
  510.990  319.885    0.191   53.337  222.435    8.218
  511.240  340.381    0.184   56.001  224.572    7.433
  511.490  353.567    0.218   58.906  224.725    6.625
  511.740  362.512    0.222   64.689  223.457    5.776
  511.990  370.739    0.221   73.648  222.883    4.990
  512.240  375.182    0.233   85.725  221.603    4.530
  512.490  377.275    0.243   91.506  218.366    4.150
  512.740  369.974    0.256   90.444  218.746    3.929
  512.990  366.585    0.267   82.906  220.975    3.768
  513.240  356.607    0.255   78.968  223.614    3.728
  513.490  352.176    0.237   79.439  225.961    3.855
  513.740  362.687    0.238   82.105  225.510    4.249
  513.990  380.964    0.259   85.862  224.025    4.709
  514.240  395.456    0.269   78.935  222.533    5.535
  514.490  336.278    0.260   67.359  221.659    6.650
  514.740  320.167    0.245   60.001  221.205    7.645
  514.990  317.366    0.230   51.668  220.854    8.489
  515.240  307.715    0.201   48.283  220.715    8.922
  515.490  308.634    0.193   48.870  220.996    8.991
  515.740  313.990    0.189   51.109  221.140    8.544
  515.990  308.907    0.183   55.421  221.106    7.755
  516.240  303.887    0.190   60.287  220.747    6.800
  516.490  299.848    0.187   67.475  220.195    6.286
  516.740  314.797    0.188   71.486  220.151    5.634
  516.990  349.646    0.212   74.759  223.219    4.948
  517.240  341.495    0.243   75.654  228.978    4.443
  517.490  343.264    0.262   71.594  227.809    4.168
  517.740  350.904    0.263   65.277  226.714    4.293
  517.990  352.149    0.253   58.224  224.504    4.690
  518.240  355.352    0.232   52.028  222.597    5.481
  518.490  365.667    0.231   43.023  220.180    6.882
  518.740  389.163    0.263   38.664  219.518    7.839
  518.990  331.096    0.278   38.150  219.581    9.575
  519.240  328.752    0.275   41.423  220.470    9.267
  519.490  319.035    0.258   56.800  219.195    7.400
  519.740  363.020    0.272   68.570  219.460    6.107
  519.990  403.286    0.357   75.819  220.773    5.219
  520.240  415.821    0.422   77.626  221.761    4.729
  520.490  420.394    0.390   69.843  220.688    4.340
  520.740  428.034    0.389   63.101  220.135    3.976
  520.990  417.992    0.417   61.728  220.913    3.649
  521.240  415.387    0.434   68.184  222.743    3.392
  521.490  414.022    0.390   74.758  222.079    3.183
  521.740  411.092    0.359   76.506  220.996    3.058
  521.990  405.355    0.365   75.261  221.784    3.014
  522.240  412.865    0.383   76.768  227.027    3.037
  522.490  412.480    0.390   78.212  224.918    3.152
  522.740  395.258    0.393   80.382  224.364    3.337
  522.990  374.448    0.383   77.790  225.764    3.678
  523.240  332.301    0.328   70.496  225.826    4.010
  523.490  350.709    0.311   66.504  221.854    4.340
  523.740  374.270    0.301   66.970  219.749    4.820
  523.990  382.954    0.286   68.897  220.117    5.001
  524.240  376.108    0.290   76.334  221.737    4.735
  524.490  379.377    0.316   75.694  224.277    4.205
  524.740  393.933    0.331   65.893  229.928    4.062
  524.990  363.794    0.344   58.472  222.334    4.619
  525.240  372.020    0.317   47.513  238.543    6.473
  525.490  360.150    0.292   43.086  227.122    8.680
  525.740  343.777    0.265   45.938  229.049   10.524
  525.990  353.636    0.252   47.502  230.243   11.685
  526.240  349.009    0.251   48.089  228.146   12.905
  526.490  355.084    0.252   46.844  224.996   13.738
  526.740  361.353    0.251   43.883  220.505   14.787
  526.990  319.141    0.248   41.357  216.215   15.203
  527.240  300.289    0.239   38.762  219.599   15.182
  527.490  337.749    0.231   40.328  222.556   14.828
  527.740  347.803    0.247   41.410  220.446   14.040
  527.990  352.638    0.250   39.489  217.819   13.317
  528.240  359.038    0.244   40.197  217.988   12.586
  528.490  351.280    0.244   42.624  218.775   11.573
  528.740  345.151    0.249   45.832  219.773   10.622
  528.990  353.705    0.252   51.253  220.653    9.624
  529.240  346.141    0.254   55.320  222.063    8.817
  529.490  341.514    0.254   59.696  222.436    7.801
  529.740  345.696    0.248   65.237  223.014    6.953
  529.990  339.698    0.243   68.628  224.428    6.487
  530.240  336.637    0.238   73.862  226.151    6.513
  530.490  344.017    0.233   72.737  226.631    7.140
  530.740  352.113    0.228   62.142  226.991    8.882
  530.990  340.113    0.221   51.853  223.958   10.948
  531.240  348.080    0.206   44.005  222.680   12.403
  531.490  345.148    0.164   39.030  222.937   14.874
  531.740  191.943    0.127   38.701  225.393   15.491
  531.990  205.196    0.099   40.020  226.792   12.013
  532.240  221.579    0.062   43.181  227.065   10.378
  532.490  245.532    0.085   44.007  226.719    8.966
  532.740  263.808    0.094   43.497  225.337    7.676
  532.990  295.396    0.124   42.248  224.676    6.693
  533.240  289.333    0.181   43.325  225.557    6.188
  533.490  291.166    0.193   45.132  227.688    6.156
