~VERSION INFORMATION
 VERS.                 2.0:   CWLS LOG ASCII STANDARD -VERSION 2.0
 WRAP.                  NO:   ONE LINE PER DEPTH STEP
~WELL INFORMATION BLOCK
#MNEM.UNIT           DATA                    DESCRIPTION OF MNEMONIC
#---------    -------------------            -------------------------------
# Generated from Intellog Unique Number	CS_73_76/WELL/810
WELL.         PEX PHILLIPS AEC GRIST         : Well_name    - WELL
LOC .         00/10-04-073-08W4/0            : Location     - LOCATION
UWI .         00/10-04-073-08W4/0            : Uwi          - UNIQUE WELL ID
ENTR.         SP                             : Entered      - ENTERED BY
SRVC.         SCHLUMBERGER                   : Scn          - SERVICE COMPANY
STRT.M        315                            : top_depth    - START DEPTH
STOP.M        540                            : bot_depth    - STOP DEPTH
STEP.M        0.25                           : increment    - STEP LENGTH
 NULL. -999.2500:NULL Value
~CURVE INFORMATION BLOCK
#MNEM UNIT       ERCB CURVE CODE    CURVE DESCRIPTION
#-----------   ------------------   ----------------------------------
DEPT.M        00 001 00 00         : DEPTH        - DEPTH
ILD .OHMM     00 120 00 00         : RESD         - DEEP RESISTIVITY (DIL)
DPHI.V/V      00 890 00 00         : PHID         - DENSITY POROSITY (LIMESTONE)
NPHI.V/V      00 330 00 00         : PHIN         - NEUTRON POROSITY (LIMESTONE)
GR  .API      00 310 00 00         : GR           - GAMMA RAY
~PARAMETER INFORMATION
#MNEM.UNIT           DATA             DESCRIPTION OF MNEMONIC
#---------         -----------     ------------------------------
GL  .M        692.94               : gl           - GROUND LEVEL ELEVATION
EREF.M        696.02               : kb           - ELEVATION OF DEPTH REFERENCE
DATM.M        692.94               : datum        - DATUM ELEVATION
TDD .M        550.8                : tdd          - TOTAL DEPTH DRILLER
RUN .         ONE                  : Run          - RUN NUMBER
ENG .         BILL                 : Engineer     - RECORDING ENGINEER
WIT .         JIM                  : Witness      - WITNESSED BY
MUD .         GEL                  : Mud_type     - MUD TYPE
MATR.         LIMESTONE            : Logunit      - NEUTRON MATRIX
TMAX.C        29                   : BHT          - MAXIMUM RECORDED TEMPERATURE
BHTD.M        550.8                : BHTDEP       - MAXIMUM RECORDED TEMPERATURE
MATR.         1                    : LOGUNIT      - NEUTRON MATRIX
RMT .C        25                   : MDTP         - TEMPERATURE OF MUD
NEUT.         1                    : NEUTRON      - NEUTRON TYPE
RESI.         0                    : RESIST       - RESISTIVITY TYPE
RMC .OHMM     0.25                 : RMC          - RESISTIVITY OF MUD CAKE
RMF .OHMM     0.25                 : RMF          - RESISTIVITY OF MUD FILTRATE
SUFT.C        15                   : SUFT         - SURFACE TEMPERATURE
~A  DEPTH     RESD     PHID     PHIN       GR
  315.000    3.743    0.211    0.420  108.534
  315.250    3.743    0.239    0.394  106.701
  315.500    3.674    0.221    0.393  104.258
  315.750    3.605    0.231    0.410  103.645
  316.000    3.538    0.234    0.414  103.029
  316.250    3.473    0.232    0.395  101.808
  316.500    3.408    0.232    0.393  104.851
  316.750    3.345    0.242    0.390  106.676
  317.000    3.345    0.232    0.400  106.063
  317.250    3.345    0.234    0.379  101.180
  317.500    3.409    0.074    0.362   96.909
  317.750    3.540    0.057    0.401   91.418
  318.000    3.540    0.200    0.417   99.340
  318.250    3.608    0.189    0.426  104.214
  318.500    3.677    0.200    0.432  111.526
  318.750    3.410    0.200    0.412  114.572
  319.000    3.347    0.204    0.399  115.177
  319.250    3.410    0.195    0.390  112.734
  319.500    3.411    0.200    0.396  113.340
  319.750    3.347    0.197    0.395  114.555
  320.000    3.285    0.198    0.411  113.940
  320.250    3.105    0.205    0.424  114.547
  320.500    3.105    0.183    0.427  110.884
  320.750    3.224    0.172    0.411  108.441
  321.000    3.286    0.184    0.417  109.047
  321.250    3.348    0.173    0.394  109.653
  321.500    3.477    0.160    0.400  109.039
  321.750    3.680    0.166    0.406  108.425
  322.000    3.750    0.181    0.376  107.202
  322.250    3.894    0.182    0.378  105.367
  322.500    3.968    0.171    0.378  105.974
  322.750    4.121    0.109    0.375  108.409
  323.000    4.361    0.057    0.382  102.306
  323.250    4.614    0.100    0.394  101.084
  323.500    4.792    0.166    0.398  103.519
  323.750    5.071    0.177    0.410  105.344
  324.000    5.167    0.166    0.406  105.948
  324.250    4.977    0.159    0.414  105.946
  324.500    4.793    0.161    0.381  106.551
  324.750    4.201    0.176    0.381  108.376
  325.000    4.046    0.168    0.384  109.592
  325.250    3.897    0.171    0.380  109.588
  325.500    3.753    0.171    0.399  109.584
  325.750    3.683    0.173    0.400  108.360
  326.000    3.683    0.180    0.402  103.478
  326.250    3.825    0.181    0.409  101.645
  326.500    4.048    0.160    0.403  106.518
  326.750    4.125    0.155    0.410  108.954
  327.000    4.204    0.162    0.402  110.779
  327.250    4.284    0.180    0.380  110.774
  327.500    4.366    0.178    0.388  111.381
  327.750    4.366    0.173    0.383  111.377
  328.000    4.285    0.169    0.377  107.713
  328.250    4.205    0.160    0.385  104.661
  328.500    4.127    0.182    0.382  102.828
  328.750    4.205    0.203    0.398   99.774
  329.000    4.367    0.194    0.376   99.161
  329.250    4.709    0.186    0.336   98.547
  329.500    4.799    0.137    0.302   95.494
  329.750    4.799    0.063    0.302   90.612
  330.000    5.374    0.204    0.307   86.951
  330.250    6.017    0.137    0.313   83.897
  330.500    7.129    0.113    0.325   91.820
  330.750    9.108    0.164    0.334   99.132
  331.000   10.791    0.174    0.315  101.568
  331.250   11.857    0.156    0.301   99.125
  331.500   12.547    0.161    0.299   99.731
  331.750   12.787    0.289    0.306   93.629
  332.000   12.315    0.272    0.275   77.162
  332.250   12.316    0.235    0.179   71.060
  332.500   12.789    0.257    0.193   59.471
  332.750   14.053    0.300    0.197   46.662
  333.000   16.340    0.288    0.196   41.780
  333.250   18.998    0.283    0.203   47.262
  333.500   24.270    0.298    0.229   50.309
  333.750   33.431    0.315    0.247   55.183
  334.000   44.349    0.305    0.252   60.056
  334.250   56.656    0.294    0.260   64.320
  334.500   62.255    0.284    0.271   68.584
  334.750   46.061    0.283    0.274   72.849
  335.000   38.156    0.263    0.272   78.942
  335.250   34.728    0.249    0.282   80.767
  335.500   27.705    0.261    0.295   79.544
  335.750   24.745    0.234    0.306   78.930
  336.000   20.889    0.236    0.315   81.974
  336.250   20.117    0.228    0.330   86.847
  336.500   18.310    0.182    0.344   89.283
  336.750   16.983    0.202    0.353   93.547
  337.000   16.356    0.208    0.347   97.202
  337.250   15.459    0.189    0.344  101.466
  337.500   14.888    0.175    0.355  101.463
  337.750   14.338    0.155    0.355  105.117
  338.000   14.339    0.157    0.368  107.551
  338.250   13.810    0.168    0.357  107.547
  338.500   13.811    0.205    0.357  105.715
  338.750   13.812    0.232    0.337   95.954
  339.000   14.075    0.221    0.331   94.731
  339.250   14.616    0.221    0.330   97.165
  339.500   15.467    0.203    0.340   96.552
  339.750   16.678    0.198    0.329   92.889
  340.000   18.327    0.194    0.310   91.666
  340.250   18.676    0.197    0.311   88.612
  340.500   18.329    0.239    0.321   86.169
  340.750   18.330    0.196    0.329   87.995
  341.000   19.397    0.130    0.315   98.356
  341.250   17.655    0.078    0.318  104.450
  341.500   15.769    0.022    0.335  105.055
  341.750   14.352    0.005    0.343  101.392
  342.000   12.581    0.024    0.325   99.560
  342.250   11.451    0.153    0.310   98.947
  342.500   11.238    0.159    0.293   94.063
  342.750   11.892    0.146    0.289   89.792
  343.000   12.823    0.140    0.303   84.300
  343.250   13.827    0.168    0.319   81.857
  343.500   14.910    0.251    0.326   78.805
  343.750   16.078    0.248    0.312   73.312
  344.000   18.345    0.202    0.320   67.211
  344.250   19.413    0.177    0.334   75.743
  344.500   20.542    0.196    0.325   81.227
  344.750   17.670    0.199    0.341   88.540
  345.000   15.488    0.148    0.366  103.170
  345.250   14.097    0.123    0.383  114.142
  345.500   12.126    0.119    0.402  118.405
  345.750   10.629    0.110    0.409  117.181
  346.000    9.674    0.134    0.406  122.055
  346.250    7.864    0.159    0.402  126.319
  346.500    6.765    0.153    0.415  128.145
  346.750    6.274    0.134    0.411  128.141
  347.000    5.604    0.115    0.407  126.918
  347.250    4.912    0.166    0.407  126.914
  347.500    4.471    0.196    0.404  124.470
  347.750    4.147    0.209    0.402  123.247
  348.000    3.774    0.217    0.379  123.243
  348.250    3.635    0.228    0.361  121.410
  348.500    4.307    0.231    0.346  114.088
  348.750    5.399    0.239    0.341  100.670
  349.000    7.029    0.221    0.349   91.520
  349.250   11.257    0.214    0.356   91.516
  349.500   14.654    0.228    0.365   97.608
  349.750   20.569    0.254    0.362  100.044
  350.000   24.834    0.220    0.357   96.381
  350.250   27.807    0.204    0.357   95.158
  350.500   28.876    0.211    0.362  100.032
  350.750   25.792    0.219    0.367  111.612
  351.000   23.038    0.230    0.357  117.705
  351.250   21.367    0.238    0.352  120.751
  351.500   19.448    0.190    0.340  113.430
  351.750   17.047    0.156    0.334  109.157
  352.000   15.811    0.113    0.328  109.763
  352.250   13.859    0.087    0.320  106.710
  352.500   12.854    0.101    0.327  105.487
  352.750   11.921    0.134    0.330  109.142
  353.000   10.851    0.136    0.357  114.624
  353.250    9.692    0.136    0.363  120.108
  353.500    8.657    0.147    0.366  124.983
  353.750    8.029    0.156    0.365  129.857
  354.000    7.308    0.141    0.379  126.803
  354.250    6.651    0.152    0.388  128.020
  354.500    6.169    0.148    0.394  133.503
  354.750    6.054    0.139    0.404  131.669
  355.000    6.170    0.135    0.377  127.397
  355.250    6.653    0.168    0.359  123.125
  355.500    7.174    0.240    0.340  112.755
  355.750    9.165    0.273    0.345  104.215
  356.000   13.109    0.283    0.348   95.065
  356.250   18.401    0.278    0.333  104.816
  356.500   23.069    0.284    0.323  107.251
  356.750   27.333    0.290    0.322  101.759
  357.000   28.924    0.215    0.328  102.365
  357.250   27.856    0.207    0.337  101.751
  357.500   24.417    0.200    0.346   99.917
  357.750   22.223    0.208    0.344  100.524
  358.000   19.850    0.222    0.346  104.787
  358.250   18.761    0.235    0.351   99.906
