~VERSION INFORMATION
 VERS.                 2.0:   CWLS LOG ASCII STANDARD -VERSION 2.0
 WRAP.                  NO:   ONE LINE PER DEPTH STEP
~WELL INFORMATION BLOCK
#MNEM.UNIT           DATA                    DESCRIPTION OF MNEMONIC
#---------    -------------------            -------------------------------
# Generated from Intellog Unique Number	CC_84_87/WELL/2549
WELL.         HOMESTEAD ET AL WATCHUSK       : Well_name    - WELL
LOC .         00/10-16-084-03W4/0            : Location     - LOCATION
UWI .         00/10-16-084-03W400            : Uwi          - UNIQUE WELL ID
ENTR.         JHS                            : Entered      - ENTERED BY
SRVC.         SCHLUMBERGER                   : Scn          - SERVICE COMPANY
STRT.M        86.563                         : top_depth    - START DEPTH
STOP.M        298.563                        : bot_depth    - STOP DEPTH
STEP.M        0.25                           : increment    - STEP LENGTH
 NULL. -999.2500:NULL Value
~CURVE INFORMATION BLOCK
#MNEM UNIT       ERCB CURVE CODE    CURVE DESCRIPTION
#-----------   ------------------   ----------------------------------
DEPT.M        00 001 00 00         : DEPTH        - DEPTH
ILD .OHMM     00 120 00 00         : RESD         - DEEP RESISTIVITY (DIL)
GR  .API      00 310 00 00         : GR           - GAMMA RAY
DPHI.V/V      00 890 00 00         : PHID         - DENSITY POROSITY (SANDSTONE)
NPHI.V/V      00 330 00 00         : PHIN         - NEUTRON POROSITY (SANDSTONE)
~PARAMETER INFORMATION
#MNEM.UNIT           DATA             DESCRIPTION OF MNEMONIC
#---------         -----------     ------------------------------
GL  .M        454.457              : gl           - GROUND LEVEL ELEVATION
EREF.M        458.114              : kb           - ELEVATION OF DEPTH REFERENCE
DATM.M        458.114              : datum        - DATUM ELEVATION
TDD .M        312.42               : tdd          - TOTAL DEPTH DRILLER
RUN .         ONE                  : Run          - RUN NUMBER
ENG .         BILL                 : Engineer     - RECORDING ENGINEER
WIT .         JIM                  : Witness      - WITNESSED BY
MUD .         GEL                  : Mud_type     - MUD TYPE
MATR.         SANDSTONE            : Logunit      - NEUTRON MATRIX
TMAX.C        19.4444              : BHT          - MAXIMUM RECORDED TEMPERATURE
BHTD.M        312.42               : BHTDEP       - MAXIMUM RECORDED TEMPERATURE
MATR.         1                    : LOGUNIT      - NEUTRON MATRIX
RMT .C        25                   : MDTP         - TEMPERATURE OF MUD
NEUT.         1                    : NEUTRON      - NEUTRON TYPE
RESI.         0                    : RESIST       - RESISTIVITY TYPE
RMC .OHMM     0.25                 : RMC          - RESISTIVITY OF MUD CAKE
RMF .OHMM     0.25                 : RMF          - RESISTIVITY OF MUD FILTRATE
SUFT.C        15                   : SUFT         - SURFACE TEMPERATURE
~A  DEPTH     RESD       GR     PHID     PHIN
# ...
  217.063    5.964   97.441    0.194    0.466
  217.313    5.963   98.174    0.205    0.458
  217.563    6.049  100.134    0.200    0.457
  217.813    6.086  102.706    0.205    0.460
  218.063    6.118  104.201    0.219    0.465
  218.313    6.214  103.193    0.212    0.473
  218.563    6.207  101.686    0.206    0.482
  218.813    6.201   99.658    0.219    0.482
  219.063    6.289   98.115    0.205    0.487
  219.313    6.354   94.099    0.215    0.479
  219.563    6.297   91.194    0.227    0.450
  219.813    6.218   93.452    0.209    0.451
  220.063    6.229   96.384    0.215    0.506
  220.313    6.222   96.181    0.213    0.523
  220.563    6.312   94.126    0.199    0.514
  220.813    6.367   93.071    0.199    0.490
  221.063    6.346   92.568    0.195    0.463
  221.313    6.370   92.483    0.184    0.450
  221.563    6.479   95.841    0.200    0.453
  221.813    6.591  102.064    0.210    0.457
  222.063    6.613  104.261    0.195    0.448
  222.313    6.608  101.821    0.198    0.441
  222.563    6.616   98.116    0.203    0.448
  222.813    6.617   95.606    0.198    0.467
  223.063    6.622   94.777    0.215    0.487
  223.313    6.636   95.160    0.213    0.481
  223.563    6.545   96.570    0.219    0.452
  223.813    6.509   97.862    0.216    0.442
  224.063    6.496   98.704    0.209    0.447
  224.313    6.372   98.940    0.222    0.451
  224.563    6.178   97.837    0.233    0.467
  224.813    5.909   95.907    0.225    0.491
  225.063    5.648   93.278    0.225    0.509
  225.313    5.386   87.089    0.237    0.507
  225.563    5.202   81.483    0.236    0.468
  225.813    5.158   80.645    0.225    0.419
  226.063    5.166   82.403    0.225    0.422
  226.313    5.237   87.865    0.205    0.460
  226.563    5.395   91.931    0.213    0.454
  226.813    5.548   92.683    0.215    0.437
  227.063    5.787   92.906    0.207    0.443
  227.313    6.007   95.823    0.209    0.461
  227.563    5.994  100.345    0.201    0.477
  227.813    6.188  101.277    0.199    0.478
  228.063    6.240   98.811    0.209    0.468
  228.313    6.230   95.519    0.227    0.454
  228.563    6.207   93.014    0.231    0.440
  228.813    6.103   92.094    0.218    0.425
  229.063    6.016   93.289    0.217    0.415
  229.313    5.931   95.742    0.215    0.419
  229.563    5.834   98.329    0.197    0.437
  229.813    5.801  100.563    0.194    0.453
  230.063    5.819  102.314    0.200    0.456
  230.313    5.813  103.762    0.206    0.456
  230.563    5.819  104.107    0.222    0.464
  230.813    5.917  101.201    0.214    0.466
  231.063    5.929   98.972    0.198    0.474
  231.313    5.991   99.153    0.192    0.485
  231.563    6.053  100.508    0.188    0.485
  231.813    6.064  100.256    0.179    0.468
  232.063    6.168   97.645    0.180    0.444
  232.313    6.177   96.979    0.191    0.431
  232.563    6.171   97.474    0.194    0.430
  232.813    6.186   97.838    0.186    0.434
  233.063    6.160   98.862    0.186    0.442
  233.313    6.044  100.209    0.202    0.451
  233.563    5.861  100.676    0.212    0.451
  233.813    5.678  102.700    0.191    0.435
  234.063    5.596  103.551    0.190    0.435
  234.313    5.449  101.554    0.195    0.442
  234.563    5.347   96.787    0.198    0.451
  234.813    5.199   90.653    0.207    0.460
  235.063    4.726   85.908    0.222    0.449
  235.313    4.560   84.682    0.257    0.420
  235.563    4.562   84.912    0.236    0.415
  235.813    4.535   83.775    0.238    0.422
  236.063    4.432   81.442    0.258    0.429
  236.313    4.300   78.833    0.250    0.425
  236.563    4.173   75.281    0.258    0.414
  236.813    3.945   71.258    0.266    0.447
  237.063    3.608   67.061    0.298    0.464
  237.313    3.347   54.430    0.334    0.443
  237.563    3.165   39.316    0.334    0.415
  237.813    2.980   32.221    0.318    0.403
  238.063    2.855   35.945    0.324    0.392
  238.313    2.810   51.711    0.318    0.367
  238.563    2.776   38.974    0.313    0.356
  238.813    2.723   28.544    0.313    0.372
  239.063    2.720   31.326    0.317    0.387
  239.313    2.764   30.738    0.314    0.371
  239.563    2.761   31.950    0.295    0.335
  239.813    2.799   33.129    0.283    0.329
  240.063    2.887   32.355    0.300    0.335
  240.313    2.954   29.544    0.313    0.347
  240.563    2.993   27.211    0.305    0.335
  240.813    3.044   26.561    0.287    0.301
  241.063    3.091   26.092    0.273    0.302
  241.313    3.096   26.450    0.280    0.336
  241.563    3.072   28.354    0.290    0.342
  241.813    2.959   32.139    0.302    0.350
  242.063    2.852   35.468    0.315    0.370
  242.313    2.823   36.267    0.324    0.374
  242.563    2.780   36.283    0.325    0.364
  242.813    2.777   38.154    0.307    0.365
  243.063    2.814   40.525    0.306    0.358
  243.313    2.864   41.268    0.322    0.372
  243.563    2.902   42.636    0.331    0.400
  243.813    2.962   47.722    0.315    0.408
  244.063    3.055   52.433    0.283    0.405
  244.313    3.061   48.699    0.280    0.399
  244.563    3.057   45.479    0.298    0.358
  244.813    3.062   43.465    0.301    0.339
  245.063    3.062   43.613    0.287    0.367
  245.313    3.065   47.350    0.283    0.391
  245.563    3.067   53.052    0.291    0.394
  245.813    3.063   62.039    0.283    0.414
  246.063    3.107   63.538    0.276    0.431
  246.313    3.139   59.670    0.292    0.412
  246.563    3.111   59.165    0.310    0.407
  246.813    3.069   63.652    0.311    0.439
  247.063    3.076   66.876    0.301    0.450
  247.313    3.126   65.855    0.286    0.449
  247.563    3.163   67.013    0.295    0.431
  247.813    3.279   72.103    0.304    0.408
  248.063    3.424   79.540    0.288    0.420
  248.313    3.525   86.500    0.261    0.460
  248.563    3.636   90.162    0.261    0.470
  248.813    3.695   91.338    0.299    0.467
  249.063    3.754   90.987    0.298    0.453
  249.313    3.796   88.330    0.281    0.452
  249.563    3.741   86.294    0.282    0.464
  249.813    3.631   85.820    0.288    0.467
  250.063    3.583   83.137    0.283    0.465
  250.313    3.488   79.732    0.273    0.458
  250.563    3.303   75.841    0.279    0.452
  250.813    3.097   71.485    0.285    0.451
  251.063    2.936   59.792    0.311    0.451
  251.313    2.810   44.918    0.352    0.434
  251.563    2.686   41.533    0.361    0.398
  251.813    2.602   41.343    0.362    0.396
  252.063    2.562   43.108    0.361    0.415
  252.313    2.516   44.521    0.364    0.436
  252.563    2.513   42.892    0.357    0.431
  252.813    2.552   40.977    0.342    0.405
  253.063    2.551   40.444    0.345    0.398
  253.313    2.596   33.000    0.334    0.388
  253.563    2.577   28.692    0.316    0.358
  253.813    2.529   29.193    0.308    0.353
  254.063    2.499   32.680    0.314    0.373
  254.313    2.454   37.882    0.335    0.385
  254.563    2.380   41.670    0.368    0.388
  254.813    2.340   42.459    0.386    0.392
  255.063    2.343   40.800    0.380    0.399
  255.313    2.317   36.388    0.377    0.408
  255.563    2.306   32.020    0.372    0.413
  255.813    2.351   29.273    0.348    0.400
  256.063    2.387   26.307    0.331    0.368
  256.313    2.430   25.158    0.326    0.356
  256.563    2.412   25.333    0.327    0.354
  256.813    2.363   26.710    0.327    0.352
  257.063    2.355   29.231    0.331    0.359
  257.313    2.407   33.257    0.342    0.377
  257.563    2.484   37.667    0.351    0.388
  257.813    2.564   38.547    0.360    0.379
  258.063    2.637   41.927    0.341    0.388
  258.313    2.751   45.065    0.303    0.410
  258.563    2.868   42.379    0.289    0.401
  258.813    2.953   38.946    0.295    0.366
  259.063    3.046   41.327    0.272    0.364
  259.313    3.104   38.584    0.261    0.385
  259.563    3.069   36.180    0.280    0.371
  259.813    3.048   38.831    0.299    0.354
  260.063    3.047   43.920    0.313    0.350
  260.313    3.068   50.939    0.313    0.348
