~VERSION INFORMATION
 VERS.                 2.0:   CWLS LOG ASCII STANDARD -VERSION 2.0
 WRAP.                  NO:   ONE LINE PER DEPTH STEP
~WELL INFORMATION BLOCK
#MNEM.UNIT           DATA                    DESCRIPTION OF MNEMONIC
#---------    -------------------            -------------------------------
# Generated from Intellog Unique Number	CW_73_75/WELL/1047
WELL.         ATCOR ET AL MARTEN H 11-33     : Well_name    - WELL
LOC .         00/11-33-074-23W4/0            : Location     - LOCATION
UWI .         00/11-33-074-23W4/0            : Uwi          - UNIQUE WELL ID
ENTR.         JAYE                           : Entered      - ENTERED BY
SRVC.         COMPUTALOG                     : Scn          - SERVICE COMPANY
DATE.         26 FEB 85                      : Date         - LOG DATE
STRT.M        450                            : top_depth    - START DEPTH
STOP.M        695                            : bot_depth    - STOP DEPTH
STEP.M        0.25                           : increment    - STEP LENGTH
 NULL. -999.2500:NULL Value
~CURVE INFORMATION BLOCK
#MNEM UNIT       ERCB CURVE CODE    CURVE DESCRIPTION
#-----------   ------------------   ----------------------------------
DEPT.M        00 001 00 00         : DEPTH        - DEPTH
ILD .OHMM     00 120 00 00         : RESD         - DEEP RESISTIVITY (DIL)
DPHI.V/V      00 890 00 00         : PHID         - DENSITY POROSITY (SANDSTONE)
NPHI.V/V      00 330 00 00         : PHIN         - NEUTRON POROSITY (SANDSTONE)
CALI.MM       00 280 01 00         : CAL          - CALIPER
GR  .API      00 310 00 00         : GR           - GAMMA RAY
~PARAMETER INFORMATION
#MNEM.UNIT           DATA             DESCRIPTION OF MNEMONIC
#---------         -----------     ------------------------------
GL  .M        708                  : gl           - GROUND LEVEL ELEVATION
EREF.M        711                  : kb           - ELEVATION OF DEPTH REFERENCE
DATM.M        708                  : datum        - DATUM ELEVATION
TDD .M        697                  : tdd          - TOTAL DEPTH DRILLER
RUN .         ONE                  : Run          - RUN NUMBER
ENG .         BERUDE               : Engineer     - RECORDING ENGINEER
WIT .         HICKS                : Witness      - WITNESSED BY
BASE.         EDM                  : Branch       - HOME BASE OF LOGGING UNIT
MUD .         GEL CHEM             : Mud_type     - MUD TYPE
MATR.         SANDSTONE            : Logunit      - NEUTRON MATRIX
TMAX.C        24                   : BHT          - MAXIMUM RECORDED TEMPERATURE
BHTD.M        695.6                : BHTDEP       - MAXIMUM RECORDED TEMPERATURE
RMT .C        24                   : MDTP         - TEMPERATURE OF MUD
MUDD.KG/M     1130                 : MWT          - MUD DENSITY
NEUT.         1                    : NEUTRON      - NEUTRON TYPE
RESI.         0                    : RESIST       - RESISTIVITY TYPE
RM  .OHMM     3.9                  : RM           - RESISTIVITY OF MUD
RMC .OHMM     0                    : RMC          - RESISTIVITY OF MUD CAKE
RMF .OHMM     4                    : RMF          - RESISTIVITY OF MUD FILTRATE
SUFT.C        0                    : SUFT         - SURFACE TEMPERATURE
~A  DEPTH     RESD     PHID     PHIN      CAL       GR
# ...
  559.500    4.624    0.222    0.419  233.494   94.413
  559.750    4.665    0.238    0.430  231.758   94.888
  560.000    4.769    0.253    0.437  229.711   90.817
  560.250    4.848    0.255    0.414  227.977   89.650
  560.500    4.939    0.249    0.399  227.821   89.812
  560.750    4.982    0.232    0.403  228.089   95.532
  561.000    5.046    0.212    0.426  229.303   98.852
  561.250    5.071    0.205    0.442  233.259  103.309
  561.500    5.136    0.227    0.451  234.896  103.720
  561.750    5.201    0.227    0.444  231.057  105.778
  562.000    5.197    0.222    0.424  229.747  103.664
  562.250    5.184    0.229    0.425  230.007  100.540
  562.500    5.161    0.231    0.431  230.383  101.205
  562.750    5.168    0.224    0.425  231.071  102.314
  563.000    5.174    0.209    0.403  231.549  101.779
  563.250    5.150    0.203    0.396  232.874   99.981
  563.500    5.138    0.221    0.413  234.721  100.835
  563.750    5.134    0.230    0.416  233.094   99.416
  564.000    5.101    0.221    0.414  229.885   95.661
  564.250    5.089    0.222    0.398  229.839   92.852
  564.500    5.038    0.238    0.378  229.784   92.317
  564.750    5.033    0.252    0.377  229.944   91.847
  565.000    5.011    0.241    0.396  230.005   91.060
  565.250    4.989    0.232    0.391  229.857   90.272
  565.500    5.101    0.235    0.388  229.596   90.433
  565.750    5.376    0.253    0.395  229.440   92.865
  566.000    5.645    0.240    0.385  229.394   93.724
  566.250    5.983    0.219    0.361  229.342   88.451
  566.500    6.282    0.179    0.358  229.509   81.029
  566.750    6.571    0.177    0.383  229.658   78.913
  567.000    6.655    0.202    0.431  229.831   81.348
  567.250    6.489    0.218    0.426  230.205   83.089
  567.500    6.386    0.215    0.401  230.460   83.060
  567.750    6.226    0.205    0.383  230.838   82.020
  568.000    6.013    0.223    0.388  231.216   83.507
  568.250    5.795    0.253    0.400  231.592   86.260
  568.500    5.543    0.273    0.400  231.853   90.778
  568.750    5.343    0.286    0.392  232.113   94.099
  569.000    5.805    0.266    0.396  231.863   92.555
  569.250    6.628    0.238    0.399  231.709   87.469
  569.500    7.395    0.167    0.363  231.657   84.536
  569.750    8.475    0.111    0.297  231.617   81.537
  570.000    9.935    0.045    0.265  231.564   70.325
  570.250   12.713    0.027    0.251  231.621   68.905
  570.500   14.569    0.050    0.256  231.476   71.591
  570.750   14.587    0.085    0.301  231.108   74.913
  571.000   14.302    0.125    0.321  230.637   75.641
  571.250   13.475    0.148    0.329  230.688   75.993
  571.500   11.811    0.172    0.341  230.645   77.985
  571.750   10.273    0.184    0.361  230.594   79.347
  572.000    9.090    0.199    0.381  230.753   82.852
  572.250    8.104    0.212    0.373  230.606   84.595
  572.500    7.337    0.219    0.364  230.349   84.186
  572.750    6.886    0.230    0.363  229.988   84.158
  573.000    6.537    0.247    0.365  230.045   87.415
  573.250    6.241    0.250    0.380  229.887   90.229
  573.500    6.073    0.233    0.394  229.422   93.170
  573.750    6.057    0.227    0.403  231.158   96.428
  574.000    6.065    0.226    0.403  232.485   98.484
  574.250    5.924    0.215    0.387  232.221  104.330
  574.500    5.865    0.193    0.380  232.283  107.207
  574.750    5.950    0.190    0.394  232.649  105.221
  575.000    6.004    0.201    0.426  233.133  107.212
  575.250    6.010    0.213    0.413  233.504  107.943
  575.500    6.087    0.204    0.401  233.456  106.144
  575.750    6.307    0.193    0.394  233.830  107.569
  576.000    6.448    0.185    0.408  233.778  104.823
  576.250    6.732    0.175    0.398  233.733  101.760
  576.500    7.054    0.164    0.385  233.367  106.029
  576.750    7.227    0.136    0.361  232.902  105.620
  577.000    7.140    0.096    0.344  232.221   89.227
  577.250    6.895    0.141    0.345  231.430   85.470
  577.500    6.646    0.184    0.364  231.176   92.392
  577.750    6.369    0.197    0.379  231.971  101.145
  578.000    6.127    0.196    0.399  233.186  108.382
  578.250    5.896    0.194    0.412  236.927  110.122
  578.500    5.880    0.193    0.411  238.142  109.459
  578.750    5.865    0.193    0.402  236.516  110.505
  579.000    5.918    0.191    0.386  234.254  113.067
  579.250    6.085    0.196    0.379  232.730  111.837
  579.500    6.292    0.194    0.398  231.940  110.419
  579.750    6.445    0.179    0.406  231.794  112.665
  580.000    6.515    0.170    0.430  232.160  117.186
  580.250    6.648    0.173    0.425  232.746  116.966
  580.500    6.668    0.179    0.412  233.331  109.988
  580.750    6.577    0.190    0.406  233.709  104.778
  581.000    6.473    0.185    0.411  233.976  106.139
  581.250    6.371    0.177    0.429  234.556  107.310
  581.500    6.234    0.174    0.433  235.037  106.397
  581.750    6.160    0.178    0.427  235.201  103.904
  582.000    6.110    0.185    0.420  234.623  106.339
  582.250    6.082    0.189    0.432  233.313  112.626
  582.500    6.101    0.180    0.429  228.105  111.905
  582.750    6.051    0.178    0.416  225.524  111.875
  583.000    6.001    0.181    0.408  225.055  112.100
  583.250    5.896    0.193    0.405  225.112  107.773
  583.500    5.814    0.216    0.405  225.484  105.975
  583.750    5.854    0.222    0.399  225.542  106.010
  584.000    6.019    0.216    0.385  225.593  107.119
  584.250    6.165    0.192    0.370  225.337  108.542
  584.500    6.209    0.168    0.381  224.760  107.061
  584.750    6.217    0.164    0.400  224.293   95.884
  585.000    6.201    0.199    0.421  223.929   95.820
  585.250    6.221    0.215    0.439  223.666  101.730
  585.500    6.228    0.217    0.436  223.631  113.389
  585.750    6.248    0.208    0.403  223.581  110.644
  586.000    6.207    0.196    0.414  223.633  104.863
  586.250    6.168    0.189    0.412  223.898  107.553
  586.500    6.165    0.191    0.395  224.271  108.472
  586.750    6.137    0.198    0.386  224.546  100.861
  587.000    6.086    0.202    0.383  224.600  102.601
  587.250    6.036    0.199    0.392  224.548  108.448
  587.500    6.009    0.185    0.405  224.824  113.158
  587.750    5.959    0.178    0.405  224.771  114.014
  588.000    5.910    0.187    0.396  224.727  106.340
  588.250    5.861    0.194    0.392  224.670  105.170
  588.500    5.791    0.196    0.391  224.733  108.619
  588.750    5.787    0.196    0.390  224.786  111.432
  589.000    5.806    0.196    0.391  225.061  110.708
  589.250    5.813    0.198    0.393  225.329  105.183
  589.500    5.798    0.202    0.404  225.595  104.776
  589.750    5.783    0.203    0.397  225.336  108.410
  590.000    5.890    0.195    0.395  225.390  112.174
  590.250    5.999    0.191    0.406  225.550  112.271
  590.500    6.123    0.201    0.397  225.505  111.357
  590.750    6.259    0.203    0.383  225.458  108.991
  591.000    6.339    0.189    0.379  225.303  108.455
  591.250    6.383    0.170    0.393  225.153  107.289
  591.500    6.427    0.165    0.397  224.893  105.744
  591.750    6.375    0.185    0.383  224.939  108.684
  592.000    6.333    0.205    0.383  224.786  112.762
  592.250    6.414    0.203    0.399  224.741  113.932
  592.500    6.583    0.192    0.403  224.805  110.999
  592.750    6.756    0.188    0.385  225.281  107.306
  593.000    6.881    0.183    0.362  225.759  108.665
  593.250    6.982    0.172    0.370  225.915  107.752
  593.500    6.911    0.166    0.387  225.978  106.335
  593.750    6.662    0.164    0.396  226.025  106.369
  594.000    6.459    0.174    0.409  226.198  100.400
  594.250    6.308    0.186    0.407  226.566   99.739
  594.500    6.127    0.192    0.393  226.839  106.218
  594.750    6.065    0.195    0.403  227.099  115.666
  595.000    6.004    0.185    0.410  227.267  119.682
  595.250    5.954    0.180    0.385  227.428  116.177
  595.500    5.961    0.190    0.383  227.169  110.144
  595.750    6.319    0.187    0.413  226.916  105.000
