~VERSION INFORMATION
 VERS.                 2.0:   CWLS LOG ASCII STANDARD -VERSION 2.0
 WRAP.                  NO:   ONE LINE PER DEPTH STEP
~WELL INFORMATION BLOCK
#MNEM.UNIT           DATA                    DESCRIPTION OF MNEMONIC
#---------    -------------------            -------------------------------
# Generated from Intellog Unique Number	nealta/WELL/2304
WELL.         AMOCO PELICAN                  : Well_name    - WELL
LOC .         10-29-077-24W4                 : Location     - LOCATION
UWI .         00/10-29-077-24W4/0            : Uwi          - UNIQUE WELL ID
ENTR.         JAYE                           : Entered      - ENTERED BY
SRVC.         WESTERN ATLAS                  : Scn          - SERVICE COMPANY
DATE.         4 FEB 79                       : Date         - LOG DATE
STRT.M        365                            : top_depth    - START DEPTH
STOP.M        640                            : bot_depth    - STOP DEPTH
STEP.M        0.25                           : increment    - STEP LENGTH
 NULL. -999.2500:NULL Value
~CURVE INFORMATION BLOCK
#MNEM UNIT       ERCB CURVE CODE    CURVE DESCRIPTION
#-----------   ------------------   ----------------------------------
DEPT.M        00 001 00 00         : DEPTH        - DEPTH
GR  .API      00 310 00 00         : GR           - GAMMA RAY
ILD .OHMM     00 120 00 00         : RESD         - DEEP RESISTIVITY (DIL)
CALI.MM       00 280 01 00         : CAL          - CALIPER
NPHI.V/V      00 330 00 00         : PHIN         - NEUTRON POROSITY (SANDSTONE)
DPHI.V/V      00 890 00 00         : PHID         - DENSITY POROSITY (SANDSTONE)
~PARAMETER INFORMATION
#MNEM.UNIT           DATA             DESCRIPTION OF MNEMONIC
#---------         -----------     ------------------------------
GL  .M        666.57               : gl           - GROUND LEVEL ELEVATION
EREF.M        670.67               : kb           - ELEVATION OF DEPTH REFERENCE
DATM.M        666.57               : datum        - DATUM ELEVATION
TDD .M        642                  : tdd          - TOTAL DEPTH DRILLER
RUN .         ONE                  : Run          - RUN NUMBER
ENG .         FRENNETTE            : Engineer     - RECORDING ENGINEER
WIT .         LAMPEN               : Witness      - WITNESSED BY
BASE.         R.D.                 : Branch       - HOME BASE OF LOGGING UNIT
MUD .         GEL CHEM             : Mud_type     - MUD TYPE
MATR.         SANDSTONE            : Logunit      - NEUTRON MATRIX
TMAX.C        29                   : BHT          - MAXIMUM RECORDED TEMPERATURE
BHTD.M        643.4                : BHTDEP       - MAXIMUM RECORDED TEMPERATURE
RMT .C        15.5                 : MDTP         - TEMPERATURE OF MUD
MUDD.KG/M     1050                 : MWT          - MUD DENSITY
NEUT.         1                    : NEUTRON      - NEUTRON TYPE
RESI.         0                    : RESIST       - RESISTIVITY TYPE
RM  .OHMM     5.1                  : RM           - RESISTIVITY OF MUD
RMC .OHMM     6.87                 : RMC          - RESISTIVITY OF MUD CAKE
RMF .OHMM     5.5                  : RMF          - RESISTIVITY OF MUD FILTRATE
SUFT.C        4.5                  : SUFT         - SURFACE TEMPERATURE
~A  DEPTH       GR     RESD      CAL     PHIN     PHID
  365.000  118.205    2.676  221.438    0.474    0.319
  365.250  116.385    2.682  221.841    0.491    0.326
  365.500  115.122    2.690  222.450    0.498    0.315
  365.750  113.731    2.697  222.531    0.506    0.300
  366.000  113.729    2.695  222.327    0.511    0.283
  366.250  114.354    2.708  222.207    0.511    0.288
  366.500  114.651    2.720  222.285    0.504    0.282
  366.750  114.762    2.737  222.062    0.494    0.274
  367.000  114.815    2.780  221.425    0.485    0.270
  367.250  114.933    2.829  220.696    0.471    0.271
  367.500  115.377    2.906  219.842    0.453    0.264
  367.750  115.553    2.979  219.084    0.433    0.258
  368.000  115.602    3.060  218.346    0.450    0.269
  368.250  115.226    3.120  217.085    0.480    0.284
  368.500  115.214    3.152  216.643    0.505    0.284
  368.750  115.335    3.166  216.228    0.506    0.279
  369.000  115.635    3.186  216.194    0.495    0.265
  369.250  115.387    3.189  216.401    0.479    0.248
  369.500  115.503    3.180  216.590    0.482    0.248
  369.750  115.872    3.153  216.782    0.495    0.252
  370.000  116.172    3.168  217.082    0.520    0.256
  370.250  117.038    3.182  217.276    0.522    0.256
  370.500  120.039    3.215  217.802    0.512    0.251
  370.750  121.918    3.259  218.618    0.498    0.244
  371.000  121.971    3.348  219.859    0.482    0.245
  371.250  120.334    3.458  221.936    0.482    0.244
  371.500  118.572    3.693  224.120    0.473    0.235
  371.750  117.112    3.994  225.459    0.464    0.229
  372.000  113.783    4.881  224.814    0.442    0.224
  372.250  106.118    6.225  222.920    0.367    0.210
  372.500   85.279    8.191  219.674    0.344    0.178
  372.750   79.186    9.613  217.048    0.374    0.020
  373.000   80.244    9.620  215.673    0.384    0.221
  373.250   86.949    9.228  214.831    0.394    0.259
  373.500   93.282    8.657  214.711    0.400    0.246
  373.750   96.409    8.522  214.930    0.390    0.231
  374.000   94.776    8.514  215.319    0.379    0.208
  374.250   92.815    8.181  215.508    0.370    0.017
  374.500   97.331    7.717  215.804    0.371    0.135
  374.750  105.100    7.227  216.209    0.393    0.172
  375.000  111.370    6.868  216.714    0.393    0.180
  375.250  110.288    6.837  216.817    0.389    0.191
  375.500  108.901    7.008  216.895    0.383    0.197
  375.750  106.763    7.623  216.275    0.377    0.209
  376.000  103.556    8.307  215.930    0.369    0.210
  376.250  101.669    8.659  216.237    0.373    0.200
  376.500  103.483    8.368  217.590    0.385    0.190
  376.750  106.544    7.837  219.370    0.390    0.197
  377.000  112.622    7.256  220.504    0.391    0.193
  377.250  118.569    6.392  221.295    0.410    0.202
  377.500  123.141    5.663  222.234    0.435    0.202
  377.750  120.752    5.016  221.587    0.462    0.197
  378.000  115.853    4.485  220.536    0.479    0.200
  378.250  111.133    4.154  219.584    0.469    0.226
  378.500  107.929    3.911  218.833    0.459    0.234
  378.750  107.561    3.717  218.290    0.447    0.238
  379.000  109.230    3.436  217.127    0.460    0.251
  379.250  111.797    3.147  216.074    0.474    0.262
  379.500  112.725    2.898  215.758    0.468    0.270
  379.750  111.277    2.698  216.145    0.468    0.285
  380.000  108.445    2.661  217.825    0.481    0.302
  380.250  106.005    2.739  219.050    0.481    0.314
  380.500  105.605    2.849  220.927    0.475    0.299
  380.750  106.916    3.082  221.537    0.474    0.291
  381.000  110.859    3.959  221.622    0.465    0.293
  381.250   99.683    5.144  221.297    0.445    0.283
  381.500   89.700    6.621  219.821    0.399    0.292
  381.750   79.090    8.585  217.188    0.435    0.280
  382.000   73.433   10.787  213.103    0.420    0.191
  382.250   72.171   12.566  211.004    0.405    0.185
  382.500   74.111   13.220  210.689    0.422    0.261
  382.750   76.363   12.893  210.883    0.418    0.294
  383.000   77.994   11.895  211.170    0.422    0.298
  383.250   79.104   10.081  211.597    0.413    0.268
  383.500   80.036    8.558  212.423    0.413    0.245
  383.750   80.974    7.388  213.439    0.419    0.230
  384.000   82.909    6.630  214.151    0.426    0.238
  384.250   85.788    6.016  214.862    0.428    0.259
  384.500   96.629    5.469  215.376    0.450    0.280
  384.750  105.660    5.037  215.177    0.456    0.260
  385.000  104.397    4.786  215.364    0.445    0.256
  385.250  100.936    4.625  215.251    0.448    0.245
  385.500   98.368    4.638  215.124    0.451    0.220
  385.750   97.914    4.728  214.268    0.456    0.223
  386.000   96.527    4.884  212.481    0.475    0.226
  386.250   95.011    5.283  211.831    0.468    0.213
  386.500   92.621    5.854  210.144    0.450    0.212
  386.750   90.285    6.390  208.779    0.449    0.243
  387.000   86.637    7.388  207.627    0.440    0.263
  387.250   82.807    8.686  207.069    0.440    0.271
  387.500   79.721   10.655  206.533    0.431    0.279
  387.750   78.280   12.364  205.907    0.416    0.291
  388.000   77.011   13.700  205.787    0.400    0.304
  388.250   75.373   14.685  205.781    0.421    0.297
  388.500   75.301   15.222  205.967    0.420    0.301
  388.750   74.917   15.722  206.268    0.413    0.309
  389.000   73.022   16.149  206.564    0.409    0.308
  389.250   70.698   16.740  206.671    0.438    0.296
  389.500   70.689   18.075  206.449    0.434    0.269
  389.750   71.003   19.300  206.232    0.429    0.260
  390.000   70.418   20.839  205.982    0.425    0.277
  390.250   67.650   25.327  205.446    0.422    0.292
  390.500   65.890   30.387  205.136    0.414    0.299
  390.750   66.009   31.443  204.691    0.408    0.294
  391.000   66.883   31.470  204.371    0.400    0.288
  391.250   68.500   30.863  203.845    0.391    0.285
  391.500   69.366   30.494  203.620    0.399    0.287
  391.750   69.297   30.688  203.091    0.408    0.300
  392.000   68.724   32.469  202.651    0.414    0.308
  392.250   67.586   35.844  202.213    0.407    0.310
  392.500   66.073   38.773  202.307    0.396    0.297
  392.750   64.877   39.897  202.491    0.378    0.293
  393.000   64.552   38.838  203.010    0.379    0.315
  393.250   66.751   37.047  203.831    0.372    0.303
  393.500   67.424   33.431  204.231    0.366    0.265
  393.750   66.290   29.019  205.063    0.370    0.162
  394.000   66.715   25.707  205.571    0.419    0.179
  394.250   67.712   23.026  205.562    0.417    0.320
  394.500   67.522   18.528  205.242    0.406    0.316
  394.750   68.264   16.142  204.807    0.397    0.307
  395.000   70.516   15.456  204.480    0.416    0.300
  395.250   70.071   15.353  204.031    0.425    0.314
  395.500   68.487   15.310  203.393    0.433    0.316
  395.750   67.807   15.127  202.984    0.435    0.318
  396.000   67.786   14.589  202.848    0.419    0.315
  396.250   67.915   13.562  202.942    0.414    0.309
  396.500   68.079   12.676  202.834    0.432    0.298
  396.750   69.514   12.090  202.700    0.442    0.285
  397.000   71.136   11.792  202.580    0.435    0.282
  397.250   70.752   11.934  202.569    0.421    0.295
  397.500   68.362   12.580  202.665    0.421    0.306
  397.750   68.103   13.607  202.771    0.429    0.315
  398.000   67.971   15.132  202.851    0.434    0.306
  398.250   66.593   16.552  202.844    0.424    0.298
  398.500   64.640   17.289  202.622    0.412    0.295
  398.750   64.313   17.657  202.607    0.396    0.301
  399.000   63.742   18.003  202.476    0.380    0.305
  399.250   62.859   18.185  202.265    0.384    0.298
  399.500   62.150   18.100  202.254    0.403    0.304
  399.750   62.410   17.884  202.452    0.415    0.312
  400.000   62.578   17.735  202.660    0.423    0.329
  400.250   62.630   17.393  202.937    0.414    0.331
  400.500   63.879   16.931  203.452    0.412    0.320
  400.750   64.306   16.271  203.743    0.406    0.309
  401.000   63.927   15.780  203.530    0.397    0.303
  401.250   64.229   15.248  202.903    0.385    0.320
