~VERSION INFORMATION
 VERS.                 2.0:   CWLS LOG ASCII STANDARD -VERSION 2.0
 WRAP.                  NO:   ONE LINE PER DEPTH STEP
~WELL INFORMATION BLOCK
#MNEM.UNIT           DATA                    DESCRIPTION OF MNEMONIC
#---------    -------------------            -------------------------------
# Generated from Intellog Unique Number	CW_70_72/WELL/2905
NULL.         -999.25                        : NULL_VALUE
WELL.         CHEVRON CALLING WEST           : Well_name    - WELL              
LOC .         10-20-070-21W4                 : Location     - LOCATION          
UWI .         00/10-20-070-21W4/0            : Uwi          - UNIQUE WELL ID    
ENTR.         MAX                            : Entered      - ENTERED BY        
SRVC.         SCHLUMBERGER                   : Scn          - SERVICE COMPANY   
DATE.         14 JAN 75                      : Date         - LOG DATE
STRT.M        420.624                        : top_depth    - START DEPTH       
STOP.M        591.374                        : bot_depth    - STOP DEPTH        
STEP.M        0.25                           : increment    - STEP LENGTH       
~CURVE INFORMATION BLOCK
#MNEM UNIT       ERCB CURVE CODE    CURVE DESCRIPTION
#-----------   ------------------   ----------------------------------
DEPT.M        00 001 00 00         : DEPTH        - DEPTH                       
ILD .OHMM     00 120 00 00         : RESD         - DEEP RESISTIVITY (DIL)      
NPHI.V/V      00 330 00 00         : PHIN         - NEUTRON POROSITY (SANDSTONE)
DPHI.V/V      00 890 00 00         : PHID         - DENSITY POROSITY (SANDSTONE)
CALI.MM       00 280 01 00         : CAL          - CALIPER                     
GR  .API      00 310 00 00         : GR           - GAMMA RAY                   
~PARAMETER INFORMATION       
#MNEM.UNIT           DATA             DESCRIPTION OF MNEMONIC
#---------         -----------     ------------------------------
GL  .M        666.719              : gl           - GROUND LEVEL ELEVATION      
EREF.M        669.036              : kb           - ELEVATION OF DEPTH REFERENCE
DATM.M        666.719              : datum        - DATUM ELEVATION             
TDD .M        588.264              : tdd          - TOTAL DEPTH DRILLER         
RUN .         ONE                  : Run          - RUN NUMBER                  
ENG .         BILL                 : Engineer     - RECORDING ENGINEER          
WIT .         JIM                  : Witness      - WITNESSED BY                
MUD .         GEL                  : Mud_type     - MUD TYPE                    
MATR.         SANDSTONE            : Logunit      - NEUTRON MATRIX              
TMAX.C        21.1111              : BHT          - MAXIMUM RECORDED TEMPERATURE
BHTD.M        588.264              : BHTDEP       - MAXIMUM RECORDED TEMPERATURE
RMT .C        15.5556              : MDTP         - TEMPERATURE OF MUD          
MUDD.KG/M     9000                 : MWT          - MUD DENSITY                 
NEUT.         1                    : NEUTRON      - NEUTRON TYPE                
RESI.         0                    : RESIST       - RESISTIVITY TYPE            
RM  .OHMM     3.5                  : RM           - RESISTIVITY OF MUD          
RMC .OHMM     4.29                 : RMC          - RESISTIVITY OF MUD CAKE     
RMF .OHMM     4.87                 : RMF          - RESISTIVITY OF MUD FILTRATE 
SUFT.C        -20.5556             : SUFT         - SURFACE TEMPERATURE         
~A  DEPTH     RESD     PHIN     PHID      CAL       GR
# ...
  457.124    4.376    0.179    0.021  217.786   58.028
  457.374    3.848    0.282    0.008  216.243   65.337
  457.624    3.640    0.319    0.093  214.694   72.059
  457.874    3.475    0.380    0.142  212.633   78.487
  458.124    3.410    0.429    0.260  210.586   83.446
  458.374    3.407    0.455    0.291  210.536   83.693
  458.624    3.499    0.467    0.274  210.464   83.374
  458.874    3.593    0.474    0.269  210.911   84.511
  459.124    3.691    0.468    0.256  210.847   85.064
  459.374    3.790    0.467    0.244  211.287   83.847
  459.624    3.787    0.461    0.247  211.229   84.401
  459.874    3.716    0.467    0.251  211.669   87.606
  460.124    3.646    0.478    0.251  212.607   89.914
  460.374    3.646    0.468    0.247  213.537   89.880
  460.624    3.606    0.475    0.233  213.970   90.438
  460.874    3.540    0.482    0.214  213.912   90.693
  461.124    3.537    0.485    0.226  214.345   90.949
  461.374    3.566    0.468    0.233  214.792   93.563
  461.624    3.629    0.465    0.226  214.721   95.287
  461.874    3.761    0.475    0.227  214.671   95.257
  462.124    3.898    0.487    0.234  214.613   93.159
  462.374    4.004    0.487    0.219  214.556   93.125
  462.624    4.111    0.460    0.204  213.987   93.972
  462.874    4.109    0.460    0.193  213.937   94.522
  463.124    4.105    0.462    0.179  213.872   93.901
  463.374    4.100    0.441    0.171  213.822   93.867
  463.624    4.062    0.431    0.154  213.750   95.595
  463.874    4.022    0.437    0.186  213.700   96.736
  464.124    4.019    0.458    0.192  213.636   94.059
  464.374    4.016    0.467    0.195  213.564   92.254
  464.624    4.012    0.449    0.178  214.011   88.994
  464.874    4.009    0.448    0.186  214.458   86.303
  465.124    4.006    0.445    0.183  214.884   88.922
  465.374    3.967    0.461    0.183  214.834   90.344
  465.624    4.000    0.472    0.189  214.776   89.143
  465.874    4.000    0.478    0.192  214.719   88.816
  466.124    4.031    0.478    0.198  214.655   92.009
  466.374    4.064    0.477    0.200  215.087   94.618
  466.624    4.099    0.473    0.185  215.527   94.291
  466.874    4.095    0.455    0.176  217.445   94.550
  467.124    4.093    0.466    0.190  218.397   98.041
  467.374    4.127    0.476    0.182  220.826  100.349
  467.624    4.124    0.486    0.166  221.764   97.965
  467.874    4.121    0.485    0.210  215.731   91.767
  468.124    4.156    0.440    0.235  215.176   87.902
  468.374    4.190    0.446    0.234  215.609   89.341
  468.624    4.187    0.467    0.199  217.527   96.361
  468.874    4.184    0.466    0.183  218.976  101.022
  469.124    4.181    0.454    0.172  221.398  103.049
  469.374    4.178    0.441    0.159  222.336  102.125
  469.624    4.175    0.448    0.160  221.767  101.508
  469.874    4.171    0.465    0.177  220.722   99.712
  470.124    4.130    0.510    0.177  220.657   98.797
  470.374    4.089    0.498    0.194  221.104  101.692
  470.624    4.012    0.481    0.182  221.040  100.777
  470.874    3.901    0.486    0.188  220.478   97.810
  471.124    3.793    0.486    0.185  222.907   94.826
  471.374    3.688    0.487    0.184  222.353   95.086
  471.624    3.618    0.491    0.195  221.798   95.942
  471.874    3.582    0.498    0.182  221.733   96.198
  472.124    3.547    0.503    0.194  221.676   94.103
  472.374    3.545    0.495    0.203  220.624   91.720
  472.624    3.575    0.487    0.201  220.552   89.038
  472.874    3.605    0.493    0.185  220.005   86.659
  473.124    3.635    0.492    0.188  215.976   79.865
  473.374    3.599    0.470    0.201  213.922   75.711
  473.624    3.531    0.543    0.222  213.857   76.856
  473.874    3.402    0.534    0.228  213.807   77.997
  474.124    3.160    0.507    0.235  213.735   75.315
  474.374    2.990    0.472    0.239  213.678   71.463
  474.624    2.752    0.424    0.245  213.628   67.611
  474.874    2.556    0.444    0.252  213.556   62.281
  475.124    2.463    0.469    0.262  213.506   61.077
  475.374    2.463    0.480    0.280  213.946   56.045
  475.624    2.414    0.479    0.299  214.386   51.597
  475.874    2.390    0.464    0.320  214.314   51.853
  476.124    2.389    0.463    0.323  213.767   54.173
  476.374    2.389    0.478    0.326  214.207   57.081
  476.624    2.385    0.462    0.294  214.142   59.984
  476.874    2.383    0.462    0.288  214.078   59.648
  477.124    2.382    0.461    0.281  214.027   57.848
  477.374    2.402    0.435    0.290  213.458   58.410
  477.624    2.402    0.435    0.298  213.408   59.248
  477.874    2.397    0.438    0.291  213.351   58.921
  478.124    2.396    0.432    0.290  213.777   59.181
  478.374    2.395    0.430    0.290  213.719   59.734
  478.624    2.349    0.434    0.292  213.165   58.526
  478.874    2.284    0.439    0.299  213.114   58.194
  479.124    2.283    0.447    0.292  213.050   62.864
  479.374    2.302    0.432    0.285  212.992   63.409
  479.624    2.302    0.416    0.289  212.431   62.204
  479.874    2.298    0.423    0.294  212.373   61.285
  480.124    2.339    0.429    0.308  212.316   59.195
  480.374    2.337    0.425    0.304  212.244   56.220
  480.624    2.335    0.420    0.297  212.180   59.123
  480.874    2.354    0.423    0.296  212.137   60.856
  481.124    2.354    0.434    0.290  212.072   61.111
  481.374    2.351    0.420    0.294  212.008   61.073
  481.624    2.371    0.415    0.294  211.950   61.333
  481.874    2.371    0.419    0.297  212.390   60.708
  482.124    2.367    0.421    0.295  212.837   58.035
  482.374    2.409    0.412    0.293  213.263   58.001
  482.624    2.429    0.412    0.296  213.710   61.483
  482.874    2.450    0.410    0.290  213.653   63.799
  483.124    2.562    0.413    0.289  214.079   63.471
  483.374    2.679    0.423    0.278  214.014   62.854
  483.624    2.828    0.427    0.282  213.971   59.875
  483.874    2.958    0.428    0.284  213.907   58.666
  484.124    2.929    0.429    0.291  213.345   59.513
  484.374    2.848    0.435    0.285  212.293   60.650
  484.624    2.718    0.434    0.265  211.233   60.906
  484.874    2.643    0.420    0.254  210.686   62.336
  485.124    2.594    0.416    0.234  210.117   64.371
  485.374    2.545    0.434    0.247  210.067   67.560
  485.624    2.542    0.459    0.305  210.499   68.117
  485.874    2.540    0.467    0.294  210.940   68.377
  486.124    2.515    0.469    0.289  210.882   70.102
  486.374    2.513    0.466    0.287  210.825   71.826
  486.624    2.512    0.468    0.291  210.825   69.740
  486.874    2.512    0.464    0.303  210.681   67.352
  487.124    2.508    0.454    0.305  210.631   67.318
  487.374    2.529    0.439    0.297  210.574   66.105
  487.624    2.527    0.433    0.290  210.531   62.253
  487.874    2.525    0.434    0.295  210.459   61.338
  488.124    2.523    0.442    0.288  210.409   63.650
  488.374    2.521    0.444    0.276  210.352   64.501
  488.624    2.497    0.444    0.259  210.785   66.217
  488.874    2.518    0.439    0.265  211.225   66.779
  489.124    2.539    0.436    0.286  212.155   65.272
  489.374    2.560    0.445    0.291  212.580   64.357
  489.624    2.558    0.434    0.296  212.530   63.736
  489.874    2.556    0.430    0.293  212.459   62.519
  490.124    2.554    0.434    0.289  212.416   60.429
  490.374    2.554    0.439    0.276  212.358   58.922
  490.624    2.550    0.452    0.273  211.804   58.892
  490.874    2.572    0.451    0.271  210.751   61.208
  491.124    2.593    0.440    0.268  210.680   62.643
  491.374    2.591    0.443    0.258  210.622   60.843
  491.624    2.613    0.449    0.262  211.062   61.098
  491.874    2.635    0.454    0.270  211.012   63.712
  492.124    2.681    0.449    0.276  210.933   66.024
  492.374    2.754    0.433    0.284  210.393   67.165
  492.624    2.880    0.437    0.275  209.831   66.535
  492.874    3.040    0.466    0.268  208.772   65.620
  493.124    3.122    0.471    0.262  207.713   65.884
  493.374    3.148    0.449    0.269  207.172   67.323
