~VERSION INFORMATION
 VERS.                 2.0:   CWLS LOG ASCII STANDARD -VERSION 2.0
 WRAP.                  NO:   ONE LINE PER DEPTH STEP
~WELL INFORMATION BLOCK
#MNEM.UNIT           DATA                    DESCRIPTION OF MNEMONIC
#---------    -------------------            -------------------------------
# Generated from Intellog Unique Number	CW_79_81/WELL/2466
WELL.         10-15-080-23W4                 : Well_name    - WELL
LOC .         00/10-15-080-23W4/0            : Location     - LOCATION
UWI .         00/10-15-080-23W4/0            : Uwi          - UNIQUE WELL ID
ENTR.         MAX                            : Entered      - ENTERED BY
SRVC.         SCHLUMBERGER                   : Scn          - SERVICE COMPANY
STRT.M        220                            : top_depth    - START DEPTH
STOP.M        464.75                         : bot_depth    - STOP DEPTH
STEP.M        0.25                           : increment    - STEP LENGTH
 NULL. -999.2500:NULL Value
~CURVE INFORMATION BLOCK
#MNEM UNIT       ERCB CURVE CODE    CURVE DESCRIPTION
#-----------   ------------------   ----------------------------------
DEPT.M        00 001 00 00         : DEPTH        - DEPTH
ILD .OHMM     00 120 00 00         : RESD         - DEEP RESISTIVITY (DIL)
NPHI.V/V      00 330 00 00         : PHIN         - NEUTRON POROSITY (SANDSTONE)
DPHI.V/V      00 890 00 00         : PHID         - DENSITY POROSITY (SANDSTONE)
GR  .API      00 310 00 00         : GR           - GAMMA RAY
CALI.MM       00 280 01 00         : CAL          - CALIPER
~PARAMETER INFORMATION
#MNEM.UNIT           DATA             DESCRIPTION OF MNEMONIC
#---------         -----------     ------------------------------
GL  .M        586.4                : gl           - GROUND LEVEL ELEVATION
EREF.M        590                  : kb           - ELEVATION OF DEPTH REFERENCE
DATM.M        586.4                : datum        - DATUM ELEVATION
TDD .M        469                  : tdd          - TOTAL DEPTH DRILLER
RUN .         ONE                  : Run          - RUN NUMBER
ENG .         BILL                 : Engineer     - RECORDING ENGINEER
WIT .         JIM                  : Witness      - WITNESSED BY
MUD .         GEL                  : Mud_type     - MUD TYPE
MATR.         SANDSTONE            : Logunit      - NEUTRON MATRIX
TMAX.C        23                   : BHT          - MAXIMUM RECORDED TEMPERATURE
BHTD.M        469                  : BHTDEP       - MAXIMUM RECORDED TEMPERATURE
MATR.         1                    : LOGUNIT      - NEUTRON MATRIX
RMT .C        17                   : MDTP         - TEMPERATURE OF MUD
NEUT.         1                    : NEUTRON      - NEUTRON TYPE
RESI.         0                    : RESIST       - RESISTIVITY TYPE
RMC .OHMM     6.73                 : RMC          - RESISTIVITY OF MUD CAKE
RMF .OHMM     6.46                 : RMF          - RESISTIVITY OF MUD FILTRATE
SUFT.C        -25                  : SUFT         - SURFACE TEMPERATURE
~A  DEPTH     RESD     PHIN     PHID       GR      CAL
  220.000    7.034    0.445    0.329   70.053  241.757
  220.250    6.983    0.471    0.331   72.314  244.689
  220.500    6.937    0.501    0.340   73.852  246.483
  220.750    7.068    0.522    0.347   74.699  248.695
  221.000    7.533    0.520    0.346   73.621  251.911
  221.250    9.067    0.488    0.331   67.373  256.999
  221.500   12.868    0.468    0.324   61.365  260.348
  221.750   15.857    0.440    0.318   55.597  263.163
  222.000   18.739    0.433    0.319   52.897  266.278
  222.250   21.161    0.434    0.323   51.458  269.894
  222.500   23.224    0.429    0.326   50.141  274.712
  222.750   26.118    0.405    0.328   48.212  283.442
  223.000   27.804    0.413    0.334   46.965  290.965
  223.250   29.287    0.444    0.338   46.490  303.401
  223.500   30.024    0.477    0.335   45.832  321.849
  223.750   29.477    0.501    0.336   44.033  337.092
  224.000   26.052    0.510    0.342   42.415  345.419
  224.250   19.245    0.495    0.347   46.640  347.216
  224.500   17.572    0.472    0.351   56.917  340.124
  224.750   19.053    0.461    0.334   58.605  323.297
  225.000   22.445    0.474    0.349   51.455  319.998
  225.250   27.252    0.492    0.379   43.041  322.010
  225.500   32.196    0.496    0.402   37.334  325.425
  225.750   35.612    0.475    0.398   34.644  332.902
  226.000   37.617    0.494    0.395   34.398  344.185
  226.250   39.916    0.533    0.402   34.645  367.844
  226.500   43.045    0.503    0.382   35.070  395.713
  226.750   48.634    0.458    0.348   35.436  410.354
  227.000   57.054    0.434    0.339   35.380  409.961
  227.250   63.791    0.445    0.406   34.224  408.202
  227.500   63.330    0.444    0.372   33.228  407.376
  227.750   56.624    0.437    0.270   34.917  410.992
  228.000   53.663    0.434    0.258   36.785  413.103
  228.250   52.332    0.423    0.265   38.473  413.111
  228.500   51.786    0.412    0.263   39.500  412.018
  228.750   51.899    0.431    0.261   39.266  413.013
  229.000   52.326    0.436    0.264   39.271  415.944
  229.250   55.120    0.426    0.309   39.998  427.177
  229.500   58.377    0.416    0.359   41.447  446.527
  229.750   65.191    0.427    0.412   43.376  479.409
  230.000   75.046    0.441    0.428   45.905  506.474
  230.250   77.825    0.398    0.337   49.921  474.782
  230.500   80.317    0.383    0.328   51.929  430.527
  230.750   78.001    0.374    0.330   49.288  412.497
  231.000   75.336    0.440    0.381   46.468  397.472
  231.250   73.740    0.476    0.439   45.991  387.056
  231.500   74.039    0.452    0.463   46.597  378.947
  231.750   78.145    0.399    0.393   43.086  365.261
  232.000   85.163    0.341    0.309   42.339  356.917
  232.250   89.051    0.302    0.251   39.217  343.699
  232.500   85.662    0.255    0.211   36.096  336.190
  232.750   79.562    0.227    0.177   35.139  327.779
  233.000   72.055    0.220    0.152   35.926  317.465
  233.250   59.885    0.211    0.152   35.802  314.618
  233.500   49.980    0.199    0.145   37.560  338.429
  233.750   31.903    0.211    0.091   41.413  330.822
  234.000   18.293    0.252    0.068   47.791  346.663
  234.250   12.530    0.313    0.120   52.608  376.537
  234.500    9.368    0.388    0.233   54.478  394.984
  234.750    6.213    0.477    0.343   55.124  352.585
  235.000    4.210    0.497    0.385   57.133  312.924
  235.250    3.623    0.506    0.419   61.467  305.316
  235.500    3.349    0.522    0.413   66.523  281.473
  235.750    3.219    0.538    0.366   69.776  260.233
  236.000    3.167    0.537    0.275   70.863  245.910
  236.250    3.174    0.496    0.153   72.343  228.283
  236.500    3.200    0.510    0.259   76.105  228.291
  236.750    3.250    0.549    0.280   79.238  228.701
  237.000    3.300    0.562    0.282   81.829  228.208
  237.250    3.375    0.548    0.279   83.998  227.615
  237.500    3.466    0.521    0.275   85.566  227.322
  237.750    3.536    0.517    0.268   85.953  227.248
  238.000    3.621    0.524    0.261   85.457  226.839
  238.250    3.676    0.501    0.254   84.259  226.446
  238.500    3.713    0.494    0.252   82.340  225.754
  238.750    3.673    0.496    0.255   80.421  224.960
  239.000    3.575    0.498    0.261   79.463  224.066
  239.250    3.504    0.483    0.272   81.374  222.372
  239.500    3.533    0.490    0.284   84.887  219.875
  239.750    3.668    0.506    0.289   82.968  216.276
  240.000    3.745    0.506    0.280   82.671  214.179
  240.250    3.775    0.507    0.270   83.879  212.784
  240.500    3.756    0.511    0.266   85.447  211.892
  240.750    3.671    0.511    0.268   84.461  212.153
  241.000    3.644    0.514    0.270   80.708  213.413
  241.250    3.646    0.522    0.262   79.269  213.823
  241.500    3.668    0.536    0.259   79.815  214.232
  241.750    3.684    0.549    0.258   81.625  214.441
  242.000    3.693    0.557    0.256   83.013  214.048
  242.250    3.717    0.552    0.260   81.235  211.951
  242.500    3.690    0.542    0.265   80.738  209.456
  242.750    3.719    0.540    0.265   79.060  208.662
  243.000    3.769    0.541    0.263   80.990  208.169
  243.250    3.800    0.534    0.260   81.596  208.779
  243.500    3.780    0.518    0.257   79.074  210.392
  243.750    3.677    0.501    0.256   74.250  212.337
  244.000    3.567    0.509    0.267   71.750  214.017
  244.250    3.569    0.539    0.299   71.515  214.828
  244.500    4.158    0.561    0.310   71.099  215.938
  244.750    5.059    0.560    0.311   69.299  220.555
  245.000    6.304    0.531    0.311   65.395  228.681
  245.250   10.875    0.473    0.319   58.045  238.029
  245.500   21.708    0.475    0.331   52.538  242.629
  245.750   30.854    0.467    0.333   49.898  244.642
  246.000   39.176    0.468    0.339   49.603  243.047
  246.250   43.728    0.463    0.336   49.247  234.035
  246.500   44.739    0.444    0.327   48.229  220.715
  246.750   44.629    0.412    0.333   48.205  212.273
  247.000   43.972    0.410    0.341   50.465  208.106
  247.250   42.704    0.416    0.347   49.509  208.917
  247.500   40.550    0.416    0.351   48.010  209.125
  247.750   38.388    0.423    0.348   46.211  209.333
  248.000   36.616    0.436    0.340   44.713  209.743
  248.250   35.205    0.447    0.334   44.528  210.237
  248.500   34.691    0.443    0.338   44.783  210.664
  248.750   34.707    0.441    0.333   46.712  211.072
  249.000   34.530    0.437    0.331   48.822  211.180
  249.250   33.008    0.440    0.337   49.549  210.988
  249.500   30.086    0.454    0.346   49.133  210.295
  249.750   25.867    0.471    0.346   50.170  208.451
  250.000   22.744    0.471    0.330   52.933  207.208
  250.250   21.280    0.464    0.311   53.900  206.816
  250.500   20.489    0.456    0.289   53.784  206.422
  250.750   20.203    0.453    0.268   52.706  206.429
  251.000   20.505    0.453    0.257   50.366  207.139
  251.250   22.376    0.444    0.269   46.093  209.421
  251.500   25.971    0.429    0.293   46.348  212.770
  251.750   27.756    0.432    0.311   46.354  218.391
  252.000   28.724    0.448    0.326   44.916  226.716
  252.250   29.385    0.461    0.346   43.116  244.364
  252.500   30.172    0.466    0.369   42.039  264.616
  252.750   31.844    0.477    0.379   42.767  267.683
  253.000   34.700    0.494    0.381   42.772  268.944
  253.250   39.570    0.498    0.367   42.055  268.552
  253.500   45.179    0.482    0.321   42.240  265.754
  253.750   51.987    0.432    0.222   42.967  258.545
  254.000   59.604    0.352    0.099   43.453  247.229
  254.250   64.201    0.263    0.041   42.247  233.242
  254.500   59.510    0.233    0.085   40.999  227.404
  254.750   47.787    0.272    0.220   41.245  228.216
  255.000   40.133    0.327    0.293   40.768  232.033
  255.250   35.392    0.385    0.333   40.652  239.857
  255.500   32.758    0.437    0.355   41.018  252.993
  255.750   31.575    0.476    0.360   40.773  275.218
  256.000   30.403    0.496    0.374   39.527  286.084
  256.250   30.195    0.464    0.377   39.531  287.698
