~VERSION INFORMATION
 VERS.                 2.0:   CWLS LOG ASCII STANDARD -VERSION 2.0
 WRAP.                  NO:   ONE LINE PER DEPTH STEP
~WELL INFORMATION BLOCK
#MNEM.UNIT           DATA                    DESCRIPTION OF MNEMONIC
#---------    -------------------            -------------------------------
# Generated from Intellog Unique Number	CN_91_93/WELL/3201
WELL.         11-34-092-18W4                 : Well_name    - WELL
LOC .         00/11-34-092-18W4/0            : Location     - LOCATION
UWI .         00/11-34-092-18W400            : Uwi          - UNIQUE WELL ID
ENTR.         JOETTE                         : Entered      - ENTERED BY
SRVC.         SCHLUMBERGER                   : Scn          - SERVICE COMPANY
DATE.         04/14/92                       : Date         - LOG DATE
STRT.M        75                             : top_depth    - START DEPTH
STOP.M        240                            : bot_depth    - STOP DEPTH
STEP.M        0.25                           : increment    - STEP LENGTH
 NULL. -999.2500:NULL Value
~CURVE INFORMATION BLOCK
#MNEM UNIT       ERCB CURVE CODE    CURVE DESCRIPTION
#-----------   ------------------   ----------------------------------
DEPT.M        00 001 00 00         : DEPTH        - DEPTH
CALI.MM       00 280 01 00         : CAL          - CALIPER
GR  .API      00 310 00 00         : GR           - GAMMA RAY
NPHI.V/V      00 330 00 00         : PHIN         - NEUTRON POROSITY (SANDSTONE)
DPHI.V/V      00 890 00 00         : PHID         - DENSITY POROSITY (SANDSTONE)
ILD .OHMM     00 120 00 00         : RESD         - DEEP RESISTIVITY (DIL)
~PARAMETER INFORMATION
#MNEM.UNIT           DATA             DESCRIPTION OF MNEMONIC
#---------         -----------     ------------------------------
GL  .M        510.7                : gl           - GROUND LEVEL ELEVATION
EREF.M        513.9                : kb           - ELEVATION OF DEPTH REFERENCE
DATM.M        513.9                : datum        - DATUM ELEVATION
TDD .M        245                  : tdd          - TOTAL DEPTH DRILLER
RUN .         ONE                  : Run          - RUN NUMBER
ENG .         BILL                 : Engineer     - RECORDING ENGINEER
WIT .         JIM                  : Witness      - WITNESSED BY
MUD .         GEL                  : Mud_type     - MUD TYPE
MATR.         SANDSTONE            : Logunit      - NEUTRON MATRIX
TMAX.C        18                   : BHT          - MAXIMUM RECORDED TEMPERATURE
BHTD.M        245                  : BHTDEP       - MAXIMUM RECORDED TEMPERATURE
RMT .C        15                   : MDTP         - TEMPERATURE OF MUD
MUDD.KG/M     1130                 : MWT          - MUD DENSITY
NEUT.         1                    : NEUTRON      - NEUTRON TYPE
RESI.         0                    : RESIST       - RESISTIVITY TYPE
RM  .OHMM     8.35                 : RM           - RESISTIVITY OF MUD
RMC .OHMM     8.35                 : RMC          - RESISTIVITY OF MUD CAKE
RMF .OHMM     8.35                 : RMF          - RESISTIVITY OF MUD FILTRATE
SUFT.C        4                    : SUFT         - SURFACE TEMPERATURE
~A  DEPTH      CAL       GR     PHIN     PHID     RESD
   75.000  194.061   49.243    0.469    0.352   10.181
   75.250  202.064   48.641    0.485    0.345   11.828
   75.500  200.059   49.238    0.485    0.322   12.743
   75.750  196.052   48.035    0.454    0.313   12.966
   76.000  193.046   48.033    0.441    0.304   12.718
   76.250  190.040   49.834    0.439    0.280   11.131
   76.500  186.033   55.836    0.412    0.241    9.211
   76.750  180.024   60.639    0.384    0.221    6.308
   77.000  176.018   70.246    0.515    0.262    4.931
   77.250  179.017   76.249    0.531    0.288    5.517
   77.500  182.016   61.234    0.536    0.297    6.531
   77.750  185.015   54.025    0.540    0.333    7.307
   78.000  186.012   47.417    0.532    0.359    8.815
   78.250  186.010   40.809    0.510    0.372   13.337
   78.500  186.006   39.606    0.452    0.379   16.392
   78.750  186.002   38.403    0.438    0.384    9.843
   79.000  185.999   37.800    0.425    0.382    8.781
   79.250  186.997   46.206    0.438    0.353    7.402
   79.500  186.993   67.222    0.454    0.279    6.239
   79.750  186.989   73.826    0.505    0.267    5.360
   80.000  184.984   73.824    0.519    0.282    5.254
   80.250  183.980   74.423    0.501    0.290    5.877
   80.500  183.977   78.023    0.513    0.291    5.873
   80.750  183.973   77.421    0.518    0.290    5.648
   81.000  183.971   73.815    0.527    0.291    5.434
   81.250  184.968   73.214    0.540    0.296    5.227
   81.500  185.964   78.016    0.514    0.304    5.423
   81.750  185.962   82.818    0.498    0.316    5.626
   82.000  184.958   85.218    0.513    0.329    5.948
   82.250  183.953   80.412    0.562    0.341    6.409
   82.500  183.951   70.802    0.583    0.343    7.170
   82.750  182.947   62.392    0.521    0.329    8.983
   83.000  180.940   57.586    0.498    0.277   11.254
   83.250  179.936   53.380    0.502    0.204   13.324
   83.500  178.932   47.373    0.482    0.234   15.479
   83.750  178.928   42.566    0.450    0.256   17.642
   84.000  178.926   40.762    0.460    0.328   18.298
   84.250  178.922   40.160    0.468    0.355   18.289
   84.500  178.917   41.959    0.475    0.337   17.595
   84.750  179.916   43.760    0.470    0.308   17.249
   85.000  181.913   46.160    0.447    0.310   17.228
   85.250  182.913   46.158    0.459    0.341   16.890
   85.500  186.913   44.354    0.478    0.354   15.064
   85.750  189.912   44.352    0.493    0.344   13.442
   86.000  191.911   44.951    0.488    0.349   11.120
   86.250  192.908   44.348    0.456    0.345    9.553
   86.500  190.903   44.947    0.428    0.331    8.053
   86.750  186.896   68.365    0.445    0.312    6.789
   87.000  184.890   76.771    0.497    0.294    6.654
   87.250  183.886   85.176    0.517    0.289    6.773
   87.500  186.885   88.777    0.534    0.289    6.766
   87.750  186.881   86.373    0.530    0.299    6.761
   88.000  183.875   86.971    0.519    0.299    6.751
   88.250  181.870   86.369    0.504    0.296    6.746
   88.500  181.868   83.964    0.479    0.291    6.615
   88.750  180.863   86.365    0.537    0.287    6.607
   89.000  180.859   88.764    0.558    0.285    6.476
   89.250  180.856   87.562    0.559    0.282    6.473
   89.500  180.854   85.158    0.542    0.276    6.465
   89.750  182.851   83.954    0.513    0.262    6.458
   90.000  183.850   82.751    0.506    0.233    6.454
   90.250  183.846   80.347    0.487    0.254    6.446
   90.500  183.842   78.543    0.468    0.265    6.438
   90.750  183.840   80.344    0.468    0.280    6.433
   91.000  184.836   82.743    0.492    0.291    6.302
   91.250  184.832   83.942    0.492    0.300    6.297
   91.500  184.830   83.340    0.492    0.303    6.293
   91.750  184.825   83.337    0.495    0.301    6.287
   92.000  184.823   84.536    0.503    0.286    6.400
   92.250  184.819   87.537    0.517    0.282    6.276
   92.500  183.815   89.337    0.518    0.279    6.151
   92.750  183.812   90.536    0.541    0.284    6.146
   93.000  183.808   89.933    0.543    0.291    6.139
   93.250  183.805   89.931    0.525    0.290    6.134
   93.500  182.800   89.929    0.528    0.287    6.128
   93.750  182.798   89.326    0.538    0.289    6.122
   94.000  182.794   88.725    0.530    0.294    6.115
   94.250  182.790   86.921    0.513    0.296    5.995
   94.500  182.788   87.520    0.522    0.295    5.877
   94.750  182.784   88.118    0.535    0.290    5.760
   95.000  182.782   86.314    0.542    0.281    5.540
   95.250  182.776   88.715    0.533    0.285    5.434
   95.500  182.774   89.913    0.530    0.290    5.327
   95.750  182.770   89.911    0.533    0.295    5.124
   96.000  182.768   89.909    0.531    0.295    5.120
   96.250  182.768   88.706    0.523    0.291    5.113
   96.500  185.761   86.902    0.521    0.283    5.110
   96.750  183.757   84.498    0.532    0.269    5.301
   97.000  183.755   80.293    0.542    0.232    5.711
   97.250  183.751   76.688    0.551    0.215    6.389
   97.500  183.748   77.887    0.468    0.231    7.146
   97.750  183.744   77.884    0.459    0.249    7.555
   98.000  183.742   76.081    0.489    0.267    7.545
   98.250  183.739   77.280    0.499    0.265    6.861
   98.500  184.736   83.284    0.495    0.275    5.570
   98.750  184.732   89.287    0.505    0.288    4.273
   99.000  185.731   97.092    0.522    0.285    3.959
   99.250  185.726   97.690    0.532    0.280    4.512
   99.500  185.722   95.286    0.529    0.280    5.048
   99.750  185.718   96.484    0.540    0.278    5.543
  100.000  185.716   88.075    0.561    0.273    5.858
  100.250  185.711   80.266    0.556    0.268    6.079
  100.500  185.709   83.267    0.540    0.266    6.189
  100.750  185.706   92.273    0.521    0.274    5.733
  101.000  184.701   98.877    0.535    0.280    4.565
  101.250  184.697   98.875    0.547    0.294    4.073
  101.500  184.695   99.473    0.604    0.305    3.845
  101.750  184.692   99.472    0.598    0.319    4.065
  102.000  185.688   94.665    0.593    0.318    4.298
  102.250  186.687   89.859    0.592    0.310    5.087
  102.500  187.685   80.849    0.582    0.322    5.279
  102.750  188.683   71.839    0.566    0.346    5.374
  103.000  189.680   63.430    0.556    0.365    5.575
  103.250  191.677   54.420    0.534    0.388    6.985
  103.500  193.676   45.410    0.499    0.378    9.986
  103.750  198.677   45.407    0.455    0.177   13.491
  104.000  201.677   46.006    0.388    0.166   15.093
  104.250  193.666   49.607    0.426    0.303   13.983
  104.500  178.650   53.208    0.460    0.356   12.241
  104.750  175.643   56.209    0.451    0.284   10.317
  105.000  175.640   55.606    0.419    0.237    9.928
  105.250  173.635   56.205    0.393    0.276   10.896
  105.500  176.635   59.205    0.391    0.305   11.736
  105.750  180.634   57.402    0.426    0.315   12.181
  106.000  179.630   50.194    0.466    0.340   12.871
  106.250  179.627   45.988    0.472    0.366   13.110
  106.500  179.623   42.382    0.467    0.365   12.374
  106.750  180.621   41.180    0.476    0.365   11.463
  107.000  181.618   45.982    0.467    0.372    9.664
  107.250  184.618   51.985    0.449    0.359    7.994
  107.500  185.614   62.792    0.502    0.325    6.369
  107.750  184.610   76.603    0.513    0.301    5.574
  108.000  184.606   87.410    0.532    0.291    5.570
  108.250  185.605   89.210    0.554    0.291    5.996
  108.500  185.601   86.805    0.580    0.297    6.341
  108.750  185.599   78.997    0.577    0.307    6.580
  109.000  185.595   75.392    0.545    0.304    7.085
  109.250  185.591   78.992    0.538    0.297    7.081
  109.500  185.589   81.393    0.528    0.293    7.074
  109.750  185.585   81.391    0.529    0.292    6.806
  110.000  184.581   75.984    0.529    0.318    7.330
  110.250  183.575   67.575    0.502    0.345    7.750
  110.500  182.573   55.562    0.474    0.353    7.889
  110.750  180.567   57.962    0.453    0.344    7.590
  111.000  179.564   73.574    0.485    0.334    7.030
  111.250  177.556   83.180    0.510    0.318    7.026
