~VERSION INFORMATION
 VERS.                 2.0:   CWLS LOG ASCII STANDARD -VERSION 2.0
 WRAP.                  NO:   ONE LINE PER DEPTH STEP
~WELL INFORMATION BLOCK
#MNEM.UNIT           DATA                    DESCRIPTION OF MNEMONIC
#---------    -------------------            -------------------------------
# Generated from Intellog Unique Number	CW_73_75/WELL/2738
WELL.         MANNVILLE ET AL FAWCETT 10-05  : Well_name    - WELL
LOC .         00/10-05-073-01W5/0            : Location     - LOCATION
UWI .         00/10-05-073-01W5/0            : Uwi          - UNIQUE WELL ID
ENTR.         JAYE                           : Entered      - ENTERED BY
SRVC.         SCHLUMBERGER                   : Scn          - SERVICE COMPANY
DATE.         20 NOV 77                      : Date         - LOG DATE
STRT.M        426.72                         : top_depth    - START DEPTH
STOP.M        685.72                         : bot_depth    - STOP DEPTH
STEP.M        0.25                           : increment    - STEP LENGTH
 NULL. -999.2500:NULL Value
~CURVE INFORMATION BLOCK
#MNEM UNIT       ERCB CURVE CODE    CURVE DESCRIPTION
#-----------   ------------------   ----------------------------------
DEPT.M        00 001 00 00         : DEPTH        - DEPTH
DPHI.V/V      00 890 00 00         : PHID         - DENSITY POROSITY (SANDSTONE)
NPHI.V/V      00 330 00 00         : PHIN         - NEUTRON POROSITY (SANDSTONE)
GR  .API      00 310 00 00         : GR           - GAMMA RAY
CALI.MM       00 280 01 00         : CAL          - CALIPER
ILD .OHMM     00 120 00 00         : RESD         - DEEP RESISTIVITY (DIL)
~PARAMETER INFORMATION
#MNEM.UNIT           DATA             DESCRIPTION OF MNEMONIC
#---------         -----------     ------------------------------
GL  .M        635.203              : gl           - GROUND LEVEL ELEVATION
EREF.M        638.251              : kb           - ELEVATION OF DEPTH REFERENCE
DATM.M        635.203              : datum        - DATUM ELEVATION
TDD .M        694.944              : tdd          - TOTAL DEPTH DRILLER
RUN .         ONE                  : Run          - RUN NUMBER
ENG .         KUBICA/RIVOLLIER     : Engineer     - RECORDING ENGINEER
WIT .         WOOLLEY              : Witness      - WITNESSED BY
BASE.         EDM                  : Branch       - HOME BASE OF LOGGING UNIT
MUD .         GEL                  : Mud_type     - MUD TYPE
MATR.         SANDSTONE            : Logunit      - NEUTRON MATRIX
TMAX.C        21.1111              : BHT          - MAXIMUM RECORDED TEMPERATURE
BHTD.M        694.944              : BHTDEP       - MAXIMUM RECORDED TEMPERATURE
RMT .C        11.1111              : MDTP         - TEMPERATURE OF MUD
MUDD.KG/M     1116                 : MWT          - MUD DENSITY
NEUT.         1                    : NEUTRON      - NEUTRON TYPE
RESI.         0                    : RESIST       - RESISTIVITY TYPE
RM  .OHMM     3.89                 : RM           - RESISTIVITY OF MUD
RMC .OHMM     0                    : RMC          - RESISTIVITY OF MUD CAKE
RMF .OHMM     5.51                 : RMF          - RESISTIVITY OF MUD FILTRATE
SUFT.C        -17.7778             : SUFT         - SURFACE TEMPERATURE
~A  DEPTH     PHID     PHIN       GR      CAL     RESD
# ...
  609.220    0.100    0.341  105.973  175.243    6.712
  609.470    0.087    0.335  106.136  175.209    6.712
  609.720    0.133    0.359  106.848  173.709    6.725
  609.970    0.142    0.370  107.759  173.615    6.962
  610.220    0.148    0.369  104.989  173.523    7.044
  610.470    0.134    0.356  104.837  173.427    7.087
  610.720    0.120    0.351  107.934  173.333    7.102
  610.970    0.131    0.343  110.465  173.342    7.091
  611.220    0.140    0.334  109.441  173.354    7.067
  611.470    0.136    0.331  107.480  173.366    7.002
  611.720    0.146    0.336  108.328  173.480    6.912
  611.970    0.124    0.342  107.804  173.490    6.823
  612.220    0.110    0.352  106.530  172.872    6.684
  612.470    0.100    0.362  106.755  172.357    6.548
  612.720    0.113    0.355  108.788  171.632    6.440
  612.970    0.130    0.343  105.953  170.594    6.430
  613.220    0.117    0.329  105.304  168.925    6.493
  613.470    0.091    0.334  108.211  169.355    6.683
  613.720    0.057    0.333  105.940  172.410    7.037
  613.970    0.015    0.313  104.357  173.786    7.311
  614.220    0.079    0.302  106.449  174.006    7.082
  614.470    0.089    0.309  112.976  173.701    6.358
  614.720    0.124    0.332  114.138  174.238    5.453
  614.970    0.180    0.360  106.872  175.717    4.182
  615.220    0.238    0.387  105.913  179.821    3.070
  615.470    0.267    0.480  106.135  192.113    2.436
  615.720    0.301    0.552  102.865  212.801    2.039
  615.970    0.307    0.550  104.649  228.345    1.793
  616.220    0.306    0.552  107.431  239.272    1.730
  616.470    0.289    0.524  106.722  222.804    1.720
  616.720    0.250    0.471  107.009  219.561    1.744
  616.970    0.230    0.493  108.167  205.507    1.829
  617.220    0.263    0.490  111.074  201.948    2.028
  617.470    0.248    0.479  115.042  207.417    2.277
  617.720    0.217    0.469  111.151  218.449    2.677
  617.970    0.180    0.361  106.066  214.681    3.213
  618.220    0.068    0.345  103.232  201.571    3.842
  618.470    0.044    0.358  106.391  185.313    4.629
  618.720    0.025    0.362  107.924  179.656    5.411
  618.970    0.073    0.337  104.343  176.099    5.719
  619.220    0.090    0.355  110.557  174.325    5.775
  619.470    0.083    0.364  116.398  173.391    5.701
  619.720    0.078    0.365  118.434  175.921    5.735
  619.970    0.075    0.352  116.597  178.661    6.016
  620.220    0.062    0.330  113.449  178.880    6.505
  620.470    0.046    0.305  108.309  176.373    7.169
  620.720    0.033    0.313  104.351  174.388    7.737
  620.970    0.023    0.300   99.705  172.510    7.963
  621.220    0.015    0.288  106.048  170.211    7.801
  621.470    0.036    0.319  110.015  173.266    7.097
  621.720    0.130    0.395  109.864  179.680    6.457
  621.970    0.122    0.366  108.657  181.895    6.277
  622.220    0.092    0.355  107.131  177.601    6.376
  622.470    0.081    0.344  104.110  175.618    6.637
  622.720    0.096    0.354  103.770  172.900    6.923
  622.970    0.115    0.351  109.299  169.448    7.125
  623.220    0.120    0.345  111.520  168.722    7.223
  623.470    0.100    0.341  111.809  169.154    7.253
  623.720    0.081    0.355  115.215  170.213    7.241
  623.970    0.083    0.353  113.004  170.643    7.149
  624.220    0.044    0.339  103.556  170.446    6.937
  624.470    0.074    0.343   94.855  168.461    6.263
  624.720    0.159    0.332   75.481  164.168    5.486
  624.970    0.201    0.321   58.106  158.301    4.869
  625.220    0.218    0.337   50.841  154.639    4.379
  625.470    0.222    0.340   53.626  153.179    3.909
  625.720    0.220    0.334   54.036  152.037    3.530
  625.970    0.220    0.326   54.822  151.417    3.386
  626.220    0.213    0.333   56.604  150.901    3.433
  626.470    0.215    0.344   56.954  150.598    3.486
  626.720    0.228    0.348   57.053  150.086    3.554
  626.970    0.216    0.344   56.153  149.571    3.679
  627.220    0.210    0.335   55.442  148.954    3.801
  627.470    0.200    0.338   56.853  148.437    3.890
  627.720    0.192    0.343   58.698  148.027    3.973
  627.970    0.187    0.350   60.734  148.039    4.036
  628.220    0.197    0.353   62.141  147.944    4.083
  628.470    0.209    0.349   62.305  148.059    4.139
  628.720    0.192    0.338   62.903  148.385    4.141
  628.970    0.209    0.332   64.936  150.705    4.150
  629.220    0.224    0.334   66.660  151.556    4.167
  629.470    0.212    0.343   67.881  151.355    4.224
  629.720    0.190    0.339   69.102  151.368    4.364
  629.970    0.178    0.331   65.896  151.484    4.561
  630.220    0.179    0.329   68.240  151.808    4.694
  630.470    0.188    0.337   70.835  151.818    4.777
  630.720    0.209    0.344   73.247  151.936    4.796
  630.970    0.199    0.340   73.719  151.945    4.761
  631.220    0.190    0.331   71.261  151.956    4.665
  631.470    0.188    0.331   70.546  151.861    4.587
  631.720    0.193    0.335   68.649  151.662    4.633
  631.970    0.153    0.323   65.444  151.570    4.777
  632.220    0.117    0.301   62.733  151.474    4.926
  632.470    0.083    0.296   64.141  151.589    5.128
  632.720    0.120    0.305   70.173  151.706    5.248
  632.970    0.150    0.312   72.831  151.715    5.422
  633.220    0.178    0.316   72.990  151.517    5.549
  633.470    0.153    0.317   71.223  151.632    5.614
  633.720    0.139    0.315   71.003  152.063    5.659
  633.970    0.164    0.313   72.728  152.072    5.704
  634.220    0.162    0.314   74.578  152.189    5.815
  634.470    0.150    0.313   75.922  152.199    5.997
  634.720    0.125    0.312   77.706  153.471    6.231
  634.970    0.151    0.313   80.112  154.006    6.561
  635.220    0.136    0.313   82.333  154.333    6.817
  635.470    0.137    0.313   78.376  154.552    7.097
  635.720    0.157    0.311   70.424  154.562    7.304
  635.970    0.133    0.305   63.037  154.572    7.376
  636.220    0.168    0.291   56.395  154.165    7.077
  636.470    0.184    0.286   55.056  153.439    6.946
  636.720    0.144    0.286   66.392  153.239    7.081
  636.970    0.122    0.291   71.481  155.874    7.556
  637.220    0.123    0.306   74.827  161.028    8.649
  637.470    0.162    0.322   80.669  155.161    9.246
  637.720    0.175    0.321   85.573  153.177    9.267
  637.970    0.186    0.313   92.352  153.503    9.062
  638.220    0.154    0.301   90.077  155.613    8.877
  638.470    0.130    0.290   85.495  157.828    9.085
  638.720    0.107    0.281   87.279  160.988    9.209
  638.970    0.128    0.316   99.362  164.462    9.005
  639.220    0.142    0.352  106.638  170.665    8.365
  639.470    0.201    0.386  109.173  173.194    7.786
  639.720    0.163    0.350  111.830  173.206    6.990
  639.970    0.149    0.350  117.047  170.803    6.555
  640.220    0.134    0.384  126.010  172.598    6.218
  640.470    0.128    0.406  127.605  178.171    5.954
  640.720    0.173    0.410  121.838  178.916    5.945
  640.970    0.190    0.348  110.454  177.669    6.200
  641.220    0.146    0.324   98.571  176.523    6.730
  641.470    0.123    0.303   85.501  173.280    7.388
  641.720    0.118    0.280   72.244  169.198    8.267
  641.970    0.095    0.247   59.239  166.479    8.888
  642.220    0.084    0.216   47.916  164.916    9.377
  642.470    0.119    0.248   45.020  165.031    9.706
  642.720    0.126    0.267   57.226  165.043    9.952
  642.970    0.104    0.256   57.827  164.738   10.204
  643.220    0.091    0.238   50.060  164.013   10.602
  643.470    0.095    0.236   41.423  163.289   11.313
  643.720    0.138    0.235   32.599  161.516   12.094
  643.970    0.157    0.241   25.210  159.637   11.494
  644.220    0.177    0.238   21.811  157.864   10.476
  644.470    0.199    0.234   18.856  159.239    9.495
  644.720    0.187    0.229   18.204  159.984    8.955
  644.970    0.171    0.226   17.866  160.099    8.319
  645.220    0.177    0.245   17.589  160.425    7.342
  645.470    0.213    0.261   17.251  159.911    6.418
