~VERSION INFORMATION
 VERS.                 2.0:   CWLS LOG ASCII STANDARD -VERSION 2.0
 WRAP.                  NO:   ONE LINE PER DEPTH STEP
~WELL INFORMATION BLOCK
#MNEM.UNIT           DATA                    DESCRIPTION OF MNEMONIC
#---------    -------------------            -------------------------------
# Generated from Intellog Unique Number	CS_67_68/WELL/2191
WELL.         MANNVILLE et al ATMORE         : Well_name    - WELL
LOC .         00/10-06-067-15W4/0            : Location     - LOCATION
UWI .         00/10-06-067-15W4/0            : Uwi          - UNIQUE WELL ID
ENTR.         SP                             : Entered      - ENTERED BY
SRVC.         SCHLUMBERGER                   : Scn          - SERVICE COMPANY
STRT.M        345                            : top_depth    - START DEPTH
STOP.M        534                            : bot_depth    - STOP DEPTH
STEP.M        0.25                           : increment    - STEP LENGTH
 NULL. -999.2500:NULL Value
~CURVE INFORMATION BLOCK
#MNEM UNIT       ERCB CURVE CODE    CURVE DESCRIPTION
#-----------   ------------------   ----------------------------------
DEPT.M        00 001 00 00         : DEPTH        - DEPTH
ILD .OHMM     00 120 00 00         : RESD         - DEEP RESISTIVITY (DIL)
DPHI.V/V      00 890 00 00         : PHID         - DENSITY POROSITY (LIMESTONE)
NPHI.V/V      00 330 00 00         : PHIN         - NEUTRON POROSITY (LIMESTONE)
GR  .API      00 310 00 00         : GR           - GAMMA RAY
CALI.MM       00 280 01 00         : CAL          - CALIPER
~PARAMETER INFORMATION
#MNEM.UNIT           DATA             DESCRIPTION OF MNEMONIC
#---------         -----------     ------------------------------
GL  .M        588                  : gl           - GROUND LEVEL ELEVATION
EREF.M        592.1                : kb           - ELEVATION OF DEPTH REFERENCE
DATM.M        592.1                : datum        - DATUM ELEVATION
TDD .M        534.7                : tdd          - TOTAL DEPTH DRILLER
RUN .         ONE                  : Run          - RUN NUMBER
ENG .         BILL                 : Engineer     - RECORDING ENGINEER
WIT .         JIM                  : Witness      - WITNESSED BY
MUD .         GEL                  : Mud_type     - MUD TYPE
MATR.         LIMESTONE            : Logunit      - NEUTRON MATRIX
TMAX.C        27                   : BHT          - MAXIMUM RECORDED TEMPERATURE
BHTD.M        535                  : BHTDEP       - MAXIMUM RECORDED TEMPERATURE
MATR.         1                    : LOGUNIT      - NEUTRON MATRIX
RMT .C        25                   : MDTP         - TEMPERATURE OF MUD
NEUT.         1                    : NEUTRON      - NEUTRON TYPE
RESI.         0                    : RESIST       - RESISTIVITY TYPE
RMC .OHMM     0.25                 : RMC          - RESISTIVITY OF MUD CAKE
RMF .OHMM     0.25                 : RMF          - RESISTIVITY OF MUD FILTRATE
SUFT.C        15                   : SUFT         - SURFACE TEMPERATURE
~A  DEPTH     RESD     PHID     PHIN       GR      CAL
  345.000    2.242    0.214    0.430  104.881  181.112
  345.250    2.845    0.203    0.416  105.732  177.812
  345.500    2.939    0.191    0.417  106.336  174.509
  345.750    2.869    0.176    0.440  105.217  179.109
  346.000    2.743    0.176    0.453  104.284  183.706
  346.250    2.607    0.187    0.445  106.550  185.844
  346.500    2.492    0.192    0.447  109.001  185.312
  346.750    2.415    0.195    0.453  111.514  184.475
  347.000    2.339    0.201    0.458  113.966  186.303
  347.250    2.292    0.216    0.458  112.847  190.696
  347.500    2.263    0.230    0.455  109.266  187.190
  347.750    2.263    0.221    0.453  111.594  182.243
  348.000    2.281    0.213    0.464  112.013  178.536
  348.250    2.330    0.202    0.445  111.265  180.263
  348.500    2.376    0.199    0.425  110.699  184.552
  348.750    2.377    0.199    0.419  114.197  185.253
  349.000    2.346    0.196    0.440  118.311  187.287
  349.250    2.286    0.192    0.460  121.439  188.500
  349.500    2.270    0.208    0.470  118.474  182.222
  349.750    2.257    0.235    0.451  113.907  176.870
  350.000    2.271    0.246    0.448  110.819  175.931
  350.250    2.324    0.243    0.459  109.762  181.144
  350.500    2.401    0.232    0.465  112.276  180.818
  350.750    2.466    0.219    0.446  107.954  174.849
  351.000    2.453    0.237    0.431  105.729  169.395
  351.250    2.417    0.246    0.419  104.303  164.966
  351.500    2.302    0.248    0.446  103.061  162.076
  351.750    2.176    0.243    0.465  105.882  161.955
  352.000    2.100    0.223    0.487  108.825  175.577
  352.250    2.117    0.240    0.505  110.354  181.820
  352.500    2.208    0.267    0.470  112.374  187.548
  352.750    2.378    0.275    0.431  109.592  177.990
  353.000    2.517    0.278    0.396  102.502  167.710
  353.250    2.537    0.269    0.377   97.383  162.463
  353.500    2.510    0.260    0.383   93.988  161.316
  353.750    2.445    0.257    0.393   92.378  161.401
  354.000    2.360    0.255    0.399   90.704  162.102
  354.250    2.334    0.248    0.402   89.894  162.389
  354.500    2.379    0.239    0.390   94.130  161.347
  354.750    2.514    0.229    0.381   99.228  160.200
  355.000    2.728    0.224    0.382  104.448  160.592
  355.250    2.840    0.233    0.393  109.177  162.108
  355.500    2.798    0.231    0.400  111.444  163.120
  355.750    2.696    0.231    0.397  110.264  163.922
  356.000    2.597    0.247    0.383  108.160  161.240
  356.250    2.492    0.261    0.365   99.778  158.758
  356.500    2.360    0.272    0.352   90.964  158.228
  356.750    2.235    0.263    0.356   86.277  159.439
  357.000    2.101    0.277    0.371   83.251  160.550
  357.250    1.971    0.315    0.368   79.054  162.277
  357.500    1.891    0.333    0.363   70.734  163.592
  357.750    1.798    0.315    0.363   63.461  164.293
  358.000    1.745    0.307    0.368   63.203  164.479
  358.250    1.713    0.303    0.368   66.393  163.745
  358.500    1.793    0.268    0.363   60.781  162.290
  358.750    1.838    0.241    0.358   54.122  159.912
  359.000    1.839    0.234    0.357   72.146  157.942
  359.250    1.795    0.272    0.353   83.831  157.210
  359.500    1.726    0.280    0.344   78.834  156.679
  359.750    1.675    0.284    0.353   71.067  156.865
  360.000    1.663    0.288    0.370   65.886  156.951
  360.250    1.757    0.291    0.381   63.660  159.805
  360.500    1.900    0.293    0.390   63.095  161.117
  360.750    2.030    0.279    0.383   72.687  160.687
  361.000    2.174    0.242    0.376   82.646  160.467
  361.250    2.346    0.224    0.372   88.729  160.143
  361.500    2.541    0.213    0.366   92.103  160.121
  361.750    2.757    0.213    0.371   86.615  160.308
  362.000    3.003    0.224    0.387   90.419  160.704
  362.250    3.179    0.188    0.399   95.579  161.198
  362.500    3.162    0.239    0.417   95.815  161.489
  362.750    3.000    0.270    0.432   92.111  161.266
  363.000    2.762    0.279    0.426   84.775  160.732
  363.250    2.519    0.287    0.408   78.855  160.409
  363.500    2.288    0.292    0.395   76.013  160.391
  363.750    2.138    0.295    0.386   74.954  160.166
  364.000    2.002    0.291    0.382   74.083  159.945
  364.250    1.911    0.286    0.382   73.703  159.617
  364.500    1.858    0.284    0.386   74.185  160.011
  364.750    1.855    0.287    0.392   70.419  160.506
  365.000    1.888    0.292    0.402   69.056  160.591
  365.250    1.928    0.297    0.401   72.860  160.470
  365.500    2.011    0.283    0.411   78.696  160.555
  365.750    2.113    0.266    0.415   83.610  160.844
  366.000    2.250    0.253    0.421   87.723  161.340
  366.250    2.400    0.241    0.423   87.898  161.629
  366.500    2.541    0.244    0.416   82.960  161.098
  366.750    2.566    0.247    0.405   80.858  160.461
  367.000    2.476    0.229    0.397   81.710  160.445
  367.250    2.350    0.216    0.401   85.454  160.838
  367.500    2.238    0.263    0.411   87.659  161.743
  367.750    2.088    0.276    0.416   89.125  162.237
  368.000    1.981    0.280    0.411   88.929  162.939
  368.250    1.922    0.277    0.410   82.762  163.126
  368.500    1.877    0.278    0.405   79.120  163.311
  368.750    1.852    0.281    0.412   75.109  163.294
  369.000    1.843    0.280    0.421   72.083  163.072
  369.250    1.861    0.275    0.411   72.934  162.848
  369.500    1.890    0.266    0.399   75.570  162.829
  369.750    1.927    0.272    0.396   77.898  162.505
  370.000    1.964    0.276    0.389   80.288  161.665
  370.250    2.014    0.279    0.380   82.985  160.928
  370.500    2.088    0.274    0.396   84.944  160.500
  370.750    2.190    0.271    0.414   86.595  160.586
  371.000    2.293    0.268    0.418   85.353  161.183
  371.250    2.418    0.264    0.400   81.588  161.576
  371.500    2.541    0.253    0.397   85.331  161.250
  371.750    2.685    0.238    0.407   88.768  161.232
  372.000    2.838    0.221    0.417   91.096  161.009
  372.250    2.959    0.215    0.402   89.115  160.887
  372.500    3.104    0.220    0.383   91.689  161.177
  372.750    3.236    0.224    0.374   95.556  161.466
  373.000    3.350    0.207    0.403   97.638  162.167
  373.250    3.409    0.163    0.429   95.535  163.582
  373.500    3.371    0.111    0.444   94.477  165.206
  373.750    3.303    0.123    0.449  103.269  166.729
  374.000    3.206    0.130    0.442  113.352  168.456
  374.250    3.171    0.150    0.428  120.850  170.798
  374.500    3.215    0.188    0.416  127.364  172.420
  374.750    3.265    0.193    0.403  132.831  171.274
  375.000    3.316    0.197    0.402  136.329  169.102
  375.250    3.374    0.214    0.394  126.653  165.698
  375.500    3.427    0.268    0.354  110.702  160.652
  375.750    3.480    0.282    0.330  100.781  158.584
  376.000    3.548    0.244    0.322   91.538  157.846
  376.250    3.665    0.213    0.347  102.237  158.240
  376.500    3.772    0.200    0.363  108.997  158.941
  376.750    3.788    0.198    0.377  109.478  160.154
  377.000    3.697    0.199    0.392  103.928  162.188
  377.250    3.541    0.204    0.405   99.915  162.888
  377.500    3.392    0.217    0.416  101.198  158.763
  377.750    3.292    0.226    0.397  105.003  157.415
  378.000    3.202    0.233    0.392  107.577  156.780
  378.250    3.131    0.228    0.399  109.413  158.301
  378.500    3.068    0.199    0.406  112.296  160.232
  378.750    3.000    0.199    0.406  115.054  161.342
  379.000    2.956    0.212    0.398  113.936  161.531
  379.250    2.763    0.229    0.395  115.525  160.689
  379.500    2.538    0.250    0.400  113.853  159.751
  379.750    2.324    0.280    0.400  100.670  157.168
  380.000    2.184    0.291    0.406   90.873  156.326
  380.250    2.064    0.287    0.412   88.647  156.003
  380.500    1.970    0.279    0.413   87.896  156.086
  380.750    1.926    0.274    0.410   87.516  156.173
  381.000    1.880    0.274    0.406   87.445  156.562
  381.250    1.881    0.280    0.411   87.433  156.957
