~VERSION INFORMATION
 VERS.                 2.0:   CWLS LOG ASCII STANDARD -VERSION 2.0
 WRAP.                  NO:   ONE LINE PER DEPTH STEP
~WELL INFORMATION BLOCK
#MNEM.UNIT           DATA                    DESCRIPTION OF MNEMONIC
#---------    -------------------            -------------------------------
# Generated from Intellog Unique Number	CS_77_79/WELL/1006
WELL.         NORTHSTAR THORNBURY            : Well_name    - WELL
LOC .         00/11-32-079-12W4/0            : Location     - LOCATION
UWI .         00/11-32-079-12W4/0            : Uwi          - UNIQUE WELL ID
ENTR.         JHS                            : Entered      - ENTERED BY
SRVC.         SCHLUMBERGER                   : Scn          - SERVICE COMPANY
STRT.M        250                            : top_depth    - START DEPTH
STOP.M        495                            : bot_depth    - STOP DEPTH
STEP.M        0.25                           : increment    - STEP LENGTH
 NULL. -999.2500:NULL Value
~CURVE INFORMATION BLOCK
#MNEM UNIT       ERCB CURVE CODE    CURVE DESCRIPTION
#-----------   ------------------   ----------------------------------
DEPT.M        00 001 00 00         : DEPTH        - DEPTH
DPHI.V/V      00 890 00 00         : PHID         - DENSITY POROSITY (LIMESTONE)
NPHI.V/V      00 330 00 00         : PHIN         - NEUTRON POROSITY (LIMESTONE)
GR  .API      00 310 00 00         : GR           - GAMMA RAY
ILD .OHMM     00 120 00 00         : RESD         - DEEP RESISTIVITY (DIL)
RHOB.KG/M3    00 350 00 00         : DENS         - BULK DENSITY
~PARAMETER INFORMATION
#MNEM.UNIT           DATA             DESCRIPTION OF MNEMONIC
#---------         -----------     ------------------------------
GL  .M        683.9                : gl           - GROUND LEVEL ELEVATION
EREF.M        687.9                : kb           - ELEVATION OF DEPTH REFERENCE
DATM.M        687.9                : datum        - DATUM ELEVATION
TDD .M        502                  : tdd          - TOTAL DEPTH DRILLER
RUN .         ONE                  : Run          - RUN NUMBER
ENG .         BILL                 : Engineer     - RECORDING ENGINEER
WIT .         JIM                  : Witness      - WITNESSED BY
MUD .         GEL                  : Mud_type     - MUD TYPE
MATR.         LIMESTONE            : Logunit      - NEUTRON MATRIX
TMAX.C        21.1                 : BHT          - MAXIMUM RECORDED TEMPERATURE
BHTD.M        502                  : BHTDEP       - MAXIMUM RECORDED TEMPERATURE
MATR.         1                    : LOGUNIT      - NEUTRON MATRIX
RMT .C        25                   : MDTP         - TEMPERATURE OF MUD
NEUT.         1                    : NEUTRON      - NEUTRON TYPE
RESI.         0                    : RESIST       - RESISTIVITY TYPE
RMC .OHMM     0.25                 : RMC          - RESISTIVITY OF MUD CAKE
RMF .OHMM     0.25                 : RMF          - RESISTIVITY OF MUD FILTRATE
SUFT.C        15                   : SUFT         - SURFACE TEMPERATURE
~A  DEPTH     PHID     PHIN       GR     RESD     DENS
# ...
  396.000    0.219    0.444  107.494    6.164    0.000
  396.250    0.216    0.496  107.499    5.723    0.000
  396.500    0.230    0.502  105.660    5.315    0.000
  396.750    0.238    0.507  103.206    5.027    0.000
  397.000    0.243    0.502  100.751    5.029    0.000
  397.250    0.232    0.491   97.068    5.125    0.000
  397.500    0.227    0.476   94.614    5.322    0.000
  397.750    0.227    0.475   92.159    5.525    0.000
  398.000    0.222    0.471   92.167    5.955    0.000
  398.250    0.209    0.457   92.171    6.069    0.000
  398.500    0.239    0.446   92.790    6.071    0.000
  398.750    0.272    0.447   94.025    6.072    0.000
  399.000    0.279    0.453   93.416    5.963    0.000
  399.250    0.275    0.454   92.191    5.966    0.000
  399.500    0.290    0.452   89.737    5.857    0.000
  399.750    0.299    0.449   87.898    5.751    0.000
  400.000    0.252    0.491   93.626    5.194    0.000
  400.250    0.247    0.488   92.988    5.101    0.000
  400.500    0.262    0.456   95.406    5.104    0.000
  400.750    0.268    0.464   96.594    5.203    0.000
  401.000    0.280    0.478   93.508    5.303    0.000
  401.250    0.295    0.472   87.959    5.508    0.000
  401.500    0.239    0.463   84.263    5.939    0.000
  401.750    0.132    0.446   76.272    6.774    0.000
  402.000    0.112    0.404   70.730    7.442    0.000
  402.250    0.161    0.321   68.256    8.026    0.000
  402.500    0.234    0.349   71.282    8.029    0.000
  402.750    0.273    0.423   76.141    7.738    0.000
  403.000    0.306    0.462   78.554    7.183    0.000
  403.250    0.315    0.488   79.754    6.545    0.000
  403.500    0.314    0.496   80.326    6.306    0.000
  403.750    0.303    0.506   82.749    6.078    0.000
  404.000    0.288    0.483   84.549    6.082    0.000
  404.250    0.288    0.472   82.680    6.085    0.000
  404.500    0.317    0.480   80.819    6.088    0.000
  404.750    0.332    0.498   79.556    6.091    0.000
  405.000    0.336    0.510   78.911    6.209    0.000
  405.250    0.344    0.511   78.886    6.329    0.000
  405.500    0.333    0.499   79.459    6.215    0.000
  405.750    0.328    0.488   80.658    6.217    0.000
  406.000    0.329    0.476   84.907    5.992    0.000
  406.250    0.328    0.475   86.709    5.884    0.000
  406.500    0.319    0.487   87.292    5.777    0.000
  406.750    0.317    0.488   89.703    5.673    0.000
  407.000    0.322    0.471   89.666    5.571    0.000
  407.250    0.312    0.466   88.420    5.470    0.000
  407.500    0.314    0.469   85.939    5.473    0.000
  407.750    0.308    0.465   84.077    5.475    0.000
  408.000    0.255    0.464   80.985    5.794    0.000
  408.250    0.139    0.437   76.664    6.486    0.000
  408.500    0.136    0.356   69.903    7.399    0.000
  408.750    0.194    0.329   68.649    7.829    0.000
  409.000    0.242    0.356   71.064    7.833    0.000
  409.250    0.283    0.448   76.534    7.409    0.000
  409.500    0.306    0.477   80.788    6.626    0.000
  409.750    0.307    0.488   84.428    6.150    0.000
  410.000    0.297    0.475   86.846    5.603    0.000
  410.250    0.289    0.465   88.034    5.202    0.000
  410.500    0.299    0.469   87.392    5.204    0.000
  410.750    0.293    0.478   86.751    5.207    0.000
  411.000    0.298    0.482   84.876    5.210    0.000
  411.250    0.300    0.464   83.623    5.212    0.000
  411.500    0.299    0.470   82.975    5.214    0.000
  411.750    0.290    0.483   83.562    5.216    0.000
  412.000    0.284    0.488   84.752    5.220    0.000
  412.250    0.285    0.490   87.167    5.125    0.000
  412.500    0.294    0.500   92.648    5.033    0.000
  412.750    0.279    0.502   95.064    4.850    0.000
  413.000    0.265    0.500   95.032    4.674    0.000
  413.250    0.257    0.500   97.445    4.421    0.000
  413.500    0.247    0.495   99.252    4.181    0.000
  413.750    0.261    0.494  101.668    4.184    0.000
  414.000    0.235    0.506  101.024    4.346    0.000
  414.250    0.241    0.501   96.096    4.513    0.000
  414.500    0.261    0.493   91.165    4.776    0.000
  414.750    0.278    0.472   86.242    5.055    0.000
  415.000    0.291    0.465   84.365    5.451 2211.780
  415.250    0.270    0.469   84.948    5.768 2249.130
  415.500    0.169    0.467   82.473    6.220 2421.680
  415.750    0.121    0.431   78.770    6.708 2502.700
  416.000    0.114    0.384   76.896    6.836 2515.040
  416.250    0.131    0.354   78.094    6.840 2485.810
  416.500    0.188    0.406   88.465    6.717 2387.940
  416.750    0.231    0.447   94.553    6.596 2315.020
  417.000    0.225    0.472   97.582    6.357 2325.310
  417.250    0.212    0.469   99.992    6.125 2348.040
  417.500    0.209    0.456   98.737    5.904 2352.130
  417.750    0.218    0.448   96.870    5.797 2337.430
  418.000    0.218    0.454   98.676    5.909 2337.340
  418.250    0.216    0.476   99.866    6.023 2341.390
  418.500    0.224    0.487   99.825    6.141 2326.700
  418.750    0.221    0.476  102.254    6.031 2332.830
  419.000    0.216    0.469  107.117    6.032 2341.040
  419.250    0.237    0.467  104.637    5.924 2305.560
  419.500    0.205    0.469  100.316    5.927 2359.530
  419.750    0.189    0.460  101.507    6.042 2386.450
  420.000    0.200    0.460  101.482    6.160 2367.630
  420.250    0.192    0.474  101.445    6.519 2382.060
  420.500    0.194    0.471  100.799    6.770 2377.800
  420.750    0.183    0.448  103.828    6.774 2396.420
  421.000    0.222    0.430  105.632    6.528 2329.730
  421.250    0.222    0.424  106.822    6.291 2329.610
  421.500    0.214    0.427  111.690    6.062 2344.060
  421.750    0.208    0.433  112.887    5.842 2354.340
  422.000    0.217    0.439  109.794    5.630 2339.670
  422.250    0.214    0.440  105.475    5.325 2343.700
  422.500    0.220    0.439  102.386    5.037 2333.210
  422.750    0.209    0.439   99.904    4.421 2351.810
  423.000    0.220    0.448  102.311    4.104 2332.980
  423.250    0.222    0.471  101.062    3.738 2330.800
  423.500    0.239    0.484   99.189    3.044 2301.550
  423.750    0.251    0.488   98.554    2.672 2280.640
  424.000    0.261    0.505   98.520    2.301 2263.880
  424.250    0.289    0.539   97.263    2.096 2215.920
  424.500    0.301    0.572   93.561    1.910 2195.010
  424.750    0.295    0.594   89.851    1.773 2205.300
  425.000    0.278    0.600   89.209    1.912 2234.300
  425.250    0.258    0.576   89.792    2.141 2269.520
  425.500    0.248    0.541   90.973    2.534 2286.080
  425.750    0.236    0.513   92.172    2.945 2306.770
  426.000    0.221    0.492   94.590    3.554 2331.610
  426.250    0.225    0.479   97.008    4.208 2325.260
  426.500    0.208    0.462   96.979    4.710 2354.280
  426.750    0.190    0.434   93.269    5.175 2385.370
  427.000    0.196    0.426   92.622    5.375 2374.850
  427.250    0.196    0.426   94.433    5.180 2374.740
  427.500    0.237    0.421   97.459    4.900 2303.890
  427.750    0.223    0.445  102.321    4.464 2328.750
  428.000    0.221    0.474  102.901    4.068 2332.790
  428.250    0.227    0.493   98.590    4.069 2322.260
  428.500    0.205    0.504   94.888    4.307 2359.610
  428.750    0.186    0.467   89.338    4.731 2392.790
  429.000    0.179    0.430   89.921    5.007 2403.070
  429.250    0.210    0.415   94.177    5.104 2350.950
  429.500    0.222    0.414   99.651    4.564 2330.020
  429.750    0.228    0.447  102.067    3.858 2319.500
  430.000    0.222    0.470  105.092    3.450 2329.810
  430.250    0.215    0.502  108.127    3.144 2342.160
  430.500    0.218    0.513  112.377    3.029 2337.900
  430.750    0.224    0.505  113.568    2.919 2327.380
  431.000    0.225    0.488  111.088    2.920 2325.160
  431.250    0.230    0.486  106.155    2.977 2316.750
  431.500    0.207    0.501  104.898    3.092 2356.150
  431.750    0.203    0.506  105.488    3.272 2362.300
  432.000    0.195    0.484  109.730    3.529 2376.750
  432.250    0.212    0.467  110.927    3.531 2347.510
