~VERSION INFORMATION
 VERS.                 2.0:   CWLS LOG ASCII STANDARD -VERSION 2.0
 WRAP.                  NO:   ONE LINE PER DEPTH STEP
~WELL INFORMATION BLOCK
#MNEM.UNIT           DATA                    DESCRIPTION OF MNEMONIC
#---------    -------------------            -------------------------------
# Generated from Intellog Unique Number	CS_71_72/WELL/914
WELL.         PEX PHILLIPS AEC GRIST         : Well_name    - WELL
LOC .         00/11-35-071-08W4/0            : Location     - LOCATION
UWI .         00/11-35-071-08W4/0            : Uwi          - UNIQUE WELL ID
ENTR.         SP                             : Entered      - ENTERED BY
SRVC.         SCHLUMBERGER                   : Scn          - SERVICE COMPANY
STRT.M        300                            : top_depth    - START DEPTH
STOP.M        525                            : bot_depth    - STOP DEPTH
STEP.M        0.25                           : increment    - STEP LENGTH
 NULL. -999.2500:NULL Value
~CURVE INFORMATION BLOCK
#MNEM UNIT       ERCB CURVE CODE    CURVE DESCRIPTION
#-----------   ------------------   ----------------------------------
DEPT.M        00 001 00 00         : DEPTH        - DEPTH
ILD .OHMM     00 120 00 00         : RESD         - DEEP RESISTIVITY (DIL)
DPHI.V/V      00 890 00 00         : PHID         - DENSITY POROSITY (LIMESTONE)
NPHI.V/V      00 330 00 00         : PHIN         - NEUTRON POROSITY (LIMESTONE)
GR  .API      00 310 00 00         : GR           - GAMMA RAY
~PARAMETER INFORMATION
#MNEM.UNIT           DATA             DESCRIPTION OF MNEMONIC
#---------         -----------     ------------------------------
GL  .M        663.86               : gl           - GROUND LEVEL ELEVATION
EREF.M        666.86               : kb           - ELEVATION OF DEPTH REFERENCE
DATM.M        663.86               : datum        - DATUM ELEVATION
TDD .M        530                  : tdd          - TOTAL DEPTH DRILLER
RUN .         ONE                  : Run          - RUN NUMBER
ENG .         BILL                 : Engineer     - RECORDING ENGINEER
WIT .         JIM                  : Witness      - WITNESSED BY
MUD .         GEL                  : Mud_type     - MUD TYPE
MATR.         LIMESTONE            : Logunit      - NEUTRON MATRIX
TMAX.C        22                   : BHT          - MAXIMUM RECORDED TEMPERATURE
BHTD.M        530                  : BHTDEP       - MAXIMUM RECORDED TEMPERATURE
MATR.         1                    : LOGUNIT      - NEUTRON MATRIX
RMT .C        25                   : MDTP         - TEMPERATURE OF MUD
NEUT.         1                    : NEUTRON      - NEUTRON TYPE
RESI.         0                    : RESIST       - RESISTIVITY TYPE
RMC .OHMM     0.25                 : RMC          - RESISTIVITY OF MUD CAKE
RMF .OHMM     0.25                 : RMF          - RESISTIVITY OF MUD FILTRATE
SUFT.C        15                   : SUFT         - SURFACE TEMPERATURE
~A  DEPTH     RESD     PHID     PHIN       GR
  300.000    3.244    0.228    0.390  108.190
  300.250    3.298    0.199    0.410  102.037
  300.500    3.334    0.191    0.398  100.910
  300.750    3.320    0.196    0.382  114.371
  301.000    3.287    0.202    0.376  113.856
  301.250    3.224    0.199    0.385  112.482
  301.500    3.156    0.180    0.403  114.360
  301.750    3.096    0.199    0.406  106.061
  302.000    3.071    0.207    0.405  109.958
  302.250    3.046    0.207    0.404  109.689
  302.500    3.045    0.200    0.400  109.053
  302.750    3.107    0.193    0.388  109.704
  303.000    3.189    0.194    0.398  113.848
  303.250    3.279    0.200    0.399  111.188
  303.500    3.384    0.183    0.392  118.765
  303.750    3.453    0.159    0.388  114.815
  304.000    3.471    0.181    0.408  117.429
  304.250    3.542    0.191    0.426  118.325
  304.500    3.601    0.178    0.437  110.516
  304.750    3.702    0.163    0.407  113.557
  305.000    3.835    0.170    0.388  111.940
  305.250    4.049    0.187    0.390  113.139
  305.500    4.470    0.188    0.369  112.872
  305.750    4.470    0.045    0.335  110.580
  306.000    4.519    0.023    0.329  103.442
  306.250    4.508    0.150    0.350  101.705
  306.500    4.331    0.186    0.356  111.608
  306.750    4.060    0.198    0.370  109.193
  307.000    3.849    0.196    0.376  108.743
  307.250    3.684    0.197    0.385  103.570
  307.500    3.533    0.206    0.380  107.836
  307.750    3.439    0.201    0.380  110.571
  308.000    3.386    0.191    0.393  104.785
  308.250    3.423    0.184    0.424  100.958
  308.500    3.499    0.175    0.420  114.480
  308.750    3.632    0.177    0.412  108.328
  309.000    3.742    0.186    0.419  106.711
  309.250    3.876    0.189    0.438  116.984
  309.500    3.963    0.196    0.427  113.282
  309.750    4.029    0.195    0.393  109.826
  310.000    4.057    0.192    0.389  106.554
  310.250    4.070    0.195    0.388  105.978
  310.500    4.061    0.208    0.395  106.322
  310.750    4.006    0.213    0.385  111.016
  311.000    3.922    0.216    0.378  110.810
  311.250    3.789    0.206    0.374  104.961
  311.500    3.723    0.195    0.392  109.474
  311.750    3.757    0.207    0.423  102.524
  312.000    4.049    0.197    0.418  125.730
  312.250    4.464    0.444    0.457  139.929
  312.500    4.921    0.395    0.438  117.040
  312.750    5.539    0.339    0.420   90.719
  313.000    6.095    0.294    0.388  100.992
  313.250    6.873    0.246    0.320  104.646
  313.500    7.854    0.202    0.259   98.493
  313.750    9.917    0.210    0.222   80.508
  314.000   13.812    0.254    0.178   64.975
  314.250   20.164    0.315    0.145   54.040
  314.500   33.402    0.354    0.135   45.312
  314.750   68.079    0.369    0.152   40.200
  315.000   89.943    0.355    0.161   46.854
  315.250  100.097    0.346    0.156   47.380
  315.500  102.529    0.356    0.147   47.299
  315.750  102.479    0.366    0.138   44.273
  316.000  100.704    0.373    0.146   40.570
  316.250   90.571    0.344    0.149   43.978
  316.500   66.706    0.349    0.152   42.178
  316.750   41.462    0.350    0.188   38.352
  317.000   23.409    0.345    0.280   41.883
  317.250   14.799    0.326    0.319   51.116
  317.500   11.864    0.250    0.325   71.072
  317.750   10.354    0.229    0.312   84.230
  318.000    9.277    0.219    0.321   94.686
  318.250    8.729    0.215    0.320  102.202
  318.500    8.874    0.225    0.329  107.083
  318.750    9.351    0.234    0.342  109.021
  319.000   10.116    0.229    0.329  109.303
  319.250   10.720    0.235    0.327  106.335
  319.500   11.507    0.238    0.321   98.528
  319.750   11.613    0.224    0.327   89.553
  320.000   11.413    0.210    0.333   90.446
  320.250   11.131    0.221    0.329   91.344
  320.500   11.231    0.226    0.328   91.074
  320.750   11.525    0.230    0.335   92.400
  321.000   11.940    0.222    0.332   96.176
  321.250   12.299    0.215    0.327  101.237
  321.500   12.551    0.222    0.317   91.470
  321.750   12.103    0.242    0.303   76.305
  322.000   11.672    0.254    0.289   74.626
  322.250   11.448    0.156    0.279   84.961
  322.500   11.315    0.137    0.306   91.740
  322.750   11.393    0.149    0.325   93.248
  323.000   11.562    0.167    0.314   87.831
  323.250   11.888    0.197    0.305   70.705
  323.500   12.292    0.201    0.306   69.087
  323.750   12.662    0.244    0.307   63.669
  324.000   12.970    0.285    0.300   63.583
  324.250   13.062    0.268    0.301   59.882
  324.500   12.692    0.257    0.302   53.237
  324.750   11.719    0.228    0.309   54.746
  325.000   10.302    0.225    0.312   79.669
  325.250    9.938    0.160    0.315   92.274
  325.500    9.142    0.168    0.325   91.269
  325.750    8.426    0.158    0.345  105.771
  326.000    7.722    0.169    0.361  118.192
  326.250    7.024    0.120    0.351  114.489
  326.500    6.487    0.121    0.345  111.401
  326.750    6.001    0.145    0.355  120.694
  327.000    5.531    0.169    0.359  137.830
  327.250    5.098    0.198    0.368  140.382
  327.500    4.646    0.167    0.372  132.084
  327.750    4.356    0.149    0.359  124.766
  328.000    4.037    0.166    0.377  123.393
  328.250    3.770    0.181    0.398  123.369
  328.500    3.521    0.186    0.400  123.161
  328.750    3.313    0.225    0.422  131.903
  329.000    3.633    0.246    0.434  128.998
  329.250    4.595    0.253    0.386  116.101
  329.500    5.902    0.241    0.357  105.410
  329.750    7.783    0.271    0.339   78.354
  330.000    9.553    0.294    0.320   48.232
  330.250   11.357    0.304    0.311   49.064
  330.500   13.249    0.310    0.323   47.877
  330.750   14.414    0.323    0.337   43.931
  331.000   14.990    0.320    0.341   45.865
  331.250   15.038    0.328    0.341   49.520
  331.500   14.863    0.341    0.347   51.946
  331.750   14.495    0.299    0.337   53.641
  332.000   14.164    0.286    0.327   56.008
  332.250   13.893    0.288    0.319   55.002
  332.500   13.678    0.299    0.313   50.934
  332.750   13.492    0.311    0.312   46.803
  333.000   13.435    0.318    0.322   47.453
  333.250   13.378    0.309    0.324   50.004
  333.500   13.321    0.302    0.315   48.570
  333.750   13.289    0.305    0.306   46.585
  334.000   13.233    0.322    0.299   49.623
  334.250   13.201    0.323    0.312   51.130
  334.500   13.196    0.319    0.314   50.373
  334.750   13.140    0.327    0.320   47.653
  335.000   13.183    0.332    0.328   52.041
  335.250   13.102    0.333    0.335   59.188
  335.500   13.070    0.341    0.332   63.150
  335.750   13.039    0.334    0.329   64.904
  336.000   13.009    0.325    0.326   65.247
  336.250   13.027    0.318    0.322   74.173
  336.500   13.021    0.316    0.319   81.442
  336.750   13.463    0.319    0.318   87.917
  337.000   13.533    0.312    0.321  102.298
  337.250   13.604    0.318    0.324  126.242
  337.500   13.725    0.322    0.325  133.756
  337.750   13.797    0.313    0.324  115.035
  338.000   13.921    0.318    0.321  100.118
  338.250   13.914    0.314    0.317  105.671
  338.500   13.828    0.303    0.312  101.230
  338.750   13.744    0.283    0.316   97.838
  339.000   13.506    0.251    0.325   97.140
  339.250   13.148    0.248    0.332   94.723
  339.500   12.775    0.258    0.331   95.373
  339.750   12.578    0.262    0.323   99.152
  340.000   12.763    0.281    0.324   98.515
  340.250   13.049    0.178    0.327   87.579
  340.500   13.492    0.147    0.316   77.073
  340.750   13.872    0.153    0.303   70.367
  341.000   14.209    0.298    0.323   69.116
  341.250   14.473    0.331    0.346   70.501
  341.500   14.603    0.335    0.336   68.703
  341.750   14.678    0.322    0.326   60.218
  342.000   14.699    0.312    0.328   51.307
  342.250   14.664    0.306    0.330   54.408
  342.500   14.462    0.328    0.340   59.839
  342.750   14.376    0.349    0.341   64.594
  343.000   14.235    0.333    0.329   69.599
  343.250   14.015    0.313    0.320   73.253
