~VERSION INFORMATION
 VERS.                 2.0:   CWLS LOG ASCII STANDARD -VERSION 2.0
 WRAP.                  NO:   ONE LINE PER DEPTH STEP
~WELL INFORMATION BLOCK
#MNEM.UNIT           DATA                    DESCRIPTION OF MNEMONIC
#---------    -------------------            -------------------------------
# Generated from Intellog Unique Number	CW_79_81/WELL/2474
WELL.         GULF AMOCO HOOLE               : Well_name    - WELL
LOC .         00/10-24-081-25W4/0            : Location     - LOCATION
UWI .         00/10-24-081-25W4/0            : Uwi          - UNIQUE WELL ID
ENTR.         MAX                            : Entered      - ENTERED BY
SRVC.         SCHLUMBERGER                   : Scn          - SERVICE COMPANY
STRT.M        198.12                         : top_depth    - START DEPTH
STOP.M        456.87                         : bot_depth    - STOP DEPTH
STEP.M        0.25                           : increment    - STEP LENGTH
 NULL. -999.2500:NULL Value
~CURVE INFORMATION BLOCK
#MNEM UNIT       ERCB CURVE CODE    CURVE DESCRIPTION
#-----------   ------------------   ----------------------------------
DEPT.M        00 001 00 00         : DEPTH        - DEPTH
ILD .OHMM     00 120 00 00         : RESD         - DEEP RESISTIVITY (DIL)
NPHI.V/V      00 330 00 00         : PHIN         - NEUTRON POROSITY (SANDSTONE)
DPHI.V/V      00 890 00 00         : PHID         - DENSITY POROSITY (SANDSTONE)
GR  .API      00 310 00 00         : GR           - GAMMA RAY
CALI.MM       00 280 01 00         : CAL          - CALIPER
~PARAMETER INFORMATION
#MNEM.UNIT           DATA             DESCRIPTION OF MNEMONIC
#---------         -----------     ------------------------------
GL  .M        586.435              : gl           - GROUND LEVEL ELEVATION
EREF.M        589.788              : kb           - ELEVATION OF DEPTH REFERENCE
DATM.M        586.435              : datum        - DATUM ELEVATION
TDD .M        464.515              : tdd          - TOTAL DEPTH DRILLER
RUN .         ONE                  : Run          - RUN NUMBER
ENG .         BILL                 : Engineer     - RECORDING ENGINEER
WIT .         JIM                  : Witness      - WITNESSED BY
MUD .         GEL                  : Mud_type     - MUD TYPE
MATR.         SANDSTONE            : Logunit      - NEUTRON MATRIX
TMAX.C        80                   : BHT          - MAXIMUM RECORDED TEMPERATURE
BHTD.M        1524                 : BHTDEP       - MAXIMUM RECORDED TEMPERATURE
MATR.         1                    : LOGUNIT      - NEUTRON MATRIX
RMT .C        59                   : MDTP         - TEMPERATURE OF MUD
NEUT.         1                    : NEUTRON      - NEUTRON TYPE
RESI.         0                    : RESIST       - RESISTIVITY TYPE
RMC .OHMM     3.71                 : RMC          - RESISTIVITY OF MUD CAKE
RMF .OHMM     3.71                 : RMF          - RESISTIVITY OF MUD FILTRATE
SUFT.C        20                   : SUFT         - SURFACE TEMPERATURE
~A  DEPTH     RESD     PHIN     PHID       GR      CAL
# ...
  271.120    9.993    0.393    0.365   36.860  152.300
  271.370    9.788    0.395    0.361   37.044  151.935
  271.620    9.794    0.397    0.359   37.862  151.974
  271.870    9.729    0.392    0.362   38.133  152.005
  272.120    9.666    0.401    0.366   37.076  152.040
  272.370    9.603    0.412    0.369   35.957  151.874
  272.620    9.505    0.420    0.370   35.344  151.606
  272.870    9.283    0.430    0.369   35.063  151.644
  273.120    9.151    0.439    0.357   34.819  151.683
  273.370    9.026    0.439    0.343   35.855  151.713
  273.620    8.951    0.438    0.338   36.320  151.751
  273.870    8.956    0.428    0.341   36.722  151.785
  274.120    9.026    0.415    0.352   36.871  151.816
  274.370    9.096    0.424    0.373   36.043  151.863
  274.620    9.102    0.449    0.372   36.861  151.895
  274.870    9.108    0.445    0.364   37.892  151.925
  275.120    9.162    0.428    0.363   38.929  152.261
  275.370    9.199    0.413    0.366   39.966  152.699
  275.620    9.220    0.412    0.369   40.304  153.138
  275.870    9.293    0.427    0.367   38.764  153.498
  276.120    9.298    0.428    0.370   39.843  153.114
  276.370    9.370    0.424    0.368   40.374  152.342
  276.620    9.393    0.412    0.365   39.379  151.568
  276.870    9.398    0.403    0.364   37.876  151.401
  277.120    9.404    0.404    0.363   36.564  151.739
  277.370    9.410    0.417    0.362   35.935  151.781
  277.620    9.415    0.418    0.362   36.486  151.820
  277.870    9.353    0.414    0.365   38.033  152.253
  278.120    9.343    0.405    0.363   38.246  152.385
  278.370    9.348    0.405    0.359   38.013  152.620
  278.620    9.336    0.411    0.357   37.842  152.958
  278.870    9.276    0.420    0.356   37.971  153.081
  279.120    9.282    0.456    0.356   38.525  153.542
  279.370    9.287    0.451    0.355   38.292  153.576
  279.620    9.342    0.454    0.359   38.632  153.605
  279.870    9.381    0.453    0.364   38.653  153.638
  280.120    9.402    0.442    0.366   38.227  153.573
  280.370    9.546    0.423    0.357   38.263  153.124
  280.620    9.915    0.421    0.348   39.607  152.744
  280.870   10.280    0.403    0.328   38.616  152.371
  281.120   10.214    0.377    0.294   37.813  152.002
  281.370    9.967    0.341    0.267   37.582  151.833
  281.620    9.673    0.329    0.272   37.794  151.864
  281.870    9.286    0.414    0.345   37.816  152.073
  282.120    9.019    0.433    0.361   37.838  152.951
  282.370    8.770    0.425    0.359   38.622  153.385
  282.620    8.527    0.431    0.358   39.784  154.732
  282.870    8.352    0.444    0.356   41.707  155.169
  283.120    8.238    0.455    0.355   43.822  154.493
  283.370    8.114    0.451    0.353   44.663  154.220
  283.620    8.059    0.467    0.348   44.953  154.678
  283.870    8.064    0.463    0.350   44.717  154.709
  284.120    8.068    0.454    0.351   44.293  154.742
  284.370    8.073    0.444    0.355   44.188  154.777
  284.620    8.092    0.442    0.360   44.653  154.712
  284.870    8.156    0.460    0.358   46.170  154.259
  285.120    8.161    0.471    0.357   48.573  153.875
  285.370    8.165    0.472    0.356   47.324  154.315
  285.620    8.213    0.481    0.354   46.266  154.750
  285.870    8.247    0.483    0.355   45.653  154.985
  286.120    8.267    0.473    0.358   45.295  154.920
  286.370    8.345    0.460    0.360   44.509  154.555
  286.620    8.413    0.453    0.360   44.267  154.591
  286.870    8.358    0.456    0.359   43.527  154.225
  287.120    8.213    0.442    0.356   43.737  154.159
  287.370    7.808    0.430    0.352   43.758  154.191
  287.620    7.037    0.425    0.349   43.715  154.223
  287.870    5.816    0.426    0.347   45.855  154.264
  288.120    5.211    0.468    0.349   50.105  154.299
  288.370    4.994    0.552    0.360   48.100  154.337
  288.620    5.212    0.542    0.367   45.330  156.788
  288.870    5.506    0.485    0.363   45.223  159.037
  289.120    5.609    0.433    0.348   48.669  159.071
  289.370    5.351    0.452    0.330   54.343  155.487
  289.620    5.046    0.492    0.319   55.950  155.523
  289.870    4.464    0.510    0.305   56.731  155.956
  290.120    3.952    0.496    0.299   57.893  156.399
  290.370    3.664    0.498    0.299   59.438  156.838
  290.620    3.577    0.521    0.301   60.792  157.168
  290.870    3.636    0.525    0.310   60.499  157.205
  291.120    3.805    0.517    0.326   58.936  157.241
  291.370    4.145    0.499    0.340   55.149  157.681
  291.620    4.470    0.498    0.339   50.223  158.118
  291.870    4.868    0.500    0.337   45.044  158.354
  292.120    5.479    0.495    0.338   40.501  158.387
  292.370    6.808    0.478    0.346   36.370  158.424
  292.620    8.232    0.486    0.349   30.843  158.460
  292.870    9.348    0.477    0.357   29.849  157.695
  293.120   10.045    0.465    0.354   32.092  156.923
  293.370   10.384    0.471    0.351   34.017  155.945
  293.620   10.426    0.487    0.352   34.610  154.968
  293.870   10.048    0.463    0.357   35.612  154.528
  294.120    9.618    0.418    0.359   36.684  154.137
  294.370    9.283    0.403    0.341   42.287  154.573
  294.620    8.718    0.401    0.327   48.841  155.010
  294.870    8.122    0.401    0.312   54.317  155.850
  295.120    7.696    0.407    0.294   57.637  156.891
  295.370    7.724    0.435    0.281   58.044  157.338
  295.620    8.144    0.457    0.284   54.897  157.370
  295.870    8.625    0.438    0.291   52.128  157.403
  296.120    8.805    0.423    0.301   50.118  157.135
  296.370    8.809    0.406    0.288   49.886  156.164
  296.620    8.655    0.387    0.250   51.432  154.891
  296.870    8.166    0.378    0.209   54.477  154.610
  297.120    7.816    0.384    0.210   58.202  155.069
  297.370    7.654    0.425    0.237   61.267  156.307
  297.620    7.577    0.437    0.272   63.382  157.247
  297.870    7.555    0.428    0.293   65.558  157.887
  298.120    7.559    0.417    0.295   67.988  158.426
  298.370    7.576    0.431    0.289   69.516  159.354
  298.620    7.637    0.433    0.284   66.898  159.816
  298.870    7.641    0.441    0.283   64.126  160.249
  299.120    7.686    0.437    0.283   64.401  160.688
  299.370    7.690    0.433    0.280   65.311  160.921
  299.620    7.570    0.432    0.273   65.524  160.951
  299.870    7.113    0.430    0.264   65.051  160.995
  300.120    6.467    0.438    0.266   66.397  161.027
  300.370    6.109    0.464    0.271   69.465  160.658
  300.620    5.964    0.471    0.277   71.769  161.200
  300.870    6.009    0.476    0.281   72.677  161.637
  301.120    6.271    0.479    0.284   70.795  161.566
  301.370    7.053    0.457    0.298   62.753  161.040
  301.620    8.335    0.429    0.312   56.697  160.236
  301.870   10.479    0.337    0.344   53.675  159.461
  302.120   13.605    0.299    0.366   50.269  158.085
  302.370   16.444    0.283    0.383   45.471  156.508
  302.620   16.584    0.278    0.392   40.419  155.031
  302.870   13.683    0.295    0.388   38.416  153.949
  303.120   12.172    0.329    0.378   38.440  154.407
  303.370   11.169    0.345    0.363   38.457  154.840
  303.620   10.539    0.371    0.351   38.858  154.977
  303.870   10.031    0.395    0.344   40.149  154.811
  304.120    9.602    0.413    0.341   42.138  154.441
  304.370    9.353    0.423    0.337   43.779  154.076
  304.620    9.428    0.437    0.332   43.008  154.112
  304.870    9.915    0.435    0.330   39.734  153.746
  305.120   10.646    0.422    0.328   36.838  153.675
  305.370   11.600    0.398    0.324   36.099  153.706
  305.620   12.904    0.365    0.316   37.517  153.640
  305.870   15.305    0.330    0.280   40.004  153.365
  306.120   16.757    0.295    0.194   43.461  153.816
  306.370   15.601    0.195    0.135   48.301  156.270
  306.620   14.128    0.205    0.182   53.524  158.114
  306.870   12.552    0.285    0.270   54.307  157.947
  307.120   11.251    0.377    0.342   49.761  156.171
  307.370   10.434    0.408    0.354   42.725  154.921
