~VERSION INFORMATION
 VERS.                 2.0:   CWLS LOG ASCII STANDARD -VERSION 2.0
 WRAP.                  NO:   ONE LINE PER DEPTH STEP
~WELL INFORMATION BLOCK
#MNEM.UNIT           DATA                    DESCRIPTION OF MNEMONIC
#---------    -------------------            -------------------------------
# Generated from Intellog Unique Number	CW_70_72/WELL/1053
NULL.         -999.25                        : NULL_VALUE
WELL.         LAND BANK ET AL MITSUE 11-03-0 : Well_name    - WELL              
LOC .         11-03-072-03W5                 : Location     - LOCATION          
UWI .         00/11-03-072-03W5/0            : Uwi          - UNIQUE WELL ID    
ENTR.         JAYE                           : Entered      - ENTERED BY        
SRVC.         SCHLUMBERGER                   : Scn          - SERVICE COMPANY   
DATE.         13 FEB 79                      : Date         - LOG DATE          
STRT.M        395                            : top_depth    - START DEPTH       
STOP.M        602                            : bot_depth    - STOP DEPTH        
STEP.M        0.25                           : increment    - STEP LENGTH       
~CURVE INFORMATION BLOCK
#MNEM UNIT       ERCB CURVE CODE    CURVE DESCRIPTION
#-----------   ------------------   ----------------------------------
DEPT.M        00 001 00 00         : DEPTH        - DEPTH                       
DPHI.V/V      00 890 00 00         : PHID         - DENSITY POROSITY (SANDSTONE)
NPHI.V/V      00 330 00 00         : PHIN         - NEUTRON POROSITY (SANDSTONE)
GR  .API      00 310 00 00         : GR           - GAMMA RAY                   
CALI.MM       00 280 01 00         : CAL          - CALIPER                     
ILD .OHMM     00 120 00 00         : RESD         - DEEP RESISTIVITY (DIL)      
~PARAMETER INFORMATION       
#MNEM.UNIT           DATA             DESCRIPTION OF MNEMONIC
#---------         -----------     ------------------------------
GL  .M        594.1                : gl           - GROUND LEVEL ELEVATION      
EREF.M        596.8                : kb           - ELEVATION OF DEPTH REFERENCE
DATM.M        594.1                : datum        - DATUM ELEVATION             
TDD .M        616                  : tdd          - TOTAL DEPTH DRILLER         
RUN .         ONE                  : Run          - RUN NUMBER                  
ENG .         JONES                : Engineer     - RECORDING ENGINEER          
WIT .         LOWTHER              : Witness      - WITNESSED BY                
BASE.         EDM                  : Branch       - HOME BASE OF LOGGING UNIT   
MUD .         FRESH GEL            : Mud_type     - MUD TYPE                    
MATR.         SANDSTONE            : Logunit      - NEUTRON MATRIX              
TMAX.C        30                   : BHT          - MAXIMUM RECORDED TEMPERATURE
BHTD.M        617.3                : BHTDEP       - MAXIMUM RECORDED TEMPERATURE
RMT .C        12                   : MDTP         - TEMPERATURE OF MUD          
MUDD.KG/M     1190                 : MWT          - MUD DENSITY                 
NEUT.         1                    : NEUTRON      - NEUTRON TYPE                
RESI.         0                    : RESIST       - RESISTIVITY TYPE            
RM  .OHMM     2.42                 : RM           - RESISTIVITY OF MUD          
RMC .OHMM     0                    : RMC          - RESISTIVITY OF MUD CAKE     
RMF .OHMM     4.21                 : RMF          - RESISTIVITY OF MUD FILTRATE 
SUFT.C        0                    : SUFT         - SURFACE TEMPERATURE         
~A  DEPTH     PHID     PHIN       GR      CAL     RESD
# ...
  541.000    0.162    0.397   95.963  166.497    4.532
  541.250    0.166    0.385   97.293  164.905    4.117
  541.500    0.203    0.371  100.174  163.112    3.895
  541.750    0.212    0.377  106.821  162.143    3.693
  542.000    0.199    0.384  115.321  163.021    3.574
  542.250    0.191    0.390  117.764  165.041    3.465
  542.500    0.179    0.401  117.801  167.672    3.417
  542.750    0.177    0.415  117.276  169.480    3.412
  543.000    0.178    0.426  116.693  170.153    3.389
  543.250    0.179    0.423  115.556  169.799    3.417
  543.500    0.177    0.425  113.182  168.826    3.471
  543.750    0.174    0.424  110.868  167.239    3.681
  544.000    0.176    0.412  107.319  164.826    4.028
  544.250    0.205    0.391  101.234  162.620    4.551
  544.500    0.213    0.370   98.181  161.954    4.981
  544.750    0.191    0.348   96.919  162.939    5.203
  545.000    0.147    0.346  102.206  164.544    5.315
  545.250    0.145    0.359  103.044  166.662    5.319
  545.500    0.163    0.381   98.686  167.642    5.205
  545.750    0.165    0.396   97.859  167.288    4.817
  546.000    0.174    0.384   99.192  165.290    4.449
  546.250    0.176    0.372  102.195  164.009    3.966
  546.500    0.157    0.389  105.687  166.436    3.616
  546.750    0.152    0.383  108.751  169.792    3.158
  547.000    0.158    0.374  110.640  170.978    2.933
  547.250    0.175    0.377  110.797  171.440    2.797
  547.500    0.167    0.393  110.708  171.298    2.752
  547.750    0.151    0.405  111.239  171.467    2.749
  548.000    0.163    0.415  112.200  171.928    2.761
  548.250    0.166    0.425  112.854  172.295    2.805
  548.500    0.176    0.425  113.693  172.765    2.963
  548.750    0.184    0.424  115.209  173.037    3.237
  549.000    0.182    0.419  116.914  173.299    3.413
  549.250    0.196    0.407  111.014  173.455    3.532
  549.500    0.208    0.383  104.809  173.301    3.535
  549.750    0.214    0.370  107.378  173.467    3.408
  550.000    0.198    0.388  114.456  173.528    3.213
  550.250    0.179    0.416  119.621  173.688    3.075
  550.500    0.161    0.430  116.566  173.848    2.926
  550.750    0.166    0.440  112.831  174.119    2.874
  551.000    0.176    0.438  113.236  174.275    2.876
  551.250    0.187    0.422  114.816  174.235    2.911
  551.500    0.180    0.431  114.046  173.674    2.951
  551.750    0.173    0.440  111.611  173.315    2.987
  552.000    0.183    0.451  111.209  172.963    3.022
  552.250    0.186    0.441  109.642  172.609    3.128
  552.500    0.176    0.406  106.212  172.260    3.293
  552.750    0.183    0.393  104.149  172.112    3.413
  553.000    0.190    0.384  100.292  171.753    3.573
  553.250    0.196    0.380   96.680  171.606    3.697
  553.500    0.198    0.376   93.378  171.350    3.826
  553.750    0.207    0.373   89.641  170.900    4.196
  554.000    0.232    0.368   86.466  170.235    4.600
  554.250    0.277    0.352   79.764  169.263    4.906
  554.500    0.318    0.342   77.819  168.602    5.077
  554.750    0.311    0.343   77.792  167.833    5.176
  555.000    0.306    0.344   78.695  167.278    5.190
  555.250    0.314    0.343   79.903  166.716    5.194
  555.500    0.307    0.341   78.517  166.156    5.141
  555.750    0.299    0.340   75.647  165.802    5.086
  556.000    0.298    0.333   77.721  165.655    4.997
  556.250    0.302    0.343   79.671  165.392    4.990
  556.500    0.291    0.354   78.406  165.351    5.146
  556.750    0.277    0.343   75.600  165.211    5.923
  557.000    0.255    0.298   71.991  165.054    6.754
  557.250    0.234    0.250   67.513  165.223    8.160
  557.500    0.179    0.184   62.852  165.382    9.640
  557.750    0.035    0.146   58.068  166.262   10.993
  558.000    0.044    0.161   58.100  166.838   11.483
  558.250    0.056    0.193   61.594  167.105    8.575
  558.500    0.091    0.278   65.458  167.469    7.068
  558.750    0.141    0.314   68.032  167.528    5.603
  559.000    0.198    0.366   71.959  167.788    4.688
  559.250    0.264    0.393   75.269  167.849    4.109
  559.500    0.271    0.405   78.209  167.906    3.761
  559.750    0.260    0.401   80.096  167.958    3.592
  560.000    0.269    0.394   81.368  168.126    3.528
  560.250    0.259    0.392   82.266  168.596    3.499
  560.500    0.253    0.391   83.353  168.965    3.521
  560.750    0.258    0.389   83.942  169.022    3.536
  561.000    0.253    0.391   83.914  169.184    3.546
  561.250    0.247    0.399   83.704  169.139    3.582
  561.500    0.254    0.409   83.864  169.299    3.612
  561.750    0.265    0.416   84.513  169.251    3.669
  562.000    0.269    0.411   85.107  169.407    3.720
  562.250    0.278    0.400   84.894  169.365    3.786
  562.500    0.278    0.400   83.880  169.327    3.816
  562.750    0.267    0.406   81.442  169.279    3.855
  563.000    0.257    0.412   77.460  169.437    3.873
  563.250    0.256    0.417   78.114  169.799    3.890
  563.500    0.259    0.416   80.000  169.965    3.900
  563.750    0.265    0.400   80.902  170.236    3.910
  564.000    0.258    0.400   77.413  170.702    3.929
  564.250    0.255    0.401   77.817  171.173    3.953
  564.500    0.260    0.393   78.904  171.541    3.971
  564.750    0.246    0.385   80.175  171.493    3.989
  565.000    0.254    0.388   82.311  171.450    3.991
  565.250    0.256    0.399   85.127  171.407    3.986
  565.500    0.250    0.400   86.891  171.360    3.975
  565.750    0.244    0.400   84.455  171.316    3.978
  566.000    0.242    0.403   80.041  171.473    3.974
  566.250    0.248    0.403   82.484  171.434    3.962
  566.500    0.236    0.396   85.486  171.904    3.950
  566.750    0.229    0.388   88.364  171.343    3.946
  567.000    0.227    0.379   86.911  171.292    3.956
  567.250    0.223    0.377   85.466  171.356    3.922
  567.500    0.214    0.384   82.718  171.413    3.867
  567.750    0.202    0.380   80.841  171.464    3.957
  568.000    0.168    0.327   76.611  171.219    4.157
  568.250    0.078    0.225   68.490  171.177    4.893
  568.500    0.044    0.197   63.457  170.822    6.228
  568.750    0.061    0.233   62.689  170.569    7.155
  569.000    0.105    0.272   70.448  170.210    6.784
  569.250    0.142    0.327   81.482  169.967    6.313
  569.500    0.178    0.370   86.708  169.914    5.493
  569.750    0.218    0.392   88.035  169.877    4.613
  570.000    0.217    0.391   88.198  169.622    4.182
  570.250    0.210    0.377   89.036  169.474    3.980
  570.500    0.214    0.388   92.470  169.325    3.895
  570.750    0.229    0.394   95.655  169.279    3.920
  571.000    0.228    0.390   92.848  169.239    3.967
  571.250    0.219    0.383   90.163  169.283    4.022
  571.500    0.200    0.364   89.952  169.247    4.147
  571.750    0.177    0.356   91.779  169.203    4.268
  572.000    0.160    0.348   94.162  168.956    4.467
  572.250    0.145    0.338   96.482  168.597    4.692
  572.500    0.151    0.322   96.579  168.649    4.984
  572.750    0.139    0.314   95.686  168.922    5.404
  573.000    0.125    0.309   97.698  169.189    5.773
  573.250    0.117    0.317  103.295  169.452    5.909
  573.500    0.141    0.331  108.892  169.815    5.760
  573.750    0.165    0.343  117.082  170.182    5.451
  574.000    0.148    0.334  114.710  170.553    5.275
  574.250    0.128    0.318  108.935  170.814    5.309
  574.500    0.114    0.301  106.992  171.083    5.474
  574.750    0.107    0.291  106.283  171.135    5.750
  575.000    0.100    0.300  104.464  171.297    6.074
  575.250    0.090    0.306  102.895  171.356    6.574
  575.500    0.111    0.312  101.568  171.312    6.971
  575.750    0.138    0.329  100.617  171.157    7.281
  576.000    0.163    0.344   99.725  170.812    7.507
  576.250    0.178    0.361   99.449  170.552    7.571
  576.500    0.189    0.384  100.968  170.513    7.491
  576.750    0.147    0.371  105.946  170.660    7.142
  577.000    0.109    0.357  111.110  170.719    6.203
  577.250    0.112    0.352  110.833  170.880    5.427
