~VERSION INFORMATION
 VERS.                 2.0:   CWLS LOG ASCII STANDARD -VERSION 2.0
 WRAP.                  NO:   ONE LINE PER DEPTH STEP
~WELL INFORMATION BLOCK
#MNEM.UNIT           DATA                    DESCRIPTION OF MNEMONIC
#---------    -------------------            -------------------------------
# Generated from Intellog Unique Number	CS_71_72/WELL/3247
WELL.         GEOG WANDER                    : Well_name    - WELL
LOC .         00/11-18-071-13W4/0            : Location     - LOCATION
UWI .         00/11-18-071-13W4/0            : Uwi          - UNIQUE WELL ID
ENTR.         T                              : Entered      - ENTERED BY
SRVC.         SCHLUMBERGER                   : Scn          - SERVICE COMPANY
DATE.         01/30/92                       : Date         - LOG DATE
STRT.M        329.184                        : top_depth    - START DEPTH
STOP.M        545.684                        : bot_depth    - STOP DEPTH
STEP.M        0.25                           : increment    - STEP LENGTH
 NULL. -999.2500:NULL Value
~CURVE INFORMATION BLOCK
#MNEM UNIT       ERCB CURVE CODE    CURVE DESCRIPTION
#-----------   ------------------   ----------------------------------
DEPT.M        00 001 00 00         : DEPTH        - DEPTH
GR  .API      00 310 00 00         : GR           - GAMMA RAY
NPHI.V/V      00 330 00 00         : PHIN         - NEUTRON POROSITY (SANDSTONE)
ILD .OHMM     00 120 00 00         : RESD         - DEEP RESISTIVITY (DIL)
~PARAMETER INFORMATION
#MNEM.UNIT           DATA             DESCRIPTION OF MNEMONIC
#---------         -----------     ------------------------------
GL  .M        644.957              : gl           - GROUND LEVEL ELEVATION
EREF.M        648.005              : kb           - ELEVATION OF DEPTH REFERENCE
DATM.M        648.005              : datum        - DATUM ELEVATION
TDD .M        546.811              : tdd          - TOTAL DEPTH DRILLER
RUN .         ONE                  : Run          - RUN NUMBER
ENG .         BILL                 : Engineer     - RECORDING ENGINEER
WIT .         JIM                  : Witness      - WITNESSED BY
MUD .         GEL                  : Mud_type     - MUD TYPE
MATR.         SANDSTONE            : Logunit      - NEUTRON MATRIX
TMAX.C        26.6667              : BHT          - MAXIMUM RECORDED TEMPERATURE
BHTD.M        546.202              : BHTDEP       - MAXIMUM RECORDED TEMPERATURE
RMT .C        17.7778              : MDTP         - TEMPERATURE OF MUD
MUDD.KG/M     10000                : MWT          - MUD DENSITY
NEUT.         1                    : NEUTRON      - NEUTRON TYPE
RESI.         0                    : RESIST       - RESISTIVITY TYPE
RM  .OHMM     5                    : RM           - RESISTIVITY OF MUD
RMC .OHMM     4.1                  : RMC          - RESISTIVITY OF MUD CAKE
RMF .OHMM     3.5                  : RMF          - RESISTIVITY OF MUD FILTRATE
SUFT.C        4                    : SUFT         - SURFACE TEMPERATURE
~A  DEPTH       GR     PHIN     RESD
# ...
  437.684   86.845    0.394    4.103
  437.934   86.291    0.352    4.026
  438.184   88.099    0.381    3.800
  438.434   89.900    0.400    3.802
  438.684   91.701    0.431    3.879
  438.934   91.737    0.427    4.036
  439.184   91.759    0.424    4.366
  439.434   91.190    0.430    4.724
  439.684   91.234    0.442    4.636
  439.934   91.256    0.442    4.548
  440.184   92.473    0.442    4.293
  440.434   94.281    0.449    3.974
  440.684   94.887    0.461    3.899
  440.934   96.097    0.464    3.680
  441.184   96.717    0.456    3.611
  441.434   97.336    0.436    3.612
  441.684   96.782    0.425    3.686
  441.934   95.630    0.425    3.912
  442.184   94.485    0.426    4.069
  442.434   92.742    0.428    4.233
  442.684   92.174    0.430    4.404
  442.934   91.029    0.431    4.494
  443.184   90.467    0.434    4.324
  443.434   91.080    0.436    3.926
  443.684   92.290    0.439    3.633
  443.934   94.105    0.444    2.991
  444.184   95.308    0.448    2.511
  444.434   97.707    0.460    1.989
  444.684   98.320    0.485    1.575
  444.934   99.530    0.537    1.247
  445.184   99.559    0.585    1.154
  445.434   99.012    0.586    1.224
  445.684   98.436    0.580    1.460
  445.934   97.889    0.567    1.810
  446.184   98.509    0.496    2.290
  446.434   99.129    0.427    2.784
  446.684   97.976    0.420    3.320
  446.934   96.817    0.420    3.523
  447.184   96.846    0.419    3.525
  447.434   97.473    0.419    3.597
  447.684   98.085    0.417    3.600
  447.934   99.310    0.415    3.601
  448.184   98.742    0.412    3.674
  448.434   97.589    0.405    3.823
  448.684   94.673    0.391    4.300
  448.934   91.756    0.383    5.029
  449.184   90.006    0.371    7.010
  449.434   87.082    0.347    8.864
  449.684   83.560    0.304   11.209
  449.934   78.274    0.191   12.854
  450.184   73.578    0.165    9.789
  450.434   71.842    0.151    6.896
  450.684   73.053    0.168    4.672
  450.934   73.665    0.247    4.240
  451.184   76.654    0.347    3.849
  451.434   79.644    0.419    3.361
  451.684   80.271    0.429    3.051
  451.934   79.695    0.417    2.935
  452.184   77.362    0.414    2.825
  452.434   69.713    0.411    2.826
  452.684   65.017    0.401    2.884
  452.934   65.046    0.391    3.060
  453.184   65.680    0.394    3.245
  453.434   66.285    0.398    3.872
  453.684   65.738    0.399    4.270
  453.934   65.169    0.402    6.561
  454.184   62.253    0.401    7.526
  454.434   61.093    0.392    9.894
  454.684   56.995    0.380   12.758
  454.934   54.662    0.354   13.535
  455.184   52.919    0.281    9.350
  455.434   52.358    0.227    8.487
  455.684   55.340    0.148    5.864
  455.934   56.543    0.167    4.922
  456.184   60.714    0.265    4.132
  456.434   65.468    0.340    3.402
  456.684   69.040    0.401    3.029
  456.934   70.856    0.416    2.803
  457.184   72.059    0.422    2.860
  457.434   73.269    0.427    2.862
  457.684   74.480    0.429    2.864
  457.934   76.295    0.435    2.865
  458.184   77.498    0.441    2.867
  458.434   79.897    0.443    2.869
  458.684   81.691    0.431    2.871
  458.934   83.492    0.430    2.873
  459.184   86.481    0.439    2.875
  459.434   87.684    0.446    2.821
  459.684   89.485    0.455    2.768
  459.934   89.514    0.462    2.716
  460.184   88.362    0.465    2.614
  460.434   87.808    0.458    2.616
  460.684   87.829    0.449    2.617
  460.934   87.880    0.439    2.619
  461.184   87.319    0.434    2.672
  461.434   87.334    0.434    2.835
  461.684   86.772    0.434    2.949
  461.934   86.210    0.434    3.129
  462.184   85.656    0.434    3.320
  462.434   85.095    0.434    3.387
  462.684   85.124    0.433    3.524
  462.934   85.736    0.433    3.596
  463.184   86.363    0.437    3.598
  463.434   87.573    0.438    3.600
  463.684   89.374    0.440    3.603
  463.934   92.364    0.451    3.401
  464.184   94.157    0.460    3.337
  464.434   96.549    0.473    3.211
  464.684   97.774    0.484    3.031
  464.934   97.796    0.492    2.916
  465.184   98.423    0.502    2.861
  465.434   99.057    0.508    2.701
  465.684   99.662    0.515    2.600
  465.934   99.684    0.518    2.550
  466.184   99.713    0.521    2.503
  466.434   97.970    0.523    2.456
  466.684   96.242    0.524    2.363
  466.934   95.673    0.534    2.319
  467.184   94.528    0.538    2.276
  467.434   94.550    0.537    2.233
  467.684   95.184    0.535    2.108
  467.934   95.804    0.537    2.069
  468.184   95.819    0.536    2.030
  468.434   95.855    0.540    2.031
  468.684   95.286    0.540    2.197
  468.934   92.968    0.527    2.471
  469.184   92.399    0.512    2.890
  469.434   91.254    0.436    3.875
  469.684   90.109    0.401    4.621
  469.934   89.533    0.375    4.809
  470.184   87.797    0.351    4.627
  470.434   87.243    0.317    4.119
  470.684   87.265    0.266    3.963
  470.934   86.696    0.261    3.597
  471.184   86.733    0.272    3.142
  471.434   86.762    0.315    3.022
  471.684   87.381    0.423    2.909
  471.934   88.592    0.433    2.854
  472.184   89.802    0.426    2.856
  472.434   91.020    0.416    2.857
  472.684   91.041    0.408    2.915
  472.934   90.494    0.413    3.154
  473.184   90.516    0.419    3.412
  473.434   90.545    0.421    3.620
  473.684   91.770    0.421    3.766
  473.934   91.785    0.417    3.843
  474.184   92.404    0.414    3.921
  474.434   92.448    0.411    3.923
  474.684   91.879    0.409    3.926
  474.934   91.908    0.406    3.929
  475.184   91.354    0.404    3.931
  475.434   91.974    0.404    3.858
  475.684   92.586    0.404    3.860
  475.934   94.978    0.402    3.862
  476.184   96.779    0.391    3.864
  476.434   97.406    0.396    3.792
  476.684   97.427    0.405    3.794
  476.934   97.471    0.429    3.797
  477.184   96.910    0.433    3.726
  477.434   96.939    0.434    3.656
  477.684   96.975    0.424    3.519
  477.934   95.218    0.415    3.387
  478.184   91.703    0.405    3.323
  478.434   88.779    0.394    3.326
  478.684   85.862    0.378    3.263
  478.934   84.710    0.336    3.265
  479.184   83.558    0.305    3.268
  479.434   83.587    0.281    3.269
  479.684   83.616    0.274    3.336
  479.934   84.243    0.306    3.404
  480.184   84.856    0.339    3.472
  480.434   86.664    0.358    3.408
  480.684   89.056    0.382    3.410
  480.934   90.856    0.395    3.281
  481.184   93.831    0.401    3.097
  481.434   95.640    0.415    2.811
  481.684   96.857    0.430    2.502
  481.934   97.477    0.439    2.184
  482.184   97.499    0.457    1.834
  482.434   97.535    0.507    1.664
  482.684   97.557    0.534    1.540
  482.934   97.601    0.544    1.454
  483.184   97.622    0.535    1.512
  483.434   97.075    0.527    1.769
  483.684   96.499    0.511    2.110
  483.934   95.938    0.461    2.327
  484.184   95.376    0.426    2.886
  484.434   94.815    0.413    3.246
  484.684   92.481    0.414    3.312
  484.934   90.155    0.418    3.314
  485.184   88.412    0.414    3.317
  485.434   87.851    0.406    3.451
  485.684   87.880    0.400    3.521
  485.934   88.500    0.401    3.663
  486.184   89.717    0.403    3.811
  486.434   90.344    0.404    3.965
  486.684   90.366    0.404    4.459
  486.934   88.624    0.398    5.865
  487.184   83.330    0.383    6.595
  487.434   75.681    0.353    7.136
  487.684   72.174    0.234    6.734
  487.934   76.330    0.177    6.355
  488.184   88.769    0.237    5.768
  488.434   92.342    0.383    5.035
  488.684   92.969    0.384    4.310
  488.934   93.581    0.392    3.620
  489.184   94.208    0.404    3.222
  489.434   96.016    0.415    2.925
  489.684   98.998    0.427    2.814
  489.934  101.390    0.427    2.605
  490.184  102.010    0.421    2.411
  490.434  102.039    0.418    2.365
  490.684  101.470    0.418    2.321
  490.934  100.318    0.421    2.278
  491.184   99.166    0.427    2.235
  491.434  100.376    0.440    2.237
  491.684  102.782    0.438    2.195
