~VERSION INFORMATION
 VERS.                 2.0:   CWLS LOG ASCII STANDARD -VERSION 2.0
 WRAP.                  NO:   ONE LINE PER DEPTH STEP
~WELL INFORMATION BLOCK
#MNEM.UNIT           DATA                    DESCRIPTION OF MNEMONIC
#---------    -------------------            -------------------------------
# Generated from Intellog Unique Number	CW_73_75/WELL/2744
WELL.         ALLIED ET AL CALLING 11-08     : Well_name    - WELL
LOC .         00/11-08-073-20W4/0            : Location     - LOCATION
UWI .         00/11-08-073-20W4/0            : Uwi          - UNIQUE WELL ID
ENTR.         JAYE                           : Entered      - ENTERED BY
SRVC.         SCHLUMBERGER                   : Scn          - SERVICE COMPANY
DATE.         20 JAN 77                      : Date         - LOG DATE
STRT.M        396.24                         : top_depth    - START DEPTH
STOP.M        624.74                         : bot_depth    - STOP DEPTH
STEP.M        0.25                           : increment    - STEP LENGTH
 NULL. -999.2500:NULL Value
~CURVE INFORMATION BLOCK
#MNEM UNIT       ERCB CURVE CODE    CURVE DESCRIPTION
#-----------   ------------------   ----------------------------------
DEPT.M        00 001 00 00         : DEPTH        - DEPTH
ILD .OHMM     00 120 00 00         : RESD         - DEEP RESISTIVITY (DIL)
NPHI.V/V      00 330 00 00         : PHIN         - NEUTRON POROSITY (SANDSTONE)
DPHI.V/V      00 890 00 00         : PHID         - DENSITY POROSITY (SANDSTONE)
GR  .API      00 310 00 00         : GR           - GAMMA RAY
CALI.MM       00 280 01 00         : CAL          - CALIPER
~PARAMETER INFORMATION
#MNEM.UNIT           DATA             DESCRIPTION OF MNEMONIC
#---------         -----------     ------------------------------
GL  .M        687.019              : gl           - GROUND LEVEL ELEVATION
EREF.M        690.22               : kb           - ELEVATION OF DEPTH REFERENCE
DATM.M        687.019              : datum        - DATUM ELEVATION
TDD .M        631.241              : tdd          - TOTAL DEPTH DRILLER
RUN .         ONE                  : Run          - RUN NUMBER
BASE.         EDM                  : Branch       - HOME BASE OF LOGGING UNIT
MATR.         SANDSTONE            : Logunit      - NEUTRON MATRIX
TMAX.C        21.1111              : BHT          - MAXIMUM RECORDED TEMPERATURE
BHTD.M        628.802              : BHTDEP       - MAXIMUM RECORDED TEMPERATURE
RMT .C        21.1111              : MDTP         - TEMPERATURE OF MUD
MUDD.KG/M     1176                 : MWT          - MUD DENSITY
NEUT.         1                    : NEUTRON      - NEUTRON TYPE
RESI.         0                    : RESIST       - RESISTIVITY TYPE
RM  .OHMM     2.8                  : RM           - RESISTIVITY OF MUD
RMC .OHMM     3.83                 : RMC          - RESISTIVITY OF MUD CAKE
RMF .OHMM     2.77                 : RMF          - RESISTIVITY OF MUD FILTRATE
SUFT.C        -17.7778             : SUFT         - SURFACE TEMPERATURE
~A  DEPTH     RESD     PHIN     PHID       GR      CAL
# ...
  542.240    7.007    0.384    0.177  104.586  168.058
  542.490    7.013    0.383    0.177  102.863  168.162
  542.740    7.019    0.389    0.183  101.207  168.242
  542.990    7.026    0.378    0.186  102.422  168.355
  543.240    6.992    0.367    0.172  105.897  168.331
  543.490    6.958    0.362    0.181  103.384  168.208
  543.740    6.964    0.365    0.160  102.284  168.099
  543.990    6.970    0.369    0.150  105.204  167.991
  544.240    6.976    0.357    0.141  102.327  167.880
  544.490    6.982    0.354    0.114  105.010  167.761
  544.740    6.990    0.370    0.115  110.505  167.850
  544.990    6.995    0.386    0.162  107.018  167.740
  545.240    7.081    0.386    0.156  107.010  167.817
  545.490    7.126    0.377    0.165  107.306  167.726
  545.740    7.172    0.372    0.152  106.201  167.810
  545.990    7.537    0.373    0.131  105.584  167.822
  546.240    8.181    0.394    0.110  105.205  167.890
  546.490    8.386    0.388    0.101  103.676  167.972
  546.740    8.591    0.367    0.122  100.056  167.950
  546.990    8.756    0.333    0.094   91.431  168.061
  547.240    8.962    0.295    0.072   85.066  168.064
  547.490    9.525    0.280    0.127   93.250  168.027
  547.740   11.761    0.350    0.157   87.376  167.825
  547.990   13.081    0.312    0.120   79.176  167.893
  548.240   11.455    0.248    0.056   72.016  167.577
  548.490    9.232    0.211    0.040   75.986  166.644
  548.740    8.761    0.239    0.066   82.582  165.900
  548.990    8.965    0.303    0.099   88.748  165.363
  549.240   10.842    0.333    0.122   91.004  165.045
  549.490   12.163    0.341    0.131   91.366  165.372
  549.740   13.841    0.326    0.113   87.873  165.877
  549.990   15.400    0.278    0.072   71.908  166.363
  550.240   15.964    0.213    0.039   71.475  166.865
  550.490   11.590    0.283    0.045   83.939  167.607
  550.740    8.093    0.350    0.081   99.034  168.219
  550.990    7.183    0.375    0.131  107.894  168.519
  551.240    7.109    0.379    0.189  104.643  168.785
  551.490    7.076    0.379    0.175  101.644  168.889
  551.740    7.122    0.401    0.172  101.213  168.994
  551.990    7.208    0.388    0.187  101.327  168.965
  552.240    7.214    0.390    0.169  101.928  169.173
  552.490    7.181    0.380    0.156  103.511  169.045
  552.740    7.188    0.362    0.170  104.910  168.952
  552.990    7.233    0.380    0.164  104.538  169.031
  553.240    7.319    0.372    0.149  102.760  169.131
  553.490    7.325    0.324    0.124   97.308  169.334
  553.740    7.331    0.289    0.113   97.125  169.301
  553.990    7.298    0.322    0.138  100.235  169.077
  554.240    7.145    0.356    0.163  102.853  169.073
  554.490    7.031    0.362    0.146  105.535  169.184
  554.740    7.037    0.375    0.141  107.241  169.388
  554.990    7.123    0.346    0.132  104.790  169.444
  555.240    7.050    0.326    0.132  107.412  169.547
  555.490    6.937    0.334    0.163  109.424  169.847
  555.740    6.822    0.352    0.180  110.639  170.036
  555.990    6.551    0.361    0.172  109.052  170.134
  556.240    6.318    0.353    0.164  106.654  170.220
  556.490    6.324    0.363    0.165  102.730  170.005
  556.740    6.449    0.385    0.151   96.795  170.093
  556.990    6.656    0.368    0.122   92.202  169.772
  557.240    6.701    0.343    0.091   95.251  169.442
  557.490    6.628    0.367    0.113  100.572  168.728
  557.740    6.197    0.362    0.153  104.290  168.191
  557.990    5.765    0.336    0.182  104.710  167.969
  558.240    5.611    0.325    0.180  104.884  167.740
  558.490    5.497    0.345    0.162  106.348  167.651
  558.740    5.185    0.365    0.158  104.383  167.620
  558.990    3.997    0.354    0.188  105.051  167.414
  559.240    3.008    0.469    0.173  110.239  167.294
  559.490    2.735    0.498    0.196  109.807  167.377
  559.740    2.622    0.466    0.219  105.885  167.893
  559.990    2.629    0.453    0.225  109.669  169.024
  560.240    2.755    0.514    0.220  110.274  169.935
  560.490    2.958    0.546    0.210  108.370  171.893
  560.740    3.920    0.541    0.193  104.267  175.185
  560.990    5.400    0.507    0.162   97.721  171.881
  561.240    5.964    0.411    0.120   92.333  169.468
  561.490    5.930    0.296    0.050   97.218  168.230
  561.740    5.617    0.333    0.101  100.330  168.230
  561.990    5.346    0.369    0.139  103.627  168.211
  562.240    5.113    0.363    0.124  108.936  168.200
  562.490    5.080    0.386    0.179  112.292  168.307
  562.740    5.285    0.404    0.167  107.397  168.265
  562.990    5.649    0.364    0.158   99.927  168.374
  563.240    6.690    0.291    0.099   95.396  168.653
  563.490    7.175    0.285    0.122   97.593  168.760
  563.740    6.822    0.326    0.126   97.278  168.752
  563.990    6.270    0.367    0.143   93.483  169.054
  564.240    5.720    0.372    0.140   95.187  169.145
  564.490    5.447    0.338    0.104   90.656  169.541
  564.740    5.294    0.351    0.074   92.544  169.857
  564.990    5.143    0.373    0.163  100.733  170.051
  565.240    5.107    0.387    0.177  106.778  170.020
  565.490    5.074    0.374    0.168  105.735  170.118
  565.740    5.040    0.368    0.150  105.727  170.002
  565.990    5.047    0.373    0.183  107.614  169.780
  566.240    5.093    0.368    0.170  106.751  169.452
  566.490    5.139    0.357    0.156  109.617  169.161
  566.740    5.224    0.383    0.148  111.631  168.914
  566.990    5.232    0.404    0.150  111.377  168.818
  567.240    5.237    0.387    0.150  109.176  168.679
  567.490    5.164    0.414    0.133  107.695  168.054
  567.740    5.130    0.402    0.084  100.718  167.857
  567.990    5.056    0.371    0.053   99.184  167.428
  568.240    4.864    0.381    0.118  104.678  167.296
  568.490    4.789    0.383    0.147  106.266  166.975
  568.740    4.757    0.368    0.143  108.274  166.859
  568.990    4.722    0.405    0.136  109.733  166.876
  569.240    4.649    0.416    0.159  111.195  167.043
  569.490    4.655    0.412    0.189  112.779  167.343
  569.740    4.623    0.427    0.159  112.404  167.850
  569.990    4.628    0.417    0.156  110.868  168.161
  570.240    4.634    0.392    0.174  108.172  168.351
  570.490    4.680    0.369    0.187  106.639  168.552
  570.740    4.766    0.377    0.155  105.345  168.627
  570.990    4.932    0.355    0.123  106.013  168.745
  571.240    5.097    0.339    0.090  109.616  168.810
  571.490    5.224    0.387    0.139  113.824  168.805
  571.740    5.190    0.413    0.165  118.708  168.274
  571.990    5.116    0.394    0.144  114.364  168.057
  572.240    5.003    0.368    0.124  109.279  167.223
  572.490    4.929    0.354    0.091  115.753  166.785
  572.740    4.855    0.415    0.149  124.065  166.064
  572.990    4.782    0.469    0.151  118.736  165.748
  573.240    4.589    0.461    0.156  106.931  165.631
  573.490    4.516    0.442    0.147   98.302  165.418
  573.740    4.563    0.416    0.134  104.410  165.599
  573.990    4.807    0.389    0.120  106.665  165.690
  574.240    5.291    0.354    0.111  101.955  165.776
  574.490    5.814    0.323    0.138   97.421  165.876
  574.740    6.418    0.296    0.110   89.525  165.886
  574.990    6.901    0.342    0.120   85.978  165.956
  575.240    7.347    0.351    0.157   87.801  165.730
  575.490    7.591    0.316    0.178   93.423  165.740
  575.740    7.797    0.365    0.173   90.607  165.819
  575.990    7.922    0.357    0.146   83.321  165.620
  576.240    8.048    0.354    0.132   76.832  165.593
  576.490    8.253    0.324    0.146   69.916  165.493
  576.740    8.418    0.282    0.158   59.394  165.350
  576.990    8.624    0.261    0.141   59.025  165.382
  577.240    8.830    0.251    0.148   58.280  165.452
  577.490    9.074    0.246    0.141   60.355  165.329
  577.740    9.359    0.242    0.142   68.116  165.537
  577.990    9.724    0.266    0.135   74.404  165.525
  578.240   10.009    0.277    0.125   79.467  165.509
  578.490   10.055    0.281    0.156   84.659  165.384
