~VERSION INFORMATION
 VERS.                 2.0:   CWLS LOG ASCII STANDARD -VERSION 2.0
 WRAP.                  NO:   ONE LINE PER DEPTH STEP
~WELL INFORMATION BLOCK
#MNEM.UNIT           DATA                    DESCRIPTION OF MNEMONIC
#---------    -------------------            -------------------------------
# Generated from Intellog Unique Number	CW_82_90/WELL/994
WELL.         11-14-084-24W4                 : Well_name    - WELL
LOC .         00/11-14-084-24W4/0            : Location     - LOCATION
UWI .         00/11-14-084-24W4/0            : Uwi          - UNIQUE WELL ID
ENTR.         JAYE                           : Entered      - ENTERED BY
SRVC.         SCHLUMBERGER                   : Scn          - SERVICE COMPANY
DATE.         3 FEB 76                       : Date         - LOG DATE
STRT.M        182.88                         : top_depth    - START DEPTH
STOP.M        390.13                         : bot_depth    - STOP DEPTH
STEP.M        0.25                           : increment    - STEP LENGTH
 NULL. -999.2500:NULL Value
~CURVE INFORMATION BLOCK
#MNEM UNIT       ERCB CURVE CODE    CURVE DESCRIPTION
#-----------   ------------------   ----------------------------------
DEPT.M        00 001 00 00         : DEPTH        - DEPTH
CALI.MM       00 280 01 00         : CAL          - CALIPER
GR  .API      00 310 00 00         : GR           - GAMMA RAY
NPHI.V/V      00 330 00 00         : PHIN         - NEUTRON POROSITY (SANDSTONE)
DPHI.V/V      00 890 00 00         : PHID         - DENSITY POROSITY (SANDSTONE)
ILD .OHMM     00 120 00 00         : RESD         - DEEP RESISTIVITY (DIL)
~PARAMETER INFORMATION
#MNEM.UNIT           DATA             DESCRIPTION OF MNEMONIC
#---------         -----------     ------------------------------
GL  .M        562.356              : gl           - GROUND LEVEL ELEVATION
EREF.M        565.099              : kb           - ELEVATION OF DEPTH REFERENCE
DATM.M        562.356              : datum        - DATUM ELEVATION
TDD .M        399.288              : tdd          - TOTAL DEPTH DRILLER
RUN .         ONE                  : Run          - RUN NUMBER
MATR.         SANDSTONE            : Logunit      - NEUTRON MATRIX
TMAX.C        17.2222              : BHT          - MAXIMUM RECORDED TEMPERATURE
BHTD.M        399.288              : BHTDEP       - MAXIMUM RECORDED TEMPERATURE
RMT .C        7.22222              : MDTP         - TEMPERATURE OF MUD
MUDD.KG/M     0                    : MWT          - MUD DENSITY
NEUT.         1                    : NEUTRON      - NEUTRON TYPE
RESI.         0                    : RESIST       - RESISTIVITY TYPE
RM  .OHMM     6.7                  : RM           - RESISTIVITY OF MUD
RMC .OHMM     0                    : RMC          - RESISTIVITY OF MUD CAKE
RMF .OHMM     0                    : RMF          - RESISTIVITY OF MUD FILTRATE
SUFT.C        -17.7778             : SUFT         - SURFACE TEMPERATURE
~A  DEPTH      CAL       GR     PHIN     PHID     RESD
# ...
  255.880  208.020   69.721    0.431    0.290   10.377
  256.130  208.246   71.692    0.429    0.245    9.533
  256.380  208.886   70.416    0.414    0.228    9.091
  256.630  209.212   68.464    0.413    0.226    8.949
  256.880  209.540   70.435    0.436    0.228    9.195
  257.130  209.557   70.873    0.449    0.237    9.808
  257.380  209.573   68.371    0.450    0.250   10.901
  257.630  208.967   62.622    0.447    0.245   13.254
  257.880  208.364   60.855    0.433    0.243   14.870
  258.130  207.444   59.455    0.410    0.238   14.315
  258.380  206.528   59.281    0.374    0.203   12.736
  258.630  206.235   63.702    0.331    0.129   10.598
  258.880  206.146   68.615    0.345    0.095    8.816
  259.130  205.645   73.159    0.383    0.133    7.474
  259.380  205.661   76.845    0.418    0.218    6.996
  259.630  206.302   76.181    0.440    0.238    6.510
  259.880  206.942   78.273    0.447    0.258    5.902
  260.130  206.954   82.327    0.449    0.246    5.342
  260.380  207.075   84.666    0.448    0.220    4.596
  260.630  207.507   85.410    0.443    0.187    4.524
  260.880  207.941   85.666    0.443    0.175    4.495
  261.130  208.062   85.676    0.460    0.183    5.024
  261.380  208.077   85.012    0.475    0.204    6.121
  261.630  208.716   81.958    0.494    0.227    6.665
  261.880  209.044   78.598    0.480    0.237    7.083
  262.130  209.266   74.992    0.468    0.234    7.669
  262.380  209.283   70.467    0.454    0.226    7.622
  262.630  209.821   67.903    0.436    0.228    7.307
  262.880  210.253   69.445    0.430    0.270    6.217
  263.130  209.956   73.929    0.431    0.280    5.231
  263.380  210.286   77.861    0.424    0.277    4.887
  263.630  210.405   79.466    0.441    0.266    4.956
  263.880  210.007   79.106    0.475    0.245    5.762
  264.130  209.296   73.845    0.507    0.238    7.044
  264.380  208.794   63.684    0.494    0.236    8.694
  264.630  208.291   58.976    0.482    0.234    9.627
  264.880  207.898   57.148    0.456    0.228   10.485
  265.130  207.599   57.464    0.434    0.268   10.876
  265.380  208.030   59.496    0.426    0.272   11.008
  265.630  207.839   59.384    0.432    0.269   11.083
  265.880  207.547   58.535    0.426    0.268   11.095
  266.130  207.563   57.933    0.421    0.273   11.045
  266.380  207.786   58.064    0.414    0.280   10.972
  266.630  207.908   58.931    0.417    0.284   10.642
  266.880  207.719   61.269    0.422    0.273    9.885
  267.130  207.734   61.157    0.430    0.272    8.147
  267.380  207.546   62.578    0.425    0.256    6.741
  267.630  207.249   64.056    0.418    0.244    5.598
  267.880  206.951   68.846    0.422    0.228    5.066
  268.130  207.799   72.656    0.435    0.181    4.823
  268.380  208.336   75.976    0.452    0.198    4.773
  268.630  209.079   79.415    0.464    0.196    4.823
  268.880  210.338   83.100    0.475    0.203    4.919
  269.130  212.748   82.621    0.475    0.212    5.121
  269.380  213.485   79.628    0.457    0.216    5.363
  269.630  213.709   80.496    0.431    0.210    5.563
  269.880  215.076   81.363    0.413    0.194    5.662
  270.130  216.236   80.330    0.406    0.173    5.734
  270.380  216.353   80.528    0.408    0.167    5.727
  270.630  216.265   81.453    0.422    0.153    5.669
  270.880  216.285   81.953    0.439    0.154    5.560
  271.130  216.300   80.493    0.439    0.176    5.373
  271.380  215.694   78.175    0.426    0.177    5.479
  271.630  214.881   78.674    0.412    0.166    5.834
  271.880  215.002   79.971    0.420    0.156    6.154
  272.130  215.019   82.615    0.446    0.166    6.468
  272.380  214.827   82.993    0.439    0.185    6.836
  272.630  215.051   83.922    0.422    0.179    7.050
  272.880  215.273   85.525    0.407    0.175    7.299
  273.130  215.605   86.822    0.409    0.165    7.544
  273.380  216.240   89.099    0.434    0.152    7.620
  273.630  217.505   89.966    0.442    0.154    7.658
  273.880  217.522   91.020    0.433    0.158    7.709
  274.130  217.225   92.621    0.421    0.169    7.789
  274.380  215.166   93.242    0.405    0.169    7.842
  274.630  213.316   92.763    0.407    0.176    7.909
  274.880  212.399   84.011    0.417    0.186    7.961
  275.130  211.589   81.631    0.435    0.184    8.213
  275.380  209.528   82.315    0.434    0.184    8.470
  275.630  206.534   85.083    0.424    0.186    8.819
  275.880  204.476   85.336    0.430    0.181    9.010
  276.130  205.634   78.912    0.431    0.200    9.106
  276.380  206.068   68.751    0.434    0.228    8.619
  276.630  206.601   69.250    0.429    0.243    7.471
  276.880  207.038   76.126    0.432    0.258    7.151
  277.130  206.843   78.892    0.442    0.215    7.000
  277.380  206.961   81.047    0.430    0.192    7.020
  277.630  207.601   81.607    0.417    0.187    8.070
  277.880  207.100   77.694    0.423    0.205    9.577
  278.130  204.626   72.130    0.433    0.217   10.783
  278.380  203.087   61.599    0.421    0.223   12.145
  278.630  202.895   59.649    0.388    0.228   14.039
  278.880  203.223   60.332    0.385    0.234   16.109
  279.130  202.929   63.222    0.387    0.241   17.905
  279.380  202.843   61.766    0.385    0.247   22.596
  279.630  204.002   61.405    0.381    0.251   25.830
  279.880  205.572   59.453    0.371    0.245   26.796
  280.130  208.395   57.072    0.340    0.221   26.082
  280.380  210.170   57.513    0.275    0.074   24.319
  280.630  210.291   58.012    0.247    0.035   20.689
  280.880  209.685   58.941    0.251    0.057   16.958
  281.130  208.560   61.156    0.265    0.062   15.148
  281.380  207.229   64.291    0.317    0.125   13.382
  281.630  204.858   65.161    0.369    0.172   12.831
  281.880  203.529   63.943    0.419    0.222   12.535
  282.130  203.858   62.299    0.415    0.251   12.502
  282.380  203.977   62.798    0.408    0.254   12.728
  282.630  203.991   63.666    0.396    0.248   12.910
  282.880  203.908   64.657    0.394    0.244   13.019
  283.130  204.234   64.543    0.399    0.229   12.890
  283.380  204.147   65.166    0.400    0.222   12.477
  283.630  203.645   67.137    0.389    0.203   12.143
  283.880  203.245   70.578    0.389    0.182   11.386
  284.130  203.055   73.040    0.415    0.187   10.717
  284.380  203.279   74.336    0.403    0.216    9.956
  284.630  203.297   76.796    0.379    0.228    9.388
  284.880  204.141   80.605    0.374    0.224    9.038
  285.130  206.547   84.903    0.391    0.217    8.911
  285.380  208.947   85.466    0.413    0.191    8.871
  285.630  212.077   85.781    0.422    0.180    9.083
  285.880  214.273   86.832    0.450    0.185    9.350
  286.130  215.433   86.843    0.471    0.170    9.753
  286.380  215.966   84.096    0.464    0.166   10.307
  286.630  215.567   83.002    0.446    0.156   10.653
  286.880  212.060   81.174    0.434    0.165   10.782
  287.130  209.479   79.590    0.405    0.177   10.978
  287.380  205.969   78.619    0.389    0.187   11.243
  287.630  203.497   75.933    0.380    0.189   11.379
  287.880  201.647   73.004    0.379    0.189   11.561
  288.130  199.897   70.133    0.381    0.195   11.725
  288.380  198.669   63.708    0.389    0.218   11.960
  288.630  199.205   64.025    0.400    0.227   12.245
  288.880  200.781   63.730    0.406    0.222   12.468
  289.130  201.726   63.370    0.404    0.229   12.526
  289.380  202.575   64.611    0.403    0.250   12.513
  289.630  203.938   65.350    0.395    0.235   12.527
  289.880  205.202   67.137    0.391    0.220   12.471
  290.130  205.840   68.495    0.388    0.203   12.253
  290.380  205.859   69.118    0.389    0.220   12.086
  290.630  202.346   68.515    0.401    0.231   11.984
  290.880  200.183   68.464    0.402    0.237   11.868
  291.130  200.615   69.149    0.399    0.242   11.834
  291.380  202.916   70.448    0.391    0.252   11.802
  291.630  204.073   70.272    0.383    0.264   11.725
  291.880  205.024   69.669    0.379    0.259   11.583
  292.130  205.350   70.597    0.369    0.244   11.297
