~VERSION INFORMATION
 VERS.                 2.0:   CWLS LOG ASCII STANDARD -VERSION 2.0
 WRAP.                  NO:   ONE LINE PER DEPTH STEP
~WELL INFORMATION BLOCK
#MNEM.UNIT           DATA                    DESCRIPTION OF MNEMONIC
#---------    -------------------            -------------------------------
# Generated from Intellog Unique Number	CC_80_83/WELL/2374
NULL.         -999.25                        : NULL_VALUE
WELL.         PEX HOUSE                      : Well_name    - WELL
LOC .         10-26-081-16W4                 : Location     - LOCATION          
UWI .         00/10-26-081-16W400            : Uwi          - UNIQUE WELL ID    
ENTR.         DW                             : Entered      - ENTERED BY        
SRVC.         SCHLUMBERGER                   : Scn          - SERVICE COMPANY   
DATE.         14 JAN 82                      : Date         - LOG DATE
STRT.M        160                            : top_depth    - START DEPTH       
STOP.M        330.098                        : bot_depth    - STOP DEPTH        
STEP.M        0.3                            : increment    - STEP LENGTH       
~CURVE INFORMATION BLOCK
#MNEM UNIT       ERCB CURVE CODE    CURVE DESCRIPTION
#-----------   ------------------   ----------------------------------
DEPT.M        00 001 00 00         : DEPTH        - DEPTH                       
DPHI.V/V      00 890 00 00         : PHID         - DENSITY POROSITY (LIMESTONE)
NPHI.V/V      00 330 00 00         : PHIN         - NEUTRON POROSITY (LIMESTONE)
GR  .API      00 310 00 00         : GR           - GAMMA RAY                   
ILD .OHMM     00 120 00 00         : RESD         - DEEP RESISTIVITY (DIL)      
~PARAMETER INFORMATION       
#MNEM.UNIT           DATA             DESCRIPTION OF MNEMONIC
#---------         -----------     ------------------------------
GL  .M        555.3                : gl           - GROUND LEVEL ELEVATION      
EREF.M        558.9                : kb           - ELEVATION OF DEPTH REFERENCE
DATM.M        558.9                : datum        - DATUM ELEVATION             
TDD .M        332                  : tdd          - TOTAL DEPTH DRILLER         
RUN .         ONE                  : Run          - RUN NUMBER                  
ENG .         BILL                 : Engineer     - RECORDING ENGINEER          
WIT .         JIM                  : Witness      - WITNESSED BY                
MUD .         GEL                  : Mud_type     - MUD TYPE                    
MATR.         LIMESTONE            : Logunit      - NEUTRON MATRIX              
TMAX.C        26                   : BHT          - MAXIMUM RECORDED TEMPERATURE
BHTD.M        332                  : BHTDEP       - MAXIMUM RECORDED TEMPERATURE
MATR.         1                    : LOGUNIT      - NEUTRON MATRIX              
RMT .C        25                   : MDTP         - TEMPERATURE OF MUD          
NEUT.         1                    : NEUTRON      - NEUTRON TYPE                
RESI.         0                    : RESIST       - RESISTIVITY TYPE            
RMC .OHMM     0.25                 : RMC          - RESISTIVITY OF MUD CAKE     
RMF .OHMM     0.25                 : RMF          - RESISTIVITY OF MUD FILTRATE 
SUFT.C        15                   : SUFT         - SURFACE TEMPERATURE         
~A  DEPTH     PHID     PHIN       GR     RESD
  160.000    0.248    0.570  117.789   11.007
  160.300    0.277    0.580  120.900   10.798
  160.600    0.320    0.570  117.192   10.592
  160.900    0.298    0.437  108.525   10.591
  161.200    0.277    0.392   96.140   10.194
  161.500    0.256    0.393   93.052    9.627
  161.800    0.245    0.403  101.123    9.266
  162.100    0.235    0.440  105.475    9.265
  162.400    0.281    0.472  101.150    9.263
  162.700    0.330    0.485   99.919    9.262
  163.000    0.278    0.486  103.652    9.261
  163.300    0.267    0.483  105.525    9.619
  163.600    0.289    0.482  105.538   10.379
  163.900    0.295    0.467  104.928   11.413
  164.200    0.293    0.414  103.697   12.315
  164.500    0.303    0.423  100.609   13.036
  164.800    0.295    0.415   96.901   13.035
  165.100    0.289    0.407   93.814   12.546
  165.400    0.285    0.410   91.967   12.307
  165.700    0.268    0.435   88.879   12.306
  166.000    0.273    0.463   75.873   13.027
  166.300    0.310    0.479   69.688   13.531
  166.600    0.324    0.477   66.597   13.530
  166.900    0.295    0.450   69.708   12.536
  167.200    0.249    0.429   70.340   11.839
  167.500    0.246    0.424   67.874   11.395
  167.800    0.301    0.446   64.789   11.612
  168.100    0.332    0.456   64.800   12.061
  168.400    0.311    0.455   67.290   11.609
  168.700    0.289    0.452   71.643   11.174
  169.000    0.284    0.424   74.131   10.352
  169.300    0.299    0.429   76.625   10.352
  169.600    0.289    0.400   77.876   10.350
  169.900    0.273    0.396   79.127   10.548
  170.200    0.254    0.402   78.521   11.380
  170.500    0.271    0.417   74.811   11.820
  170.800    0.307    0.427   66.766   12.998
  171.100    0.317    0.441   64.298   13.246
  171.400    0.322    0.444   68.650   13.499
  171.700    0.336    0.428   70.523   13.498
  172.000    0.327    0.430   70.534   13.496
  172.300    0.305    0.417   69.306   12.990
  172.600    0.293    0.428   66.838   12.267
  172.900    0.316    0.436   66.228   11.807
  173.200    0.328    0.438   66.860   11.583
  173.500    0.327    0.455   70.596   11.148
  173.800    0.317    0.445   71.846   10.937
  174.100    0.297    0.431   70.617   10.527
  174.400    0.285    0.427   66.288   10.327
  174.700    0.262    0.402   63.820   10.325
  175.000    0.230    0.381   66.934   10.324
  175.300    0.261    0.393   75.626   10.128
  175.600    0.276    0.422   81.215    9.936
  175.900    0.276    0.468   86.805    9.563
  176.200    0.280    0.470   93.637    9.382
  176.500    0.272    0.458  101.089    9.203
  176.800    0.275    0.448  102.342    9.029
  177.100    0.287    0.455  101.735    8.857
  177.400    0.273    0.495   99.884    9.026
  177.700    0.279    0.492   97.416    9.739
  178.000    0.314    0.443   94.328   10.710
  178.300    0.315    0.430   88.142   11.124
  178.600    0.292    0.431   84.437   10.707
  178.900    0.263    0.413   85.068   10.112
  179.200    0.263    0.415   86.940    9.732
  179.500    0.268    0.446   86.949    9.918
  179.800    0.272    0.459   83.243   11.548
  180.100    0.287    0.384   75.816   13.446
  180.400    0.334    0.382   69.628   15.070
  180.700    0.329    0.415   65.299   15.653
  181.000    0.326    0.426   62.831   15.952
  181.300    0.347    0.448   60.367   16.256
  181.600    0.399    0.541   63.477   17.209
  181.900    0.368    0.458   69.067   17.874
  182.200    0.305    0.411   70.942   18.565
  182.500    0.304    0.424   70.335   18.920
  182.800    0.295    0.452   70.348   19.281
  183.100    0.276    0.436   68.499   19.647
  183.400    0.275    0.422   66.029   19.645
  183.700    0.290    0.437   60.460   19.273
  184.000    0.322    0.448   54.895   18.906
  184.300    0.328    0.447   53.044   18.905
  184.600    0.320    0.451   51.819   18.901
  184.900    0.317    0.437   52.451   18.542
  185.200    0.323    0.391   52.464   18.541
  185.500    0.331    0.380   51.856   18.894
  185.800    0.336    0.385   51.249   18.534
  186.100    0.338    0.401   50.637   18.183
  186.400    0.338    0.427   49.409   18.180
  186.700    0.334    0.439   46.945   17.498
  187.000    0.330    0.395   46.332   16.843
  187.300    0.339    0.386   46.344   15.605
  187.600    0.338    0.427   48.222   14.460
  187.900    0.307    0.432   48.853   12.897
  188.200    0.319    0.433   48.866   12.895
  188.500    0.345    0.458   48.256   13.913
  188.800    0.346    0.461   46.407   15.895
  189.100    0.323    0.392   43.937   18.506
  189.400    0.256    0.336   42.712   19.968
  189.700    0.252    0.341   43.340   20.740
  190.000    0.224    0.369   42.734   20.346
  190.300    0.195    0.376   42.124   19.214
  190.600    0.204    0.346   40.278   18.494
  190.900    0.219    0.318   40.909   18.491
  191.200    0.253    0.370   48.980   19.575
  191.500    0.321    0.428   54.571   19.573
  191.800    0.304    0.443   55.823   18.839
  192.100    0.189    0.408   56.458   17.455
  192.400    0.214    0.425   58.329   16.174
  192.700    0.352    0.471   60.204   14.986
  193.000    0.366    0.456   60.211   14.423
  193.300    0.371    0.524   57.746   14.698
  193.600    0.372    0.459   55.278   14.979
  193.900    0.360    0.419   54.671   15.265
  194.200    0.363    0.435   55.923   16.160
  194.500    0.372    0.481   59.032   19.177
  194.800    0.332    0.466   57.186   20.692
  195.100    0.045    0.377   53.477   20.689
  195.400    0.058    0.258   49.772   20.296
  195.700    0.141    0.356   49.780   18.805
  196.000    0.305    0.432   57.851   17.095
  196.300    0.331    0.478   63.442   15.839
  196.600    0.323    0.472   65.315   15.246
  196.900    0.331    0.467   64.088   14.956
  197.200    0.325    0.461   60.381   15.241
  197.500    0.326    0.471   56.672   15.239
  197.800    0.323    0.472   54.823   15.238
  198.100    0.322    0.461   54.839   15.528
  198.400    0.321    0.457   56.710   15.232
  198.700    0.308    0.463   57.338   14.944
  199.000    0.318    0.499   54.871   14.383
  199.300    0.341    0.486   51.166   13.844
  199.600    0.328    0.489   51.175   13.842
  199.900    0.334    0.541   53.668   13.841
  200.200    0.365    0.570   53.680   14.376
  200.500    0.360    0.580   51.214   15.810
  200.800    0.359    0.588   49.365   17.058
  201.100    0.359    0.596   48.137   17.717
  201.400    0.351    0.570   47.530   17.052
  201.700    0.340    0.549   48.161   16.414
  202.000    0.366    0.548   46.933   15.500
  202.300    0.405    0.595   46.325   15.206
  202.600    0.469    0.555   48.814   14.916
  202.900    0.499    0.508   53.789   14.634
  203.200    0.529    0.567   58.142   14.356
  203.500    0.512    0.574   60.631   14.353
  203.800    0.482    0.569   62.502   14.351
  204.100    0.437    0.547   62.513   14.079
  204.400    0.364    0.502   61.907   14.077
  204.700    0.350    0.513   60.678   14.075
  205.000    0.340    0.488   60.691   13.808
  205.300    0.351    0.474   60.702   14.072
  205.600    0.414    0.518   60.713   14.069
  205.900    0.388    0.550   58.867   14.068
  206.200    0.341    0.431   57.638   14.336
  206.500    0.326    0.425   56.409   14.064
  206.800    0.326    0.443   56.421   13.796
  207.100    0.330    0.465   59.533   13.795
  207.400    0.334    0.454   63.889   13.533
  207.700    0.339    0.452   65.138   13.025
  208.000    0.336    0.473   62.053   13.273
  208.300    0.329    0.444   61.443   13.272
  208.600    0.317    0.431   63.313   13.020
  208.900    0.321    0.468   65.185   13.018
  209.201    0.329    0.452   65.817   13.015
  209.501    0.325    0.434   63.970   12.768
  209.801    0.324    0.434   62.120   12.767
  210.101    0.326    0.436   61.514   12.766
  210.401    0.325    0.440   64.005   13.259
  210.701    0.320    0.485   61.539   14.306
  211.001    0.285    0.499   59.069   14.860
  211.301    0.207    0.347   58.462   14.576
  211.601    0.185    0.339   61.573   14.300
  211.901    0.274    0.404   64.685   13.764
