~VERSION INFORMATION
 VERS.                 2.0:   CWLS LOG ASCII STANDARD -VERSION 2.0
 WRAP.                  NO:   ONE LINE PER DEPTH STEP
~WELL INFORMATION BLOCK
#MNEM.UNIT           DATA                    DESCRIPTION OF MNEMONIC
#---------    -------------------            -------------------------------
# Generated from Intellog Unique Number	CW_76_78/WELL/877
WELL.         10-16-076-25W4                 : Well_name    - WELL
LOC .         00/10-16-076-25W4/0            : Location     - LOCATION
UWI .         00/10-16-076-25W4/0            : Uwi          - UNIQUE WELL ID
ENTR.         JAYE                           : Entered      - ENTERED BY
SRVC.         SCHLUMBERGER                   : Scn          - SERVICE COMPANY
DATE.         8 FEB 75                       : Date         - LOG DATE
STRT.M        472.44                         : top_depth    - START DEPTH
STOP.M        679.69                         : bot_depth    - STOP DEPTH
STEP.M        0.25                           : increment    - STEP LENGTH
 NULL. -999.2500:NULL Value
~CURVE INFORMATION BLOCK
#MNEM UNIT       ERCB CURVE CODE    CURVE DESCRIPTION
#-----------   ------------------   ----------------------------------
DEPT.M        00 001 00 00         : DEPTH        - DEPTH
ILD .OHMM     00 120 00 00         : RESD         - DEEP RESISTIVITY (DIL)
NPHI.V/V      00 330 00 00         : PHIN         - NEUTRON POROSITY (SANDSTONE)
DPHI.V/V      00 890 00 00         : PHID         - DENSITY POROSITY (SANDSTONE)
GR  .API      00 310 00 00         : GR           - GAMMA RAY
CALI.MM       00 280 01 00         : CAL          - CALIPER
~PARAMETER INFORMATION
#MNEM.UNIT           DATA             DESCRIPTION OF MNEMONIC
#---------         -----------     ------------------------------
GL  .M        763.829              : gl           - GROUND LEVEL ELEVATION
EREF.M        768.096              : kb           - ELEVATION OF DEPTH REFERENCE
DATM.M        763.829              : datum        - DATUM ELEVATION
TDD .M        673.608              : tdd          - TOTAL DEPTH DRILLER
RUN .         ONE                  : Run          - RUN NUMBER
ENG .         EARLEY               : Engineer     - RECORDING ENGINEER
WIT .         BRONK/AYERS          : Witness      - WITNESSED BY
BASE.         EDM                  : Branch       - HOME BASE OF LOGGING UNIT
MUD .         GEL CHEM             : Mud_type     - MUD TYPE
MATR.         SANDSTONE            : Logunit      - NEUTRON MATRIX
TMAX.C        35                   : BHT          - MAXIMUM RECORDED TEMPERATURE
BHTD.M        666.902              : BHTDEP       - MAXIMUM RECORDED TEMPERATURE
RMT .C        3.33333              : MDTP         - TEMPERATURE OF MUD
MUDD.KG/M     1080                 : MWT          - MUD DENSITY
NEUT.         1                    : NEUTRON      - NEUTRON TYPE
RESI.         0                    : RESIST       - RESISTIVITY TYPE
RM  .OHMM     2.32                 : RM           - RESISTIVITY OF MUD
RMC .OHMM     2.65                 : RMC          - RESISTIVITY OF MUD CAKE
RMF .OHMM     3.87                 : RMF          - RESISTIVITY OF MUD FILTRATE
SUFT.C        -17.7778             : SUFT         - SURFACE TEMPERATURE
~A  DEPTH     RESD     PHIN     PHID       GR      CAL
# ...
  618.440   11.710    0.982    0.077   86.308  234.610
  618.690   11.510    1.014    0.030   82.512  233.811
  618.940   11.109    1.052   -0.005   87.119  233.019
  619.190   10.411    1.087    0.030   91.485  232.431
  619.440    9.703    1.061    0.111   96.644  232.019
  619.690    9.451    1.066    0.124  100.223  231.451
  619.940    9.585    1.089    0.137   98.355  231.326
  620.190    9.848    1.100    0.148   95.946  231.063
  620.440   10.006    1.070    0.141   94.928  230.996
  620.690    9.837    1.034    0.112   94.030  231.072
  620.940    9.529    1.040    0.087   94.163  231.222
  621.190    9.264    1.064    0.093   96.351  231.524
  621.440    9.107    1.090    0.138   99.995  232.876
  621.690    8.952    1.099    0.155  102.179  234.424
  621.940    8.997    1.063    0.144  100.624  236.116
  622.190    9.449    1.058    0.158   96.451  236.514
  622.440    9.745    1.072    0.143   92.884  236.641
  622.690    9.956    1.077    0.124   91.078  236.442
  622.940   10.192    1.058    0.132   92.121  235.837
  623.190   10.665    1.053    0.127   93.706  235.164
  623.440   11.729    1.072    0.144   94.686  234.954
  623.690   13.210    1.098    0.202   94.447  234.860
  623.940   14.448    1.104    0.183   91.551  234.998
  624.190   15.977    1.084    0.164   85.752  235.321
  624.440   18.162    1.094    0.194   80.858  236.152
  624.690   21.184    1.066    0.195   76.327  236.978
  624.940   24.937    0.957    0.159   72.282  237.712
  625.190   30.066    0.915    0.071   69.446  240.709
  625.440   35.785    0.910    0.034   67.461  242.462
  625.690   38.567    0.928    0.021   66.256  243.604
  625.940   45.067    0.949    0.048   65.662  244.339
  626.190   45.283    0.987    0.054   65.792  244.682
  626.440   44.680    0.989    0.137   67.386  244.782
  626.690   41.801    0.967    0.083   70.605  243.480
  626.940   32.233    0.932    0.025   75.517  241.028
  627.190   26.171    1.018    0.045   80.121  237.572
  627.440   20.256    1.070    0.161   85.641  235.021
  627.690   14.646    1.086    0.191   92.005  232.979
  627.940   11.804    1.095    0.159   95.414  231.984
  628.190   10.165    1.106    0.130   95.538  231.689
  628.440    9.491    1.106    0.132   88.341  232.927
  628.690    9.330    1.097    0.131   86.418  237.352
  628.940    9.325    1.092    0.114   92.117  241.174
  629.190    9.371    1.084    0.089   97.155  242.933
  629.440    9.228    1.098    0.146  102.977  243.665
  629.690    8.924    1.126    0.161  106.852  243.888
  629.940    8.580    1.130    0.150  108.684  244.313
  630.190    8.160    1.104    0.169  110.324  244.752
  630.440    7.920    1.107    0.170  112.213  245.074
  630.690    7.973    1.118    0.150  114.216  245.174
  630.940    8.932    1.098    0.162  113.809  245.090
  631.190    9.895    1.075    0.163  107.584  244.716
  631.440   11.372    1.015    0.143  101.235  244.201
  631.690   14.199    1.011    0.149   94.159  243.086
  631.940   19.833    1.007    0.120   86.909  240.950
  632.190   27.097    0.975    0.089   79.472  238.621
  632.440   31.489    0.961    0.005   72.276  236.889
  632.690   34.249    0.986    0.068   75.012  235.368
  632.940   33.178    1.002    0.111   82.829  234.271
  633.190   30.356    1.011    0.146   87.439  233.756
  633.440   26.675    0.979    0.155   88.419  233.593
  633.690   22.304    0.973    0.130   91.525  234.609
  633.940   19.313    0.998    0.088   95.946  237.503
  634.190   17.574    1.009    0.105  100.920  239.482
  634.440   15.022    1.026    0.125  103.718  240.521
  634.690   13.670    1.034    0.138  105.182  241.352
  634.940   12.530    1.040    0.146  106.103  241.976
  635.190   11.917    1.044    0.155  106.715  241.792
  635.440   11.459    1.047    0.165  107.578  241.412
  635.690   10.897    1.045    0.155  108.910  241.096
  635.940   10.345    1.038    0.147  111.888  240.924
  636.190    9.677    1.053    0.148  114.015  241.764
  636.440    9.322    1.093    0.145  113.779  243.114
  636.690    9.630    1.076    0.136  109.436  243.732
  636.940   10.747    1.042    0.125  101.454  243.764
  637.190   12.398    1.012    0.107   94.620  243.457
  637.440   14.356    0.978    0.069   85.006  241.637
  637.690   16.561    0.990    0.045   88.651  237.444
  637.940   18.449    1.007    0.028   93.019  236.236
  638.190   18.507    1.026    0.109   95.032  238.914
  638.440   17.311    1.037    0.104   96.071  242.227
  638.690   15.579    1.054    0.103   96.987  243.887
  638.940   13.944    1.078    0.110   98.340  244.001
  639.190   12.074    1.100    0.131   99.300  243.513
  639.440   11.191    1.090    0.150  100.890  243.101
  639.690   10.682    1.080    0.107  102.844  242.299
  639.940   10.405    1.106    0.053  104.419  241.802
  640.190   10.322    1.092    0.112  106.125  241.100
  640.440   10.298    1.060    0.125  107.706  240.211
  640.690   10.179    1.065    0.085  109.718  239.184
  640.940   10.117    1.079    0.133  113.111  238.383
  641.190   10.261    1.081    0.118  118.931  236.958
  641.440   10.446    1.048    0.087  113.553  235.957
  641.690   10.479    1.034    0.051  113.626  237.298
  641.940   10.169    1.074    0.068  118.963  240.816
  642.190    9.725    1.087    0.081  123.512  242.765
  642.440    9.214    1.080    0.093  120.982  243.810
  642.690    8.667    1.065    0.106  118.447  244.451
  642.940    8.365    1.050    0.099  116.826  244.265
  643.190    8.299    1.064    0.092  118.224  243.665
  643.440    8.248    1.079    0.106  120.117  243.367
  643.690    8.093    1.075    0.140  122.180  243.818
  643.940    7.854    1.056    0.130  125.276  244.246
  644.190    7.595    1.059    0.115  126.263  244.334
  644.440    7.222    1.068    0.097  125.421  244.264
  644.690    6.945    1.072    0.131  123.680  243.972
  644.940    6.521    1.081    0.131  121.019  241.107
  645.190    5.890    1.133    0.181  117.099  236.305
  645.440    5.291    1.152    0.191  112.326  233.766
  645.690    5.506    1.151    0.203  105.433  231.931
  645.940    6.225    1.191    0.264   93.879  230.527
  646.190    7.975    1.134    0.244   80.754  229.301
  646.440   11.118    0.964    0.224   68.900  227.271
  646.690   16.082    0.938    0.214   60.371  225.030
  646.940   20.339    0.934    0.239   58.084  223.915
  647.190   23.941    0.936    0.238   57.667  223.535
  647.440   27.975    0.927    0.221   56.708  223.743
  647.690   33.422    0.854    0.193   52.425  224.589
  647.940   44.995    0.822    0.252   45.834  225.426
  648.190   59.695    0.802    0.303   38.156  226.065
  648.440  102.827    0.790    0.317   32.236  226.375
  648.690  136.666    0.786    0.326   30.855  226.823
  648.940  154.216    0.787    0.332   31.168  227.231
  649.190  158.734    0.799    0.333   31.666  227.793
  649.440  147.666    0.812    0.334   32.091  228.191
  649.690  127.385    0.820    0.335   32.708  228.414
  649.940  111.529    0.828    0.335   33.872  228.628
  650.190   94.808    0.839    0.334   34.855  228.652
  650.440   82.850    0.844    0.333   35.642  228.570
  650.690   73.478    0.851    0.332   36.872  228.597
  650.940   64.803    0.860    0.332   37.790  228.603
  651.190   58.750    0.874    0.325   38.343  228.720
  651.440   53.265    0.885    0.316   38.650  229.142
  651.690   48.739    0.895    0.307   39.154  229.672
  651.940   45.007    0.905    0.310   40.001  230.235
  652.190   41.638    0.917    0.302   41.776  230.545
  652.440   38.662    0.928    0.300   43.347  230.867
  652.690   36.366    0.942    0.310   46.037  231.102
  652.940   33.828    0.969    0.300   47.665  230.994
  653.190   32.469    1.009    0.290   49.860  231.117
  653.440   30.994    1.043    0.276   51.934  231.340
  653.690   29.585    1.077    0.281   53.581  231.460
  653.940   28.083    1.071    0.266   55.219  231.566
  654.190   26.513    1.064    0.250   56.621  231.590
  654.440   24.890    1.058    0.239   58.083  227.505
  654.690   23.541    1.056    0.229   59.604  230.736
