~VERSION INFORMATION
 VERS.                 2.0:   CWLS LOG ASCII STANDARD -VERSION 2.0
 WRAP.                  NO:   ONE LINE PER DEPTH STEP
~WELL INFORMATION BLOCK
#MNEM.UNIT           DATA                    DESCRIPTION OF MNEMONIC
#---------    -------------------            -------------------------------
# Generated from Intellog Unique Number	CS_69_70/WELL/903
NULL.         -999.25                        : NULL_VALUE
WELL.         SULPETRO ET AL IPIATIK         : Well_name    - WELL              
LOC .         00/13-33-070-09W4/0            : Location     - LOCATION          
UWI .         00/13-33-070-09W4/0            : Uwi          - UNIQUE WELL ID    
ENTR.         SP                             : Entered      - ENTERED BY        
SRVC.         SCHLUMBERGER                   : Scn          - SERVICE COMPANY   
STRT.M        250                            : top_depth    - START DEPTH       
STOP.M        450                            : bot_depth    - STOP DEPTH        
STEP.M        0.25                           : increment    - STEP LENGTH       
~CURVE INFORMATION BLOCK
#MNEM UNIT       ERCB CURVE CODE    CURVE DESCRIPTION
#-----------   ------------------   ----------------------------------
DEPT.M        00 001 00 00         : DEPTH        - DEPTH                       
ILD .OHMM     00 120 00 00         : RESD         - DEEP RESISTIVITY (DIL)      
DPHI.V/V      00 890 00 00         : PHID         - DENSITY POROSITY (LIMESTONE)
NPHI.V/V      00 330 00 00         : PHIN         - NEUTRON POROSITY (LIMESTONE)
GR  .API      00 310 00 00         : GR           - GAMMA RAY                   
~PARAMETER INFORMATION       
#MNEM.UNIT           DATA             DESCRIPTION OF MNEMONIC
#---------         -----------     ------------------------------
GL  .M        601.29               : gl           - GROUND LEVEL ELEVATION      
EREF.M        604.09               : kb           - ELEVATION OF DEPTH REFERENCE
DATM.M        601.29               : datum        - DATUM ELEVATION             
TDD .M        457.3                : tdd          - TOTAL DEPTH DRILLER         
RUN .         ONE                  : Run          - RUN NUMBER                  
ENG .         BILL                 : Engineer     - RECORDING ENGINEER          
WIT .         JIM                  : Witness      - WITNESSED BY                
MUD .         GEL                  : Mud_type     - MUD TYPE                    
MATR.         LIMESTONE            : Logunit      - NEUTRON MATRIX              
TMAX.C        26.8                 : BHT          - MAXIMUM RECORDED TEMPERATURE
BHTD.M        457.3                : BHTDEP       - MAXIMUM RECORDED TEMPERATURE
MATR.         1                    : LOGUNIT      - NEUTRON MATRIX              
RMT .C        25                   : MDTP         - TEMPERATURE OF MUD          
NEUT.         1                    : NEUTRON      - NEUTRON TYPE                
RESI.         0                    : RESIST       - RESISTIVITY TYPE            
RMC .OHMM     0.25                 : RMC          - RESISTIVITY OF MUD CAKE     
RMF .OHMM     0.25                 : RMF          - RESISTIVITY OF MUD FILTRATE 
SUFT.C        15                   : SUFT         - SURFACE TEMPERATURE         
~A  DEPTH     RESD     PHID     PHIN       GR
# ...
  424.000    8.067    0.259    0.360  101.718
  424.250    8.661    0.273    0.335   84.346
  424.500    9.160    0.270    0.342   77.611
  424.750    9.211    0.252    0.354   88.988
  425.000    9.280    0.235    0.339   84.138
  425.250    9.211    0.218    0.321   80.197
  425.500    8.957    0.208    0.258   84.767
  425.750    8.453    0.204    0.256   97.116
  426.000    7.403    0.201    0.273  108.313
  426.250    6.656    0.199    0.287  113.002
  426.500    6.807    0.195    0.302  116.964
  426.750    7.226    0.196    0.308  120.318
  427.000    7.656    0.199    0.315  123.126
  427.250    8.052    0.208    0.328  115.539
  427.500    8.281    0.223    0.341  100.174
  427.750    8.343    0.236    0.314   93.012
  428.000    8.098    0.223    0.294   86.216
  428.250    7.362    0.200    0.282   82.580
  428.500    6.896    0.186    0.272  103.682
  428.750    6.883    0.190    0.301  118.098
  429.000    6.858    0.210    0.343  116.590
  429.250    6.832    0.231    0.384  104.812
  429.500    6.832    0.245    0.371   96.070
  429.750    6.756    0.234    0.347   96.506
  430.000    6.293    0.196    0.334  108.187
  430.250    5.440    0.168    0.348  136.279
  430.500    4.891    0.151    0.364  143.704
  430.750    4.405    0.141    0.388  145.721
  431.000    4.590    0.136    0.406  144.882
  431.250    4.827    0.166    0.451  141.550
  431.500    5.153    0.213    0.491  138.583
  431.750    5.349    0.236    0.437  132.577
  432.000    5.584    0.259    0.369  115.388
  432.250    5.743    0.279    0.280  105.066
  432.500    5.808    0.271    0.281   65.450
  432.750    5.840    0.256    0.307   71.538
  433.000    5.851    0.249    0.329   76.960
  433.250    5.851    0.245    0.341   81.529
  433.500    5.851    0.239    0.311   86.767
  433.750    5.851    0.224    0.280   89.635
  434.000    5.450    0.198    0.269   92.443
  434.250    5.420    0.182    0.338   94.398
  434.500    5.359    0.244    0.358   88.150
  434.750    5.270    0.262    0.371   79.226
  435.000    5.134    0.276    0.359   75.286
  435.250    4.946    0.273    0.344   75.298
  435.500    4.827    0.262    0.343   75.613
  435.750    4.703    0.263    0.348   77.084
  436.000    4.633    0.267    0.339   79.590
  436.250    4.581    0.260    0.332   80.995
  436.500    4.564    0.248    0.339   84.778
  436.750    4.590    0.245    0.330   86.305
  437.000    4.650    0.244    0.318   86.742
  437.250    4.738    0.243    0.316   88.698
  437.500    5.030    0.213    0.321   92.478
  437.750    5.192    0.192    0.312   99.723
  438.000    5.553    0.167    0.289  106.480
  438.250    5.808    0.157    0.267  115.608
  438.500    6.258    0.170    0.256  122.547
  438.750    6.484    0.178    0.281  119.946
  439.000    6.594    0.181    0.306  118.802
  439.250    6.557    0.184    0.331  134.068
  439.500    6.496    0.187    0.355  136.146
  439.750    6.436    0.189    0.357  134.093
  440.000    6.412    0.178    0.339  132.704
  440.250    6.400    0.154    0.322  131.380
  440.500    6.436    0.143    0.360  131.755
  440.750    6.606    0.132    0.405  134.746
  441.000    7.105    0.122    0.436  137.491
  441.250    7.757    0.114    0.452  108.874
  441.500    8.564    0.108    0.311   95.331
  441.750    9.420    0.107    0.304   86.894
  442.000   10.616    0.099    0.209   95.110
  442.250   12.031    0.082    0.179   80.109
  442.500   13.282    0.069    0.168   57.875
  442.750   15.308    0.078    0.181   46.034
  443.000   16.995    0.099    0.194   44.283
  443.250   19.441    0.103    0.214   44.782
  443.500   21.585    0.089    0.200   43.576
  443.750   23.919    0.074    0.178   39.395
  444.000   25.487    0.058    0.165   34.421
  444.250   25.823    0.068    0.168   30.177
  444.500   25.535    0.078    0.174   29.338
  444.750   24.969    0.084    0.180   29.168
  445.000   23.919    0.087    0.187   29.361
  445.250   22.490    0.090    0.201   29.981
  445.500   21.185    0.098    0.208   30.477
  445.750   20.562    0.098    0.197   30.549
  446.000   20.409    0.090    0.188   28.797
  446.250   20.409    0.084    0.182   26.378
  446.500   20.257    0.078    0.178   24.140
  446.750   20.257    0.081    0.180   22.754
  447.000   20.295    0.093    0.188   22.218
  447.250   20.409    0.100    0.192   21.987
  447.500   20.562    0.106    0.187   21.572
  447.750   20.639    0.110    0.181   21.524
  448.000   20.677    0.110    0.177   21.660
  448.250   20.677    0.105    0.175   21.788
  448.500   20.793    0.099    0.173   22.105
  448.750   20.793    0.097    0.183   22.362
  449.000   20.755    0.095    0.193   22.490
  449.250   20.523    0.096    0.195   22.624
  449.500   20.485    0.094    0.187   22.756
  449.750   20.409    0.093    0.180   22.889
  450.000   20.257    0.093    0.175   22.899
