~VERSION INFORMATION
 VERS.                 2.0:   CWLS LOG ASCII STANDARD -VERSION 2.0
 WRAP.                  NO:   ONE LINE PER DEPTH STEP
~WELL INFORMATION BLOCK
#MNEM.UNIT           DATA                    DESCRIPTION OF MNEMONIC
#---------    -------------------            -------------------------------
# Generated from Intellog Unique Number	CW_73_75/WELL/2746
WELL.         GAO ET AL KELLY                : Well_name    - WELL
LOC .         00/11-21-073-19W4/0            : Location     - LOCATION
UWI .         00/11-21-073-19W4/0            : Uwi          - UNIQUE WELL ID
ENTR.         JAYE                           : Entered      - ENTERED BY
SRVC.         SCHLUMBERGER                   : Scn          - SERVICE COMPANY
DATE.         20 JAN 77                      : Date         - LOG DATE
STRT.M        350.52                         : top_depth    - START DEPTH
STOP.M        585.27                         : bot_depth    - STOP DEPTH
STEP.M        0.25                           : increment    - STEP LENGTH
 NULL. -999.2500:NULL Value
~CURVE INFORMATION BLOCK
#MNEM UNIT       ERCB CURVE CODE    CURVE DESCRIPTION
#-----------   ------------------   ----------------------------------
DEPT.M        00 001 00 00         : DEPTH        - DEPTH
ILD .OHMM     00 120 00 00         : RESD         - DEEP RESISTIVITY (DIL)
NPHI.V/V      00 330 00 00         : PHIN         - NEUTRON POROSITY (SANDSTONE)
DPHI.V/V      00 890 00 00         : PHID         - DENSITY POROSITY (SANDSTONE)
GR  .API      00 310 00 00         : GR           - GAMMA RAY
CALI.MM       00 280 01 00         : CAL          - CALIPER
~PARAMETER INFORMATION
#MNEM.UNIT           DATA             DESCRIPTION OF MNEMONIC
#---------         -----------     ------------------------------
GL  .M        654.71               : gl           - GROUND LEVEL ELEVATION
EREF.M        658.368              : kb           - ELEVATION OF DEPTH REFERENCE
DATM.M        654.71               : datum        - DATUM ELEVATION
TDD .M        620.268              : tdd          - TOTAL DEPTH DRILLER
RUN .         ONE                  : Run          - RUN NUMBER
MATR.         SANDSTONE            : Logunit      - NEUTRON MATRIX
TMAX.C        30                   : BHT          - MAXIMUM RECORDED TEMPERATURE
BHTD.M        620.268              : BHTDEP       - MAXIMUM RECORDED TEMPERATURE
RMT .C        15.5556              : MDTP         - TEMPERATURE OF MUD
MUDD.KG/M     0                    : MWT          - MUD DENSITY
NEUT.         1                    : NEUTRON      - NEUTRON TYPE
RESI.         0                    : RESIST       - RESISTIVITY TYPE
RM  .OHMM     8.1                  : RM           - RESISTIVITY OF MUD
RMC .OHMM     9.2                  : RMC          - RESISTIVITY OF MUD CAKE
RMF .OHMM     6.3                  : RMF          - RESISTIVITY OF MUD FILTRATE
SUFT.C        -17.7778             : SUFT         - SURFACE TEMPERATURE
~A  DEPTH     RESD     PHIN     PHID       GR      CAL
# ...
  387.020    5.646    0.472    0.170  174.596  192.948
  387.270    5.821    0.467    0.193  174.411  193.761
  387.520    5.861    0.466    0.208  173.432  195.203
  387.770    5.794    0.471    0.224  169.357  196.112
  388.020    5.322    0.466    0.217  163.695  196.516
  388.270    4.863    0.455    0.225  152.807  196.719
  388.520    4.378    0.441    0.205  158.519  197.018
  388.770    3.899    0.474    0.218  165.205  197.847
  389.020    3.341    0.494    0.230  173.713  199.378
  389.270    3.030    0.499    0.202  179.667  200.708
  389.520    3.283    0.522    0.249  179.604  202.551
  389.770    3.764    0.552    0.273  177.108  204.601
  390.020    4.388    0.554    0.267  164.395  208.612
  390.270    5.134    0.563    0.297  156.970  214.060
  390.520    5.887    0.545    0.289  142.374  199.542
  390.770    6.751    0.503    0.288  135.012  173.068
  391.020    7.233    0.482    0.285  121.937  164.619
  391.270    7.020    0.463    0.269  114.939  163.480
  391.520    6.521    0.447    0.286  108.247  163.582
  391.770    6.046    0.429    0.306  103.074  164.610
  392.020    5.534    0.422    0.341  107.999  165.622
  392.270    5.140    0.424    0.322  119.059  166.444
  392.520    4.845    0.419    0.301  128.423  166.540
  392.770    4.941    0.412    0.266  133.705  167.881
  393.020    5.511    0.437    0.237  137.837  171.059
  393.270    6.004    0.468    0.222  138.624  176.814
  393.520    6.613    0.513    0.204  133.753  184.225
  393.770    7.243    0.505    0.245  120.682  180.819
  394.020    7.648    0.485    0.265  109.730  171.954
  394.270    8.046    0.458    0.256   95.677  166.497
  394.520    8.146    0.442    0.248   86.615  165.568
  394.770    8.171    0.438    0.248   84.237  165.246
  395.020    8.122    0.435    0.264   81.741  164.958
  395.270    8.029    0.430    0.257   77.301  165.041
  395.520    7.937    0.421    0.299   72.248  165.454
  395.770    7.861    0.408    0.297   70.180  165.877
  396.020    7.799    0.413    0.291   71.023  166.040
  396.270    7.709    0.412    0.300   72.541  166.154
  396.520    7.649    0.404    0.300   72.967  165.826
  396.770    7.616    0.402    0.296   71.682  165.502
  397.020    7.640    0.411    0.315   69.674  164.896
  397.270    7.664    0.411    0.325   68.517  164.684
  397.520    7.646    0.401    0.320   68.019  164.546
  397.770    7.614    0.403    0.311   67.530  164.351
  398.020    7.582    0.414    0.323   66.922  164.441
  398.270    7.578    0.425    0.330   67.526  164.328
  398.520    7.546    0.429    0.324   68.135  164.108
  398.770    7.542    0.421    0.319   68.253  163.709
  399.020    7.565    0.413    0.319   68.304  163.907
  399.270    7.590    0.421    0.321   69.149  163.995
  399.520    7.599    0.427    0.319   71.089  164.196
  399.770    7.637    0.444    0.328   75.470  164.506
  400.020    7.604    0.442    0.328   76.132  164.933
  400.270    7.629    0.429    0.322   75.588  165.127
  400.520    7.625    0.437    0.318   74.910  165.299
  400.770    7.579    0.427    0.311   73.690  165.509
  401.020    7.533    0.413    0.301   73.079  165.609
  401.270    7.542    0.410    0.297   73.252  165.800
  401.520    7.525    0.412    0.299   74.468  165.998
  401.770    7.535    0.416    0.311   75.190  165.992
  402.020    7.558    0.429    0.327   75.006  165.984
  402.270    7.610    0.428    0.325   74.635  165.974
  402.520    7.648    0.422    0.328   75.360  165.880
  402.770    7.700    0.415    0.338   77.725  165.671
  403.020    7.795    0.424    0.323   74.987  165.771
  403.270    7.848    0.435    0.319   75.289  165.831
  403.520    7.901    0.430    0.326   77.231  165.936
  403.770    7.969    0.419    0.328   79.601  166.042
  404.020    7.995    0.406    0.326   79.225  166.151
  404.270    8.035    0.398    0.330   76.487  166.125
  404.520    8.103    0.409    0.339   76.000  166.239
  404.770    8.129    0.412    0.336   77.389  166.425
  405.020    8.185    0.410    0.330   78.796  166.509
  405.270    8.271    0.412    0.319   78.362  166.742
  405.520    8.342    0.418    0.308   76.776  166.919
  405.770    8.445    0.421    0.310   75.978  167.007
  406.020    8.488    0.417    0.312   77.859  167.198
  406.270    8.545    0.415    0.320   81.019  167.422
  406.520    8.540    0.427    0.324   81.072  167.540
  406.770    8.567    0.423    0.321   80.464  167.600
  407.020    8.547    0.415    0.314   81.490  167.716
  407.270    8.527    0.408    0.323   80.941  167.919
  407.520    8.460    0.401    0.346   80.329  168.232
  407.770    8.394    0.399    0.330   83.186  168.290
  408.020    8.389    0.410    0.322   85.485  168.499
  408.270    8.446    0.434    0.332   88.217  168.695
  408.520    8.805    0.451    0.324   89.008  168.989
  408.770    9.417    0.432    0.315   86.753  169.084
  409.020   10.525    0.420    0.319   84.326  168.882
  409.270   12.202    0.418    0.324   82.063  168.860
  409.520   15.789    0.414    0.277   81.390  168.661
  409.770   19.163    0.367    0.238   84.365  168.566
  410.020   25.628    0.299    0.192   83.453  168.549
  410.270   24.920    0.202    0.158   79.611  168.525
  410.520   19.450    0.150    0.125   74.928  168.627
  410.770   15.518    0.142    0.066   71.030  168.411
  411.020   11.848    0.155    0.060   74.440  168.107
  411.270    9.645    0.188    0.050   78.933  167.783
  411.520    8.280    0.284    0.241   83.670  167.270
  411.770    7.360    0.410    0.305   88.952  167.875
  412.020    7.001    0.451    0.339   89.745  166.212
  412.270    6.896    0.474    0.348   82.381  164.368
  412.520    7.006    0.469    0.345   77.208  163.354
  412.770    7.145    0.457    0.343   70.876  163.010
  413.020    7.194    0.448    0.338   74.522  162.997
  413.270    7.255    0.445    0.339   76.280  163.010
  413.520    7.291    0.453    0.340   73.422  162.888
  413.770    7.314    0.444    0.349   67.276  162.784
  414.020    7.324    0.464    0.330   68.671  162.669
  414.270    7.306    0.476    0.337   71.648  163.180
  414.520    7.290    0.471    0.341   74.141  163.570
  414.770    7.232    0.470    0.335   73.948  163.577
  415.020    7.202    0.465    0.348   66.891  163.370
  415.270    7.081    0.455    0.335   63.238  163.142
  415.520    6.987    0.447    0.311   59.828  163.055
  415.770    6.957    0.437    0.323   57.456  162.933
  416.020    6.941    0.428    0.331   56.669  163.021
  416.270    6.899    0.427    0.340   56.421  162.817
  416.520    6.857    0.432    0.334   56.589  162.486
  416.770    6.817    0.433    0.323   58.290  162.394
  417.020    6.775    0.440    0.337   60.838  162.300
  417.270    6.772    0.453    0.345   62.175  162.278
  417.520    6.767    0.458    0.342   60.709  162.378
  417.770    6.764    0.449    0.336   60.167  162.459
  418.020    6.760    0.438    0.327   60.827  162.568
  418.270    6.794    0.436    0.332   62.228  162.775
  418.520    6.840    0.446    0.328   63.067  162.952
  418.770    6.862    0.454    0.331   63.675  163.048
  419.020    6.858    0.455    0.334   63.604  162.946
  419.270    6.867    0.451    0.338   62.688  162.838
  419.520    6.901    0.444    0.343   62.805  162.423
  419.770    6.948    0.440    0.349   63.410  161.704
  420.020    6.970    0.442    0.349   64.195  161.266
  420.270    6.992    0.445    0.342   63.342  160.760
  420.520    7.039    0.438    0.340   61.208  160.530
  420.770    7.074    0.429    0.337   61.389  160.845
  421.020    7.096    0.424    0.334   61.502  161.268
  421.270    7.106    0.432    0.337   58.584  161.653
  421.520    7.114    0.432    0.339   57.913  161.853
  421.770    7.085    0.429    0.328   58.574  162.047
  422.020    7.068    0.428    0.321   61.065  162.046
  422.270    7.090    0.430    0.334   62.826  161.524
  422.520    7.086    0.438    0.344   63.184  161.203
  422.770    7.108    0.452    0.339   59.959  160.481
  423.020    7.117    0.463    0.328   59.224  159.947
  423.270    7.127    0.470    0.339   60.676  159.631
