~VERSION INFORMATION
 VERS.                 2.0:   CWLS LOG ASCII STANDARD -VERSION 2.0
 WRAP.                  NO:   ONE LINE PER DEPTH STEP
~WELL INFORMATION BLOCK
#MNEM.UNIT           DATA                    DESCRIPTION OF MNEMONIC
#---------    -------------------            -------------------------------
# Generated from Intellog Unique Number	CS_73_76/WELL/2195
WELL.         BOW VALLEY INDUSTRIES LTD      : Well_name    - WELL
LOC .         00/11-04-074-15W4/0            : Location     - LOCATION
UWI .         00/11-04-074-15W4/0            : Uwi          - UNIQUE WELL ID
ENTR.         SP                             : Entered      - ENTERED BY
SRVC.         SCHLUMBERGER                   : Scn          - SERVICE COMPANY
STRT.M        285                            : top_depth    - START DEPTH
STOP.M        500                            : bot_depth    - STOP DEPTH
STEP.M        0.25                           : increment    - STEP LENGTH
 NULL. -999.2500:NULL Value
~CURVE INFORMATION BLOCK
#MNEM UNIT       ERCB CURVE CODE    CURVE DESCRIPTION
#-----------   ------------------   ----------------------------------
DEPT.M        00 001 00 00         : DEPTH        - DEPTH
ILD .OHMM     00 120 00 00         : RESD         - DEEP RESISTIVITY (DIL)
DPHI.V/V      00 890 00 00         : PHID         - DENSITY POROSITY (LIMESTONE)
NPHI.V/V      00 330 00 00         : PHIN         - NEUTRON POROSITY (LIMESTONE)
GR  .API      00 310 00 00         : GR           - GAMMA RAY
~PARAMETER INFORMATION
#MNEM.UNIT           DATA             DESCRIPTION OF MNEMONIC
#---------         -----------     ------------------------------
GL  .M        638.2                : gl           - GROUND LEVEL ELEVATION
EREF.M        641.71               : kb           - ELEVATION OF DEPTH REFERENCE
DATM.M        638.2                : datum        - DATUM ELEVATION
TDD .M        504.25               : tdd          - TOTAL DEPTH DRILLER
RUN .         ONE                  : Run          - RUN NUMBER
ENG .         BILL                 : Engineer     - RECORDING ENGINEER
WIT .         JIM                  : Witness      - WITNESSED BY
MUD .         GEL                  : Mud_type     - MUD TYPE
MATR.         LIMESTONE            : Logunit      - NEUTRON MATRIX
TMAX.C        20                   : BHT          - MAXIMUM RECORDED TEMPERATURE
BHTD.M        504.25               : BHTDEP       - MAXIMUM RECORDED TEMPERATURE
MATR.         1                    : LOGUNIT      - NEUTRON MATRIX
RMT .C        25                   : MDTP         - TEMPERATURE OF MUD
NEUT.         1                    : NEUTRON      - NEUTRON TYPE
RESI.         0                    : RESIST       - RESISTIVITY TYPE
RMC .OHMM     0.25                 : RMC          - RESISTIVITY OF MUD CAKE
RMF .OHMM     0.25                 : RMF          - RESISTIVITY OF MUD FILTRATE
SUFT.C        15                   : SUFT         - SURFACE TEMPERATURE
~A  DEPTH     RESD     PHID     PHIN       GR
# ...
  415.500    5.646    0.221    0.406   92.971
  415.750    5.646    0.215    0.395   91.752
  416.000    5.753    0.232    0.393   91.759
  416.250    5.974    0.252    0.402   91.763
  416.500    6.087    0.261    0.413   92.381
  416.750    6.203    0.273    0.417   93.000
  417.000    6.321    0.265    0.422   92.393
  417.250    6.321    0.258    0.414   88.726
  417.500    6.441    0.263    0.412   86.280
  417.750    6.441    0.264    0.407   81.388
  418.000    6.441    0.256    0.398   83.232
  418.250    6.442    0.251    0.387   88.747
  418.500    6.442    0.243    0.391   94.262
  418.750    6.323    0.242    0.402   91.821
  419.000    6.205    0.243    0.386   89.377
  419.250    6.090    0.239    0.388   87.545
  419.500    5.866    0.226    0.401   85.714
  419.750    5.757    0.214    0.413   84.497
  420.000    5.650    0.222    0.400   84.503
  420.250    5.758    0.234    0.387   85.119
  420.500    5.758    0.247    0.377   85.128
  420.750    6.092    0.260    0.366   85.132
  421.000    6.207    0.277    0.367   83.912
  421.250    6.325    0.291    0.375   79.632
  421.500    6.446    0.302    0.370   75.351
  421.750    6.568    0.279    0.344   72.296
  422.000    6.693    0.207    0.279   68.629
  422.250    7.351    0.202    0.241   65.573
  422.500    8.870    0.173    0.221   61.906
  422.750   10.905    0.073    0.205   59.461
  423.000   12.672    0.041    0.189   55.794
  423.250   15.579    0.071    0.172   55.188
  423.500   20.262    0.202    0.202   63.153
  423.750   23.992    0.248    0.272   66.831
  424.000   24.448    0.279    0.313   70.510
  424.250   21.845    0.301    0.368   68.681
  424.500   17.770    0.303    0.376   67.460
  424.750   10.311    0.303    0.394   66.244
  425.000    7.929    0.310    0.412   66.249
  425.250    6.696    0.318    0.427   65.641
  425.500    6.097    0.324    0.428   66.874
  425.750    5.656    0.314    0.415   67.490
  426.000    5.448    0.307    0.421   68.722
  426.250    5.551    0.287    0.426   69.338
  426.500    5.552    0.277    0.425   69.954
  426.750    5.552    0.282    0.419   70.575
  427.000    5.657    0.289    0.404   70.578
  427.250    5.765    0.291    0.390   69.973
  427.500    5.765    0.291    0.380   69.978
  427.750    5.765    0.291    0.377   71.821
  428.000    5.875    0.288    0.363   74.890
  428.250    5.766    0.284    0.366   76.730
  428.500    5.766    0.280    0.384   81.025
  428.750    5.554    0.276    0.398   82.254
  429.000    5.554    0.268    0.410   82.258
  429.250    5.451    0.260    0.417   81.038
  429.500    5.350    0.256    0.412   79.208
  429.750    5.251    0.256    0.400   78.600
  430.000    5.153    0.262    0.374   79.832
  430.250    5.153    0.270    0.368   81.675
  430.500    5.154    0.273    0.390   82.291
  430.750    5.154    0.277    0.406   82.911
  431.000    5.154    0.279    0.415   82.303
  431.250    5.252    0.278    0.408   81.697
  431.500    5.352    0.274    0.406   81.092
  431.750    5.769    0.272    0.403   80.484
  432.000    5.769    0.266    0.403   79.876
  432.250    5.879    0.262    0.411   79.270
  432.500    5.879    0.258    0.415   81.724
  432.750    5.880    0.252    0.418   82.956
  433.000    5.880    0.249    0.418   82.962
  433.250    5.771    0.246    0.416   82.966
  433.500    5.771    0.244    0.410   82.361
  433.750    5.881    0.240    0.398   81.753
  434.000    5.881    0.237    0.394   80.534
  434.250    5.881    0.240    0.385   81.153
  434.500    5.993    0.236    0.386   84.220
  434.750    5.993    0.235    0.414   88.513
  435.000    5.993    0.237    0.429   90.353
  435.250    5.994    0.240    0.414   91.582
  435.500    5.883    0.239    0.412   91.589
  435.750    5.883    0.240    0.420   92.821
  436.000    5.773    0.246    0.417   92.212
  436.250    5.666    0.256    0.427   87.932
  436.500    5.561    0.258    0.443   90.388
  436.750    5.357    0.257    0.450   94.681
  437.000    5.257    0.253    0.445   95.909
  437.250    5.064    0.253    0.427   96.528
  437.500    4.877    0.262    0.412   95.307
  437.750    4.611    0.274    0.413   89.806
  438.000    4.525    0.285    0.423   87.972
  438.250    4.441    0.288    0.414   84.306
  438.500    4.525    0.280    0.407   83.085
  438.750    5.065    0.276    0.413   79.418
  439.000    5.777    0.276    0.402   76.974
  439.250    5.998    0.269    0.386   75.143
  439.500    6.346    0.256    0.377   73.925
  439.750    6.466    0.235    0.391   73.933
  440.000    6.466    0.226    0.383   73.935
  440.250    6.589    0.251    0.383   77.615
  440.500    6.589    0.267    0.388   82.519
  440.750    6.467    0.271    0.383   85.586
  441.000    6.468    0.274    0.382   84.978
  441.250    6.347    0.274    0.389   80.700
  441.500    6.230    0.268    0.400   80.705
  441.750    6.000    0.254    0.404   81.326
  442.000    5.889    0.246    0.407   81.941
  442.250    5.780    0.241    0.397   81.946
  442.500    5.673    0.216    0.351   76.441
  442.750    5.780    0.142    0.309   69.713
  443.000    6.115    0.007    0.207   59.310
  443.250    6.717    0.000    0.186   53.805
  443.500    7.806    0.000    0.185   49.525
  443.750   10.945    0.011    0.210   56.267
  444.000   13.455    0.082    0.312   67.905
  444.250   14.780    0.142    0.363   75.869
  444.500   14.236    0.151    0.383   83.835
  444.750   13.207    0.158    0.404   87.513
  445.000   11.155    0.168    0.410   88.133
  445.250   10.156    0.175    0.403   88.136
  445.500    9.421    0.180    0.376   89.366
  445.750    9.075    0.169    0.356   91.822
  446.000    8.578    0.148    0.357   93.665
  446.250    8.578    0.120    0.353   93.058
  446.500    8.741    0.103    0.340   90.614
  446.750    9.602    0.093    0.331   86.946
  447.000   10.351    0.119    0.323   89.402
  447.250   10.548    0.152    0.341   94.305
  447.500    9.971    0.169    0.366   98.598
  447.750    9.604    0.176    0.384   99.828
  448.000    8.744    0.168    0.371   99.832
  448.250    8.112    0.164    0.371   99.838
  448.500    7.525    0.180    0.368  101.068
  448.750    7.386    0.192    0.363  102.911
  449.000    7.386    0.200    0.359  104.142
  449.250    7.526    0.196    0.367  104.760
  449.500    7.669    0.191    0.371  104.153
  449.750    7.963    0.185    0.357  103.545
  450.000    8.114    0.187    0.342  101.715
  450.250    8.268    0.195    0.336   99.885
  450.500    8.585    0.197    0.341   98.666
  450.750    8.426    0.197    0.346   98.057
  451.000    8.115    0.180    0.347   96.840
  451.250    7.529    0.143    0.346   92.559
  451.500    7.389    0.136    0.341   89.504
  451.750    7.252    0.149    0.336   89.509
  452.000    7.390    0.168    0.336   93.188
  452.250    7.390    0.175    0.367   95.643
  452.500    7.253    0.187    0.375   95.649
  452.750    6.481    0.202    0.389   96.881
  453.000    5.577    0.218    0.421   97.497
  453.250    4.711    0.235    0.438   95.667
  453.500    3.691    0.234    0.450   93.837
  453.750    2.946    0.226    0.454   92.616
  454.000    2.633    0.220    0.459   93.234
  454.250    2.397    0.213    0.464   99.364
  454.500    2.224    0.208    0.474  101.204
  454.750    2.182    0.207    0.474  104.273
  455.000    2.142    0.204    0.470  105.502
  455.250    2.266    0.201    0.485  104.895
  455.500    2.353    0.197    0.482  104.289
  455.750    2.537    0.189    0.471  103.070
  456.000    2.948    0.169    0.434  100.015
  456.250    3.362    0.155    0.402   96.959
  456.500    4.133    0.133    0.354   93.291
  456.750    5.581    0.132    0.344   89.010
  457.000    6.608    0.157    0.341   88.404
  457.250    8.124    0.171    0.344   95.145
  457.500    8.279    0.159    0.337   98.211
  457.750    8.125    0.120    0.310   92.094
  458.000    8.596    0.018    0.289   78.631
  458.250    9.804    0.000    0.262   67.616
  458.500   10.568    0.068    0.261   69.460
  458.750   11.829    0.115    0.290   81.099
