~VERSION INFORMATION
 VERS.                 2.0:   CWLS LOG ASCII STANDARD -VERSION 2.0
 WRAP.                  NO:   ONE LINE PER DEPTH STEP
~WELL INFORMATION BLOCK
#MNEM.UNIT           DATA                    DESCRIPTION OF MNEMONIC
#---------    -------------------            -------------------------------
# Generated from Intellog Unique Number	CW_82_90/WELL/1034
WELL.         14-09-083-23W4                 : Well_name    - WELL
LOC .         00/14-09-083-23W4/0            : Location     - LOCATION
UWI .         00/14-09-083-23W4/0            : Uwi          - UNIQUE WELL ID
ENTR.         JAYE                           : Entered      - ENTERED BY
SRVC.         SCHLUMBERGER                   : Scn          - SERVICE COMPANY
DATE.         05 FEB 86                      : Date         - LOG DATE
STRT.M        225                            : top_depth    - START DEPTH
STOP.M        435                            : bot_depth    - STOP DEPTH
STEP.M        0.25                           : increment    - STEP LENGTH
 NULL. -999.2500:NULL Value
~CURVE INFORMATION BLOCK
#MNEM UNIT       ERCB CURVE CODE    CURVE DESCRIPTION
#-----------   ------------------   ----------------------------------
DEPT.M        00 001 00 00         : DEPTH        - DEPTH
CALI.MM       00 280 01 00         : CAL          - CALIPER
GR  .API      00 310 00 00         : GR           - GAMMA RAY
NPHI.V/V      00 330 00 00         : PHIN         - NEUTRON POROSITY (SANDSTONE)
DPHI.V/V      00 890 00 00         : PHID         - DENSITY POROSITY (SANDSTONE)
ILD .OHMM     00 120 00 00         : RESD         - DEEP RESISTIVITY (DIL)
~PARAMETER INFORMATION
#MNEM.UNIT           DATA             DESCRIPTION OF MNEMONIC
#---------         -----------     ------------------------------
GL  .M        597.8                : gl           - GROUND LEVEL ELEVATION
EREF.M        601.4                : kb           - ELEVATION OF DEPTH REFERENCE
DATM.M        597.8                : datum        - DATUM ELEVATION
TDD .M        437                  : tdd          - TOTAL DEPTH DRILLER
RUN .         ONE                  : Run          - RUN NUMBER
ENG .         PATTERSON            : Engineer     - RECORDING ENGINEER
WIT .         WHALLEY              : Witness      - WITNESSED BY
BASE.         RD                   : Branch       - HOME BASE OF LOGGING UNIT
MUD .         GEL CHEM             : Mud_type     - MUD TYPE
MATR.         SANDSTONE            : Logunit      - NEUTRON MATRIX
TMAX.C        20                   : BHT          - MAXIMUM RECORDED TEMPERATURE
BHTD.M        437                  : BHTDEP       - MAXIMUM RECORDED TEMPERATURE
RMT .C        12                   : MDTP         - TEMPERATURE OF MUD
MUDD.KG/M     1080                 : MWT          - MUD DENSITY
NEUT.         1                    : NEUTRON      - NEUTRON TYPE
RESI.         0                    : RESIST       - RESISTIVITY TYPE
RM  .OHMM     3.55                 : RM           - RESISTIVITY OF MUD
RMC .OHMM     0                    : RMC          - RESISTIVITY OF MUD CAKE
RMF .OHMM     3.19                 : RMF          - RESISTIVITY OF MUD FILTRATE
SUFT.C        0                    : SUFT         - SURFACE TEMPERATURE
~A  DEPTH      CAL       GR     PHIN     PHID     RESD
# ...
  298.000  249.395   82.189    0.517    0.283    4.851
  298.250  249.434   80.231    0.510    0.285    4.678
  298.500  249.589   67.628    0.523    0.283    4.808
  298.750  249.624   61.279    0.523    0.285    5.240
  299.000  249.559   53.441    0.525    0.303    5.928
  299.250  249.189   48.080    0.533    0.335    7.005
  299.500  248.417   43.276    0.483    0.354    7.986
  299.750  247.829   41.820    0.465    0.362   10.991
  300.000  245.709   42.773    0.470    0.365   12.890
  300.250  244.618   45.151    0.481    0.366   15.520
  300.500  245.376   44.244    0.499    0.360   18.407
  300.750  246.766   42.783    0.473    0.354   19.761
  301.000  246.804   42.876    0.458    0.350   19.306
  301.250  247.576   42.838    0.456    0.349   18.928
  301.500  248.228   43.606    0.452    0.347   18.459
  301.750  247.039   45.671    0.439    0.345   18.032
  302.000  247.183   42.292    0.431    0.343   17.553
  302.250  248.054   44.050    0.424    0.341   17.306
  302.500  248.402   46.180    0.422    0.335   17.168
  302.750  248.646   46.146    0.430    0.329   17.248
  303.000  248.695   44.560    0.464    0.328   17.400
  303.250  248.524   46.943    0.485    0.329   17.525
  303.500  248.065   48.885    0.473    0.332   17.675
  303.750  247.689   49.716    0.463    0.335   17.690
  304.000  247.825   48.252    0.469    0.337   17.815
  304.250  248.082   48.895    0.497    0.339   17.868
  304.500  247.709   52.640    0.511    0.341   17.825
  304.750  246.924   54.334    0.502    0.343   17.807
  305.000  244.592   54.420    0.492    0.346   17.657
  305.250  242.568   55.501    0.470    0.348   17.516
  305.500  240.756   53.425    0.450    0.353   17.271
  305.750  239.253   48.429    0.442    0.360   16.841
  306.000  236.612   45.980    0.459    0.363   16.389
  306.250  233.555   47.312    0.498    0.365   15.772
  306.500  233.186   53.708    0.499    0.360   14.399
  306.750  238.492   59.675    0.471    0.353   12.306
  307.000  243.999   68.738    0.472    0.339   10.379
  307.250  248.272   71.857    0.461    0.218    9.950
  307.500  251.824   65.076    0.405    0.082    9.964
  307.750  251.968   55.814    0.331    0.057   10.336
  308.000  251.288   60.796    0.265    0.022   11.074
  308.250  252.883   71.714    0.344    0.038   11.129
  308.500  254.157   80.589    0.432    0.137   10.141
  308.750  255.651   80.617    0.475    0.226    8.798
  309.000  256.309   76.742    0.501    0.225    7.337
  309.250  255.729   73.362    0.507    0.203    6.574
  309.500  254.639   63.048    0.471    0.185    7.017
  309.750  254.167   57.570    0.311    0.163    7.805
  310.000  255.135   61.304    0.291    0.117    7.978
  310.250  256.521   69.501    0.446    0.119    7.958
  310.500  257.076   80.669    0.440    0.178    7.803
  310.750  256.604   79.397    0.442    0.237    7.273
  311.000  256.025   80.596    0.473    0.238    6.753
  311.250  256.067   82.417    0.469    0.234    6.499
  311.500  256.944   78.049    0.467    0.230    6.384
  311.750  257.701   71.633    0.485    0.231    6.167
  312.000  258.577   76.673    0.484    0.235    5.813
  312.250  258.818   82.952    0.475    0.238    5.605
  312.500  258.350   79.884    0.466    0.234    5.393
  312.750  257.461   82.321    0.461    0.230    5.289
  313.000  256.266   89.035    0.476    0.231    5.246
  313.250  254.655   91.041    0.485    0.233    5.291
  313.500  252.531   86.792    0.483    0.235    5.659
  313.750  250.613   82.051    0.527    0.240    6.050
  314.000  248.692   73.162    0.504    0.267    6.871
  314.250  246.775   71.332    0.479    0.296    8.043
  314.500  245.992   70.432    0.488    0.303    9.033
  314.750  246.341   67.978    0.473    0.306   10.223
  315.000  247.934   65.341    0.402    0.300   11.117
  315.250  249.729   61.900    0.330    0.272   12.114
  315.500  251.524   58.084    0.271    0.143   13.657
  315.750  252.498   50.868    0.239    0.107   15.392
  316.000  252.335   52.260    0.233    0.080   18.153
  316.250  251.447   55.377    0.245    0.059   19.784
  316.500  250.559   60.292    0.276    0.046   19.510
  316.750  249.979   63.908    0.331    0.057   17.544
  317.000  249.314   64.181    0.386    0.120   15.365
  317.250  249.248   65.877    0.467    0.199   12.133
  317.500  250.008   71.473    0.454    0.259    9.635
  317.750  251.908   75.213    0.445    0.297    8.235
  318.000  253.597   76.480    0.472    0.274    7.419
  318.250  255.083   79.969    0.495    0.240    7.032
  318.500  255.955   83.401    0.486    0.244    6.769
  318.750  256.726   82.497    0.478    0.244    6.562
  319.000  257.276   78.807    0.466    0.235    6.435
  319.250  257.112   75.119    0.482    0.226    6.382
  319.500  256.022   67.652    0.477    0.213    6.426
  319.750  254.512   69.040    0.470    0.189    6.446
  320.000  252.291   74.204    0.456    0.177    6.441
  320.250  250.261   78.439    0.462    0.178    6.374
  320.500  248.139   81.375    0.480    0.199    6.123
  320.750  246.017   83.814    0.461    0.244    5.696
  321.000  244.820   85.636    0.442    0.253    5.309
  321.250  244.553   87.207    0.453    0.253    5.023
  321.500  245.521   84.446    0.476    0.250    4.726
  321.750  247.949   85.468    0.497    0.246    4.582
  322.000  249.126   89.267    0.520    0.248    4.459
  322.250  249.465   87.374    0.514    0.250    4.373
  322.500  249.201   81.577    0.477    0.233    4.504
  322.750  249.247   78.199    0.460    0.196    4.815
  323.000  249.607   77.666    0.461    0.176    5.357
  323.250  249.649   77.260    0.484    0.203    6.108
  323.500  249.683   73.382    0.503    0.223    7.043
  323.750  249.430   67.031    0.474    0.218    8.074
  324.000  249.464   60.624    0.437    0.205    9.363
  324.250  249.193   60.028    0.449    0.209   10.613
  324.500  249.338   59.680    0.459    0.228   11.203
  324.750  249.585   61.132    0.470    0.271   11.407
  325.000  249.627   63.011    0.484    0.292   11.206
  325.250  249.870   66.130    0.459    0.282   10.425
  325.500  250.739   72.534    0.426    0.256    9.569
  325.750  252.434   78.438    0.418    0.219    8.953
  326.000  253.509   81.439    0.419    0.221    8.535
  326.250  253.653   80.472    0.442    0.225    8.354
  326.500  253.284   76.782    0.448    0.232    8.300
  326.750  252.912   73.900    0.431    0.234    8.373
  327.000  251.918   72.624    0.426    0.234    8.575
  327.250  249.900   70.729    0.446    0.236    8.829
  327.500  247.053   70.137    0.451    0.243    9.111
  327.750  245.651   71.153    0.444    0.248    9.383
  328.000  247.032   72.538    0.440    0.250    9.608
  328.250  247.900   74.296    0.439    0.259    9.727
  328.500  248.149   73.271    0.447    0.247    9.759
  328.750  248.299   68.593    0.441    0.235    9.733
  329.000  247.927   73.382    0.440    0.220    9.725
  329.250  247.353   68.765    0.443    0.224    9.681
  329.500  246.977   63.218    0.433    0.250    9.602
  329.750  247.021   60.396    0.417    0.290    9.433
  330.000  247.587   61.854    0.409    0.294    9.302
  330.250  248.039   62.613    0.425    0.253    9.073
  330.500  248.490   66.168    0.435    0.233    8.896
  330.750  248.633   69.598    0.438    0.246    8.707
  331.000  248.678   72.905    0.442    0.263    8.490
  331.250  249.033   73.058    0.440    0.258    8.309
  331.500  249.070   69.427    0.423    0.252    8.132
  331.750  248.605   68.152    0.428    0.247    7.977
  332.000  248.340   66.941    0.431    0.251    7.925
  332.250  248.479   64.675    0.427    0.268    7.888
  332.500  248.621   65.132    0.444    0.269    7.794
  332.750  248.666   67.266    0.502    0.264    7.760
  333.000  248.603   71.130    0.463    0.262    7.812
  333.250  246.271   72.824    0.433    0.258    7.940
  333.500  242.391   69.947    0.457    0.252    8.100
  333.750  241.507   64.643    0.461    0.245    8.232
  334.000  242.785   61.883    0.455    0.253    8.336
  334.250  243.141   64.197    0.457    0.259    8.425
