~VERSION INFORMATION
 VERS.                 2.0:   CWLS LOG ASCII STANDARD -VERSION 2.0
 WRAP.                  NO:   ONE LINE PER DEPTH STEP
~WELL INFORMATION BLOCK
#MNEM.UNIT           DATA                    DESCRIPTION OF MNEMONIC
#---------    -------------------            -------------------------------
# Generated from Intellog Unique Number	CC_80_83/WELL/2361
NULL.         -999.25                        : NULL_VALUE
WELL.         KASISER DIVIDE                 : Well_name    - WELL              
LOC .         10-21-082-13W4                 : Location     - LOCATION          
UWI .         00/10-21-082-13W400            : Uwi          - UNIQUE WELL ID    
ENTR.         DW                             : Entered      - ENTERED BY        
SRVC.         SCHLUMBERGER                   : Scn          - SERVICE COMPANY   
DATE.         24 FEB 79                      : Date         - LOG DATE
STRT.M        145                            : top_depth    - START DEPTH       
STOP.M        375.996                        : bot_depth    - STOP DEPTH        
STEP.M        0.3                            : increment    - STEP LENGTH       
~CURVE INFORMATION BLOCK
#MNEM UNIT       ERCB CURVE CODE    CURVE DESCRIPTION
#-----------   ------------------   ----------------------------------
DEPT.M        00 001 00 00         : DEPTH        - DEPTH                       
DPHI.V/V      00 890 00 00         : PHID         - DENSITY POROSITY (LIMESTONE)
NPHI.V/V      00 330 00 00         : PHIN         - NEUTRON POROSITY (LIMESTONE)
GR  .API      00 310 00 00         : GR           - GAMMA RAY                   
ILD .OHMM     00 120 00 00         : RESD         - DEEP RESISTIVITY (DIL)      
~PARAMETER INFORMATION       
#MNEM.UNIT           DATA             DESCRIPTION OF MNEMONIC
#---------         -----------     ------------------------------
GL  .M        593.2                : gl           - GROUND LEVEL ELEVATION      
EREF.M        596.85               : kb           - ELEVATION OF DEPTH REFERENCE
DATM.M        596.85               : datum        - DATUM ELEVATION             
TDD .M        382                  : tdd          - TOTAL DEPTH DRILLER         
RUN .         ONE                  : Run          - RUN NUMBER                  
ENG .         BILL                 : Engineer     - RECORDING ENGINEER          
WIT .         JIM                  : Witness      - WITNESSED BY                
MUD .         GEL                  : Mud_type     - MUD TYPE                    
MATR.         LIMESTONE            : Logunit      - NEUTRON MATRIX              
TMAX.C        20                   : BHT          - MAXIMUM RECORDED TEMPERATURE
BHTD.M        382                  : BHTDEP       - MAXIMUM RECORDED TEMPERATURE
MATR.         1                    : LOGUNIT      - NEUTRON MATRIX              
RMT .C        25                   : MDTP         - TEMPERATURE OF MUD          
NEUT.         1                    : NEUTRON      - NEUTRON TYPE                
RESI.         0                    : RESIST       - RESISTIVITY TYPE            
RMC .OHMM     0.25                 : RMC          - RESISTIVITY OF MUD CAKE     
RMF .OHMM     0.25                 : RMF          - RESISTIVITY OF MUD FILTRATE 
SUFT.C        4                    : SUFT         - SURFACE TEMPERATURE         
~A  DEPTH     PHID     PHIN       GR     RESD
# ...
  301.599    0.238    0.392   99.347    8.431
  301.899    0.230    0.415  101.784    8.115
  302.199    0.238    0.425  104.224    7.960
  302.499    0.230    0.404  106.042    7.664
  302.799    0.249    0.408  103.545    7.658
  303.099    0.235    0.392   99.195    7.800
  303.399    0.238    0.405   97.313    8.093
  303.699    0.265    0.416   96.656    8.238
  303.999    0.265    0.421   90.458    8.083
  304.299    0.274    0.427   86.097    7.781
  304.599    0.254    0.433   84.224    7.490
  304.899    0.259    0.434   84.195    7.077
  305.199    0.258    0.447   87.251    6.562
  305.499    0.285    0.448   89.682    6.317
  305.799    0.314    0.437   89.032    6.082
  306.099    0.308    0.423   89.011    6.192
  306.399    0.273    0.449   89.598    6.188
  306.699    0.270    0.463   87.711    6.070
  306.999    0.252    0.474   87.068    5.843
  307.299    0.247    0.478   90.117    5.318
  307.599    0.245    0.472   95.020    4.749
  307.899    0.278    0.461   96.848    4.404
  308.199    0.276    0.477  101.756    4.161
  308.499    0.262    0.497  110.365    4.317
  308.799    0.229    0.469  110.329    4.564
  309.099    0.218    0.429  104.127    5.605
  309.399    0.227    0.412   97.930    6.507
  309.699    0.231    0.407   88.023    7.843
  309.999    0.143    0.414   84.908    8.769
  310.299    0.062    0.397   77.471    9.444
  310.599    0.085    0.295   83.610    9.442
  310.899    0.230    0.379   95.306    9.436
  311.199    0.263    0.416   94.657    8.749
  311.499    0.241    0.410   99.567    7.668
  311.799    0.221    0.416  100.154    6.979
  312.099    0.220    0.424   97.644    6.844
  312.399    0.208    0.433   98.856    6.713
  312.699    0.209    0.447   98.211    6.836
  312.999    0.217    0.453   98.795    6.962
  313.299    0.231    0.437  101.848    7.361
  313.599    0.201    0.412   99.967    7.637
  313.899    0.213    0.432   93.765    7.632
  314.199    0.235    0.428   93.111    7.628
  314.499    0.216    0.422   97.400    7.914
  314.799    0.205    0.412   97.990    8.058
  315.099    0.213    0.417  101.666    7.758
  315.399    0.191    0.435  111.511    6.800
  315.699    0.210    0.445  115.184    5.851
  315.999    0.216    0.446  108.361    3.593
  316.299    0.238    0.476  102.777    2.978
  316.599    0.270    0.510   95.956    2.866
  316.899    0.271    0.527   86.051    3.390
  317.199    0.245    0.514   74.910    3.652
  317.499    0.259    0.480   72.401    4.570
  317.799    0.232    0.448   74.231    5.718
  318.099    0.242    0.428   82.224    7.155
  318.399    0.231    0.416   88.983    7.150
  318.699    0.228    0.407   83.398    6.507
  318.999    0.224    0.420   82.750    5.598
  319.299    0.227    0.430   91.357    4.469
  319.599    0.247    0.442   93.177    3.703
  319.899    0.240    0.458   95.000    3.498
  320.199    0.241    0.464   96.821    3.562
  320.499    0.245    0.457   94.933    3.838
  320.798    0.233    0.452   96.757    4.540
  321.098    0.200    0.401   99.197    5.369
  321.398    0.255    0.383   96.082    5.571
  321.698    0.241    0.384   96.047    5.568
  321.998    0.197    0.424  101.569    5.163
  322.298    0.232    0.449  107.718    4.441
  322.598    0.205    0.447  105.215    4.042
  322.898    0.221    0.466  107.649    3.818
  323.198    0.215    0.477  109.478    3.746
  323.498    0.245    0.490  111.905    3.674
  323.798    0.212    0.485  109.415    3.742
  324.098    0.185    0.466  102.594    3.956
  324.398    0.101    0.436  105.639    4.423
  324.698    0.164    0.414  106.854    4.946
  324.998    0.246    0.390  105.367    5.531
  325.298    0.263    0.374   84.936    5.958
  325.598    0.244    0.370   85.582    6.182
  325.898    0.196    0.434   93.044    6.535
  326.198    0.231    0.420   98.028    6.907
  326.498    0.258    0.397   94.953    7.441
  326.798    0.248    0.387   78.248    8.015
  327.098    0.230    0.396   82.610    8.964
  327.398    0.219    0.401   85.736   10.211
  327.698    0.279    0.403   78.327   10.596
  327.998    0.243    0.404   77.112   10.590
  328.298    0.241    0.383   73.420   10.387
  328.598    0.223    0.365   75.919   10.981
  328.898    0.239    0.376   70.366   11.391
  329.198    0.233    0.344   71.632   11.385
  329.498    0.190    0.312   77.855   10.558
  329.798    0.226    0.339   85.936    8.749
  330.098    0.221    0.367   94.642    7.815
  330.398    0.228    0.399   99.004    7.523
  330.698    0.239    0.374  103.371    7.805
  330.998    0.229    0.356  107.731    8.729
  331.298    0.239    0.348  107.137   10.323
  331.598    0.221    0.353  106.545   10.713
  331.898    0.216    0.389  110.908   11.539
  332.198    0.229    0.400  113.411   11.972
  332.498    0.254    0.360  114.677   12.655
  332.798    0.235    0.319   99.828   13.378
  333.098    0.271    0.315   86.219   14.684
  333.398    0.264    0.325   82.528   17.048
  333.698    0.291    0.333   72.015   19.060
  333.998    0.305    0.342   72.659   19.780
  334.298    0.264    0.355   73.307   21.298
  334.598    0.259    0.339   69.616   21.691
  334.898    0.237    0.313   73.356   21.682
  335.198    0.208    0.304   82.057   20.483
  335.498    0.203    0.317   90.765   18.643
  335.798    0.176    0.360   91.415   13.053
  336.098    0.238    0.373   92.671   13.044
  336.398    0.185    0.380   99.514   13.535
  336.698    0.198    0.388  100.781   14.578
  336.998    0.234    0.388   92.746   16.608
  337.298    0.252    0.360   79.759   18.576
  337.598    0.247    0.340   86.603   20.008
  337.898    0.238    0.323   90.963   18.553
  338.198    0.202    0.301   94.090   15.374
  338.498    0.199    0.301  101.550   13.227
  338.798    0.183    0.361   99.099   11.169
  339.098    0.164    0.383  105.943   10.750
  339.398    0.207    0.370  101.010   10.948
  339.698    0.218    0.374   97.316   10.939
  339.998    0.212    0.379   89.902   11.141
  340.298    0.241    0.369   86.211   11.344
  340.598    0.224    0.370   92.432   11.992
  340.898    0.208    0.381   93.699   12.445
  341.198    0.201    0.379   88.144   13.402
  341.498    0.239    0.380   82.593   13.396
  341.798    0.263    0.374   80.139   12.896
  342.098    0.266    0.361   75.828   12.184
  342.398    0.243    0.353   78.951   11.085
  342.698    0.229    0.350   88.275   10.674
  342.998    0.229    0.364   93.874   10.274
  343.298    0.229    0.392   90.805   10.079
  343.598    0.224    0.383   86.488    9.886
  343.898    0.215    0.365   85.274    9.339
  344.198    0.205    0.372   89.638    8.991
  344.498    0.209    0.361   97.103    8.654
  344.798    0.204    0.365  102.706    8.489
  345.098    0.196    0.387   99.011    8.325
  345.397    0.199    0.376  101.520    8.479
  345.697    0.209    0.383   96.583    9.844
  345.997    0.234    0.406   87.315   11.428
  346.297    0.221    0.397   87.964   12.542
  346.597    0.204    0.376   89.222   13.013
  346.897    0.206    0.378   83.671   13.251
  347.197    0.233    0.388   90.513   13.493
  347.497    0.228    0.398   96.737   14.263
  347.797    0.248    0.382   98.000   14.523
  348.097    0.248    0.370   91.832   15.071
  348.397    0.244    0.356   94.957   15.634
  348.697    0.239    0.358   96.845   16.225
  348.997    0.234    0.368   94.385   17.151
  349.297    0.230    0.378   96.272   18.821
  349.597    0.251    0.385   85.760   19.900
  349.897    0.258    0.392   78.969   23.100
  350.197    0.275    0.382   71.554   24.885
  350.497    0.282    0.373   55.466   26.310
  350.797    0.273    0.354   60.448   28.872
  351.097    0.251    0.347   75.969   31.102
  351.397    0.238    0.395   58.640   34.133
  351.697    0.275    0.381   55.572   38.169
  351.997    0.305    0.376   58.072   47.762
  352.297    0.296    0.362   56.862   50.489
  352.597    0.284    0.367   50.686   49.525
  352.897    0.297    0.354   55.050   41.042
  353.197    0.287    0.357   59.413   35.309
  353.497    0.285    0.359   66.260   35.288
