~VERSION INFORMATION
 VERS.                 2.0:   CWLS LOG ASCII STANDARD -VERSION 2.0
 WRAP.                  NO:   ONE LINE PER DEPTH STEP
~WELL INFORMATION BLOCK
#MNEM.UNIT           DATA                    DESCRIPTION OF MNEMONIC
#---------    -------------------            -------------------------------
# Generated from Intellog Unique Number	CS_71_72/WELL/879
WELL.         SUN OIL COMPANY                : Well_name    - WELL
LOC .         00/10-33-071-18W4/0            : Location     - LOCATION
UWI .         00/10-33-071-18W4/0            : Uwi          - UNIQUE WELL ID
ENTR.         SP                             : Entered      - ENTERED BY
SRVC.         SCHLUMBERGER                   : Scn          - SERVICE COMPANY
STRT.M        298.704                        : top_depth    - START DEPTH
STOP.M        487.454                        : bot_depth    - STOP DEPTH
STEP.M        0.25                           : increment    - STEP LENGTH
 NULL. -999.2500:NULL Value
~CURVE INFORMATION BLOCK
#MNEM UNIT       ERCB CURVE CODE    CURVE DESCRIPTION
#-----------   ------------------   ----------------------------------
DEPT.M        00 001 00 00         : DEPTH        - DEPTH
GR  .API      00 310 00 00         : GR           - GAMMA RAY
DPHI.V/V      00 890 00 00         : PHID         - DENSITY POROSITY (SANDSTONE)
NPHI.V/V      00 330 00 00         : PHIN         - NEUTRON POROSITY (SANDSTONE)
ILD .OHMM     00 120 00 00         : RESD         - DEEP RESISTIVITY (DIL)
~PARAMETER INFORMATION
#MNEM.UNIT           DATA             DESCRIPTION OF MNEMONIC
#---------         -----------     ------------------------------
GL  .M        592.684              : gl           - GROUND LEVEL ELEVATION
EREF.M        595.579              : kb           - ELEVATION OF DEPTH REFERENCE
DATM.M        592.684              : datum        - DATUM ELEVATION
TDD .M        489.814              : tdd          - TOTAL DEPTH DRILLER
RUN .         ONE                  : Run          - RUN NUMBER
ENG .         BILL                 : Engineer     - RECORDING ENGINEER
WIT .         JIM                  : Witness      - WITNESSED BY
MUD .         GEL                  : Mud_type     - MUD TYPE
MATR.         SANDSTONE            : Logunit      - NEUTRON MATRIX
TMAX.C        12.2222              : BHT          - MAXIMUM RECORDED TEMPERATURE
BHTD.M        489.814              : BHTDEP       - MAXIMUM RECORDED TEMPERATURE
MATR.         1                    : LOGUNIT      - NEUTRON MATRIX
RMT .C        25                   : MDTP         - TEMPERATURE OF MUD
NEUT.         1                    : NEUTRON      - NEUTRON TYPE
RESI.         0                    : RESIST       - RESISTIVITY TYPE
RMC .OHMM     0.25                 : RMC          - RESISTIVITY OF MUD CAKE
RMF .OHMM     0.25                 : RMF          - RESISTIVITY OF MUD FILTRATE
SUFT.C        15                   : SUFT         - SURFACE TEMPERATURE
~A  DEPTH       GR     PHID     PHIN     RESD
# ...
  342.204   94.532    0.190    0.476    5.256
  342.454   93.002    0.223    0.492    5.064
  342.704   93.799    0.248    0.506    4.924
  342.954   87.650    0.269    0.482    4.970
  343.204   83.804    0.288    0.466    5.152
  343.454   82.807    0.290    0.456    5.395
  343.704   84.535    0.278    0.443    5.610
  343.954   87.316    0.262    0.436    5.708
  344.204   92.447    0.253    0.446    5.778
  344.454   95.543    0.244    0.449    5.771
  344.704   97.598    0.234    0.446    5.636
  344.954   97.809    0.246    0.451    5.390
  345.204  100.313    0.248    0.466    5.110
  345.454  104.517    0.235    0.483    4.783
  345.704  106.479    0.237    0.499    4.531
  345.954  105.183    0.240    0.524    4.477
  346.204  103.030    0.227    0.478    4.673
  346.454   96.353    0.245    0.459    5.008
  346.704   91.986    0.261    0.445    5.269
  346.954   87.579    0.277    0.423    5.521
  347.204   82.863    0.269    0.424    5.696
  347.454   78.398    0.269    0.442    5.824
  347.704   71.591    0.275    0.451    5.870
  347.954   61.169    0.281    0.443    5.800
  348.204   55.703    0.283    0.434    5.627
  348.454   56.138    0.296    0.429    5.372
  348.704   58.867    0.301    0.419    5.190
  348.954   59.577    0.298    0.415    5.121
  349.204   59.702    0.309    0.424    5.112
  349.454   59.691    0.317    0.431    5.125
  349.704   59.893    0.319    0.445    5.074
  349.954   60.664    0.310    0.452    5.044
  350.204   59.448    0.319    0.439    4.986
  350.454   58.540    0.323    0.434    4.927
  350.704   57.922    0.321    0.432    4.832
  350.954   57.698    0.318    0.438    4.774
  351.204   57.334    0.322    0.444    4.742
  351.454   57.302    0.327    0.452    4.720
  351.704   57.075    0.334    0.443    4.702
  351.954   57.094    0.327    0.436    4.686
  352.204   57.711    0.320    0.431    4.679
  352.454   58.317    0.312    0.435    4.674
  352.704   59.702    0.318    0.442    4.678
  352.954   60.107    0.320    0.448    4.675
  353.204   61.319    0.331    0.442    4.672
  353.454   63.007    0.326    0.435    4.651
  353.704   64.276    0.331    0.432    4.648
  353.954   65.349    0.329    0.428    4.616
  354.204   66.224    0.318    0.421    4.594
  354.454   66.034    0.317    0.420    4.545
  354.704   65.639    0.329    0.426    4.562
  354.954   64.432    0.336    0.437    4.554
  355.204   63.469    0.332    0.458    4.626
  355.454   62.932    0.322    0.452    4.694
  355.704   62.920    0.316    0.438    4.702
  355.954   63.001    0.318    0.437    4.706
  356.204   62.739    0.325    0.443    4.682
  356.454   62.562    0.331    0.445    4.640
  356.704   62.359    0.318    0.431    4.627
  356.954   62.233    0.313    0.428    4.588
  357.204   62.083    0.315    0.427    4.578
  357.454   62.079    0.324    0.435    4.587
  357.704   63.499    0.328    0.449    4.576
  357.954   64.424    0.329    0.464    4.624
  358.204   65.709    0.337    0.458    4.684
  358.454   67.636    0.341    0.450    4.712
  358.704   68.740    0.322    0.465    4.712
  358.954   71.195    0.325    0.476    4.691
  359.204   71.969    0.329    0.471    4.691
  359.454   71.288    0.326    0.455    4.692
  359.704   69.933    0.322    0.440    4.683
  359.954   71.629    0.320    0.437    4.647
  360.204   71.567    0.320    0.439    4.647
  360.454   70.699    0.319    0.439    4.637
  360.704   69.522    0.320    0.438    4.634
  360.954   70.228    0.332    0.438    4.625
  361.204   68.905    0.337    0.453    4.591
  361.454   67.085    0.319    0.462    4.640
  361.704   65.203    0.306    0.452    4.647
  361.954   63.647    0.302    0.449    4.623
  362.204   62.809    0.312    0.456    4.613
  362.454   62.202    0.307    0.466    4.598
  362.704   61.781    0.314    0.476    4.545
  362.954   61.670    0.323    0.480    4.508
  363.204   61.721    0.332    0.481    4.473
  363.454   61.542    0.334    0.489    4.451
  363.704   61.735    0.325    0.496    4.431
  363.954   61.784    0.327    0.505    4.432
  364.204   61.861    0.336    0.486    4.429
  364.454   61.642    0.334    0.458    4.435
  364.704   61.662    0.322    0.452    4.430
  364.954   61.031    0.325    0.455    4.417
  365.204   63.992    0.331    0.453    4.405
  365.454   63.182    0.337    0.450    4.378
  365.704   62.512    0.343    0.456    4.352
  365.954   61.750    0.336    0.461    4.346
  366.204   61.022    0.336    0.464    4.366
  366.454   63.264    0.339    0.469    4.400
  366.704   66.581    0.343    0.470    4.466
  366.954   68.864    0.341    0.463    4.533
  367.204   70.003    0.335    0.458    4.573
  367.454   70.223    0.329    0.455    4.611
  367.704   69.636    0.329    0.463    4.619
  367.954   68.032    0.335    0.481    4.589
  368.204   68.430    0.329    0.496    4.597
  368.454   70.254    0.323    0.487    4.602
  368.704   75.214    0.322    0.488    4.684
  368.954   76.775    0.312    0.493    4.825
  369.204   77.606    0.308    0.475    5.009
  369.454   77.346    0.313    0.455    5.312
  369.704   75.252    0.225    0.406    5.746
  369.954   74.061    0.178    0.375    6.344
  370.204   70.622    0.152    0.338    7.110
  370.454   68.258    0.192    0.334    6.560
  370.704   65.968    0.235    0.411    5.905
  370.954   70.387    0.266    0.452    5.375
  371.204   72.665    0.291    0.461    4.873
  371.454   72.048    0.297    0.446    4.582
  371.704   70.266    0.297    0.440    4.542
  371.954   76.519    0.306    0.439    4.588
  372.204   80.365    0.312    0.443    4.668
  372.454   81.781    0.294    0.449    4.724
  372.704   79.829    0.293    0.448    4.776
  372.954   76.073    0.309    0.429    4.791
  373.204   78.377    0.301    0.426    4.796
  373.454   81.103    0.302    0.436    4.776
  373.704   85.714    0.290    0.437    4.696
  373.954   92.394    0.271    0.444    4.612
  374.204   97.489    0.250    0.457    4.541
  374.454  101.325    0.213    0.465    4.554
  374.704  101.860    0.192    0.476    4.599
  374.954  100.435    0.209    0.481    4.673
  375.204  101.136    0.221    0.462    4.755
  375.454  101.377    0.220    0.451    4.827
  375.704  101.568    0.209    0.462    4.786
  375.954  101.602    0.200    0.473    4.629
  376.204  101.914    0.207    0.466    4.575
  376.454  101.520    0.207    0.461    4.496
  376.704  101.262    0.207    0.465    4.368
  376.954   99.673    0.214    0.471    4.250
  377.204  103.240    0.201    0.460    4.142
  377.454  104.561    0.186    0.454    4.024
  377.704  102.451    0.180    0.462    3.857
  377.954   96.829    0.193    0.481    3.715
  378.204   92.228    0.211    0.492    3.551
  378.454   88.088    0.227    0.498    3.412
  378.704   84.051    0.258    0.487    3.232
  378.954   81.469    0.290    0.467    3.074
  379.204   81.857    0.282    0.460    2.994
  379.454   86.238    0.269    0.454    2.872
  379.704   88.783    0.245    0.471    2.789
  379.954   91.320    0.227    0.490    2.716
  380.204   92.739    0.257    0.500    2.714
  380.454   88.297    0.284    0.474    2.823
  380.704   84.581    0.300    0.430    2.931
  380.954   79.126    0.324    0.422    3.059
  381.204   75.207    0.334    0.414    3.154
  381.454   71.720    0.328    0.408    3.153
  381.704   68.077    0.326    0.400    3.154
  381.954   65.189    0.325    0.398    3.102
  382.204   69.591    0.324    0.404    3.055
  382.454   67.963    0.335    0.413    3.036
  382.704   65.642    0.332    0.421    3.070
  382.954   67.971    0.324    0.426    3.149
  383.204   70.375    0.328    0.431    3.311
  383.454   70.675    0.323    0.437    3.462
  383.704   71.032    0.328    0.443    3.538
  383.954   69.841    0.321    0.448    3.555
  384.204   68.181    0.309    0.456    3.525
  384.454   67.031    0.308    0.459    3.483
  384.704   69.218    0.316    0.452    3.465
  384.954   71.342    0.313    0.435    3.465
  385.204   72.268    0.320    0.442    3.470
  385.454   70.865    0.329    0.452    3.500
