~VERSION INFORMATION
 VERS.                 2.0:   CWLS LOG ASCII STANDARD -VERSION 2.0
 WRAP.                  NO:   ONE LINE PER DEPTH STEP
~WELL INFORMATION BLOCK
#MNEM.UNIT           DATA                    DESCRIPTION OF MNEMONIC
#---------    -------------------            -------------------------------
# Generated from Intellog Unique Number	CW_76_78/WELL/994
WELL.         11-06-076-22W4                 : Well_name    - WELL
LOC .         00/11-06-076-22W4/0            : Location     - LOCATION
UWI .         00/11-06-076-22W4/0            : Uwi          - UNIQUE WELL ID
ENTR.         JAYE                           : Entered      - ENTERED BY
SRVC.         SCHLUMBERGER                   : Scn          - SERVICE COMPANY
DATE.         19 DEC 72                      : Date         - LOG DATE
STRT.M        405.384                        : top_depth    - START DEPTH
STOP.M        643.134                        : bot_depth    - STOP DEPTH
STEP.M        0.25                           : increment    - STEP LENGTH
 NULL. -999.2500:NULL Value
~CURVE INFORMATION BLOCK
#MNEM UNIT       ERCB CURVE CODE    CURVE DESCRIPTION
#-----------   ------------------   ----------------------------------
DEPT.M        00 001 00 00         : DEPTH        - DEPTH
ILD .OHMM     00 120 00 00         : RESD         - DEEP RESISTIVITY (DIL)
NPHI.V/V      00 330 00 00         : PHIN         - NEUTRON POROSITY (SANDSTONE)
DPHI.V/V      00 890 00 00         : PHID         - DENSITY POROSITY (SANDSTONE)
GR  .API      00 310 00 00         : GR           - GAMMA RAY
CALI.MM       00 280 01 00         : CAL          - CALIPER
~PARAMETER INFORMATION
#MNEM.UNIT           DATA             DESCRIPTION OF MNEMONIC
#---------         -----------     ------------------------------
GL  .M        697.809              : gl           - GROUND LEVEL ELEVATION
EREF.M        701.04               : kb           - ELEVATION OF DEPTH REFERENCE
DATM.M        697.809              : datum        - DATUM ELEVATION
TDD .M        644.957              : tdd          - TOTAL DEPTH DRILLER
RUN .         ONE                  : Run          - RUN NUMBER
MATR.         SANDSTONE            : Logunit      - NEUTRON MATRIX
TMAX.C        30                   : BHT          - MAXIMUM RECORDED TEMPERATURE
BHTD.M        644.957              : BHTDEP       - MAXIMUM RECORDED TEMPERATURE
RMT .C        17.7778              : MDTP         - TEMPERATURE OF MUD
MUDD.KG/M     0                    : MWT          - MUD DENSITY
NEUT.         1                    : NEUTRON      - NEUTRON TYPE
RESI.         0                    : RESIST       - RESISTIVITY TYPE
RM  .OHMM     2.33                 : RM           - RESISTIVITY OF MUD
RMC .OHMM     0                    : RMC          - RESISTIVITY OF MUD CAKE
RMF .OHMM     2.71                 : RMF          - RESISTIVITY OF MUD FILTRATE
SUFT.C        -17.7778             : SUFT         - SURFACE TEMPERATURE
~A  DEPTH     RESD     PHIN     PHID       GR      CAL
# ...
  478.384    5.361    0.450    0.306   67.126  224.507
  478.634    5.681    0.496    0.261   69.038  224.455
  478.884    5.976    0.522    0.235   69.379  224.316
  479.134    6.206    0.524    0.227   68.140  224.369
  479.384    6.282    0.463    0.236   65.982  224.126
  479.634    6.244    0.447    0.222   68.204  223.969
  479.884    6.171    0.449    0.211   71.884  224.027
  480.134    5.978    0.461    0.246   75.567  224.407
  480.384    5.707    0.468    0.270   74.202  224.870
  480.634    5.290    0.480    0.265   76.668  225.745
  480.884    4.702    0.483    0.216   80.714  226.737
  481.134    4.059    0.475    0.216   80.931  227.722
  481.384    3.465    0.479    0.203   80.298  229.006
  481.634    3.206    0.487    0.200   81.062  230.615
  481.884    3.192    0.507    0.177   81.825  231.907
  482.134    3.333    0.521    0.171   81.801  233.098
  482.384    3.773    0.555    0.220   81.289  234.287
  482.634    4.334    0.552    0.170   80.835  235.171
  482.884    4.542    0.526    0.185   80.382  235.843
  483.134    4.674    0.471    0.207   80.052  236.316
  483.384    4.723    0.514    0.162   80.694  236.479
  483.634    4.729    0.502    0.159   83.342  236.127
  483.884    4.717    0.477    0.207   86.353  235.361
  484.134    4.594    0.496    0.189   88.698  235.420
  484.384    4.443    0.485    0.169   90.557  236.199
  484.634    4.249    0.513    0.144   88.038  236.970
  484.884    4.332    0.539    0.156   84.426  238.680
  485.134    4.676    0.567    0.173   81.299  240.070
  485.384    5.440    0.532    0.193   78.294  240.749
  485.634    6.860    0.515    0.222   74.499  235.659
  485.884    8.310    0.504    0.221   69.676  229.644
  486.134    9.355    0.365    0.126   64.420  226.719
  486.384    9.697    0.268    0.096   59.105  225.849
  486.634    9.727    0.277    0.060   60.662  225.511
  486.884    8.613    0.454    0.168   68.716  225.352
  487.134    6.934    0.534    0.217   77.625  225.510
  487.384    5.974    0.512    0.258   76.868  225.879
  487.634    5.300    0.488    0.282   71.311  226.363
  487.884    4.959    0.483    0.288   67.456  226.201
  488.134    4.838    0.512    0.282   63.665  225.955
  488.384    4.748    0.578    0.283   61.206  226.630
  488.634    4.667    0.565    0.288   60.510  229.463
  488.884    4.647    0.534    0.294   61.029  231.887
  489.134    4.704    0.517    0.299   63.561  233.491
  489.384    4.814    0.493    0.300   65.232  233.651
  489.634    4.855    0.501    0.295   66.116  233.403
  489.884    4.906    0.529    0.287   66.516  231.711
  490.134    4.966    0.519    0.278   64.728  229.710
  490.384    5.008    0.526    0.275   59.232  226.988
  490.634    5.032    0.538    0.279   57.869  224.580
  490.884    5.084    0.507    0.296   61.306  223.712
  491.134    5.063    0.540    0.305   64.380  223.665
  491.384    4.995    0.544    0.311   63.502  224.030
  491.634    4.946    0.509    0.290   62.080  225.222
  491.884    4.934    0.488    0.285   61.691  226.936
  492.134    4.867    0.520    0.286   61.660  227.409
  492.384    4.794    0.481    0.282   61.636  227.151
  492.634    4.686    0.457    0.274   61.488  226.485
  492.884    4.615    0.446    0.284   61.035  225.525
  493.134    4.571    0.436    0.290   60.156  225.366
  493.384    4.526    0.442    0.266   59.162  224.406
  493.634    4.481    0.474    0.268   58.890  223.941
  493.884    4.446    0.481    0.302   59.170  223.688
  494.134    4.427    0.493    0.279   59.574  223.028
  494.384    4.440    0.494    0.276   60.145  222.786
  494.634    4.453    0.476    0.285   61.094  223.039
  494.884    4.483    0.521    0.282   61.796  223.819
  495.134    4.513    0.533    0.267   61.830  224.609
  495.384    4.576    0.491    0.284   61.013  224.552
  495.634    4.590    0.469    0.296   59.530  224.413
  495.884    4.596    0.454    0.305   58.286  224.153
  496.134    4.618    0.486    0.287   57.713  224.011
  496.384    4.623    0.504    0.266   57.569  223.549
  496.634    4.629    0.505    0.253   58.153  223.301
  496.884    4.694    0.450    0.266   59.458  223.256
  497.134    4.778    0.478    0.253   61.498  223.422
  497.384    4.872    0.503    0.243   62.990  223.489
  497.634    5.014    0.481    0.235   64.179  223.231
  497.884    5.131    0.485    0.227   64.824  223.077
  498.134    5.147    0.492    0.227   65.163  223.243
  498.384    5.050    0.477    0.217   65.194  223.407
  498.634    4.901    0.456    0.202   63.955  223.368
  498.884    4.695    0.444    0.262   66.417  223.011
  499.134    4.540    0.519    0.234   72.226  222.654
  499.384    4.390    0.544    0.243   77.369  222.295
  499.634    4.237    0.530    0.250   76.366  222.254
  499.884    4.104    0.522    0.245   76.644  222.214
  500.134    3.998    0.466    0.219   77.590  222.160
  500.384    3.923    0.492    0.175   82.247  222.018
  500.634    3.878    0.498    0.201   85.803  221.878
  500.884    3.940    0.514    0.231   77.088  221.820
  501.134    4.114    0.505    0.271   73.900  221.578
  501.384    4.530    0.513    0.285   74.177  221.020
  501.634    5.008    0.530    0.226   75.550  220.659
  501.884    5.794    0.418    0.172   72.969  220.206
  502.134    6.741    0.280    0.131   64.434  220.162
  502.384    6.899    0.304    0.047   50.428  219.814
  502.634    6.598    0.356    0.184   51.982  219.659
  502.884    5.984    0.398    0.243   67.030  219.724
  503.134    5.270    0.494    0.226   77.092  219.673
  503.384    4.761    0.525    0.208   79.982  219.746
  503.634    4.529    0.504    0.192   81.050  219.802
  503.884    4.419    0.501    0.191   80.782  220.064
  504.134    4.344    0.493    0.200   78.080  220.529
  504.384    4.310    0.482    0.197   76.355  220.892
  504.634    4.299    0.492    0.191   77.482  221.359
  504.884    4.249    0.508    0.197   79.646  221.829
  505.134    4.192    0.503    0.206   76.214  224.355
  505.384    4.128    0.489    0.222   77.765  226.474
  505.634    4.088    0.475    0.224   81.755  227.867
  505.884    4.048    0.501    0.204   83.791  229.472
  506.134    3.994    0.479    0.198   83.828  230.454
  506.384    3.912    0.508    0.214   81.916  231.445
  506.634    3.824    0.488    0.216   81.038  232.637
  506.884    3.773    0.500    0.187   81.928  233.408
  507.134    3.784    0.516    0.200   83.235  233.778
  507.384    3.951    0.504    0.191   83.208  233.117
  507.634    4.111    0.486    0.204   81.179  230.916
  507.884    4.373    0.503    0.253   81.210  226.648
  508.134    4.798    0.513    0.262   86.288  221.868
  508.384    5.217    0.465    0.257   73.742  220.999
  508.634    5.498    0.441    0.266   68.678  221.363
  508.884    5.605    0.469    0.272   64.999  222.466
  509.134    5.623    0.492    0.281   55.555  223.647
  509.384    5.609    0.503    0.290   55.832  225.045
  509.634    5.524    0.483    0.289   57.026  226.343
  509.884    5.380    0.439    0.271   56.994  227.016
  510.134    5.269    0.417    0.264   56.301  227.376
  510.384    5.142    0.440    0.259   55.968  227.740
  510.634    5.045    0.456    0.281   56.248  227.699
  510.884    5.202    0.467    0.297   56.647  227.550
  511.134    5.666    0.498    0.263   56.801  227.305
  511.384    6.496    0.473    0.211   57.140  226.741
  511.634    8.073    0.303    0.160   57.848  226.285
  511.884    9.707    0.250    0.114   58.910  226.142
  512.134   10.908    0.295    0.124   60.707  226.193
  512.384   10.821    0.328    0.137   62.442  226.051
  512.634    9.070    0.337    0.132   64.060  225.387
  512.884    7.492    0.341    0.190   65.373  224.827
  513.134    6.337    0.376    0.234   66.740  223.856
  513.384    5.360    0.480    0.246   67.625  223.087
  513.634    5.024    0.484    0.229   67.416  222.427
  513.884    4.701    0.511    0.241   67.879  222.592
  514.134    4.529    0.489    0.239   69.007  222.028
  514.384    4.476    0.446    0.228   70.684  222.301
  514.634    4.416    0.428    0.243   72.844  222.360
