~VERSION INFORMATION
 VERS.                 2.0:   CWLS LOG ASCII STANDARD -VERSION 2.0
 WRAP.                  NO:   ONE LINE PER DEPTH STEP
~WELL INFORMATION BLOCK
#MNEM.UNIT           DATA                    DESCRIPTION OF MNEMONIC
#---------    -------------------            -------------------------------
# Generated from Intellog Unique Number	CX_WELLS/WELL/2813
WELL.         THORNBURY                      : Well_name    - WELL
LOC .         00/14-01-081-12W4/0            : Location     - LOCATION
UWI .         00/14-01-081-12W400            : Uwi          - UNIQUE WELL ID
ENTR.         T                              : Entered      - ENTERED BY
SRVC.         SCHLUMBERGER                   : Scn          - SERVICE COMPANY
STRT.M        275                            : top_depth    - START DEPTH
STOP.M        500                            : bot_depth    - STOP DEPTH
STEP.M        0.25                           : increment    - STEP LENGTH
 NULL. -999.2500:NULL Value
~CURVE INFORMATION BLOCK
#MNEM UNIT       ERCB CURVE CODE    CURVE DESCRIPTION
#-----------   ------------------   ----------------------------------
DEPT.M        00 001 00 00         : DEPTH        - DEPTH
GR  .API      00 310 00 00         : GR           - GAMMA RAY
NPHI.V/V      00 330 00 00         : PHIN         - NEUTRON POROSITY (SANDSTONE)
DPHI.V/V      00 890 00 00         : PHID         - DENSITY POROSITY (SANDSTONE)
ILD .OHMM     00 120 00 00         : RESD         - DEEP RESISTIVITY (OTHER)
~PARAMETER INFORMATION
#MNEM.UNIT           DATA             DESCRIPTION OF MNEMONIC
#---------         -----------     ------------------------------
GL  .M        704.3                : gl           - GROUND LEVEL ELEVATION
EREF.M        704.8                : kb           - ELEVATION OF DEPTH REFERENCE
DATM.M        704.8                : datum        - DATUM ELEVATION
TDD .M        515                  : tdd          - TOTAL DEPTH DRILLER
RUN .         ONE                  : Run          - RUN NUMBER
ENG .         BILL                 : Engineer     - RECORDING ENGINEER
WIT .         JIM                  : Witness      - WITNESSED BY
MUD .         GEL                  : Mud_type     - MUD TYPE
MATR.         SANDSTONE            : Logunit      - NEUTRON MATRIX
TMAX.C        26                   : BHT          - MAXIMUM RECORDED TEMPERATURE
BHTD.M        515                  : BHTDEP       - MAXIMUM RECORDED TEMPERATURE
MATR.         1                    : LOGUNIT      - NEUTRON MATRIX
RMT .C        15.6                 : MDTP         - TEMPERATURE OF MUD
NEUT.         1                    : NEUTRON      - NEUTRON TYPE
RESI.         5                    : RESIST       - RESISTIVITY TYPE
RMC .OHMM     4.5                  : RMC          - RESISTIVITY OF MUD CAKE
RMF .OHMM     3.9                  : RMF          - RESISTIVITY OF MUD FILTRATE
SUFT.C        4                    : SUFT         - SURFACE TEMPERATURE
~A  DEPTH       GR     PHIN     PHID     RESD
# ...
  405.500   77.908    0.373    0.173   11.101
  405.750   77.915    0.383    0.219   11.313
  406.000   77.922    0.389    0.268   11.530
  406.250   78.551    0.386    0.315   11.326
  406.500   79.181    0.385    0.332   11.333
  406.750   79.185    0.383    0.328   11.130
  407.000   81.691    0.383    0.322   10.730
  407.250   83.569    0.384    0.322   10.537
  407.500   86.697    0.390    0.294   10.349
  407.750   89.825    0.420    0.273    9.795
  408.000   91.705    0.426    0.254    9.443
  408.250   91.711    0.443    0.249    8.937
  408.500   90.469    0.453    0.251    8.617
  408.750   89.222    0.452    0.253    8.620
  409.000   86.731    0.448    0.254    8.625
  409.250   84.240    0.447    0.256    8.792
  409.500   82.998    0.446    0.256    8.961
  409.750   82.376    0.444    0.257    9.133
  410.000   82.383    0.442    0.257    9.308
  410.250   81.764    0.439    0.258    9.667
  410.500   81.145    0.434    0.262    9.853
  410.750   81.149    0.432    0.267    9.859
  411.000   81.156    0.433    0.269    9.863
  411.250   81.163    0.434    0.267    9.869
  411.500   81.792    0.437    0.264    9.872
  411.750   82.422    0.441    0.262    9.879
  412.000   83.052    0.443    0.258    9.882
  412.250   81.809    0.448    0.255    9.888
  412.500   81.189    0.443    0.249    9.711
  412.750   77.448    0.437    0.238    9.716
  413.000   72.460    0.423    0.227    9.544
  413.250   69.343    0.412    0.186    9.549
  413.500   66.849    0.408    0.139    9.553
  413.750   66.230    0.411    0.218    9.381
  414.000   66.860    0.422    0.268    9.216
  414.250   70.613    0.438    0.280    9.050
  414.500   74.992    0.458    0.289    8.727
  414.750   75.621    0.468    0.290    8.730
  415.000   75.629    0.470    0.290    8.416
  415.250   75.633    0.473    0.290    8.114
  415.500   75.638    0.473    0.289    7.823
  415.750   75.646    0.473    0.289    7.541
  416.000   75.649    0.473    0.289    7.272
  416.250   75.656    0.474    0.289    7.010
  416.500   75.660    0.474    0.287    6.760
  416.750   76.917    0.474    0.284    6.639
  417.000   80.669    0.475    0.279    6.519
  417.250   82.547    0.477    0.271    6.287
  417.500   86.299    0.480    0.263    6.173
  417.750   90.052    0.484    0.253    6.062
  418.000   93.807    0.490    0.247    5.846
  418.250   95.059    0.493    0.242    5.958
  418.500   96.313    0.492    0.240    6.072
  418.750   90.700    0.484    0.237    6.545
  419.000   83.211    0.471    0.228    6.922
  419.250   78.221    0.456    0.217    7.186
  419.500   77.603    0.455    0.208    7.462
  419.750   80.105    0.465    0.203    7.893
  420.000   80.737    0.475    0.196    8.046
  420.250   81.367    0.484    0.189    8.050
  420.500   80.748    0.492    0.195    8.205
  420.750   80.753    0.496    0.198    8.209
  421.000   82.009    0.498    0.203    8.214
  421.250   83.890    0.493    0.205    8.218
  421.500   83.892    0.486    0.205    8.222
  421.750   83.898    0.474    0.205    8.225
  422.000   83.282    0.472    0.202    8.078
  422.250   83.286    0.472    0.198    8.083
  422.500   83.291    0.471    0.195    7.940
  422.750   83.924    0.470    0.192    7.944
  423.000   83.930    0.465    0.186    7.948
  423.250   84.558    0.462    0.176    7.952
  423.500   85.188    0.458    0.179    7.956
  423.750   85.194    0.455    0.187    7.959
  424.000   85.824    0.453    0.191    7.963
  424.250   87.079    0.451    0.198    7.968
  424.500   88.333    0.449    0.201    7.972
  424.750   92.087    0.446    0.206    7.830
  425.000   94.589    0.445    0.209    7.691
  425.250   98.343    0.448    0.214    7.415
  425.500   99.596    0.453    0.219    7.017
  425.750   98.977    0.461    0.224    6.640
  426.000   95.861    0.476    0.232    6.168
  426.250   93.369    0.492    0.242    5.421
  426.500   90.876    0.511    0.272    4.852
  426.750   88.384    0.527    0.280    4.034
  427.000   85.892    0.534    0.282    3.678
  427.250   83.401    0.527    0.267    3.547
  427.500   82.155    0.508    0.256    3.751
  427.750   77.791    0.492    0.241    4.194
  428.000   77.172    0.481    0.227    4.691
  428.250   77.178    0.462    0.222    5.054
  428.500   77.807    0.433    0.219    5.758
  428.750   77.815    0.423    0.217    6.559
  429.000   77.195    0.425    0.207    7.474
  429.250   76.575    0.424    0.181    7.760
  429.500   75.956    0.422    0.177    8.057
  429.750   75.337    0.428    0.199    7.767
  430.000   74.718    0.434    0.204    7.215
  430.250   75.348    0.459    0.218    6.703
  430.500   79.102    0.475    0.230    6.114
  430.750   83.480    0.489    0.235    5.786
  431.000   85.982    0.499    0.234    5.476
  431.250   84.114    0.502    0.231    5.377
  431.500   82.246    0.492    0.231    5.184
  431.750   83.502    0.483    0.233    5.092
  432.000   85.380    0.482    0.233    5.094
  432.250   88.510    0.489    0.233    5.096
  432.500   91.014    0.502    0.233    5.100
  432.750   94.768    0.517    0.231    5.008
  433.000   96.644    0.521    0.225    4.920
  433.250   99.149    0.515    0.215    4.921
  433.500  100.402    0.504    0.199    4.924
  433.750   99.786    0.488    0.186    5.113
  434.000   99.164    0.487    0.210    5.409
  434.250   97.922    0.487    0.214    5.513
  434.500   96.681    0.494    0.222    5.832
  434.750   96.684    0.504    0.225    5.834
  435.000   96.692    0.513    0.218    6.058
  435.250   96.695    0.513    0.205    6.175
  435.500   98.575    0.510    0.176    6.293
  435.750   99.204    0.504    0.171    6.296
  436.000  101.086    0.499    0.197    6.419
  436.250  102.966    0.494    0.224    6.422
  436.500  103.593    0.484    0.230    6.424
  436.750  104.223    0.471    0.226    6.550
  437.000  101.731    0.444    0.220    6.551
  437.250   95.491    0.419    0.226    7.061
  437.500   89.876    0.399    0.252    7.468
  437.750   84.263    0.386    0.328    7.899
  438.000   80.520    0.386    0.335    8.354
  438.250   76.158    0.392    0.283    9.173
  438.500   76.785    0.402    0.234    9.884
  438.750   78.667    0.409    0.198   10.073
  439.000   79.294    0.405    0.228   10.461
  439.250   79.300    0.395    0.242   10.661
  439.500   78.059    0.384    0.252   10.867
  439.750   77.437    0.383    0.245   11.283
  440.000   77.443    0.384    0.239   11.717
  440.250   81.198    0.384    0.236   12.167
  440.500   84.326    0.384    0.236   12.398
  440.750   86.830    0.384    0.236   12.636
  441.000   88.083    0.385    0.236   13.120
  441.250   88.713    0.388    0.235   13.373
  441.500   89.967    0.392    0.234   13.632
  441.750   91.846    0.395    0.231   14.154
  442.000   94.353    0.401    0.229   14.426
  442.250   96.856    0.406    0.226   14.979
  442.500   99.985    0.413    0.226   15.555
  442.750  101.863    0.418    0.230   16.149
  443.000  106.241    0.416    0.237   16.770
  443.250  108.743    0.388    0.241   17.412
  443.500  109.998    0.378    0.219   17.747
  443.750   95.641    0.361    0.220   18.427
  444.000   83.783    0.343    0.235   19.133
  444.250   80.665    0.332    0.253   19.504
  444.500   75.048    0.321    0.255   19.881
  444.750   66.935    0.331    0.248   19.521
  445.000   66.942    0.345    0.240   19.175
  445.250   66.323    0.357    0.236   18.486
  445.500   65.704    0.352    0.235   17.822
  445.750   68.206    0.345    0.232   17.503
  446.000   71.960    0.348    0.225   16.875
  446.250   77.588    0.371    0.219   16.577
  446.500   82.588    0.372    0.209   16.277
  446.750   90.087    0.373    0.190   15.988
  447.000   98.211    0.378    0.195   15.994
  447.250   95.094    0.378    0.220   16.002
  447.500   90.103    0.377    0.236   16.312
  447.750   81.991    0.373    0.251   17.579
  448.000   73.255    0.370    0.257   18.592
  448.250   68.264    0.364    0.251   20.034
  448.500   69.519    0.362    0.243   21.191
  448.750   72.025    0.359    0.240   23.267
