~VERSION INFORMATION
 VERS.                 2.0:   CWLS LOG ASCII STANDARD -VERSION 2.0
 WRAP.                  NO:   ONE LINE PER DEPTH STEP
~WELL INFORMATION BLOCK
#MNEM.UNIT           DATA                    DESCRIPTION OF MNEMONIC
#---------    -------------------            -------------------------------
# Generated from Intellog Unique Number	CW_70_72/WELL/1060
NULL.         -999.25                        : NULL_VALUE
WELL.         HUSKY ET AL SMITH 11-21        : Well_name    - WELL              
LOC .         11-21-071-24W4                 : Location     - LOCATION          
UWI .         00/11-21-071-24W4/0            : Uwi          - UNIQUE WELL ID    
ENTR.         JAYE                           : Entered      - ENTERED BY        
SRVC.         SCHLUMBERGER                   : Scn          - SERVICE COMPANY   
DATE.         18 DEC 77                      : Date         - LOG DATE          
STRT.M        422.453                        : top_depth    - START DEPTH       
STOP.M        642.453                        : bot_depth    - STOP DEPTH        
STEP.M        0.25                           : increment    - STEP LENGTH       
~CURVE INFORMATION BLOCK
#MNEM UNIT       ERCB CURVE CODE    CURVE DESCRIPTION
#-----------   ------------------   ----------------------------------
DEPT.M        00 001 00 00         : DEPTH        - DEPTH                       
DPHI.V/V      00 890 00 00         : PHID         - DENSITY POROSITY (SANDSTONE)
NPHI.V/V      00 330 00 00         : PHIN         - NEUTRON POROSITY (SANDSTONE)
GR  .API      00 310 00 00         : GR           - GAMMA RAY                   
CALI.MM       00 280 01 00         : CAL          - CALIPER                     
ILD .OHMM     00 120 00 00         : RESD         - DEEP RESISTIVITY (DIL)      
~PARAMETER INFORMATION       
#MNEM.UNIT           DATA             DESCRIPTION OF MNEMONIC
#---------         -----------     ------------------------------
GL  .M        642.671              : gl           - GROUND LEVEL ELEVATION      
EREF.M        646.633              : kb           - ELEVATION OF DEPTH REFERENCE
DATM.M        642.671              : datum        - DATUM ELEVATION             
TDD .M        658.368              : tdd          - TOTAL DEPTH DRILLER         
RUN .         ONE                  : Run          - RUN NUMBER                  
ENG .         DALY                 : Engineer     - RECORDING ENGINEER          
WIT .         TODD/GEORGE          : Witness      - WITNESSED BY                
BASE.         EDM                  : Branch       - HOME BASE OF LOGGING UNIT   
MUD .         GEL                  : Mud_type     - MUD TYPE                    
MATR.         SANDSTONE            : Logunit      - NEUTRON MATRIX              
TMAX.C        26.1111              : BHT          - MAXIMUM RECORDED TEMPERATURE
BHTD.M        658.368              : BHTDEP       - MAXIMUM RECORDED TEMPERATURE
RMT .C        -17.7778             : MDTP         - TEMPERATURE OF MUD          
MUDD.KG/M     1092                 : MWT          - MUD DENSITY                 
NEUT.         1                    : NEUTRON      - NEUTRON TYPE                
RESI.         0                    : RESIST       - RESISTIVITY TYPE            
RM  .OHMM     0                    : RM           - RESISTIVITY OF MUD          
RMC .OHMM     0                    : RMC          - RESISTIVITY OF MUD CAKE     
RMF .OHMM     6.97                 : RMF          - RESISTIVITY OF MUD FILTRATE 
SUFT.C        -17.7778             : SUFT         - SURFACE TEMPERATURE         
~A  DEPTH     PHID     PHIN       GR      CAL     RESD
# ...
  604.953    0.138    0.377  140.186  176.938    3.065
  605.203    0.133    0.389  140.691  176.947    3.407
  605.453    0.133    0.403  142.693  177.062    3.759
  605.703    0.145    0.409  138.893  177.495    4.217
  605.953    0.136    0.408  134.717  177.608    4.922
  606.203    0.098    0.401  131.353  177.725    5.290
  606.453    0.117    0.369  123.996  176.994    5.417
  606.703    0.076    0.324  114.766  174.573    5.177
  606.953   -0.010    0.259  108.282  172.257    4.847
  607.203   -0.026    0.221   91.565  174.380    4.573
  607.453    0.091    0.297  124.829  177.031    4.290
  607.703    0.126    0.337  133.882  177.782    4.131
  607.953    0.146    0.360  132.515  177.789    4.075
  608.203    0.139    0.371  131.709  178.117    4.035
  608.453    0.143    0.366  132.901  178.231    4.072
  608.703    0.130    0.371  129.724  178.346    4.123
  608.953    0.130    0.393  123.365  178.461    4.128
  609.203    0.120    0.398  121.810  178.787    4.035
  609.453    0.130    0.393  120.069  179.432    3.921
  609.703    0.147    0.382  136.068  179.969    3.846
  609.953    0.129    0.389  133.504  180.191    3.746
  610.203    0.122    0.389  133.996  180.304    3.655
  610.453    0.109    0.384  137.243  180.207    3.585
  610.703    0.101    0.380  141.671  179.900    3.498
  610.953    0.093    0.384  141.172  179.593    3.450
  611.203    0.116    0.380  138.799  179.497    3.481
  611.453    0.145    0.397  137.165  179.716    3.598
  611.703    0.093    0.392  134.789  180.043    3.739
  611.953    0.073    0.381  132.538  180.054    3.938
  612.203    0.100    0.375  133.909  180.169    4.123
  612.453    0.097    0.373  127.100  180.283    4.343
  612.703    0.109    0.369  129.475  180.292    4.505
  612.953    0.123    0.367  133.090  180.407    4.570
  613.203    0.126    0.365  135.522  180.734    4.569
  613.453    0.103    0.359  136.768  181.059    4.532
  613.703    0.120    0.352  137.579  181.174    4.455
  613.953    0.110    0.366  138.387  181.712    4.370
  614.203    0.122    0.367  140.072  182.355    4.287
  614.453    0.123    0.362  142.329  183.316    4.158
  614.703    0.126    0.354  144.066  183.958    3.975
  614.953    0.136    0.357  145.622  184.496    3.778
  615.203    0.126    0.367  143.621  184.718    3.637
  615.453    0.110    0.380  142.557  185.571    3.496
  615.703    0.105    0.399  139.869  186.427    3.367
  615.953    0.119    0.412  137.991  186.858    3.315
  616.203    0.103    0.420  139.550  186.868    3.295
  616.453    0.103    0.427  144.107  186.560    3.392
  616.703    0.131    0.425  141.860  186.358    3.586
  616.953    0.125    0.415  138.978  185.840    3.734
  617.203    0.112    0.407  134.605  185.109    3.860
  617.453    0.105    0.401  154.840  184.591    3.982
  617.703    0.090    0.375  162.208  183.859    4.109
  617.953    0.106    0.355  164.958  183.235    4.239
  618.203    0.114    0.339  154.898  182.505    4.389
  618.453    0.128    0.364  147.959  181.881    4.631
  618.703    0.142    0.388  140.147  181.466    4.913
  618.953    0.156    0.405  127.837  181.265    5.282
  619.203    0.136    0.396  127.463  181.274    5.468
  619.453    0.120    0.378  132.392  181.283    5.487
  619.703    0.112    0.358  137.638  181.294    5.463
  619.953    0.113    0.349  141.952  181.303    5.400
  620.203    0.108    0.342  144.814  180.890    5.318
  620.453    0.117    0.335  148.690  180.582    5.266
  620.703    0.108    0.335  151.496  180.696    5.223
  620.953    0.117    0.345  156.425  180.917    5.162
  621.203    0.107    0.349  164.232  180.609    5.102
  621.453    0.106    0.351  173.724  180.196    5.035
  621.703    0.118    0.355  179.469  179.360    4.985
  621.953    0.127    0.364  161.038  178.102    4.927
  622.203    0.135    0.381  155.166  177.372    4.869
  622.453    0.135    0.388  160.533  176.853    4.796
  622.703    0.135    0.380  170.529  176.122    4.756
  622.953    0.132    0.367  175.645  175.391    4.693
  623.203    0.130    0.366  180.516  174.661    4.621
  623.453    0.132    0.379  185.327  174.987    4.541
  623.703    0.138    0.398  189.070  175.632    4.422
  623.953    0.145    0.400  189.004  176.171    4.298
  624.203    0.161    0.380  183.128  176.496    4.216
  624.453    0.182    0.381  172.755  176.927    4.175
  624.703    0.199    0.399  160.071  177.148    4.324
  624.953    0.216    0.455  149.759  175.889    4.612
  625.203    0.247    0.518  149.132  175.898    4.939
  625.453    0.310    0.538  152.134  177.704    4.864
  625.703    0.245    0.426  153.873  182.997    4.453
  625.953    0.145    0.374  153.559  180.893    4.009
  626.203    0.152    0.398  151.181  177.205    3.762
  626.453    0.133    0.411  152.929  175.523    3.676
  626.703    0.138    0.427  167.233  169.826    3.647
  626.953    0.170    0.414  193.777  162.333    3.798
  627.203    0.193    0.365  214.765  158.222    4.113
  627.453    0.203    0.329  238.880  160.451    4.479
  627.703    0.173    0.357  252.053  165.743    4.815
  627.953    0.172    0.387  298.844  170.085    5.051
  628.203    0.187    0.413  300.907  172.101    5.067
  628.453    0.176    0.431  301.211  172.744    4.736
  628.703    0.154    0.375  301.464  170.747    4.377
  628.953    0.135    0.362  301.459  167.692    4.045
  629.203    0.126    0.341  300.702  167.279    3.795
  629.453    0.080    0.354  297.887  170.669    3.654
  629.703    0.076    0.376  284.453  175.855    3.653
  629.953    0.088    0.386  267.274  175.654    3.733
  630.203    0.089    0.388  254.091  173.655    3.844
  630.453    0.116    0.387  247.715  171.974    3.973
  630.703    0.110    0.389  250.647  172.618    4.076
  630.953    0.112    0.400  272.136  169.246    4.120
  631.203    0.089    0.410  281.191  166.507    3.937
  631.453    0.096    0.415  291.184  172.751    3.639
  631.703    0.138    0.398  300.926  172.761    3.370
  631.953    0.139    0.379  311.542  170.867    3.160
  632.203    0.133    0.372  320.846  167.813    2.857
  632.453    0.137    0.390  329.714  166.448    2.674
  632.703    0.132    0.409  339.269  167.409    2.444
  632.953    0.150    0.444  347.575  173.019    2.234
  633.203    0.108    0.459  353.131  175.352    1.989
  633.453    0.093    0.497  358.378  173.883    1.817
  633.703    0.094    0.515  363.809  170.300    1.683
  633.953    0.129    0.515  370.125  167.139    1.626
  634.203    0.153    0.509  361.304  163.345    1.584
  634.453    0.172    0.492  350.620  162.720    1.583
  634.703    0.186    0.487  345.751  162.307    1.612
  634.953    0.188    0.481  347.624  162.844    1.700
  635.203    0.170    0.480  356.108  166.975    1.807
  635.453    0.142    0.488  368.911  170.576    1.911
  635.703    0.158    0.496  391.461  164.880    1.971
  635.953    0.168    0.478  382.214  159.289    2.080
  636.203    0.130    0.458  350.102  160.672    2.232
  636.453    0.116    0.440  326.110  167.127    2.399
  636.703    0.110    0.426  309.176  171.785    2.597
  636.953    0.124    0.409  293.182  170.738    2.725
  637.203    0.154    0.392  276.501  171.276    2.859
  637.453    0.124    0.376  258.506  172.131    3.027
  637.703    0.090    0.362  234.263  172.986    2.840
  637.953    0.099    0.356  201.839  173.839    2.714
  638.203    0.109    0.359  192.965  174.483    2.580
  638.453    0.111    0.383  176.158  175.021    2.471
  638.703    0.124    0.418  147.732  174.819    2.375
  638.953    0.105    0.431  114.806  174.088    2.338
  639.203    0.111    0.445   63.453  168.075    2.272
  639.453    0.144    0.457   42.274  161.639    2.229
  639.703    0.159    0.403   28.715  160.380    2.207
  639.953    0.171    0.389   17.093  160.178    2.185
  640.203    0.130    0.378   19.089  160.187    2.164
  640.453    0.149    0.369   21.841  160.937    2.143
  640.703    0.147    0.365   23.709  164.327    2.166
  640.953    0.145    0.367   24.956  166.344    2.222
  641.203    0.150    0.377   25.700  162.232    2.470
