~VERSION INFORMATION
 VERS.                 2.0:   CWLS LOG ASCII STANDARD -VERSION 2.0
 WRAP.                  NO:   ONE LINE PER DEPTH STEP
~WELL INFORMATION BLOCK
#MNEM.UNIT           DATA                    DESCRIPTION OF MNEMONIC
#---------    -------------------            -------------------------------
# Generated from Intellog Unique Number	CS_77_79/WELL/959
WELL.         MESA PETROLEUM (NA) CO.        : Well_name    - WELL
LOC .         00/10-22-077-11W4/0            : Location     - LOCATION
UWI .         00/10-22-077-11W4/0            : Uwi          - UNIQUE WELL ID
ENTR.         SP                             : Entered      - ENTERED BY
SRVC.         SCHLUMBERGER                   : Scn          - SERVICE COMPANY
STRT.F        900                            : top_depth    - START DEPTH
STOP.F        1689.86                        : bot_depth    - STOP DEPTH
STEP.F        0.82                           : increment    - STEP LENGTH
 NULL. -999.2500:NULL Value
~CURVE INFORMATION BLOCK
#MNEM UNIT       ERCB CURVE CODE    CURVE DESCRIPTION
#-----------   ------------------   ----------------------------------
DEPT.F        00 001 00 00         : DEPTH        - DEPTH
GR  .API      00 310 00 00         : GR           - GAMMA RAY
NPHI.V/V      00 330 00 00         : PHIN         - NEUTRON POROSITY (SANDSTONE)
DPHI.V/V      00 890 00 00         : PHID         - DENSITY POROSITY (SANDSTONE)
ILD .OHMM     00 120 00 00         : RESD         - DEEP RESISTIVITY (DIL)
~PARAMETER INFORMATION
#MNEM.UNIT           DATA             DESCRIPTION OF MNEMONIC
#---------         -----------     ------------------------------
GL  .M        687.019              : gl           - GROUND LEVEL ELEVATION
EREF.M        691.134              : kb           - ELEVATION OF DEPTH REFERENCE
DATM.M        687.019              : datum        - DATUM ELEVATION
TDD .M        544.068              : tdd          - TOTAL DEPTH DRILLER
RUN .         ONE                  : Run          - RUN NUMBER
ENG .         BILL                 : Engineer     - RECORDING ENGINEER
WIT .         JIM                  : Witness      - WITNESSED BY
MUD .         GEL                  : Mud_type     - MUD TYPE
MATR.         SANDSTONE            : Logunit      - NEUTRON MATRIX
TMAX.C        25                   : BHT          - MAXIMUM RECORDED TEMPERATURE
BHTD.M        552                  : BHTDEP       - MAXIMUM RECORDED TEMPERATURE
MATR.         1                    : LOGUNIT      - NEUTRON MATRIX
RMT .C        25                   : MDTP         - TEMPERATURE OF MUD
NEUT.         1                    : NEUTRON      - NEUTRON TYPE
RESI.         0                    : RESIST       - RESISTIVITY TYPE
RMC .OHMM     0.25                 : RMC          - RESISTIVITY OF MUD CAKE
RMF .OHMM     0.25                 : RMF          - RESISTIVITY OF MUD FILTRATE
SUFT.C        15                   : SUFT         - SURFACE TEMPERATURE
~A  DEPTH       GR     PHIN     PHID     RESD
# ...
 1042.720  108.636    0.465    0.247   14.978
 1043.540  106.161    0.468    0.246   15.823
 1044.360  101.832    0.468    0.252   16.111
 1045.180   97.506    0.468    0.260   16.103
 1046.000   90.708    0.467    0.261   15.802
 1046.820   84.527    0.471    0.267   15.216
 1047.640   80.200    0.473    0.275   14.931
 1048.460   77.725    0.472    0.288   14.649
 1049.280   78.340    0.455    0.298   14.643
 1050.100   77.101    0.463    0.292   14.632
 1050.920   75.243    0.471    0.286   14.902
 1051.740   73.386    0.474    0.271   14.894
 1052.560   75.236    0.468    0.273   15.163
 1053.380   78.937    0.451    0.269   15.440
 1054.200   80.168    0.442    0.257   15.429
 1055.020   80.782    0.433    0.244   15.423
 1055.840   82.013    0.437    0.225   14.854
 1056.660   81.392    0.445    0.223   14.578
 1057.480   80.152    0.449    0.226   14.039
 1058.300   80.150    0.448    0.231   13.775
 1059.120   83.232    0.445    0.235   13.770
 1059.940   85.081    0.442    0.236   13.760
 1060.760   85.078    0.443    0.230   13.754
 1061.580   85.073    0.444    0.230   13.246
 1062.400   87.540    0.439    0.235   12.762
 1063.220   90.008    0.438    0.234   12.066
 1064.040   90.003    0.433    0.229   11.621
 1064.860   90.000    0.430    0.228   12.741
 1065.680   90.612    0.429    0.223   13.712
 1066.500   91.844    0.438    0.224   14.759
 1067.320   93.076    0.448    0.228   15.594
 1068.140   94.306    0.460    0.239   16.176
 1068.960   94.304    0.468    0.235   16.773
 1069.780   94.918    0.477    0.232   16.154
 1070.600   97.383    0.488    0.234   15.854
 1071.420   94.292    0.495    0.236   14.713
 1072.240   91.199    0.494    0.247   14.174
 1073.060   91.195    0.492    0.259   13.402
 1073.880   91.190    0.494    0.266   12.670
 1074.700   92.424    0.502    0.237   12.432
 1075.520   96.126    0.516    0.222   12.891
 1076.350   99.826    0.522    0.239   13.128
 1077.170  100.440    0.518    0.256   13.870
 1077.990   96.729    0.505    0.270   14.655
 1078.810   95.491    0.489    0.262   15.200
 1079.630   92.398    0.476    0.268   15.478
 1080.450   90.542    0.467    0.276   15.468
 1081.270   89.303    0.461    0.281   14.899
 1082.090   88.681    0.458    0.286   14.087
 1082.910   88.060    0.458    0.275   13.078
 1083.730   88.056    0.459    0.252   11.697
 1084.550   87.435    0.465    0.248   10.659
 1085.370   87.431    0.469    0.247   10.077
 1086.190   87.427    0.473    0.241    9.352
 1087.010   87.422    0.483    0.224    8.843
 1087.830   89.271    0.493    0.205    8.362
 1088.650   90.504    0.504    0.190    7.619
 1089.470   92.970    0.513    0.198    7.339
 1090.290   93.584    0.516    0.213    6.810
 1091.110   94.198    0.506    0.236    6.806
 1091.930   92.959    0.503    0.239    6.804
 1092.750   89.249    0.506    0.246    6.802
 1093.570   88.009    0.507    0.251    7.186
 1094.390   86.770    0.510    0.245    7.878
 1095.210   81.207    0.511    0.242   10.786
 1096.030   75.027    0.517    0.255   11.396
 1096.850   70.700    0.539    0.286   12.494
 1097.670   65.137    0.562    0.345   15.026
 1098.490   60.191    0.574    0.372   18.409
 1099.310   57.100    0.556    0.377   22.974
 1100.130   54.626    0.487    0.360   23.828
 1100.950   53.386    0.482    0.361   23.813
 1101.770   53.383    0.482    0.360   23.801
 1102.590   53.379    0.481    0.356   23.354
 1103.410   53.374    0.483    0.356   23.345
 1104.230   53.988    0.487    0.354   22.483
 1105.050   53.984    0.492    0.351   21.652
 1105.870   54.597    0.493    0.354   21.644
 1106.690   54.595    0.488    0.356   21.239
 1107.510   55.208    0.482    0.360   20.837
 1108.330   55.821    0.475    0.364   20.827
 1109.150   56.436    0.473    0.361   20.816
 1109.970   57.049    0.482    0.355   20.806
 1110.790   57.046    0.493    0.351   20.796
 1111.610   57.040    0.492    0.355   20.785
 1112.430   57.037    0.485    0.358   20.772
 1113.250   57.650    0.485    0.364   20.762
 1114.070   58.264    0.486    0.366   20.749
 1114.900   58.260    0.483    0.367   20.741
 1115.720   58.872    0.481    0.365   20.733
 1116.540   59.488    0.480    0.360   20.721
 1117.360   59.483    0.479    0.365   20.710
 1118.180   59.480    0.475    0.370   20.700
 1119.000   59.474    0.473    0.371   20.692
 1119.820   59.471    0.470    0.370   19.928
 1120.640   59.469    0.473    0.369   19.555
 1121.460   59.465    0.480    0.367   19.185
 1122.280   59.461    0.482    0.364   18.822
 1123.100   58.839    0.487    0.365   18.470
 1123.920   58.834    0.491    0.365   18.463
 1124.740   59.447    0.493    0.358   18.453
 1125.560   59.445    0.494    0.352   18.786
 1126.380   60.059    0.484    0.348   19.128
 1127.200   58.819    0.487    0.346   19.120
 1128.020   57.581    0.493    0.344   19.468
 1128.840   55.721    0.496    0.343   19.817
 1129.660   56.337    0.496    0.346   19.444
 1130.480   59.421    0.488    0.349   19.075
 1131.300   61.270    0.479    0.352   18.719
 1132.120   61.884    0.475    0.352   18.366
 1132.940   61.880    0.484    0.350   18.021
 1133.760   61.875    0.495    0.350   17.681
 1134.580   62.489    0.505    0.351   17.673
 1135.400   64.338    0.513    0.349   17.338
 1136.220   65.570    0.521    0.349   17.331
 1137.040   65.566    0.520    0.347   17.323
 1137.860   63.092    0.509    0.347   17.637
 1138.680   61.235    0.502    0.352   17.629
 1139.500   61.848    0.499    0.357   17.951
 1140.320   61.845    0.497    0.358   17.942
 1141.140   59.987    0.491    0.360   17.931
 1141.960   58.749    0.487    0.366   17.591
 1142.780   57.509    0.484    0.369   17.585
 1143.600   57.505    0.480    0.375   17.578
 1144.420   56.883    0.483    0.368   17.895
 1145.240   54.408    0.489    0.363   17.886
 1146.060   53.788    0.493    0.363   17.880
 1146.880   51.931    0.498    0.362   17.541
 1147.700   53.780    0.502    0.360   16.893
 1148.520   57.481    0.501    0.358   16.577
 1149.340   59.330    0.498    0.353   15.670
 1150.160   59.326    0.493    0.351   15.666
 1150.980   58.704    0.481    0.351   15.372
 1151.800   57.465    0.475    0.352   15.651
 1152.620   56.843    0.475    0.352   16.231
 1153.440   56.840    0.475    0.352   16.834
 1154.270   55.600    0.485    0.351   17.462
 1155.090   54.360    0.496    0.348   18.448
 1155.910   54.358    0.500    0.343   18.785
 1156.730   56.207    0.490    0.320   18.427
 1157.550   59.292    0.477    0.266   17.751
 1158.370   58.670    0.398    0.167   17.099
 1159.190   58.666    0.428    0.233   15.577
 1160.010   61.751    0.465    0.333   14.732
 1160.830   62.982    0.498    0.359   13.930
 1161.650   62.977    0.513    0.359   13.171
 1162.470   61.119    0.508    0.358   12.921
 1163.290   59.881    0.506    0.354   12.680
 1164.110   59.258    0.507    0.353   11.767
 1164.930   58.638    0.507    0.368   10.920
 1165.750   59.252    0.501    0.362   10.521
 1166.570   59.247    0.492    0.351   10.514
 1167.390   59.244    0.495    0.342   10.511
 1168.210   58.004    0.501    0.342   10.701
 1169.030   57.383    0.503    0.344   10.695
 1169.850   59.230    0.506    0.344   10.691
 1170.670   61.080    0.507    0.344   10.490
 1171.490   62.312    0.509    0.341    9.736
 1172.310   62.308    0.509    0.338    8.392
 1173.130   61.686    0.513    0.339    7.233
 1173.950   61.683    0.517    0.341    6.352
 1174.770   63.531    0.522    0.342    5.788
 1175.590   66.615    0.525    0.341    5.177
 1176.410   69.082    0.529    0.335    5.174
 1177.230   71.550    0.531    0.310    5.269
 1178.050   75.252    0.534    0.301    5.567
 1178.870   74.013    0.537    0.316    5.772
 1179.690   70.921    0.545    0.327    5.664
 1180.510   69.681    0.513    0.324    5.257
 1181.330   70.295    0.496    0.313    4.971
 1182.150   72.759    0.491    0.298    4.613
 1182.970   73.375    0.499    0.288    4.612
 1183.790   76.459    0.503    0.286    4.442
 1184.610   78.308    0.513    0.294    4.359
