~VERSION INFORMATION
 VERS.                 2.0:   CWLS LOG ASCII STANDARD -VERSION 2.0
 WRAP.                  NO:   ONE LINE PER DEPTH STEP
~WELL INFORMATION BLOCK
#MNEM.UNIT           DATA                    DESCRIPTION OF MNEMONIC
#---------    -------------------            -------------------------------
# Generated from Intellog Unique Number	CW_70_72/WELL/1053
NULL.         -999.25                        : NULL_VALUE
WELL.         LAND BANK ET AL MITSUE 11-03-0 : Well_name    - WELL              
LOC .         11-03-072-03W5                 : Location     - LOCATION          
UWI .         00/11-03-072-03W5/0            : Uwi          - UNIQUE WELL ID    
ENTR.         JAYE                           : Entered      - ENTERED BY        
SRVC.         SCHLUMBERGER                   : Scn          - SERVICE COMPANY   
DATE.         13 FEB 79                      : Date         - LOG DATE          
STRT.M        395                            : top_depth    - START DEPTH       
STOP.M        602                            : bot_depth    - STOP DEPTH        
STEP.M        0.25                           : increment    - STEP LENGTH       
~CURVE INFORMATION BLOCK
#MNEM UNIT       ERCB CURVE CODE    CURVE DESCRIPTION
#-----------   ------------------   ----------------------------------
DEPT.M        00 001 00 00         : DEPTH        - DEPTH                       
DPHI.V/V      00 890 00 00         : PHID         - DENSITY POROSITY (SANDSTONE)
NPHI.V/V      00 330 00 00         : PHIN         - NEUTRON POROSITY (SANDSTONE)
GR  .API      00 310 00 00         : GR           - GAMMA RAY                   
CALI.MM       00 280 01 00         : CAL          - CALIPER                     
ILD .OHMM     00 120 00 00         : RESD         - DEEP RESISTIVITY (DIL)      
~PARAMETER INFORMATION       
#MNEM.UNIT           DATA             DESCRIPTION OF MNEMONIC
#---------         -----------     ------------------------------
GL  .M        594.1                : gl           - GROUND LEVEL ELEVATION      
EREF.M        596.8                : kb           - ELEVATION OF DEPTH REFERENCE
DATM.M        594.1                : datum        - DATUM ELEVATION             
TDD .M        616                  : tdd          - TOTAL DEPTH DRILLER         
RUN .         ONE                  : Run          - RUN NUMBER                  
ENG .         JONES                : Engineer     - RECORDING ENGINEER          
WIT .         LOWTHER              : Witness      - WITNESSED BY                
BASE.         EDM                  : Branch       - HOME BASE OF LOGGING UNIT   
MUD .         FRESH GEL            : Mud_type     - MUD TYPE                    
MATR.         SANDSTONE            : Logunit      - NEUTRON MATRIX              
TMAX.C        30                   : BHT          - MAXIMUM RECORDED TEMPERATURE
BHTD.M        617.3                : BHTDEP       - MAXIMUM RECORDED TEMPERATURE
RMT .C        12                   : MDTP         - TEMPERATURE OF MUD          
MUDD.KG/M     1190                 : MWT          - MUD DENSITY                 
NEUT.         1                    : NEUTRON      - NEUTRON TYPE                
RESI.         0                    : RESIST       - RESISTIVITY TYPE            
RM  .OHMM     2.42                 : RM           - RESISTIVITY OF MUD          
RMC .OHMM     0                    : RMC          - RESISTIVITY OF MUD CAKE     
RMF .OHMM     4.21                 : RMF          - RESISTIVITY OF MUD FILTRATE 
SUFT.C        0                    : SUFT         - SURFACE TEMPERATURE         
~A  DEPTH     PHID     PHIN       GR      CAL     RESD
  395.000    0.242    0.579  117.346  194.508    2.376
  395.250    0.224    0.587  115.526  193.536    2.463
  395.500    0.206    0.572  116.673  192.675    2.588
  395.750    0.196    0.550  117.821  192.208    2.643
  396.000    0.205    0.502  118.409  191.966    2.666
  396.250    0.220    0.483  119.559  193.982    2.648
  396.500    0.207    0.485  118.976  197.436    2.644
  396.750    0.195    0.499  117.527  194.511    2.598
  397.000    0.199    0.502  115.152  192.715    2.533
  397.250    0.164    0.493  108.638  195.037    2.474
  397.500    0.187    0.515  105.767  197.053    2.412
  397.750    0.196    0.525  108.892  198.752    2.378
  398.000    0.183    0.518  112.449  199.745    2.354
  398.250    0.196    0.509  115.574  200.626    2.364
  398.500    0.205    0.499  116.781  200.578    2.379
  398.750    0.193    0.490  116.261  199.714    2.403
  399.000    0.190    0.499  115.245  197.914    2.432
  399.250    0.185    0.504  114.167  196.119    2.452
  399.500    0.192    0.498  115.811  194.007    2.463
  399.750    0.211    0.495  119.242  192.732    2.470
  400.000    0.199    0.504  120.262  190.518    2.472
  400.250    0.192    0.510  120.672  188.627    2.468
  400.500    0.196    0.493  119.348  187.142    2.466
  400.750    0.180    0.479  113.203  186.167    2.463
  401.000    0.192    0.454  106.253  187.051    2.465
  401.250    0.202    0.436  100.111  190.613    2.551
  401.500    0.211    0.412   93.160  192.834    3.008
  401.750    0.238    0.384   89.612  195.052    3.469
  402.000    0.248    0.347   84.705  196.451    3.332
  402.250    0.272    0.384   84.182  172.405    3.026
  402.500    0.236    0.434   87.862  168.039    2.703
  402.750    0.224    0.495   91.914  174.376    2.409
  403.000    0.230    0.517   95.470  181.438    2.116
  403.250    0.259    0.535   94.825  192.208    1.418
  403.500    0.293    0.514   90.412  203.491    1.103
  403.750    0.304    0.456   82.969  208.907    2.896
  404.000    0.297    0.376   75.034  183.319    3.260
  404.250    0.292    0.368   70.311  165.250    3.662
  404.500    0.273    0.373   74.796  161.701    3.978
  404.750    0.238    0.385   75.504  161.452    4.102
  405.000    0.216    0.398   75.416  161.613    4.029
  405.250    0.227    0.404   74.465  162.287    3.820
  405.500    0.235    0.404   72.896  162.864    3.703
  405.750    0.238    0.408   73.301  164.667    3.685
  406.000    0.253    0.420   75.001  166.373    3.765
  406.250    0.252    0.439   78.622  167.569    3.868
  406.500    0.270    0.429   78.657  170.923    3.943
  406.750    0.251    0.405   76.898  168.406    4.058
  407.000    0.229    0.413   78.416  166.096    4.061
  407.250    0.214    0.428   82.220  165.840    3.843
  407.500    0.198    0.443   86.950  167.239    3.550
  407.750    0.182    0.474   91.128  169.357    3.194
  408.000    0.182    0.493   97.835  172.400    2.928
  408.250    0.196    0.489  103.805  175.343    2.952
  408.500    0.223    0.454  101.426  180.551    3.201
  408.750    0.273    0.426   96.148  187.821    3.789
  409.000    0.307    0.386   90.126  180.051    4.493
  409.250    0.335    0.368   85.467  174.027    5.095
  409.500    0.329    0.376   79.508  170.690    5.546
  409.750    0.313    0.392   85.598  169.612    5.518
  410.000    0.269    0.407   99.290  169.771    4.566
  410.250    0.252    0.426  108.716  169.620    4.171
  410.500    0.238    0.443  120.555  170.099    3.852
  410.750    0.254    0.458  126.213  170.469    3.679
  411.000    0.268    0.461  113.086  170.828    3.737
  411.250    0.273    0.402   99.279  168.932    3.789
  411.500    0.253    0.382   82.134  165.388    3.849
  411.750    0.216    0.380   83.774  166.981    3.852
  412.000    0.194    0.387   88.508  168.800    3.770
  412.250    0.194    0.398   90.767  172.149    3.601
  412.500    0.215    0.408   93.150  174.990    3.478
  412.750    0.255    0.414   93.679  176.286    3.341
  413.000    0.247    0.423   91.180  172.947    3.257
  413.250    0.258    0.445   92.760  168.061    3.272
  413.500    0.240    0.463  101.568  171.107    3.387
  413.750    0.243    0.463  108.092  178.372    3.551
  414.000    0.224    0.422  111.030  182.345    3.722
  414.250    0.216    0.396  104.330  175.397    4.006
  414.500    0.206    0.375   94.044  167.935    4.320
  414.750    0.203    0.377   89.319  167.171    4.462
  415.000    0.225    0.386   83.486  171.446    4.866
  415.250    0.270    0.390   75.548  171.822    5.642
  415.500    0.299    0.371   62.794  167.139    6.470
  415.750    0.306    0.362   51.026  164.417    7.229
  416.000    0.307    0.358   43.953  163.859    7.838
  416.250    0.311    0.355   40.529  163.197    7.641
  416.500    0.311    0.349   42.291  162.326    5.901
  416.750    0.305    0.347   46.160  161.454    4.703
  417.000    0.298    0.348   51.508  160.880    3.742
  417.250    0.286    0.353   59.824  160.231    3.056
  417.500    0.304    0.370   70.487  159.779    2.639
  417.750    0.320    0.421   74.412  159.724    2.507
  418.000    0.311    0.392   70.619  159.888    2.595
  418.250    0.292    0.378   76.647  159.938    2.814
  418.500    0.277    0.367   88.547  160.202    3.006
  418.750    0.282    0.377   88.026  160.273    3.036
  419.000    0.283    0.380   80.830  160.537    2.999
  419.250    0.269    0.361   74.066  160.694    2.897
  419.500    0.248    0.352   74.288  160.853    2.788
  419.750    0.251    0.348   75.621  161.121    2.672
  420.000    0.260    0.359   77.261  161.801    2.524
  420.250    0.274    0.378   76.121  162.162    2.353
  420.500    0.270    0.366   71.275  162.526    2.257
  420.750    0.259    0.369   66.615  162.696    2.258
  421.000    0.278    0.366   60.036  163.053    2.346
  421.250    0.268    0.343   64.582  163.320    2.538
  421.500    0.233    0.361   91.807  163.685    2.763
  421.750    0.215    0.381  101.418  164.053    2.935
  422.000    0.209    0.396  104.294  164.413    3.118
  422.250    0.202    0.387  107.793  164.691    3.185
  422.500    0.201    0.381  111.040  165.054    3.223
  422.750    0.214    0.381  105.636  165.010    3.231
  423.000    0.230    0.377  101.160  165.271    3.240
  423.250    0.225    0.367   96.993  165.330    3.273
  423.500    0.230    0.368   97.151  164.872    3.356
  423.750    0.237    0.372  102.255  165.442    3.505
  424.000    0.232    0.377  110.879  166.322    3.731
  424.250    0.191    0.392  114.991  167.111    3.912
  424.500    0.185    0.405  117.186  168.406    3.915
  424.750    0.185    0.409  120.251  171.554    3.760
  425.000    0.189    0.418  125.045  180.160    3.447
  425.250    0.204    0.437  128.355  175.069    2.939
  425.500    0.208    0.489  127.583  174.096    2.482
  425.750    0.215    0.543  127.559  175.078    2.139
  426.000    0.212    0.552  129.015  177.709    1.976
  426.250    0.236    0.554  130.473  181.171    2.053
  426.500    0.255    0.530  127.848  190.704    2.285
  426.750    0.273    0.472  121.026  190.038    2.557
  427.000    0.192    0.452  110.184  177.122    2.905
  427.250    0.217    0.437   97.982  172.235    2.934
  427.500    0.259    0.412   86.217  173.010    2.813
  427.750    0.277    0.401   76.363  169.160    2.702
  428.000    0.306    0.392   69.108  162.936    2.615
  428.250    0.306    0.386   76.617  161.858    2.540
  428.500    0.261    0.395   83.822  161.913    2.500
  428.750    0.207    0.405   93.372  162.284    2.525
  429.000    0.188    0.417  100.328  162.652    2.580
  429.250    0.177    0.444  105.306  164.771    2.659
  429.500    0.203    0.470  104.292  179.967    2.878
  429.750    0.218    0.430   95.612  183.936    3.092
  430.000    0.243    0.401   89.653  171.433    3.297
  430.250    0.219    0.379   91.234  166.651    3.380
  430.500    0.206    0.379   95.346  168.459    3.339
  430.750    0.224    0.394  100.756  170.574    3.113
  431.000    0.213    0.413  102.766  170.841    2.913
  431.250    0.241    0.431   97.984  170.281    2.736
