~VERSION INFORMATION
 VERS.                 2.0:   CWLS LOG ASCII STANDARD -VERSION 2.0
 WRAP.                  NO:   ONE LINE PER DEPTH STEP
~WELL INFORMATION BLOCK
#MNEM.UNIT           DATA                    DESCRIPTION OF MNEMONIC
#---------    -------------------            -------------------------------
# Generated from Intellog Unique Number	CW_70_72/WELL/1041
NULL.         -999.25                        : NULL_VALUE
WELL.         HOME ALMX MITSUE 10-23         : Well_name    - WELL              
LOC .         10-23-071-04W5                 : Location     - LOCATION          
UWI .         00/10-23-071-04W5/0            : Uwi          - UNIQUE WELL ID    
ENTR.         JAYE                           : Entered      - ENTERED BY        
SRVC.         SCHLUMBERGER                   : Scn          - SERVICE COMPANY   
DATE.         20 FEB 74                      : Date         - LOG DATE          
STRT.M        502.92                         : top_depth    - START DEPTH       
STOP.M        731.42                         : bot_depth    - STOP DEPTH        
STEP.M        0.25                           : increment    - STEP LENGTH       
~CURVE INFORMATION BLOCK
#MNEM UNIT       ERCB CURVE CODE    CURVE DESCRIPTION
#-----------   ------------------   ----------------------------------
DEPT.M        00 001 00 00         : DEPTH        - DEPTH                       
DPHI.V/V      00 890 00 00         : PHID         - DENSITY POROSITY (SANDSTONE)
NPHI.V/V      00 330 00 00         : PHIN         - NEUTRON POROSITY (SANDSTONE)
GR  .API      00 310 00 00         : GR           - GAMMA RAY                   
CALI.MM       00 280 01 00         : CAL          - CALIPER                     
ILD .OHMM     00 120 00 00         : RESD         - DEEP RESISTIVITY (DIL)      
~PARAMETER INFORMATION       
#MNEM.UNIT           DATA             DESCRIPTION OF MNEMONIC
#---------         -----------     ------------------------------
GL  .M        670.011              : gl           - GROUND LEVEL ELEVATION      
EREF.M        674.218              : kb           - ELEVATION OF DEPTH REFERENCE
DATM.M        670.011              : datum        - DATUM ELEVATION             
TDD .M        760.476              : tdd          - TOTAL DEPTH DRILLER         
RUN .         ONE                  : Run          - RUN NUMBER                  
BASE.         EDM                  : Branch       - HOME BASE OF LOGGING UNIT   
MUD .         GEL                  : Mud_type     - MUD TYPE                    
MATR.         SANDSTONE            : Logunit      - NEUTRON MATRIX              
TMAX.C        26.6667              : BHT          - MAXIMUM RECORDED TEMPERATURE
BHTD.M        763.219              : BHTDEP       - MAXIMUM RECORDED TEMPERATURE
RMT .C        10                   : MDTP         - TEMPERATURE OF MUD          
MUDD.KG/M     1128                 : MWT          - MUD DENSITY                 
NEUT.         1                    : NEUTRON      - NEUTRON TYPE                
RESI.         0                    : RESIST       - RESISTIVITY TYPE            
RM  .OHMM     5.97                 : RM           - RESISTIVITY OF MUD          
RMC .OHMM     3.87                 : RMC          - RESISTIVITY OF MUD CAKE     
RMF .OHMM     0.37                 : RMF          - RESISTIVITY OF MUD FILTRATE 
SUFT.C        0                    : SUFT         - SURFACE TEMPERATURE         
~A  DEPTH     PHID     PHIN       GR      CAL     RESD
# ...
  648.920    0.254    0.459   66.794  146.413    2.763
  649.170    0.262    0.496   68.504  144.568    2.683
  649.420    0.261    0.479   69.512  144.446    2.577
  649.670    0.251    0.483   67.849  146.045    2.507
  649.920    0.249    0.502   66.439  146.785    2.502
  650.170    0.231    0.518   66.813  147.312    2.539
  650.420    0.238    0.516   67.185  148.050    2.701
  650.670    0.234    0.441   67.050  148.684    2.889
  650.920    0.236    0.429   66.404  149.099    2.932
  651.170    0.248    0.429   65.504  149.190    2.795
  651.420    0.257    0.420   63.839  149.393    2.589
  651.670    0.267    0.421   61.602  149.913    2.468
  651.920    0.274    0.434   59.110  150.116    2.345
  652.170    0.294    0.480   59.865  150.531    2.294
  652.420    0.283    0.462   61.639  150.086    2.273
  652.670    0.265    0.447   63.221  149.533    2.306
  652.920    0.291    0.434   58.883  148.974    2.335
  653.170    0.282    0.446   56.455  148.424    2.352
  653.420    0.272    0.456   57.911  148.084    2.356
  653.670    0.264    0.441   57.456  147.746    2.352
  653.920    0.274    0.433   53.755  147.624    2.309
  654.170    0.275    0.458   56.738  147.609    2.242
  654.420    0.278    0.496   55.520  147.702    2.181
  654.670    0.284    0.459   53.154  147.686    2.095
  654.920    0.294    0.447   57.922  147.565    2.046
  655.170    0.296    0.457   58.676  147.222    2.009
  655.420    0.279    0.458   55.739  147.210    1.997
  655.670    0.265    0.453   57.385  146.979    1.975
  655.920    0.280    0.437   59.223  146.748    1.964
  656.170    0.283    0.419   59.022  146.411    1.975
  656.420    0.274    0.438   58.313  145.965    1.975
  656.670    0.269    0.459   57.222  146.054    1.960
  656.920    0.278    0.469   56.068  146.043    1.953
  657.170    0.284    0.450   56.695  146.672    1.945
  657.420    0.280    0.440   55.413  147.412    1.952
  657.670    0.285    0.441   53.940  147.938    1.974
  657.920    0.289    0.466   53.485  148.675    1.988
  658.170    0.281    0.455   55.131  148.986    1.988
  658.420    0.295    0.436   56.268  149.399    1.973
  658.670    0.289    0.439   59.125  149.601    1.958
  658.920    0.296    0.460   62.490  149.802    1.972
  659.170    0.291    0.462   60.826  150.110    1.987
  659.420    0.298    0.443   58.397  150.097    2.027
  659.670    0.280    0.422   57.880  149.651    2.106
  659.920    0.291    0.420   57.743  148.556    2.290
  660.170    0.286    0.416   57.671  146.171    2.508
  660.420    0.265    0.390   57.088  144.107    2.829
  660.670    0.258    0.377   55.170  143.440    3.127
  660.920    0.276    0.424   53.187  143.861    3.463
  661.170    0.295    0.455   53.815  146.646    3.631
  661.420    0.301    0.500   54.698  149.219    3.284
  661.670    0.301    0.530   55.007  150.716    2.916
  661.920    0.311    0.541   54.870  151.456    2.623
  662.170    0.309    0.529   54.925  151.869    2.433
  662.420    0.301    0.464   55.362  151.424    2.295
  662.670    0.298    0.461   56.245  150.871    2.189
  662.920    0.295    0.466   57.446  150.208    2.102
  663.170    0.296    0.462   57.818  149.436    2.034
  663.420    0.300    0.455   59.784  149.101    1.968
  663.670    0.297    0.445   60.157  148.545    1.904
  663.920    0.297    0.438   58.556  148.098    1.880
  664.170    0.297    0.445   58.674  147.867    1.890
  664.420    0.292    0.428   59.047  147.746    1.928
  664.670    0.281    0.427   59.038  147.947    1.963
  664.920    0.265    0.438   58.838  148.251    2.032
  665.170    0.261    0.455   57.747  148.345    2.154
  665.420    0.268    0.426   56.847  148.437    2.275
  665.670    0.263    0.414   56.392  148.315    2.377
  665.920    0.270    0.428   56.830  148.192    2.483
  666.170    0.274    0.418   57.775  148.287    2.464
  666.420    0.279    0.428   59.167  148.164    2.393
  666.670    0.261    0.444   58.458  147.933    2.328
  666.920    0.252    0.449   57.685  147.488    2.273
  667.170    0.248    0.472   58.567  146.610    2.240
  667.420    0.253    0.463   60.341  145.298    2.212
  667.670    0.266    0.437   60.842  144.209    2.195
  667.920    0.284    0.450   60.387  143.222    2.179
  668.170    0.282    0.470   62.288  142.777    2.175
  668.420    0.273    0.440   65.016  142.869    2.178
  668.670    0.263    0.428   66.982  142.638    2.178
  668.920    0.257    0.441   65.827  142.300    2.198
  669.170    0.257    0.498   64.989  141.855    2.230
  669.420    0.259    0.491   67.592  140.976    2.250
  669.670    0.259    0.476   70.512  141.392    2.295
  669.920    0.248    0.464   69.293  142.887    2.325
  670.170    0.244    0.435   66.610  145.025    2.320
  670.420    0.256    0.431   65.583  146.520    2.257
  670.670    0.269    0.448   65.829  147.586    2.137
  670.920    0.269    0.499   65.756  148.324    2.168
  671.170    0.256    0.561   66.001  148.846    2.242
  671.420    0.252    0.595   66.184  148.940    2.337
  671.670    0.255    0.519   66.174  149.358    2.401
  671.920    0.270    0.485   67.885  149.882    2.400
  672.170    0.283    0.471   70.358  150.191    2.376
  672.420    0.279    0.458   71.878  150.820    2.349
  672.670    0.269    0.455   72.506  151.023    2.330
  672.920    0.278    0.462   71.797  150.899    2.287
  673.170    0.286    0.470   68.668  150.453    2.240
  673.420    0.285    0.482   67.703  149.684    2.202
  673.670    0.276    0.493   68.013  148.591    2.169
  673.920    0.271    0.475   68.258  147.497    2.175
  674.170    0.255    0.462   68.059  146.402    2.218
  674.420    0.259    0.476   66.777  145.957    2.270
  674.670    0.249    0.464   68.997  146.051    2.353
  674.920    0.238    0.475   69.878  146.898    2.470
  675.170    0.263    0.488   67.704  147.639    2.590
  675.420    0.272    0.497   66.997  148.055    2.578
  675.670    0.256    0.479   66.287  148.363    2.562
  675.920    0.241    0.441   65.578  148.563    2.566
  676.170    0.230    0.453   64.041  148.763    2.669
  676.420    0.217    0.447   64.350  149.071    2.844
  676.670    0.201    0.408   65.997  149.163    3.041
  676.920    0.181    0.370   68.853  149.472    3.234
  677.170    0.159    0.367   67.635  149.994    3.328
  677.420    0.163    0.427   64.697  150.305    3.338
  677.670    0.227    0.437   67.743  150.935    3.270
  677.920    0.211    0.408   69.200  151.677    3.233
  678.170    0.197    0.406   68.108  152.846    3.345
  678.420    0.178    0.378   67.972  153.804    3.576
  678.670    0.124    0.318   68.982  154.759    3.931
  678.920    0.092    0.281   67.890  155.602    4.243
  679.170    0.068    0.306   66.354  155.698    4.351
  679.420    0.110    0.338   64.180  155.574    4.347
  679.670    0.157    0.363   67.163  155.773    4.098
  679.920    0.156    0.365   70.784  155.760    4.110
  680.170    0.153    0.360   73.512  155.853    4.371
  680.420    0.147    0.372   75.159  155.838    4.726
  680.670    0.155    0.364   76.933  156.040    5.035
  680.920    0.141    0.355   79.280  156.131    5.220
  681.170    0.131    0.353   82.454  156.226    5.057
  681.420    0.133    0.379   86.138  156.422    4.837
  681.670    0.155    0.399   91.732  156.300    4.728
  681.920    0.171    0.406   97.517  156.071    4.590
  682.170    0.158    0.397  103.620  156.057    4.520
  682.420    0.158    0.384  105.520  156.256    4.584
  682.670    0.162    0.371  103.856  156.135    4.665
  682.920    0.147    0.375  100.091  156.008    4.809
  683.170    0.137    0.423   97.535  156.210    4.949
  683.420    0.134    0.402   98.482  156.198    5.168
  683.670    0.113    0.358   98.281  156.290    5.387
  683.920    0.104    0.362   97.317  156.593    5.646
  684.170    0.106    0.380   97.817  156.578    5.906
  684.420    0.106    0.384   97.999  156.565    6.090
  684.670    0.080    0.322   97.100  156.444    5.932
  684.920    0.091    0.346   93.653  156.104    5.643
  685.170    0.116    0.380   91.034  155.875    5.408
