~VERSION INFORMATION
 VERS.                 2.0:   CWLS LOG ASCII STANDARD -VERSION 2.0
 WRAP.                  NO:   ONE LINE PER DEPTH STEP
~WELL INFORMATION BLOCK
#MNEM.UNIT           DATA                    DESCRIPTION OF MNEMONIC
#---------    -------------------            -------------------------------
# Generated from Intellog Unique Number	CW_73_75/WELL/992
WELL.         CDN-SUP ET AL FRANCIS 10-26    : Well_name    - WELL
LOC .         00/10-26-074-20W4/0            : Location     - LOCATION
UWI .         00/10-26-074-20W4/0            : Uwi          - UNIQUE WELL ID
ENTR.         JAYE                           : Entered      - ENTERED BY
SRVC.         SCHLUMBERGER                   : Scn          - SERVICE COMPANY
DATE.         16 M1R 76                      : Date         - LOG DATE
STRT.M        362.712                        : top_depth    - START DEPTH
STOP.M        542.462                        : bot_depth    - STOP DEPTH
STEP.M        0.25                           : increment    - STEP LENGTH
 NULL. -999.2500:NULL Value
~CURVE INFORMATION BLOCK
#MNEM UNIT       ERCB CURVE CODE    CURVE DESCRIPTION
#-----------   ------------------   ----------------------------------
DEPT.M        00 001 00 00         : DEPTH        - DEPTH
GR  .API      00 310 00 00         : GR           - GAMMA RAY
CALI.MM       00 280 01 00         : CAL          - CALIPER
NPHI.V/V      00 330 00 00         : PHIN         - NEUTRON POROSITY (SANDSTONE)
DPHI.V/V      00 890 00 00         : PHID         - DENSITY POROSITY (SANDSTONE)
ILD .OHMM     00 120 00 00         : RESD         - DEEP RESISTIVITY (DLL)
~PARAMETER INFORMATION
#MNEM.UNIT           DATA             DESCRIPTION OF MNEMONIC
#---------         -----------     ------------------------------
GL  .M        683.057              : gl           - GROUND LEVEL ELEVATION
EREF.M        686.714              : kb           - ELEVATION OF DEPTH REFERENCE
DATM.M        683.057              : datum        - DATUM ELEVATION
TDD .M        619.354              : tdd          - TOTAL DEPTH DRILLER
RUN .         ONE                  : Run          - RUN NUMBER
ENG .         WILTSHIRE            : Engineer     - RECORDING ENGINEER
WIT .         BRAND                : Witness      - WITNESSED BY
BASE.         EDMONTON             : Branch       - HOME BASE OF LOGGING UNIT
MUD .         GEL CHEM             : Mud_type     - MUD TYPE
MATR.         SANDSTONE            : Logunit      - NEUTRON MATRIX
TMAX.C        28.3333              : BHT          - MAXIMUM RECORDED TEMPERATURE
BHTD.M        619.963              : BHTDEP       - MAXIMUM RECORDED TEMPERATURE
RMT .C        11.6667              : MDTP         - TEMPERATURE OF MUD
MUDD.KG/M     1080                 : MWT          - MUD DENSITY
NEUT.         1                    : NEUTRON      - NEUTRON TYPE
RESI.         1                    : RESIST       - RESISTIVITY TYPE
RM  .OHMM     1.4                  : RM           - RESISTIVITY OF MUD
RMC .OHMM     3.95                 : RMC          - RESISTIVITY OF MUD CAKE
RMF .OHMM     2.45                 : RMF          - RESISTIVITY OF MUD FILTRATE
SUFT.C        -17.7778             : SUFT         - SURFACE TEMPERATURE
~A  DEPTH       GR      CAL     PHIN     PHID     RESD
# ...
  435.712   47.820  207.556    0.461    0.307    6.700
  435.962   46.993  207.942    0.468    0.311    6.635
  436.212   47.159  208.324    0.467    0.314    6.634
  436.462   48.254  208.500    0.451    0.313    6.619
  436.712   51.143  208.882    0.436    0.309    6.592
  436.962   52.300  209.056    0.438    0.310    6.553
  437.212   52.587  209.023    0.443    0.317    6.514
  437.462   48.729  208.466    0.438    0.306    6.572
  437.712   47.096  208.009    0.445    0.301    6.668
  437.962   46.768  207.237    0.453    0.301    6.803
  438.212   46.682  207.731    0.462    0.305    6.928
  438.462   46.664  208.214    0.457    0.317    7.135
  438.712   47.819  208.707    0.445    0.327    7.293
  438.962   49.595  208.883    0.432    0.314    7.552
  439.212   51.742  209.161    0.422    0.320    7.791
  439.462   52.402  209.333    0.440    0.311    7.949
  439.712   50.150  209.197    0.456    0.298    8.080
  439.962   48.087  209.264    0.466    0.291    8.152
  440.212   44.475  209.543    0.458    0.284    8.210
  440.462   43.217  209.929    0.446    0.280    8.284
  440.712   43.133  210.314    0.433    0.295    8.189
  440.962   44.041  210.171    0.446    0.306    7.932
  441.212   45.693  209.822    0.460    0.314    7.625
  441.462   48.645  208.842    0.459    0.326    7.427
  441.712   50.479  208.182    0.462    0.314    7.167
  441.962   49.964  207.515    0.459    0.293    6.968
  442.212   51.492  207.169    0.450    0.287    6.812
  442.462   51.595  206.606    0.440    0.282    6.696
  442.712   55.105  206.047    0.434    0.288    6.620
  442.962   55.022  206.015    0.446    0.302    6.556
  443.212   52.772  206.187    0.441    0.315    6.517
  443.462   52.255  206.676    0.427    0.316    6.479
  443.712   53.288  207.167    0.433    0.314    6.452
  443.962   53.515  208.287    0.445    0.313    6.450
  444.212   52.565  209.404    0.447    0.307    6.520
  444.462   52.481  209.895    0.432    0.311    6.542
  444.712   53.948  209.962    0.437    0.308    6.503
  444.962   55.475  210.453    0.454    0.300    6.586
  445.212   58.426  210.938    0.447    0.292    6.355
  445.462   62.060  211.219    0.435    0.289    5.844
  445.712   67.922  211.185    0.433    0.292    5.454
  445.962   73.289  211.047    0.436    0.297    5.118
  446.212   78.160  211.116    0.431    0.311    4.875
  446.462   83.401  213.178    0.434    0.313    4.687
  446.712   89.203  219.225    0.470    0.287    4.582
  446.962   93.579  223.383    0.512    0.324    4.589
  447.212   91.945  211.186    0.505    0.245    4.621
  447.462   91.184  209.788    0.462    0.206    4.706
  447.712   93.083  219.819    0.466    0.218    4.837
  447.962   97.459  229.850    0.504    0.194    5.065
  448.212   99.481  220.691    0.515    0.206    5.324
  448.462   99.275  214.156    0.498    0.204    5.807
  448.712   97.335  208.142    0.472    0.216    6.138
  448.962   91.369  202.760    0.446    0.189    6.285
  449.212   85.157  207.443    0.416    0.152    6.213
  449.462   90.832  214.011    0.399    0.149    6.018
  449.712   93.349  216.074    0.447    0.176    5.775
  449.962   92.834  216.775    0.469    0.185    5.481
  450.212   92.937  217.995    0.465    0.185    5.143
  450.462   93.907  220.164    0.457    0.172    4.845
  450.712   95.682  222.749    0.445    0.166    4.649
  450.962   97.643  224.391    0.464    0.170    4.503
  451.212   97.189  225.303    0.480    0.208    4.281
  451.462   94.505  226.003    0.486    0.201    4.063
  451.712   93.927  227.222    0.478    0.208    3.913
  451.962   94.401  229.601    0.469    0.187    3.742
  452.212   95.248  232.609    0.467    0.198    3.591
  452.462   96.776  236.768    0.492    0.225    3.490
  452.712   98.302  240.503    0.513    0.252    3.419
  452.962   97.725  240.994    0.522    0.262    3.449
  453.212   95.165  244.001    0.520    0.281    3.552
  453.462   92.420  247.743    0.537    0.291    3.733
  453.712   91.470  257.460    0.530    0.317    3.924
  453.962   91.079  235.088    0.517    0.338    4.170
  454.212   90.315  231.175    0.489    0.334    4.424
  454.462   87.320  220.968    0.469    0.273    4.676
  454.712   85.814  223.134    0.455    0.274    4.788
  454.962   83.315  216.493    0.468    0.349    4.849
  455.212   82.058  212.265    0.487    0.309    4.883
  455.462   81.541  214.747    0.479    0.282    4.918
  455.712   82.203  227.190    0.498    0.281    4.971
  455.962   84.284  227.781    0.516    0.265    5.006
  456.212   84.142  213.068    0.504    0.239    5.070
  456.462   81.582  210.305    0.474    0.224    5.260
  456.712   77.413  207.649    0.458    0.252    5.416
  456.962   73.739  203.940    0.442    0.313    5.567
  457.212   70.932  202.751    0.428    0.334    5.638
  457.462   67.815  202.721    0.429    0.336    5.657
  457.712   64.264  202.892    0.449    0.327    5.592
  457.962   63.068  202.961    0.460    0.324    5.559
  458.212   65.214  203.035    0.473    0.321    5.557
  458.462   69.033  202.995    0.460    0.320    5.555
  458.712   68.702  203.385    0.454    0.318    5.563
  458.962   66.203  203.663    0.471    0.312    5.572
  459.212   65.006  203.628    0.483    0.316    5.601
  459.462   65.048  203.488    0.472    0.309    5.640
  459.712   64.965  203.030    0.457    0.296    5.638
  459.962   62.840  202.893    0.445    0.304    5.636
  460.212   62.570  203.063    0.439    0.312    5.655
  460.462   60.692  203.137    0.438    0.311    5.664
  460.712   59.247  202.993    0.437    0.314    5.651
  460.962   59.907  202.960    0.436    0.325    5.639
  461.212   61.124  203.238    0.441    0.328    5.647
  461.462   61.477  203.312    0.455    0.320    5.655
  461.712   61.267  203.697    0.450    0.307    5.664
  461.962   62.238  204.291    0.444    0.304    5.673
  462.212   64.015  204.569    0.444    0.302    5.660
  462.462   63.004  204.534    0.447    0.292    5.616
  462.712   61.682  204.394    0.459    0.301    5.500
  462.962   61.908  204.463    0.453    0.316    5.417
  463.212   62.072  204.217    0.440    0.325    5.345
  463.462   61.868  204.073    0.435    0.316    5.255
  463.712   62.962  203.939    0.437    0.313    5.137
  463.962   64.365  203.692    0.441    0.328    5.078
  464.212   60.629  203.550    0.453    0.321    5.048
  464.462   57.389  203.522    0.456    0.334    5.037
  464.712   57.801  203.483    0.454    0.323    5.035
  464.962   58.895  203.441    0.449    0.321    5.052
  465.212   59.308  203.521    0.447    0.329    5.126
  465.462   59.473  203.688    0.456    0.325    5.240
  465.712   60.194  203.760    0.469    0.333    5.375
  465.962   60.794  203.723    0.464    0.334    5.587
  466.212   59.658  203.695    0.456    0.326    6.302
  466.462   58.769  203.654    0.444    0.322    7.147
  466.712   58.626  203.625    0.441    0.332    7.360
  466.962   61.144  203.483    0.443    0.337    7.412
  467.212   62.423  203.554    0.451    0.332    7.246
  467.462   61.970  203.727    0.454    0.325    6.954
  467.712   61.082  204.113    0.447    0.321    6.710
  467.962   63.352  204.180    0.444    0.319    6.596
  468.212   64.818  204.044    0.452    0.321    6.496
  468.462   61.206  204.007    0.456    0.327    6.399
  468.712   61.680  202.086    0.484    0.325    6.337
  468.962   64.506  203.309    0.461    0.329    6.265
  469.212   65.850  206.732    0.424    0.313    6.147
  469.462   62.422  211.104    0.422    0.329    5.998
  469.712   60.916  216.205    0.435    0.305    5.821
  469.962   63.493  208.096    0.449    0.337    5.669
  470.212   65.271  205.959    0.442    0.319    5.542
  470.462   67.727  205.719    0.439    0.314    5.428
  470.712   70.245  205.370    0.440    0.317    5.336
  470.962   73.444  205.329    0.440    0.311    5.265
  471.212   76.149  205.714    0.442    0.310    5.293
  471.462   77.800  206.103    0.456    0.303    5.360
  471.712   75.798  205.539    0.460    0.308    5.388
  471.962   74.599  205.088    0.454    0.288    5.386
