~VERSION INFORMATION
 VERS.                 2.0:   CWLS LOG ASCII STANDARD -VERSION 2.0
 WRAP.                  NO:   ONE LINE PER DEPTH STEP
~WELL INFORMATION BLOCK
#MNEM.UNIT           DATA                    DESCRIPTION OF MNEMONIC
#---------    -------------------            -------------------------------
# Generated from Intellog Unique Number	CS_67_68/WELL/2199
WELL.         10-30-067-18W4                 : Well_name    - WELL
LOC .         00/10-30-067-18W4/0            : Location     - LOCATION
UWI .         00/10-30-067-18W4/0            : Uwi          - UNIQUE WELL ID
ENTR.         JHS                            : Entered      - ENTERED BY
SRVC.         SCHLUMBERGER                   : Scn          - SERVICE COMPANY
STRT.M        350.52                         : top_depth    - START DEPTH
STOP.M        554.52                         : bot_depth    - STOP DEPTH
STEP.M        0.25                           : increment    - STEP LENGTH
 NULL. -999.2500:NULL Value
~CURVE INFORMATION BLOCK
#MNEM UNIT       ERCB CURVE CODE    CURVE DESCRIPTION
#-----------   ------------------   ----------------------------------
DEPT.M        00 001 00 00         : DEPTH        - DEPTH
CALI.MM       00 280 01 00         : CAL          - CALIPER
GR  .API      00 310 00 00         : GR           - GAMMA RAY
DPHI.V/V      00 890 00 00         : PHID         - DENSITY POROSITY (SANDSTONE)
NPHI.V/V      00 330 00 00         : PHIN         - NEUTRON POROSITY (SANDSTONE)
ILD .OHMM     00 120 00 00         : RESD         - DEEP RESISTIVITY (DIL)
~PARAMETER INFORMATION
#MNEM.UNIT           DATA             DESCRIPTION OF MNEMONIC
#---------         -----------     ------------------------------
GL  .M        578                  : gl           - GROUND LEVEL ELEVATION
EREF.M        578                  : kb           - ELEVATION OF DEPTH REFERENCE
DATM.M        578                  : datum        - DATUM ELEVATION
TDD .M        556                  : tdd          - TOTAL DEPTH DRILLER
RUN .         ONE                  : Run          - RUN NUMBER
ENG .         BILL                 : Engineer     - RECORDING ENGINEER
WIT .         JIM                  : Witness      - WITNESSED BY
MUD .         GEL                  : Mud_type     - MUD TYPE
MATR.         SANDSTONE            : Logunit      - NEUTRON MATRIX
TMAX.C        22.7778              : BHT          - MAXIMUM RECORDED TEMPERATURE
BHTD.M        558.698              : BHTDEP       - MAXIMUM RECORDED TEMPERATURE
BTZC.MM       0                    : BITZC        - BIT SIZE CONSTANT
MATR.         1                    : LOGUNIT      - NEUTRON MATRIX
RMT .C        25                   : MDTP         - TEMPERATURE OF MUD
NEUT.         1                    : NEUTRON      - NEUTRON TYPE
RESI.         0                    : RESIST       - RESISTIVITY TYPE
RMC .OHMM     0.25                 : RMC          - RESISTIVITY OF MUD CAKE
RMF .OHMM     0.6                  : RMF          - RESISTIVITY OF MUD FILTRATE
SUFT.C        13                   : SUFT         - SURFACE TEMPERATURE
~A  DEPTH      CAL       GR     PHID     PHIN     RESD
# ...
  387.020  165.295  122.927    0.150    0.474    3.610
  387.270  168.264  124.813    0.165    0.516    3.410
  387.520  173.179  127.506    0.179    0.553    3.216
  387.770  170.555  128.842    0.171    0.566    3.164
  388.020  164.487  127.982    0.190    0.576    3.204
  388.270  160.305  122.458    0.204    0.556    3.315
  388.520  165.719  114.492    0.201    0.552    3.513
  388.770  169.435  107.936    0.190    0.567    3.772
  389.020  160.870  102.972    0.200    0.549    3.907
  389.270  157.116   97.624    0.205    0.512    3.995
  389.520  157.556   96.942    0.201    0.501    3.998
  389.770  158.507   98.471    0.200    0.516    3.905
  390.020  158.263   97.892    0.188    0.529    3.809
  390.270  157.378   98.723    0.207    0.542    3.860
  390.520  155.513   97.265    0.211    0.545    3.973
  390.770  154.344   94.309    0.225    0.538    4.100
  391.020  154.311   92.222    0.206    0.538    4.259
  391.270  154.628   94.037    0.222    0.530    4.469
  391.520  153.677   95.597    0.217    0.539    4.688
  391.770  152.927   93.588    0.195    0.533    4.752
  392.020  153.133   94.460    0.176    0.517    4.508
  392.270  153.686  101.443    0.196    0.504    4.282
  392.520  154.841  104.853    0.248    0.489    4.154
  392.770  156.645   95.487    0.244    0.515    4.269
  393.020  158.350   87.621    0.232    0.546    4.520
  393.270  159.232   82.388    0.226    0.565    4.691
  393.520  159.403   80.550    0.242    0.583    4.619
  393.770  158.663   81.717    0.270    0.598    4.499
  394.020  157.162   84.061    0.284    0.610    4.424
  394.270  155.366   85.270    0.265    0.619    4.356
  394.520  154.121   85.836    0.248    0.576    4.307
  394.770  153.265   85.598    0.246    0.534    4.295
  395.020  152.771   85.798    0.259    0.509    4.318
  395.270  152.684   86.512    0.254    0.488    4.300
  395.520  152.591   84.182    0.261    0.487    4.267
  395.770  152.690   79.989    0.270    0.505    4.161
  396.020  152.717   77.917    0.261    0.505    3.998
  396.270  153.288   77.884    0.247    0.496    3.936
  396.520  153.792   82.369    0.222    0.492    3.975
  396.770  154.376   86.002    0.204    0.481    4.185
  397.020  155.371   88.239    0.190    0.472    4.281
  397.270  156.337   89.362    0.176    0.471    4.236
  397.520  156.933   90.776    0.167    0.480    4.146
  397.770  157.063   92.458    0.190    0.487    4.023
  398.020  156.096   94.004    0.214    0.483    4.011
  398.270  154.967   96.140    0.204    0.481    4.000
  398.520  154.627   98.148    0.207    0.488    3.989
  398.770  155.016   98.841    0.223    0.493    3.959
  399.020  155.890   97.820    0.217    0.497    3.941
  399.270  156.814  100.997    0.202    0.499    3.924
  399.520  158.270  103.825    0.193    0.503    3.840
  399.770  160.335  106.508    0.192    0.514    3.713
  400.020  163.674  110.432    0.173    0.521    3.675
  400.270  167.387  113.456    0.156    0.531    3.793
  400.520  169.765  114.672    0.145    0.538    3.945
  400.770  167.966  115.430    0.206    0.528    4.119
  401.020  165.748  111.389    0.189    0.514    4.271
  401.270  164.605  105.721    0.193    0.533    4.423
  401.520  163.198   98.326    0.215    0.540    4.455
  401.770  161.922   95.352    0.193    0.510    4.334
  402.020  161.439   97.383    0.172    0.493    4.168
  402.270  162.110   97.685    0.161    0.488    4.071
  402.520  162.768   99.691    0.187    0.506    4.010
  402.770  163.482  104.255    0.145    0.523    3.917
  403.020  163.650  106.697    0.169    0.528    3.823
  403.270  163.274  108.166    0.180    0.529    3.665
  403.520  162.669  109.935    0.189    0.507    3.538
  403.770  162.557  110.007    0.203    0.502    3.422
  404.020  162.864  108.265    0.198    0.531    3.328
  404.270  165.702  109.131    0.191    0.552    3.342
  404.520  168.840  111.648    0.207    0.567    3.467
  404.770  168.489  113.458    0.179    0.579    3.741
  405.020  165.309  113.040    0.195    0.586    3.965
  405.270  163.067  110.135    0.205    0.548    4.276
  405.520  161.877  107.648    0.206    0.520    4.511
  405.770  161.728  106.898    0.211    0.518    4.778
  406.020  160.993  105.539    0.195    0.526    5.068
  406.270  159.417   99.397    0.187    0.507    4.946
  406.520  157.321   89.435    0.184    0.499    4.255
  406.770  155.732   80.461    0.193    0.512    3.716
  407.020  154.779   72.200    0.229    0.507    3.302
  407.270  154.132   64.363    0.284    0.490    2.972
  407.520  153.866   60.417    0.302    0.444    2.692
  407.770  153.525   63.637    0.286    0.431    2.447
  408.020  153.081   65.087    0.300    0.449    2.286
  408.270  154.160   67.989    0.310    0.448    2.177
  408.520  154.336   69.756    0.310    0.455    2.250
  408.770  153.736   72.822    0.295    0.508    2.589
  409.020  153.142   76.200    0.313    0.538    2.896
  409.270  152.774   79.117    0.340    0.565    3.198
  409.520  152.823   73.169    0.406    0.611    3.385
  409.770  153.023   62.030    0.435    0.589    2.793
  410.020  153.120   64.063    0.361    0.532    2.478
  410.270  153.659   66.327    0.302    0.460    2.281
  410.520  154.216   66.279    0.296    0.445    2.134
  410.770  154.544   65.135    0.302    0.447    1.994
  411.020  154.995   64.568    0.314    0.458    1.912
  411.270  155.562   63.046    0.316    0.471    1.885
  411.520  156.231   62.936    0.300    0.469    1.899
  411.770  156.841   65.710    0.286    0.461    1.916
  412.020  157.141   68.518    0.277    0.463    1.953
  412.270  157.437   69.713    0.286    0.471    1.996
  412.520  157.101   70.715    0.294    0.466    2.040
  412.770  156.201   71.442    0.303    0.466    2.088
  413.020  155.028   72.513    0.319    0.470    2.145
  413.270  154.643   73.341    0.321    0.466    2.203
  413.520  154.287   72.461    0.322    0.469    2.278
  413.770  153.953   72.021    0.313    0.488    2.332
  414.020  153.843   72.401    0.299    0.504    2.381
  414.270  153.987   73.135    0.287    0.513    2.425
  414.520  153.875   73.198    0.292    0.503    2.460
  414.770  153.773   73.171    0.286    0.504    2.505
  415.020  153.573   73.952    0.273    0.501    2.559
  415.270  153.127   76.117    0.258    0.483    2.627
  415.520  152.779   78.657    0.240    0.472    2.706
  415.770  152.449   81.410    0.260    0.476    2.788
  416.020  152.296   83.474    0.243    0.466    2.866
  416.270  152.165   84.756    0.232    0.463    2.945
  416.520  152.181   83.293    0.233    0.451    3.004
  416.770  152.333   83.542    0.244    0.445    3.036
  417.020  152.544   85.003    0.254    0.459    3.067
  417.270  152.618   86.254    0.243    0.474    3.078
  417.520  152.688   85.850    0.248    0.479    3.069
  417.770  152.904   85.266    0.251    0.468    3.023
  418.020  153.351   86.621    0.256    0.453    2.969
  418.270  153.655   88.065    0.260    0.441    2.905
  418.520  153.820   89.028    0.272    0.451    2.878
  418.770  154.278   90.128    0.269    0.479    2.916
  419.020  154.862   90.995    0.266    0.477    2.963
  419.270  156.398   92.223    0.252    0.473    3.026
  419.520  158.133   94.696    0.222    0.489    3.101
  419.770  158.989   97.531    0.205    0.498    3.181
  420.020  158.885   99.791    0.212    0.504    3.227
  420.270  158.529   98.439    0.234    0.518    3.207
  420.520  157.419   89.651    0.249    0.508    3.376
  420.770  156.664   84.377    0.258    0.467    4.047
  421.020  156.434   80.065    0.277    0.452    5.119
  421.270  156.463   75.515    0.078    0.347    6.628
  421.520  156.646   71.045    0.054    0.314    7.778
  421.770  156.775   64.621    0.029    0.220    8.507
  422.020  156.761   65.551    0.067    0.225    6.698
  422.270  156.369   69.126    0.123    0.320    5.101
  422.520  155.512   71.921    0.197    0.392    3.818
  422.770  154.936   74.660    0.280    0.480    3.107
  423.020  154.491   70.423    0.277    0.473    2.790
  423.270  153.859   75.498    0.270    0.462    2.652
