~VERSION INFORMATION
 VERS.                 2.0:   CWLS LOG ASCII STANDARD -VERSION 2.0
 WRAP.                  NO:   ONE LINE PER DEPTH STEP
~WELL INFORMATION BLOCK
#MNEM.UNIT           DATA                    DESCRIPTION OF MNEMONIC
#---------    -------------------            -------------------------------
# Generated from Intellog Unique Number	CW_73_75/WELL/1046
WELL.         AMOCO 57 MARTEN HILLS 11-32    : Well_name    - WELL
LOC .         00/11-32-075-25W4/0            : Location     - LOCATION
UWI .         00/11-32-075-25W4/0            : Uwi          - UNIQUE WELL ID
ENTR.         JAYE                           : Entered      - ENTERED BY
SRVC.         SCHLUMBERGER                   : Scn          - SERVICE COMPANY
STRT.M        463.296                        : top_depth    - START DEPTH
STOP.M        649.296                        : bot_depth    - STOP DEPTH
STEP.M        0.25                           : increment    - STEP LENGTH
 NULL. -999.2500:NULL Value
~CURVE INFORMATION BLOCK
#MNEM UNIT       ERCB CURVE CODE    CURVE DESCRIPTION
#-----------   ------------------   ----------------------------------
DEPT.M        00 001 00 00         : DEPTH        - DEPTH
ILD .OHMM     00 120 00 00         : RESD         - DEEP RESISTIVITY (DIL)
NPHI.V/V      00 330 00 00         : PHIN         - NEUTRON POROSITY (SANDSTONE)
DPHI.V/V      00 890 00 00         : PHID         - DENSITY POROSITY (SANDSTONE)
GR  .API      00 310 00 00         : GR           - GAMMA RAY
CALI.MM       00 280 01 00         : CAL          - CALIPER
~PARAMETER INFORMATION
#MNEM.UNIT           DATA             DESCRIPTION OF MNEMONIC
#---------         -----------     ------------------------------
GL  .M        752.246              : gl           - GROUND LEVEL ELEVATION
EREF.M        756.209              : kb           - ELEVATION OF DEPTH REFERENCE
DATM.M        752.246              : datum        - DATUM ELEVATION
TDD .M        649.529              : tdd          - TOTAL DEPTH DRILLER
RUN .         ONE                  : Run          - RUN NUMBER
MATR.         SANDSTONE            : Logunit      - NEUTRON MATRIX
TMAX.C        31.1111              : BHT          - MAXIMUM RECORDED TEMPERATURE
BHTD.M        649.224              : BHTDEP       - MAXIMUM RECORDED TEMPERATURE
RMT .C        25                   : MDTP         - TEMPERATURE OF MUD
MUDD.KG/M     0                    : MWT          - MUD DENSITY
NEUT.         1                    : NEUTRON      - NEUTRON TYPE
RESI.         0                    : RESIST       - RESISTIVITY TYPE
RM  .OHMM     5.57                 : RM           - RESISTIVITY OF MUD
RMC .OHMM     0                    : RMC          - RESISTIVITY OF MUD CAKE
RMF .OHMM     0                    : RMF          - RESISTIVITY OF MUD FILTRATE
SUFT.C        -17.7778             : SUFT         - SURFACE TEMPERATURE
~A  DEPTH     RESD     PHIN     PHID       GR      CAL
  463.296    2.667    0.548    0.276   96.735  261.019
  463.546    2.640    0.552    0.269   97.667  260.229
  463.796    2.613    0.557    0.266   96.594  259.639
  464.046    2.610    0.573    0.267   95.883  258.031
  464.296    2.631    0.556    0.265   94.260  252.492
  464.546    2.662    0.540    0.264   92.088  252.221
  464.796    2.650    0.528    0.262   88.825  253.181
  465.046    2.628    0.523    0.272   86.589  252.083
  465.296    2.615    0.550    0.284   83.871  252.423
  465.546    2.598    0.542    0.301   81.943  254.831
  465.796    2.474    0.532    0.319   80.199  255.482
  466.046    2.356    0.563    0.331   79.549  259.229
  466.296    2.211    0.587    0.334   79.631  261.121
  466.546    2.113    0.591    0.318   79.650  264.351
  466.796    2.103    0.577    0.310   78.941  268.301
  467.046    2.320    0.572    0.335   75.551  270.915
  467.296    2.960    0.497    0.353   69.545  266.000
  467.546    3.634    0.440    0.348   59.715  258.715
  467.796    4.395    0.469    0.329   56.437  242.564
  468.046    5.426    0.503    0.400   57.127  226.519
  468.296    7.012    0.525    0.417   55.869  228.926
  468.546    8.592    0.487    0.429   54.368  226.692
  468.796   10.432    0.431    0.345   55.605  221.680
  469.046   12.139    0.415    0.316   57.574  220.783
  469.296   13.768    0.403    0.320   58.325  218.239
  469.546   15.051    0.398    0.330   58.346  216.419
  469.796   14.680    0.404    0.315   56.420  216.665
  470.046   13.350    0.421    0.299   54.733  216.698
  470.296   12.784    0.430    0.304   54.145  216.114
  470.546   12.770    0.454    0.313   56.906  219.755
  470.796   13.781    0.444    0.302   57.778  223.813
  471.046   16.306    0.412    0.287   55.241  225.495
  471.296   18.426    0.364    0.270   52.036  225.320
  471.546   20.938    0.312    0.206   49.378  226.384
  471.796   22.101    0.243    0.181   50.250  227.863
  472.046   22.322    0.257    0.093   53.985  229.859
  472.296   20.831    0.322    0.118   58.509  231.129
  472.546   17.994    0.397    0.232   62.791  228.378
  472.796   14.492    0.469    0.243   62.752  225.836
  473.046   12.541    0.486    0.255   59.727  223.503
  473.296   12.210    0.504    0.332   58.410  223.024
  473.546   11.228    0.492    0.333   64.334  223.778
  473.796   10.043    0.477    0.324   70.868  225.254
  474.046    8.224    0.488    0.323   78.317  226.118
  474.296    6.575    0.510    0.318   86.799  227.590
  474.546    5.454    0.502    0.300   91.993  227.934
  474.796    4.188    0.478    0.254   94.449  226.120
  475.046    3.215    0.475    0.257   96.843  226.461
  475.296    2.860    0.500    0.283  103.255  227.109
  475.546    3.025    0.513    0.316  102.185  230.962
  475.796    3.450    0.510    0.338   99.280  243.676
  476.046    4.053    0.510    0.332   95.160  254.739
  476.296    4.622    0.519    0.297   90.980  252.504
  476.546    5.222    0.507    0.306   86.496  245.942
  476.796    5.656    0.479    0.283   81.950  234.227
  477.046    5.486    0.477    0.294   75.579  226.220
  477.296    5.440    0.504    0.332   68.355  221.306
  477.546    5.743    0.500    0.335   64.235  219.901
  477.796    6.175    0.484    0.302   60.238  219.624
  478.046    6.889    0.477    0.272   56.120  218.219
  478.296    7.656    0.486    0.252   53.948  216.602
  478.546    8.142    0.480    0.233   52.995  215.602
  478.796    8.269    0.482    0.266   50.883  214.812
  479.046    7.889    0.481    0.310   48.713  214.545
  479.296    7.188    0.468    0.323   46.728  214.985
  479.546    6.671    0.468    0.324   47.172  216.463
  479.796    6.260    0.469    0.324   49.019  218.355
  480.046    6.094    0.468    0.324   50.256  220.661
  480.296    6.042    0.466    0.326   49.730  223.272
  480.546    6.036    0.464    0.329   49.322  224.848
  480.796    6.029    0.477    0.330   50.317  224.268
  481.046    6.035    0.478    0.331   51.983  223.374
  481.296    6.017    0.477    0.330   52.366  222.996
  481.546    5.967    0.480    0.326   51.291  223.234
  481.796    5.927    0.475    0.322   48.877  223.168
  482.046    5.921    0.474    0.324   47.741  222.173
  482.296    5.937    0.481    0.327   47.822  221.379
  482.546    5.985    0.491    0.326   50.096  221.311
  482.796    5.990    0.482    0.320   51.759  221.862
  483.046    6.083    0.477    0.324   52.267  222.204
  483.296    6.155    0.485    0.327   52.592  222.448
  483.546    6.263    0.474    0.323   53.647  222.585
  483.796    6.372    0.467    0.316   56.954  223.858
  484.046    6.448    0.465    0.306   59.105  222.344
  484.296    6.254    0.460    0.291   61.195  217.121
  484.546    5.999    0.445    0.271   66.392  218.186
  484.796    5.787    0.435    0.254   71.953  222.139
  485.046    5.717    0.442    0.253   75.746  224.852
  485.296    6.002    0.474    0.281   79.175  218.807
  485.546    6.563    0.491    0.320   78.648  221.315
  485.796    7.307    0.482    0.338   72.763  228.770
  486.046    8.471    0.464    0.315   61.582  233.652
  486.296   11.507    0.457    0.329   52.532  230.183
  486.546   14.547    0.472    0.336   48.231  230.937
  486.796   19.797    0.476    0.336   43.868  228.599
  487.046   23.122    0.456    0.342   41.940  225.340
  487.296   25.278    0.445    0.357   42.752  227.328
  487.546   21.515    0.447    0.351   50.443  229.735
  487.796   15.264    0.444    0.281   62.334  223.481
  488.046   11.893    0.450    0.275   72.521  220.633
  488.296    8.900    0.464    0.280   78.996  219.735
  488.546    7.730    0.458    0.276   80.112  222.042
  488.796    6.237    0.452    0.282   78.123  224.446
  489.046    5.539    0.454    0.295   76.682  227.061
  489.296    5.284    0.453    0.294   81.391  229.564
  489.546    5.182    0.446    0.273   86.467  232.281
  489.796    5.120    0.459    0.261   87.336  231.805
  490.046    5.086    0.440    0.242   86.383  231.525
  490.296    5.128    0.456    0.257   85.249  233.211
  490.546    5.237    0.487    0.300   84.476  239.018
  490.796    5.279    0.517    0.307   83.097  243.693
  491.046    4.926    0.496    0.300   80.315  230.632
  491.296    4.382    0.485    0.305   85.451  224.481
  491.546    3.985    0.558    0.307   91.863  225.135
  491.796    3.559    0.561    0.262   97.728  227.231
  492.046    3.012    0.549    0.235  102.131  222.627
  492.296    2.675    0.540    0.222  106.290  216.375
  492.546    2.428    0.554    0.242  110.452  214.967
  492.796    2.346    0.580    0.243  111.569  217.371
  493.046    2.392    0.578    0.240  110.371  222.766
  493.296    2.416    0.576    0.221  108.321  225.175
  493.546    2.418    0.573    0.282  105.724  226.137
  493.796    2.520    0.567    0.314  102.091  228.746
  494.046    2.704    0.557    0.360   98.156  239.090
  494.296    2.934    0.523    0.386   94.400  247.990
  494.546    3.178    0.502    0.341   89.978  240.807
  494.796    3.533    0.508    0.341   87.380  240.744
  495.046    4.096    0.530    0.334   88.620  250.466
  495.296    4.511    0.530    0.319   91.988  243.076
  495.546    4.598    0.512    0.335   93.712  254.862
  495.796    4.213    0.519    0.317   92.576  259.025
  496.046    3.888    0.523    0.307   90.526  247.818
  496.296    3.813    0.518    0.320   87.506  253.832
  496.546    4.223    0.510    0.283   84.116  254.591
  496.796    4.923    0.497    0.267   79.326  241.119
  497.046    6.190    0.489    0.264   69.788  231.463
  497.296    8.361    0.501    0.255   64.331  224.902
  497.546   11.171    0.503    0.282   63.680  224.215
  497.796   14.464    0.498    0.312   64.614  224.146
  498.046   16.047    0.497    0.343   65.123  221.914
  498.296   16.939    0.503    0.337   64.534  222.262
  498.546   17.751    0.519    0.327   63.763  225.187
  498.796   17.666    0.491    0.312   63.786  227.379
  499.046   16.304    0.482    0.283   63.805  229.271
  499.296   13.852    0.475    0.272   64.132  229.094
  499.546   11.965    0.475    0.291   64.575  221.503
