~VERSION INFORMATION
 VERS.                 2.0:   CWLS LOG ASCII STANDARD -VERSION 2.0
 WRAP.                  NO:   ONE LINE PER DEPTH STEP
~WELL INFORMATION BLOCK
#MNEM.UNIT           DATA                    DESCRIPTION OF MNEMONIC
#---------    -------------------            -------------------------------
# Generated from Intellog Unique Number	CS_77_79/WELL/994
WELL.         HB DOME LEISMER                : Well_name    - WELL
LOC .         00/11-11-078-11W4/0            : Location     - LOCATION
UWI .         00/11-11-078-11W4/0            : Uwi          - UNIQUE WELL ID
ENTR.         JHS                            : Entered      - ENTERED BY
SRVC.         SCHLUMBERGER                   : Scn          - SERVICE COMPANY
STRT.M        310                            : top_depth    - START DEPTH
STOP.M        495                            : bot_depth    - STOP DEPTH
STEP.M        0.25                           : increment    - STEP LENGTH
 NULL. -999.2500:NULL Value
~CURVE INFORMATION BLOCK
#MNEM UNIT       ERCB CURVE CODE    CURVE DESCRIPTION
#-----------   ------------------   ----------------------------------
DEPT.M        00 001 00 00         : DEPTH        - DEPTH
DPHI.V/V      00 890 00 00         : PHID         - DENSITY POROSITY (LIMESTONE)
NPHI.V/V      00 330 00 00         : PHIN         - NEUTRON POROSITY (LIMESTONE)
GR  .API      00 310 00 00         : GR           - GAMMA RAY
ILD .OHMM     00 120 00 00         : RESD         - DEEP RESISTIVITY (DIL)
~PARAMETER INFORMATION
#MNEM.UNIT           DATA             DESCRIPTION OF MNEMONIC
#---------         -----------     ------------------------------
GL  .M        683.78               : gl           - GROUND LEVEL ELEVATION
EREF.M        687.98               : kb           - ELEVATION OF DEPTH REFERENCE
DATM.M        687.98               : datum        - DATUM ELEVATION
TDD .M        598                  : tdd          - TOTAL DEPTH DRILLER
RUN .         ONE                  : Run          - RUN NUMBER
ENG .         BILL                 : Engineer     - RECORDING ENGINEER
WIT .         JIM                  : Witness      - WITNESSED BY
MUD .         GEL                  : Mud_type     - MUD TYPE
MATR.         LIMESTONE            : Logunit      - NEUTRON MATRIX
TMAX.C        24.4                 : BHT          - MAXIMUM RECORDED TEMPERATURE
BHTD.M        598                  : BHTDEP       - MAXIMUM RECORDED TEMPERATURE
MATR.         1                    : LOGUNIT      - NEUTRON MATRIX
RMT .C        25                   : MDTP         - TEMPERATURE OF MUD
NEUT.         1                    : NEUTRON      - NEUTRON TYPE
RESI.         0                    : RESIST       - RESISTIVITY TYPE
RMC .OHMM     0.25                 : RMC          - RESISTIVITY OF MUD CAKE
RMF .OHMM     0.25                 : RMF          - RESISTIVITY OF MUD FILTRATE
SUFT.C        15                   : SUFT         - SURFACE TEMPERATURE
~A  DEPTH     PHID     PHIN       GR     RESD
# ...
  440.500    0.222    0.459  120.826    5.203
  440.750    0.224    0.475  109.752    5.406
  441.000    0.205    0.487   86.996    5.617
  441.250    0.163    0.412   77.766    6.061
  441.500    0.192    0.383   71.608    6.663
  441.750    0.223    0.376   72.827    7.606
  442.000    0.256    0.373   73.434    8.683
  442.250    0.258    0.368   70.350    9.366
  442.500    0.258    0.384   67.881   10.105
  442.750    0.253    0.397   66.026   11.111
  443.000    0.247    0.400   60.484   11.327
  443.250    0.281    0.418   51.254   12.691
  443.500    0.300    0.402   42.638   14.487
  443.750    0.297    0.403   39.553   16.228
  444.000    0.293    0.408   42.002   19.974
  444.250    0.287    0.373   51.213   22.804
  444.500    0.270    0.366   60.425   23.254
  444.750    0.254    0.384   73.325   22.410
  445.000    0.263    0.408   83.150   20.027
  445.250    0.249    0.428   88.057   17.237
  445.500    0.258    0.423   84.972   15.999
  445.750    0.270    0.398   78.816   16.008
  446.000    0.274    0.399   72.659   16.947
  446.250    0.284    0.429   65.273   18.986
  446.500    0.221    0.452   58.502   21.269
  446.750    0.173    0.392   60.336   22.948
  447.000    0.195    0.356   67.702   22.964
  447.250    0.237    0.371   72.610   21.310
  447.500    0.233    0.406   82.435   18.693
  447.750    0.235    0.415   91.031   15.496
  448.000    0.220    0.420   88.560   13.590
  448.250    0.214    0.425   87.937   11.055
  448.500    0.211    0.428   94.689    9.881
  448.750    0.211    0.440  100.827    9.170
  449.000    0.214    0.433  105.121    8.353
  449.250    0.196    0.433  105.721    8.050
  449.500    0.184    0.439  103.254    8.054
  449.750    0.192    0.437   98.943    8.368
  450.000    0.236    0.448   92.171    9.553
  450.250    0.267    0.475   82.326   11.112
  450.500    0.251    0.381   66.947   13.679
  450.750    0.225    0.349   73.084   15.038
  451.000    0.203    0.348   76.764   15.920
  451.250    0.192    0.423   74.295   15.931
  451.500    0.204    0.438   68.751   15.352
  451.750    0.222    0.415   63.825   15.656
  452.000    0.251    0.394   56.439   16.574
  452.250    0.286    0.389   51.507   18.219
  452.500    0.286    0.375   60.108   20.029
  452.750    0.214    0.335   76.078   20.422
  453.000    0.196    0.356   82.216   18.255
  453.250    0.212    0.426   79.746   16.626
  453.500    0.254    0.420   59.453   15.725
  453.750    0.276    0.374   50.222   16.030
  454.000    0.250    0.352   57.588   17.296
  454.250    0.230    0.353   62.497   18.311
  454.500    0.229    0.361   66.788   19.028
  454.750    0.243    0.377   66.776   19.041
  455.000    0.257    0.389   65.538   19.050
  455.250    0.198    0.389   67.989   18.709
  455.500    0.171    0.390   65.518   19.075
  455.750    0.208    0.410   61.206   19.822
  456.000    0.254    0.430   57.507   20.593
  456.250    0.275    0.410   55.040   21.802
  456.500    0.278    0.383   52.570   24.428
  456.750    0.298    0.379   55.020   26.352
  457.000    0.290    0.390   60.542   28.432
  457.250    0.263    0.387   62.991   27.916
  457.500    0.255    0.373   62.980   25.908
  457.750    0.244    0.362   67.889   24.510
  458.000    0.242    0.376   58.659   24.517
  458.250    0.282    0.392   45.739   27.988
  458.500    0.284    0.381   53.106   31.353
  458.750    0.279    0.400   53.711   35.130
  459.000    0.301    0.435   49.396   37.895
  459.250    0.317    0.448   49.388   47.531
  459.500    0.314    0.425   56.139   55.287
  459.750    0.317    0.413   56.128   66.788
  460.000    0.314    0.412   55.506   73.424
  460.250    0.309    0.420   60.413   76.280
  460.500    0.302    0.435   64.707   77.787
  460.750    0.298    0.428   65.310   68.228
  461.000    0.303    0.428   68.375   58.725
  461.250    0.313    0.430   67.134   50.551
  461.500    0.303    0.415   62.206   46.035
  461.750    0.281    0.402   59.737   41.145
  462.000    0.265    0.385   57.885   36.096
  462.250    0.263    0.366   65.250   32.868
  462.500    0.258    0.364   70.775   26.742
  462.750    0.230    0.361   76.910   21.348
  463.000    0.216    0.365   79.361   15.807
  463.250    0.208    0.374   80.576   13.605
  463.500    0.186    0.365   80.568   12.162
  463.750    0.176    0.360   84.248   11.720
  464.000    0.177    0.373   87.312   11.509
  464.250    0.195    0.363   83.614   11.959
  464.500    0.216    0.357   73.766   12.659
  464.750    0.251    0.369   71.915   13.918
  465.000    0.274    0.390   72.519   15.301
  465.250    0.280    0.400   74.967   16.823
  465.500    0.258    0.433   72.497   17.809
  465.750    0.276    0.444   69.415   18.858
  466.000    0.283    0.432   67.559   19.227
  466.250    0.262    0.428   73.698   19.238
  466.500    0.245    0.422   81.680   18.193
  466.750    0.237    0.411   87.818   16.572
  467.000    0.219    0.408   92.109   14.263
  467.250    0.203    0.415   96.401   11.824
  467.500    0.202    0.421   99.464   10.768
  467.750    0.204    0.437  100.685    9.625
  468.000    0.202    0.417   96.985    9.277
  468.250    0.202    0.393   89.599    9.282
  468.500    0.209    0.391   80.371    9.465
  468.750    0.230    0.416   64.378    9.832
  469.000    0.227    0.386   56.377   11.228
  469.250    0.224    0.346   58.212   11.884
  469.500    0.235    0.346   63.733   13.568
  469.750    0.272    0.366   63.723   14.914
  470.000    0.293    0.380   56.952   17.026
  470.250    0.307    0.396   51.409   20.180
  470.500    0.305    0.399   51.398   25.312
  470.750    0.288    0.398   56.919   29.445
  471.000    0.276    0.394   61.215   31.173
  471.250    0.261    0.392   71.039   31.194
  471.500    0.251    0.394   72.875   28.947
  471.750    0.244    0.384   71.636   22.257
  472.000    0.240    0.379   72.241   18.799
  472.250    0.237    0.381   76.534   16.182
  472.500    0.221    0.390   81.442   14.465
  472.750    0.194    0.397   88.808   13.425
  473.000    0.167    0.367   86.337   12.694
  473.250    0.153    0.324   82.641   11.563
  473.500    0.159    0.309   83.861   11.142
  473.750    0.190    0.307   79.547   10.940
  474.000    0.265    0.319   70.932   11.155
  474.250    0.317    0.357   61.086   12.264
  474.500    0.330    0.427   56.159   15.096
  474.750    0.333    0.437   54.918   20.034
  475.000    0.313    0.429   57.983   24.195
  475.250    0.276    0.382   62.891   29.780
  475.500    0.203    0.338   70.258   29.799
  475.750    0.147    0.297   78.238   22.482
  476.000    0.132    0.306   87.450   16.034
  476.250    0.146    0.342   84.980   13.801
  476.500    0.192    0.350   76.364   12.105
  476.750    0.220    0.329   65.905   11.665
  477.000    0.203    0.308   66.508   12.350
  477.250    0.166    0.299   73.875   13.325
  477.500    0.146    0.310   80.627   13.844
  477.750    0.172    0.344   86.765   13.597
  478.000    0.242    0.393   81.835   13.101
  478.250    0.252    0.387   83.055   12.625
  478.500    0.222    0.350   84.891   12.398
  478.750    0.198    0.343   80.578   13.127
  479.000    0.204    0.360   70.118   14.162
  479.250    0.277    0.381   63.962   15.279
  479.500    0.231    0.354   67.639   15.577
  479.750    0.198    0.333   77.464   15.014
  480.000    0.173    0.332   90.363   13.934
  480.250    0.193    0.363   89.738   12.931
  480.500    0.215    0.421   81.123   12.002
  480.750    0.232    0.437   74.967   11.784
  481.000    0.153    0.419   67.580   12.476
  481.250    0.097    0.348   68.798   13.716
  481.500    0.198    0.346   73.707   15.080
  481.750    0.262    0.383   74.927   16.896
  482.000    0.303    0.401   79.220   18.224
  482.250    0.309    0.407   76.135   20.037
  482.500    0.308    0.417   71.821   21.213
  482.750    0.289    0.407   75.501   22.044
  483.000    0.252    0.383   85.326   21.645
  483.250    0.225    0.365   87.160   18.284
  483.500    0.198    0.361   90.839   16.036
  483.750    0.174    0.363   92.674   13.547
