~VERSION INFORMATION
 VERS.                 2.0:   CWLS LOG ASCII STANDARD -VERSION 2.0
 WRAP.                  NO:   ONE LINE PER DEPTH STEP
~WELL INFORMATION BLOCK
#MNEM.UNIT           DATA                    DESCRIPTION OF MNEMONIC
#---------    -------------------            -------------------------------
# Generated from Intellog Unique Number	CS_73_76/WELL/4865
WELL.         ANDERSON EXPLORATION LTD.      : Well_name    - WELL
LOC .         00/14-33-076-03W4/0            : Location     - LOCATION
UWI .         00/14-33-076-03W4/0            : Uwi          - UNIQUE WELL ID
ENTR.         JO                             : Entered      - ENTERED BY
SRVC.         COMPUTALOG                     : Scn          - SERVICE COMPANY
DATE.         05/25/92                       : Date         - LOG DATE
STRT.M        200                            : top_depth    - START DEPTH
STOP.M        465                            : bot_depth    - STOP DEPTH
STEP.M        0.25                           : increment    - STEP LENGTH
 NULL. -999.2500:NULL Value
~CURVE INFORMATION BLOCK
#MNEM UNIT       ERCB CURVE CODE    CURVE DESCRIPTION
#-----------   ------------------   ----------------------------------
DEPT.M        00 001 00 00         : DEPTH        - DEPTH
ILD .OHMM     00 120 00 00         : RESD         - DEEP RESISTIVITY (DIL)
DPHI.V/V      00 890 00 00         : PHID         - DENSITY POROSITY (SANDSTONE)
NPHI.V/V      00 330 00 00         : PHIN         - NEUTRON POROSITY (SANDSTONE)
GR  .API      00 310 00 00         : GR           - GAMMA RAY
~PARAMETER INFORMATION
#MNEM.UNIT           DATA             DESCRIPTION OF MNEMONIC
#---------         -----------     ------------------------------
GL  .M        584.6                : gl           - GROUND LEVEL ELEVATION
EREF.M        588.2                : kb           - ELEVATION OF DEPTH REFERENCE
DATM.M        588.2                : datum        - DATUM ELEVATION
TDD .M        471.2                : tdd          - TOTAL DEPTH DRILLER
RUN .         ONE                  : Run          - RUN NUMBER
ENG .         BILL                 : Engineer     - RECORDING ENGINEER
WIT .         JIM                  : Witness      - WITNESSED BY
MUD .         GEL                  : Mud_type     - MUD TYPE
MATR.         SANDSTONE            : Logunit      - NEUTRON MATRIX
TMAX.C        20                   : BHT          - MAXIMUM RECORDED TEMPERATURE
BHTD.M        471.2                : BHTDEP       - MAXIMUM RECORDED TEMPERATURE
MATR.         1                    : LOGUNIT      - NEUTRON MATRIX
RMT .C        16                   : MDTP         - TEMPERATURE OF MUD
NEUT.         1                    : NEUTRON      - NEUTRON TYPE
RESI.         0                    : RESIST       - RESISTIVITY TYPE
RMC .OHMM     2.7                  : RMC          - RESISTIVITY OF MUD CAKE
RMF .OHMM     3.4                  : RMF          - RESISTIVITY OF MUD FILTRATE
SUFT.C        15                   : SUFT         - SURFACE TEMPERATURE
~A  DEPTH     RESD     PHID     PHIN       GR
# ...
  287.000    8.844    0.330    0.423   58.029
  287.250    9.356    0.311    0.424   49.779
  287.500   10.669    0.285    0.444   68.066
  287.750   12.631    0.269    0.455   81.046
  288.000   13.362    0.269    0.460   90.487
  288.250   13.362    0.281    0.458   94.032
  288.500   12.396    0.314    0.443   95.807
  288.750   10.871    0.307    0.418   98.760
  289.000    9.533    0.296    0.409  107.023
  289.250    9.714    0.280    0.414  118.233
  289.500   11.077    0.266    0.446  122.958
  289.750   16.119    0.259    0.469  113.527
  290.000   16.119    0.263    0.460   94.662
  290.250   16.424    0.279    0.446   90.539
  290.500   16.424    0.301    0.438   83.469
  290.750   15.526    0.307    0.435   74.629
  291.000   14.136    0.303    0.421   65.788
  291.250   12.870    0.301    0.404   58.718
  291.500   12.166    0.295    0.398   59.313
  291.750   10.871    0.292    0.394   62.269
  292.000   10.471    0.281    0.395   64.632
  292.250   10.471    0.270    0.414   70.535
  292.500   10.669    0.266    0.445   79.976
  292.750   10.276    0.286    0.442   79.392
  293.000    9.182    0.276    0.430   74.680
  293.250    8.052    0.269    0.427   77.046
  293.500    7.331    0.264    0.440   80.588
  293.750    7.470    0.259    0.447   82.363
  294.000    8.518    0.275    0.422   85.319
  294.250   12.166    0.306    0.419   87.683
  294.500   13.362    0.321    0.414   83.560
  294.750   13.114    0.332    0.425   76.489
  295.000   11.718    0.339    0.430   63.521
  295.250    9.356    0.343    0.429   58.220
  295.500    6.930    0.331    0.429   57.047
  295.750    6.551    0.306    0.434   58.822
  296.000    5.854    0.287    0.452   64.136
  296.250    5.231    0.275    0.484   68.858
  296.500    4.944    0.265    0.515   77.120
  296.750    5.533    0.258    0.527   85.971
  297.000    6.077    0.268    0.530   92.464
  297.250    8.360    0.285    0.515   97.778
  297.500   11.718    0.308    0.500   97.193
  297.750   13.114    0.328    0.495   79.507
  298.000   14.676    0.342    0.481   73.026
  298.250   16.119    0.347    0.440   67.135
  298.500   18.381    0.354    0.415   60.065
  298.750   20.960    0.358    0.392   54.763
  299.000   20.960    0.355    0.365   51.819
  299.250   20.960    0.356    0.394   47.697
  299.500   21.357    0.350    0.417   47.113
  299.750   21.357    0.361    0.412   49.480
  300.000   21.357    0.363    0.415   50.662
  300.250   21.357    0.359    0.422   53.027
  300.500   21.357    0.360    0.410   54.212
  300.750   20.960    0.359    0.415   53.041
  301.000   20.960    0.355    0.433   51.867
  301.250   20.960    0.359    0.428   54.232
  301.500   20.960    0.358    0.403   54.827
  301.750   21.762    0.355    0.395   54.832
  302.000   22.174    0.355    0.398   55.427
  302.250   22.174    0.356    0.408   56.614
  302.500   22.174    0.356    0.417   54.852
  302.750   22.174    0.352    0.415   53.085
  303.000   21.762    0.350    0.400   50.732
  303.250   21.357    0.349    0.413   49.558
  303.500   20.960    0.350    0.411   51.923
  303.750   20.189    0.355    0.390   54.288
  304.000   19.813    0.359    0.393   54.886
  304.250   19.813    0.359    0.434   54.299
  304.500   20.189    0.352    0.433   54.306
  304.750   20.571    0.350    0.428   54.901
  305.000   20.571    0.350    0.423   56.676
  305.250   20.571    0.352    0.412   59.630
  305.500   20.571    0.354    0.411   59.636
  305.750   20.960    0.346    0.423   57.873
  306.000   21.357    0.340    0.435   56.700
  306.250   21.762    0.344    0.442   56.116
  306.500   23.021    0.346    0.421   55.531
  306.750   24.354    0.350    0.413   52.588
  307.000   24.815    0.341    0.406   52.595
  307.250   24.354    0.334    0.393   54.958
  307.500   22.593    0.346    0.402   57.323
  307.750   20.960    0.356    0.416   59.689
  308.000   20.571    0.358    0.420   57.925
  308.250   20.189    0.350    0.412   55.571
  308.500   20.189    0.351    0.403   53.807
  308.750   20.571    0.352    0.397   56.172
  309.000   21.357    0.355    0.407   58.536
  309.250   22.174    0.356    0.418   56.185
  309.500   23.021    0.352    0.422   53.832
  309.750   23.901    0.351    0.415   53.248
  310.000   24.354    0.346    0.408   53.843
  310.250   24.354    0.336    0.396   55.028
  310.500   23.901    0.325    0.369   56.803
  310.750   21.762    0.331    0.364   55.039
  311.000   21.357    0.336    0.373   53.866
  311.250   20.960    0.347    0.364   56.820
  311.500   20.960    0.340    0.372   58.005
  311.750   20.571    0.335    0.387   53.293
  312.000   20.960    0.338    0.387   55.068
  312.250   20.960    0.345    0.383   53.305
  312.500   20.960    0.346    0.399   52.721
  312.750   20.960    0.340    0.410   57.445
  313.000   20.960    0.335    0.413   59.810
  313.250   20.960    0.328    0.420   58.636
  313.500   20.960    0.328    0.410   56.871
  313.750   21.357    0.331    0.406   55.698
  314.000   21.762    0.333    0.416   55.114
  314.250   21.762    0.334    0.419   55.709
  314.500   21.762    0.336    0.419   56.304
  314.750   21.762    0.338    0.418   57.491
  315.000   21.762    0.341    0.418   60.445
  315.250   21.762    0.339    0.413   62.220
  315.500   21.357    0.337    0.405   62.816
  315.750   20.960    0.336    0.406   62.821
  316.000   20.960    0.336    0.420   63.418
  316.250   20.571    0.336    0.441   64.600
  316.500   20.571    0.336    0.444   68.735
  316.750   20.571    0.334    0.432   69.331
  317.000   20.571    0.331    0.419   65.209
  317.250   20.571    0.331    0.405   62.266
  317.500   20.189    0.336    0.405   61.092
  317.750   19.813    0.343    0.415   60.509
  318.000   19.445    0.344    0.412   59.336
  318.250   18.729    0.342    0.409   57.572
  318.500   17.375    0.337    0.426   59.935
  318.750   16.119    0.333    0.434   67.017
  319.000   14.136    0.328    0.424   69.972
  319.250   10.669    0.311    0.436   66.439
  319.500    7.612    0.293    0.456   70.574
  319.750    5.533    0.280    0.467   73.527
  320.000    4.336    0.270    0.538   78.840
  320.250    3.874    0.265    0.536   84.153
  320.500    3.802    0.255    0.531   91.236
  320.750    3.874    0.244    0.531   98.908
  321.000    3.948    0.237    0.529   98.915
  321.250    3.948    0.236    0.486  102.460
  321.500    4.022    0.236    0.464  103.647
  321.750    4.022    0.239    0.457  100.701
  322.000    4.022    0.243    0.485   98.938
  322.250    4.099    0.241    0.492  101.893
  322.500    4.099    0.232    0.502  104.258
  322.750    4.022    0.222    0.497  100.724
  323.000    4.022    0.221    0.490   98.960
  323.250    4.022    0.230    0.507  102.504
  323.500    4.099    0.241    0.523  104.869
  323.750    4.502    0.247    0.524  101.336
  324.000    5.038    0.257    0.525  102.522
  324.250    5.638    0.262    0.526  100.758
  324.500    6.310    0.267    0.458   93.097
  324.750    6.675    0.248    0.505   87.796
  325.000    7.612    0.271    0.515   87.212
  325.250    7.903    0.277    0.503   88.397
  325.500    8.205    0.266    0.468   85.454
  325.750    8.518    0.232    0.457   84.871
  326.000    9.012    0.216    0.451   83.106
  326.250    9.356    0.226    0.457   84.292
  326.500   10.085    0.241    0.467   93.733
  326.750   10.085    0.249    0.468  103.175
  327.000   10.276    0.258    0.457   96.694
  327.250   10.276    0.267    0.441   84.906
  327.500   10.471    0.269    0.431   78.424
  327.750   11.077    0.261    0.428   80.201
  328.000   11.286    0.258    0.428   81.975
  328.250   11.500    0.263    0.428   81.981
  328.500   11.940    0.270    0.427   81.987
  328.750   12.166    0.274    0.422   82.582
  329.000   12.870    0.275    0.412   82.588
  329.250   13.114    0.282    0.412   82.004
  329.500   13.873    0.290    0.418   80.240
  329.750   14.136    0.294    0.428   77.299
  330.000   14.954    0.291    0.449   76.123
  330.250   15.820    0.290    0.448   74.359
