~VERSION INFORMATION
 VERS.                 2.0:   CWLS LOG ASCII STANDARD -VERSION 2.0
 WRAP.                  NO:   ONE LINE PER DEPTH STEP
~WELL INFORMATION BLOCK
#MNEM.UNIT           DATA                    DESCRIPTION OF MNEMONIC
#---------    -------------------            -------------------------------
# Generated from Intellog Unique Number	CC_80_83/WELL/2387
NULL.         -999.25                        : NULL_VALUE
WELL.         KASISER DIVIDE                 : Well_name    - WELL
LOC .         10-29-082-13W4                 : Location     - LOCATION          
UWI .         00/10-29-082-13W400            : Uwi          - UNIQUE WELL ID    
ENTR.         DW                             : Entered      - ENTERED BY        
SRVC.         SCHLUMBERGER                   : Scn          - SERVICE COMPANY   
DATE.         24 MAR 80                      : Date         - LOG DATE
STRT.M        95                             : top_depth    - START DEPTH       
STOP.M        379.997                        : bot_depth    - STOP DEPTH        
STEP.M        0.3                            : increment    - STEP LENGTH       
~CURVE INFORMATION BLOCK
#MNEM UNIT       ERCB CURVE CODE    CURVE DESCRIPTION
#-----------   ------------------   ----------------------------------
DEPT.M        00 001 00 00         : DEPTH        - DEPTH                       
DPHI.V/V      00 890 00 00         : PHID         - DENSITY POROSITY (LIMESTONE)
NPHI.V/V      00 330 00 00         : PHIN         - NEUTRON POROSITY (LIMESTONE)
GR  .API      00 310 00 00         : GR           - GAMMA RAY                   
ILD .OHMM     00 120 00 00         : RESD         - DEEP RESISTIVITY (DIL)      
~PARAMETER INFORMATION       
#MNEM.UNIT           DATA             DESCRIPTION OF MNEMONIC
#---------         -----------     ------------------------------
GL  .M        592.4                : gl           - GROUND LEVEL ELEVATION      
EREF.M        596.75               : kb           - ELEVATION OF DEPTH REFERENCE
DATM.M        596.75               : datum        - DATUM ELEVATION             
TDD .M        420                  : tdd          - TOTAL DEPTH DRILLER         
RUN .         ONE                  : Run          - RUN NUMBER                  
ENG .         BILL                 : Engineer     - RECORDING ENGINEER          
MUD .         GEL                  : Mud_type     - MUD TYPE                    
MATR.         LIMESTONE            : Logunit      - NEUTRON MATRIX              
TMAX.C        22                   : BHT          - MAXIMUM RECORDED TEMPERATURE
BHTD.M        420                  : BHTDEP       - MAXIMUM RECORDED TEMPERATURE
MATR.         1                    : LOGUNIT      - NEUTRON MATRIX              
RMT .C        25                   : MDTP         - TEMPERATURE OF MUD          
NEUT.         1                    : NEUTRON      - NEUTRON TYPE                
RESI.         0                    : RESIST       - RESISTIVITY TYPE            
RMC .OHMM     0.25                 : RMC          - RESISTIVITY OF MUD CAKE     
RMF .OHMM     0.25                 : RMF          - RESISTIVITY OF MUD FILTRATE 
SUFT.C        15                   : SUFT         - SURFACE TEMPERATURE         
~A  DEPTH     PHID     PHIN       GR     RESD
# ...
  147.201    0.311    0.576   94.581    2.682
  147.501    0.317    0.587   94.597    2.682
  147.801    0.333    0.578   94.612    2.734
  148.101    0.317    0.569   92.138    2.683
  148.401    0.308    0.580   87.807    2.584
  148.701    0.317    0.588   87.197    2.584
  149.001    0.318    0.583   88.455    2.634
  149.301    0.304    0.562   89.716    2.841
  149.601    0.301    0.551   91.597    2.895
  149.901    0.287    0.578   90.371    3.007
  150.201    0.286    0.570   88.523    3.007
  150.501    0.296    0.552   87.917    3.183
  150.801    0.288    0.561   89.177    3.306
  151.101    0.286    0.556   91.055    3.370
  151.401    0.282    0.539   89.829    3.500
  151.701    0.280    0.536   83.006    3.704
  152.001    0.267    0.537   82.401    3.775
  152.301    0.248    0.537   89.254    3.848
  152.601    0.251    0.539   96.730    3.848
  152.901    0.265    0.532  100.475    3.849
  153.201    0.266    0.523  100.491    3.707
  153.501    0.267    0.534   98.646    3.707
  153.801    0.267    0.548   96.797    3.778
  154.101    0.262    0.520   93.082    3.924
  154.401    0.254    0.500   89.990    3.851
  154.701    0.247    0.518   90.624    3.640
  155.001    0.268    0.552   92.510    3.376
  155.301    0.287    0.568   93.767    3.376
  155.601    0.279    0.558   99.377    3.441
  155.901    0.276    0.519   96.909    3.574
  156.201    0.278    0.495   94.439    3.712
  156.501    0.272    0.509   91.344    4.003
  156.801    0.256    0.525   91.984    4.237
  157.101    0.267    0.537   91.999    4.081
  157.401    0.275    0.536   89.532    3.857
  157.701    0.251    0.542   88.298    3.857
  158.001    0.251    0.547   88.316    4.161
  158.301    0.250    0.510   91.440    4.321
  158.601    0.247    0.510   82.753    4.573
  158.901    0.253    0.486   78.416    5.026
  159.201    0.259    0.470   82.163    5.847
  159.501    0.235    0.445   81.557    8.060
  159.801    0.249    0.435   84.060    8.859
  160.101    0.258    0.456   84.078    9.738
  160.401    0.258    0.463   77.876    9.925
  160.701    0.258    0.479   75.405    9.740
  161.001    0.269    0.489   77.291    9.559
  161.301    0.271    0.485   75.439    9.382
  161.601    0.273    0.427   73.593    9.383
  161.901    0.271    0.433   73.613    9.385
  162.201    0.269    0.448   73.620    9.565
  162.501    0.264    0.444   76.122    9.566
  162.801    0.252    0.431   76.759    9.567
  163.101    0.242    0.428   75.537    9.568
  163.401    0.247    0.426   74.931    9.569
  163.701    0.264    0.453   76.188    9.754
  164.001    0.276    0.453   78.070    9.754
  164.301    0.273    0.447   76.841    9.574
  164.601    0.259    0.447   76.859    9.575
  164.901    0.275    0.444   78.118    9.576
  165.201    0.275    0.442   75.025    9.578
  165.501    0.270    0.442   73.179    9.579
  165.801    0.270    0.433   75.677    9.580
  166.101    0.263    0.434   81.911    9.764
  166.401    0.260    0.468   78.823    9.583
  166.701    0.258    0.463   76.971    9.405
  167.001    0.249    0.451   77.609    8.888
  167.301    0.244    0.451   80.109    8.723
  167.601    0.246    0.466   79.504    8.244
  167.901    0.250    0.474   78.904    7.940
  168.201    0.266    0.483   78.915    8.246
  168.501    0.257    0.487   78.930    8.565
  168.801    0.250    0.477   83.298    8.566
  169.101    0.248    0.462   82.695    8.567
  169.401    0.275    0.456   80.844    8.096
  169.701    0.259    0.455   79.617    7.230
  170.001    0.251    0.472   77.148    7.232
  170.301    0.251    0.513   77.782    7.511
  170.601    0.241    0.494   82.153    7.655
  170.901    0.241    0.477   87.144    7.802
  171.201    0.247    0.491   89.020    8.103
  171.501    0.251    0.486   87.171    8.104
  171.801    0.253    0.472   85.326    7.659
  172.101    0.255    0.475   85.963    7.103
  172.401    0.263    0.501   84.735    6.841
  172.701    0.259    0.512   80.397    6.714
  173.001    0.250    0.513   77.929    6.715
  173.301    0.266    0.511   76.700    6.716
  173.601    0.293    0.503   82.934    6.716
  173.901    0.306    0.501   83.570    6.718
  174.201    0.293    0.519   79.856    6.349
  174.501    0.265    0.520   78.629    6.114
  174.801    0.248    0.496   84.240    5.778
  175.101    0.247    0.517   91.094    5.671
  175.401    0.256    0.551   85.518    5.890
  175.701    0.267    0.571   91.752    6.117
  176.001    0.269    0.542   90.524    6.235
  176.301    0.268    0.515   84.324    6.236
  176.601    0.273    0.496   83.716    6.476
  176.901    0.262    0.492   81.246    6.601
  177.201    0.263    0.499   78.152    7.534
  177.501    0.270    0.482   74.437    9.101
  177.801    0.272    0.484   66.371    9.632
  178.101    0.282    0.468   66.389    9.634
  178.401    0.297    0.445   75.730    8.603
  178.701    0.265    0.422   78.856    8.769
  179.001    0.250    0.440   77.007    9.458
  179.301    0.267    0.447   73.914   10.395
  179.601    0.258    0.451   71.440   11.644
  179.901    0.239    0.455   66.486   12.323
  180.201    0.225    0.437   60.906   13.802
  180.501    0.219    0.426   49.109   14.887
  180.801    0.245    0.420   44.152   15.463
  181.101    0.295    0.421   46.034   15.464
  181.401    0.320    0.412   54.754   14.615
  181.701    0.316    0.403   63.471   12.102
  182.001    0.301    0.414   74.057   10.213
  182.301    0.276    0.424   75.317   10.409
  182.601    0.226    0.426   80.927   10.216
  182.901    0.206    0.400   87.780    9.297
  183.201    0.200    0.405   95.258    7.699
  183.501    0.194    0.436   99.003    6.256
  183.801    0.192    0.468  108.344    5.694
  184.101    0.205    0.523  112.094    5.588
  184.401    0.234    0.539  108.998    5.914
  184.701    0.226    0.556  104.046    6.260
  185.001    0.206    0.539  102.815    6.752
  185.301    0.194    0.523  107.182    6.626
  185.601    0.209    0.512  111.549    6.262
  185.901    0.225    0.503  114.055    4.544
  186.201    0.227    0.514  116.555    3.692
  186.501    0.244    0.522  118.436    3.490
  186.801    0.299    0.525  110.371    3.624
  187.101    0.291    0.528   96.708    3.984
  187.401    0.277    0.531   86.156   12.365
  187.701    0.264    0.508   78.713   13.592
  188.001    0.278    0.470   78.108   13.852
  188.301    0.335    0.419   85.587   12.606
  188.601    0.299    0.424   87.464   11.691
  188.901    0.259    0.444   83.753   10.842
  189.201    0.241    0.461   80.040   10.844
  189.501    0.261    0.464   79.430   11.052
  189.801    0.282    0.467   86.285   10.846
  190.101    0.258    0.484  106.194    8.329
  190.401    0.192    0.460  104.346    8.650
  190.701    0.179    0.452   93.793   10.062
  191.001    0.207    0.468   88.213   11.928
  191.301    0.251    0.465   90.719   12.624
  191.601    0.280    0.447   90.112   12.866
  191.901    0.291    0.439   88.886   11.709
  192.201    0.282    0.469   87.037   11.710
  192.501    0.266    0.474   83.942   11.712
  192.801    0.256    0.421   75.879   11.937
  193.101    0.257    0.410   69.677   12.165
  193.401    0.261    0.435   65.342   11.940
  193.701    0.261    0.451   67.222   12.169
  194.001    0.257    0.446   67.240   12.639
  194.301    0.295    0.445   66.011   12.882
  194.601    0.280    0.445   66.026   13.129
  194.901    0.273    0.441   69.152   13.380
  195.201    0.266    0.446   72.279   13.132
  195.501    0.279    0.449   73.534   12.648
  195.801    0.304    0.459   77.279   11.729
  196.101    0.316    0.462   81.029   10.878
  196.401    0.307    0.464   83.528    9.714
  196.701    0.274    0.466   81.683    8.675
  197.001    0.258    0.458   82.322    7.747
  197.301    0.238    0.433   84.199    7.185
  197.601    0.237    0.430   87.948    6.664
  197.901    0.239    0.436   91.694    6.417
  198.201    0.239    0.447   96.058    5.840
  198.501    0.238    0.449  102.913    5.315
  198.801    0.237    0.492  105.418    5.119
  199.101    0.235    0.510   98.594    5.418
