~VERSION INFORMATION
 VERS.                 2.0:   CWLS LOG ASCII STANDARD -VERSION 2.0
 WRAP.                  NO:   ONE LINE PER DEPTH STEP
~WELL INFORMATION BLOCK
#MNEM.UNIT           DATA                    DESCRIPTION OF MNEMONIC
#---------    -------------------            -------------------------------
# Generated from Intellog Unique Number	CS_77_79/WELL/1012
WELL.         ICGR CHARD                     : Well_name    - WELL
LOC .         00/11-36-078-06W4/0            : Location     - LOCATION
UWI .         00/11-36-078-06W4/0            : Uwi          - UNIQUE WELL ID
ENTR.         JHS                            : Entered      - ENTERED BY
SRVC.         SCHLUMBERGER                   : Scn          - SERVICE COMPANY
STRT.M        100                            : top_depth    - START DEPTH
STOP.M        375                            : bot_depth    - STOP DEPTH
STEP.M        0.25                           : increment    - STEP LENGTH
 NULL. -999.2500:NULL Value
~CURVE INFORMATION BLOCK
#MNEM UNIT       ERCB CURVE CODE    CURVE DESCRIPTION
#-----------   ------------------   ----------------------------------
DEPT.M        00 001 00 00         : DEPTH        - DEPTH
DPHI.V/V      00 890 00 00         : PHID         - DENSITY POROSITY (LIMESTONE)
NPHI.V/V      00 330 00 00         : PHIN         - NEUTRON POROSITY (LIMESTONE)
GR  .API      00 310 00 00         : GR           - GAMMA RAY
ILD .OHMM     00 120 00 00         : RESD         - DEEP RESISTIVITY (DIL)
~PARAMETER INFORMATION
#MNEM.UNIT           DATA             DESCRIPTION OF MNEMONIC
#---------         -----------     ------------------------------
GL  .M        533.73               : gl           - GROUND LEVEL ELEVATION
EREF.M        537.26               : kb           - ELEVATION OF DEPTH REFERENCE
DATM.M        537.26               : datum        - DATUM ELEVATION
TDD .M        381                  : tdd          - TOTAL DEPTH DRILLER
RUN .         ONE                  : Run          - RUN NUMBER
ENG .         BILL                 : Engineer     - RECORDING ENGINEER
WIT .         JIM                  : Witness      - WITNESSED BY
MUD .         GEL                  : Mud_type     - MUD TYPE
MATR.         LIMESTONE            : Logunit      - NEUTRON MATRIX
TMAX.C        20                   : BHT          - MAXIMUM RECORDED TEMPERATURE
BHTD.M        381                  : BHTDEP       - MAXIMUM RECORDED TEMPERATURE
MATR.         1                    : LOGUNIT      - NEUTRON MATRIX
RMT .C        25                   : MDTP         - TEMPERATURE OF MUD
NEUT.         1                    : NEUTRON      - NEUTRON TYPE
RESI.         0                    : RESIST       - RESISTIVITY TYPE
RMC .OHMM     0.25                 : RMC          - RESISTIVITY OF MUD CAKE
RMF .OHMM     0.25                 : RMF          - RESISTIVITY OF MUD FILTRATE
SUFT.C        15                   : SUFT         - SURFACE TEMPERATURE
~A  DEPTH     PHID     PHIN       GR     RESD
# ...
  230.500    0.288    0.497   81.429    8.305
  230.750    0.288    0.487   80.816    8.317
  231.000    0.290    0.497   85.102    8.327
  231.250    0.288    0.486   85.714    8.182
  231.500    0.285    0.478   85.714    7.894
  231.750    0.284    0.488   88.163    7.471
  232.000    0.275    0.503   90.000    7.068
  232.250    0.274    0.510   86.326    6.946
  232.500    0.274    0.486   84.490    6.700
  232.750    0.272    0.468   90.000    6.706
  233.000    0.267    0.467   90.612    6.468
  233.250    0.266    0.467   83.877    6.119
  233.500    0.266    0.468   86.326    5.900
  233.750    0.266    0.483   91.837    5.582
  234.000    0.264    0.492   98.571    5.183
  234.250    0.260    0.506   98.571    4.811
  234.500    0.255    0.530   90.612    4.064
  234.750    0.256    0.543   88.163    3.631
  235.000    0.269    0.551   96.735    2.842
  235.250    0.280    0.568   99.796    2.541
  235.500    0.290    0.603   98.571    2.497
  235.750    0.301    0.610   93.061    2.501
  236.000    0.302    0.605   93.674    2.602
  236.250    0.280    0.584   99.796    2.921
  236.500    0.265    0.569   99.184    3.217
  236.750    0.269    0.546   97.959    3.282
  237.000    0.264    0.582   96.123    3.614
  237.250    0.267    0.594   93.674    3.981
  237.500    0.265    0.574   97.347    4.555
  237.750    0.267    0.543   96.123    5.016
  238.000    0.279    0.515   90.000    5.523
  238.250    0.277    0.481   90.000    5.966
  238.500    0.266    0.477   90.000    6.325
  238.750    0.269    0.504   89.388    6.709
  239.000    0.288    0.508   86.939    6.848
  239.250    0.293    0.490   84.490    6.856
  239.500    0.287    0.481   80.204    6.999
  239.750    0.275    0.483   74.082    7.561
  240.000    0.264    0.482   70.408    8.019
  240.250    0.264    0.468   68.571    8.501
  240.500    0.274    0.476   67.347    8.846
  240.750    0.286    0.492   71.020    9.031
  241.000    0.330    0.468   75.306    9.041
  241.250    0.324    0.465   78.980    8.888
  241.500    0.312    0.493   82.653    8.903
  241.750    0.299    0.477   83.265    8.753
  242.000    0.302    0.461   79.592    8.759
  242.250    0.298    0.445   77.755    8.943
  242.500    0.276    0.451   75.918    9.305
  242.750    0.295    0.498   77.143    9.680
  243.000    0.327    0.485   77.755   10.068
  243.250    0.322    0.474   78.367   11.304
  243.500    0.283    0.468   78.980   11.982
  243.750    0.250    0.461   76.531   13.198
  244.000    0.232    0.449   71.633   13.722
  244.250    0.243    0.453   65.510   14.277
  244.500    0.120    0.373   56.939   13.773
  244.750    0.110    0.270   50.816   12.081
  245.000    0.270    0.262   59.388   11.424
  245.250    0.287    0.363   68.571   10.607
  245.500    0.272    0.423   75.306   10.036
  245.750    0.259    0.445   73.469    9.320
  246.000    0.287    0.452   73.469    9.156
  246.250    0.302    0.436   77.143    9.173
  246.500    0.287    0.418   78.367    9.362
  246.750    0.271    0.435   74.082    9.200
  247.000    0.267    0.440   69.184    8.706
  247.250    0.314    0.430   72.857    8.085
  247.500    0.304    0.430   77.143    7.795
  247.750    0.286    0.445   85.714    7.373
  248.000    0.281    0.452   88.775    6.847
  248.250    0.280    0.450   93.061    6.601
  248.500    0.274    0.457   93.061    6.742
  248.750    0.267    0.474   90.612    7.013
  249.000    0.265    0.478   88.163    7.435
  249.250    0.271    0.469   88.163    7.882
  249.500    0.271    0.458   85.102    8.200
  249.750    0.281    0.451   83.265    8.210
  250.000    0.302    0.468   81.133    8.063
  250.250    0.303    0.461   84.188    7.615
  250.500    0.291    0.437   86.628    6.922
  250.750    0.250    0.438   88.454    6.175
  251.000    0.238    0.475   91.510    5.508
  251.250    0.235    0.519   89.647    5.301
  251.500    0.235    0.537   82.869    5.399
  251.750    0.248    0.540   86.538    5.501
  252.000    0.272    0.503   94.511    5.604
  252.250    0.277    0.508   92.034    5.602
  252.500    0.278    0.514   90.170    5.599
  252.750    0.281    0.516   93.225    5.388
  253.000    0.283    0.482   91.977    5.285
  253.250    0.287    0.491   90.112    5.086
  253.500    0.289    0.529   93.171    4.803
  253.750    0.286    0.548   97.454    4.535
  254.000    0.292    0.552   99.894    4.365
  254.250    0.302    0.535   95.572    4.531
  254.500    0.312    0.524   85.106    4.887
  254.750    0.322    0.472   77.711    5.171
  255.000    0.327    0.446   78.924    5.071
  255.250    0.284    0.433   86.892    4.699
  255.500    0.252    0.492   91.792    4.272
  255.750    0.249    0.548   89.930    4.189
  256.000    0.282    0.518   78.849    4.433
  256.250    0.312    0.484   77.598    5.157
  256.500    0.300    0.458   80.042    5.777
  256.750    0.276    0.452   84.328    6.471
  257.000    0.267    0.494   87.381    6.979
  257.250    0.265    0.488   89.820    7.110
  257.500    0.274    0.468   89.799    7.106
  257.750    0.280    0.470   86.709    7.104
  258.000    0.288    0.472   78.085    7.237
  258.250    0.296    0.468   73.150    7.513
  258.500    0.306    0.472   71.288    7.801
  258.750    0.314    0.477   68.813    8.573
  259.000    0.152    0.474   65.107    9.603
  259.250    0.106    0.478   61.401    9.971
  259.500    0.042    0.434   58.303    9.780
  259.750    0.071    0.371   59.520    9.235
  260.000    0.166    0.394   75.482    8.082
  260.250    0.284    0.467   81.612    6.941
  260.500    0.287    0.498   84.665    5.961
  260.750    0.289    0.494   87.719    5.419
  261.000    0.303    0.491   85.243    5.021
  261.250    0.302    0.505   84.606    4.925
  261.500    0.297    0.527   85.206    4.830
  261.750    0.297    0.530   88.259    5.015
  262.000    0.295    0.511   90.083    5.206
  262.250    0.287    0.512   88.839    5.509
  262.500    0.279    0.518   85.745    5.720
  262.750    0.276    0.485   82.654    6.052
  263.000    0.279    0.487   80.795    6.166
  263.250    0.282    0.492   85.076    6.401
  263.500    0.295    0.469   85.061    6.398
  263.750    0.308    0.455   88.114    6.396
  264.000    0.317    0.445   86.866    6.393
  264.250    0.329    0.450   75.785    6.513
  264.500    0.337    0.475   72.694    6.511
  264.750    0.337    0.474   78.819    6.386
  265.000    0.315    0.462   81.874    6.030
  265.250    0.280    0.459   82.473    5.587
  265.500    0.246    0.449   80.606    4.890
  265.750    0.227    0.443   80.594    4.199
  266.000    0.238    0.461   84.873    3.676
  266.250    0.285    0.488   83.623    3.097
  266.500    0.314    0.516   80.534    2.711
  266.750    0.294    0.550   76.832    2.464
  267.000    0.279    0.574   73.740    2.371
  267.250    0.285    0.582   76.177    2.326
  267.500    0.306    0.579   77.391    2.325
  267.750    0.328    0.562   73.678    2.324
  268.000    0.337    0.546   73.662    2.323
  268.250    0.325    0.542   78.563    2.366
  268.500    0.303    0.562   81.618    2.366
  268.750    0.298    0.588   84.055    2.456
  269.000    0.303    0.567   84.653    2.599
  269.250    0.296    0.566   80.946    2.750
  269.500    0.272    0.552   79.085    3.022
  269.750    0.238    0.504   81.529    3.259
  270.000    0.227    0.472   85.809    3.582
  270.250    0.221    0.474   85.794    4.013
  270.500    0.223    0.476   82.703    4.410
  270.750    0.234    0.481   82.069    4.848
  271.000    0.253    0.434   81.430    5.533
  271.250    0.237    0.424   80.799    6.081
  271.500    0.240    0.421   80.171    6.195
  271.750    0.253    0.411   84.452    5.632
  272.000    0.266    0.413   90.581    5.219
  272.250    0.242    0.448   92.406    4.835
  272.500    0.238    0.460   89.932    4.395
  272.750    0.249    0.462   86.226    4.230
  273.000    0.246    0.455   86.208    4.071
  273.250    0.246    0.465   91.103    3.992
  273.500    0.251    0.483   94.161    3.915
  273.750    0.249    0.482   94.755    3.914
