~VERSION INFORMATION
 VERS.                 2.0:   CWLS LOG ASCII STANDARD -VERSION 2.0
 WRAP.                  NO:   ONE LINE PER DEPTH STEP
~WELL INFORMATION BLOCK
#MNEM.UNIT           DATA                    DESCRIPTION OF MNEMONIC
#---------    -------------------            -------------------------------
# Generated from Intellog Unique Number	CW_73_75/WELL/2997
WELL.         11-35-073-26W4                 : Well_name    - WELL
LOC .         00/11-35-073-26W4/0            : Location     - LOCATION
UWI .         00/11-35-073-26W4/0            : Uwi          - UNIQUE WELL ID
ENTR.         CAMPBELL                       : Entered      - ENTERED BY
SRVC.         SCHLUMBERGER                   : Scn          - SERVICE COMPANY
DATE.         29 FEB 1968                    : Date         - LOG DATE
STRT.M        454.152                        : top_depth    - START DEPTH
STOP.M        600.402                        : bot_depth    - STOP DEPTH
STEP.M        0.25                           : increment    - STEP LENGTH
 NULL. -999.2500:NULL Value
~CURVE INFORMATION BLOCK
#MNEM UNIT       ERCB CURVE CODE    CURVE DESCRIPTION
#-----------   ------------------   ----------------------------------
DEPT.M        00 001 00 00         : DEPTH        - DEPTH
ILD .OHMM     00 120 00 00         : RESD         - DEEP RESISTIVITY (DIL)
DELT.US/F     00 520 00 00         : DELT         - SONIC TRAVEL TIME
GR  .API      00 310 00 00         : GR           - GAMMA RAY
CALI.MM       00 280 01 00         : CAL          - CALIPER
~PARAMETER INFORMATION
#MNEM.UNIT           DATA             DESCRIPTION OF MNEMONIC
#---------         -----------     ------------------------------
GL  .M        655.198              : gl           - GROUND LEVEL ELEVATION
EREF.M        658.703              : kb           - ELEVATION OF DEPTH REFERENCE
DATM.M        658.703              : datum        - DATUM ELEVATION
TDD .M        600.456              : tdd          - TOTAL DEPTH DRILLER
RUN .         ONE                  : Run          - RUN NUMBER
ENG .         TRUMAN               : Engineer     - RECORDING ENGINEER
WIT .         CONNELLY             : Witness      - WITNESSED BY
MUD .         GEL                  : Mud_type     - MUD TYPE
MATR.         SANDSTONE            : Logunit      - NEUTRON MATRIX
TMAX.C        34.4444              : BHT          - MAXIMUM RECORDED TEMPERATURE
BHTD.M        600.456              : BHTDEP       - MAXIMUM RECORDED TEMPERATURE
RMT .C        13.3333              : MDTP         - TEMPERATURE OF MUD
MUDD.KG/M     9600                 : MWT          - MUD DENSITY
NEUT.         1                    : NEUTRON      - NEUTRON TYPE
RESI.         0                    : RESIST       - RESISTIVITY TYPE
RM  .OHMM     3.58                 : RM           - RESISTIVITY OF MUD
RMC .OHMM     2.97                 : RMC          - RESISTIVITY OF MUD CAKE
RMF .OHMM     2.04                 : RMF          - RESISTIVITY OF MUD FILTRATE
SUFT.C        -10                  : SUFT         - SURFACE TEMPERATURE
~A  DEPTH     RESD     DELT       GR      CAL
# ...
  541.152   15.890  359.617   46.489  187.725
  541.402   14.891  360.642   43.337  188.185
  541.652   13.893  359.355   45.956  188.625
  541.902   13.493  360.714   50.979  189.092
  542.152   13.293  363.395   55.522  189.546
  542.402   13.492  366.718   56.938  189.483
  542.652   13.691  366.754   53.786  188.912
  542.902   13.591  364.817   51.592  188.856
  543.152   13.291  368.154   48.918  188.794
  543.402   13.290  369.833   48.651  189.254
  543.652   13.290  368.225   44.534  189.206
  543.902   13.289  364.961   44.752  189.144
  544.152   13.489  360.382   46.408  189.088
  544.402   13.688  361.077   49.749  189.026
  544.652   13.887  358.810   51.402  188.970
  544.902   14.086  355.545   50.895  188.908
  545.152   14.285  347.011   50.392  189.368
  545.402   14.584  329.903   51.083  190.331
  545.652   14.783  317.084   52.022  190.784
  545.902   14.483  293.713   49.588  191.747
  546.152   13.684  280.239   49.081  193.211
  546.402   12.286  281.269   53.139  194.174
  546.652   11.188  284.596   54.800  194.627
  546.902    9.491  293.202   59.823  195.074
  547.152    7.594  334.444   60.996  195.018
  547.402    6.196  365.472   62.653  194.970
  547.652    5.597  364.848   61.908  194.399
  547.902    5.197  359.281   61.161  194.343
  548.152    5.197  354.702   60.170  194.281
  548.402    5.096  356.395   59.659  194.239
  548.652    5.096  355.433   59.396  194.177
  548.902    5.095  341.955   59.607  194.114
  549.152    5.195  323.858   60.783  194.045
  549.402    5.294  312.028   62.203  194.010
  549.652    5.493  321.622   58.082  193.955
  549.902    5.792  352.980   57.816  193.900
  550.152    6.191  356.317   59.957  193.830
  550.402    6.590  355.689   61.614  193.768
  550.652    7.088  356.054   57.981  193.726
  550.902    7.586  354.117   55.303  194.180
  551.152    7.885  341.294   55.277  194.117
  551.402    8.384  321.219   55.494  194.069
  551.652    8.683  311.700   55.228  194.006
  551.902    8.882  322.618   53.999  193.909
  552.152    8.881  321.661   51.084  193.380
  552.402    8.681  318.071   52.501  193.317
  552.652    8.481  331.291   58.005  192.753
  552.902    8.481  339.901   56.777  192.704
  553.152    8.480  348.837   56.507  192.642
  553.402    8.480  340.637   60.331  192.593
  553.652    8.479  333.417   55.730  192.538
  553.902    8.479  341.038   54.985  192.483
  554.152    8.478  344.370   55.440  191.918
  554.402    8.777  330.233   55.411  191.347
  554.652    8.976  318.398   51.537  191.284
  554.902    9.175  302.283   51.027  191.229
  555.152    9.674  296.711   49.802  191.180
  555.402   10.372  298.074   45.203  191.634
  555.652   10.970  299.429   40.609  192.596
  555.902   11.369  296.494   35.292  192.541
  556.152   10.769  284.334   41.999  192.479
  556.402    9.771  300.196   48.465  192.416
  556.652    8.473  309.461   57.099  192.361
  556.902    7.574  322.356   62.119  192.821
  557.152    6.975  323.055   65.943  193.268
  557.402    6.675  326.387   70.963  193.219
  557.652    6.674  326.419   72.860  193.150
  557.902    6.774  327.773   69.949  192.586
  558.152    7.272  321.876   66.075  192.530
  558.402    7.771  312.353   61.000  192.482
  558.652    7.870  311.070   61.695  192.935
  558.902    7.470  320.999   70.325  192.873
  559.152    7.270  340.491   74.867  192.803
  559.402    7.070  342.834   70.272  192.762
  559.652    7.070  340.892   66.636  192.699
  559.902    7.069  336.973   68.774  192.651
  560.152    7.268  330.412   74.759  192.595
  560.402    7.467  329.130   74.733  192.533
  560.652    7.666  334.439   70.860  192.987
  560.902    7.766  334.475   66.739  192.924
  561.152    8.065  328.578   64.071  192.869
  561.402    8.264  343.126   69.816  192.820
  561.652    8.562  345.794   80.851  193.274
  561.902    8.961  345.830   82.511  193.727
  562.152   10.857  336.966   79.356  194.181
  562.402   12.353  329.096   70.913  192.585
  562.652   13.850  320.887   66.552  190.493
  562.902   16.344  313.672   70.858  190.431
  563.152   18.340  310.741   65.542  191.400
  563.402   18.639  298.577   60.944  193.890
  563.652   16.742  264.658   61.879  193.841
  563.902   16.043  290.079   68.826  193.772
  564.152   15.444  311.544   73.853  193.723
  564.402   15.343  317.522   68.293  193.138
  564.652   16.241  318.217   63.217  193.103
  564.902   20.232  314.952   61.504  193.041
  565.152   22.328  285.978   57.871  192.986
  565.402   20.531  252.055   59.528  192.923
  565.652   17.736  282.094   64.071  192.868
  565.902   16.039  305.537   65.968  192.819
  566.152   14.342  316.454   66.183  192.757
  566.402   13.144  323.746   66.637  192.708
  566.652   12.444  323.448   67.092  192.144
  566.902   11.845  325.791   73.077  192.082
  567.152   11.944  340.334   79.062  192.019
  567.402   13.541  336.085   69.174  191.964
  567.652   15.436  295.249   63.377  191.908
  567.902   17.532  261.651   57.336  190.828
  568.152   17.431  275.535   53.463  190.277
  568.402   16.533  334.256   65.459  190.724
  568.652   15.933  346.487   67.357  192.189
  568.902   14.935  354.443   65.647  192.642
  569.152   13.936  344.911   65.140  192.594
  569.402   13.936  317.589   64.393  192.538
  569.652   12.838  312.017   66.050  192.476
  569.902   11.839  301.176   63.612  192.413
  570.152   11.539  307.144   63.827  191.842
  570.402   11.838  317.403   64.285  191.793
  570.652   11.538  318.427   63.056  191.738
  570.902   11.138  314.178   61.824  191.683
  571.152   10.938  308.941   62.279  191.634
  571.402   10.638  303.043   61.047  192.074
  571.652    9.839  317.587   59.822  192.011
  571.902    9.440  327.840   67.250  191.970
  572.152    9.140  335.132   76.124  191.398
  572.402    9.040  331.542   72.488  190.827
  572.652    9.139  322.349   71.500  190.270
  572.902    9.338  322.715   71.233  190.200
  573.152    9.637  327.365   73.611  190.159
  573.402   10.035  328.719   73.826  190.103
  573.652   10.534  325.130   74.277  190.041
  573.902   11.033  302.747   71.365  189.992
  574.152   11.331  294.877   68.213  189.916
  574.402   11.730  308.098   67.943  190.370
  574.652   12.528  322.311   67.436  190.823
  574.902   13.226  310.147   65.002  191.277
  575.152   13.924  293.043   62.575  191.228
  575.402   13.824  281.868   64.472  191.180
  575.652   12.326  291.796   67.812  191.117
  575.902   11.627  315.239   70.191  191.041
  576.152   11.128  326.816   76.657  190.992
  576.402   10.628  322.571   80.718  190.944
  576.652   10.328  321.952   76.601  191.404
  576.902   11.126  312.091   72.965  191.858
  577.152   12.024  268.943   68.373  192.311
  577.402   12.123  261.723   63.054  192.256
  577.652    9.029  271.977   63.749  193.198
  577.902    6.833  308.279   68.772  194.167
  578.152    4.936  319.526   75.238  195.638
  578.402    3.738  333.740   80.505  197.110
  578.652    3.238  349.927   79.514  199.083
  578.902    3.038  443.920   81.889  200.060
  579.152    2.938  445.274   79.943  201.524
  579.402    3.037  421.573   78.714  200.444
  579.652    3.436  409.418   79.169  199.377
  579.902    3.835  403.517   82.265  199.315
  580.152    4.233  394.653   82.243  199.769
  580.402    5.031  382.823   77.163  197.168
  580.652    6.927  368.022   73.049  194.568
  580.902    8.224  293.882   68.211  193.488
  581.152    8.822  290.622   72.753  193.425
  581.402    8.223  312.087   76.575  193.893
  581.652    8.023  333.552   76.067  194.855
  581.902    8.322  343.480   77.240  195.295
  582.152    9.020  330.657   75.053  195.246
  582.402    9.917  311.575   75.508  195.191
  582.652   10.416  314.578   74.760  195.129
  582.902   11.114  298.458   68.479  195.129
  583.152   10.914  286.298   63.160  194.990
  583.402   11.013  302.499   65.541  194.439
  583.652   11.212  310.111   76.816  194.391
  583.902   11.112  319.376   74.626  193.826
  584.152   10.612  328.641   75.802  193.269
  584.402   10.711  321.755   69.521  192.698
