~VERSION INFORMATION
 VERS.                 2.0:   CWLS LOG ASCII STANDARD -VERSION 2.0
 WRAP.                  NO:   ONE LINE PER DEPTH STEP
~WELL INFORMATION BLOCK
#MNEM.UNIT           DATA                    DESCRIPTION OF MNEMONIC
#---------    -------------------            -------------------------------
# Generated from Intellog Unique Number	CS_69_70/WELL/862
WELL.         GULF OIL CANADA                : Well_name    - WELL
LOC .         00/10-10-069-15W4/0            : Location     - LOCATION
UWI .         00/10-10-069-15W4/0            : Uwi          - UNIQUE WELL ID
ENTR.         SP                             : Entered      - ENTERED BY
SRVC.         SCHLUMBERGER                   : Scn          - SERVICE COMPANY
STRT.M        260                            : top_depth    - START DEPTH
STOP.M        475                            : bot_depth    - STOP DEPTH
STEP.M        0.25                           : increment    - STEP LENGTH
 NULL. -999.2500:NULL Value
~CURVE INFORMATION BLOCK
#MNEM UNIT       ERCB CURVE CODE    CURVE DESCRIPTION
#-----------   ------------------   ----------------------------------
DEPT.M        00 001 00 00         : DEPTH        - DEPTH
GR  .API      00 310 00 00         : GR           - GAMMA RAY
NPHI.V/V      00 330 00 00         : PHIN         - NEUTRON POROSITY (LIMESTONE)
DPHI.V/V      00 890 00 00         : PHID         - DENSITY POROSITY (LIMESTONE)
ILD .OHMM     00 120 00 00         : RESD         - DEEP RESISTIVITY (DIL)
~PARAMETER INFORMATION
#MNEM.UNIT           DATA             DESCRIPTION OF MNEMONIC
#---------         -----------     ------------------------------
GL  .M        548.59               : gl           - GROUND LEVEL ELEVATION
EREF.M        552.55               : kb           - ELEVATION OF DEPTH REFERENCE
DATM.M        548.59               : datum        - DATUM ELEVATION
TDD .M        482                  : tdd          - TOTAL DEPTH DRILLER
RUN .         ONE                  : Run          - RUN NUMBER
ENG .         BILL                 : Engineer     - RECORDING ENGINEER
WIT .         JIM                  : Witness      - WITNESSED BY
MUD .         GEL                  : Mud_type     - MUD TYPE
MATR.         LIMESTONE            : Logunit      - NEUTRON MATRIX
TMAX.C        24                   : BHT          - MAXIMUM RECORDED TEMPERATURE
BHTD.M        482                  : BHTDEP       - MAXIMUM RECORDED TEMPERATURE
MATR.         1                    : LOGUNIT      - NEUTRON MATRIX
RMT .C        25                   : MDTP         - TEMPERATURE OF MUD
NEUT.         1                    : NEUTRON      - NEUTRON TYPE
RESI.         0                    : RESIST       - RESISTIVITY TYPE
RMC .OHMM     0.25                 : RMC          - RESISTIVITY OF MUD CAKE
RMF .OHMM     0.25                 : RMF          - RESISTIVITY OF MUD FILTRATE
SUFT.C        15                   : SUFT         - SURFACE TEMPERATURE
~A  DEPTH       GR     PHIN     PHID     RESD
# ...
  434.000  128.459    0.373    0.174    4.127
  434.250  133.208    0.360    0.166    4.143
  434.500  128.055    0.373    0.159    4.406
  434.750  120.471    0.379    0.151    5.220
  435.000  112.413    0.366    0.172    5.904
  435.250  105.008    0.348    0.187    6.640
  435.500  101.159    0.334    0.206    7.467
  435.750   98.852    0.321    0.217    8.197
  436.000   96.843    0.327    0.191    8.653
  436.250   98.389    0.327    0.155    8.768
  436.500  102.367    0.322    0.080    8.673
  436.750  103.558    0.335    0.115    8.562
  437.000   93.781    0.349    0.196    8.421
  437.250   89.162    0.358    0.214    8.206
  437.500   90.947    0.361    0.228    8.041
  437.750   93.561    0.354    0.221    7.720
  438.000   94.455    0.347    0.212    7.114
  438.250   98.374    0.340    0.203    6.742
  438.500  106.562    0.338    0.192    6.496
  438.750  112.377    0.338    0.179    6.414
  439.000  117.956    0.339    0.166    6.427
  439.250  119.740    0.347    0.154    6.428
  439.500  121.585    0.353    0.160    6.381
  439.750  124.555    0.353    0.167    6.265
  440.000  128.176    0.348    0.176    6.139
  440.250  131.265    0.357    0.185    6.061
  440.500  121.250    0.365    0.163    6.073
  440.750  120.012    0.362    0.144    6.142
  441.000  119.068    0.358    0.136    6.341
  441.250  116.998    0.357    0.133    6.632
  441.500  109.473    0.351    0.133    7.001
  441.750  102.127    0.344    0.152    7.544
  442.000   95.966    0.334    0.175    7.949
  442.250   84.647    0.326    0.200    8.423
  442.500   82.281    0.344    0.221    8.842
  442.750   85.844    0.345    0.217    8.877
  443.000   88.755    0.343    0.200    8.813
  443.250   87.989    0.340    0.182    8.749
  443.500   88.114    0.331    0.197    8.637
  443.750   90.610    0.320    0.182    8.543
  444.000   92.868    0.308    0.163    8.402
  444.250   96.490    0.300    0.149    8.234
  444.500  102.128    0.293    0.137    7.994
  444.750  106.877    0.321    0.129    7.689
  445.000   94.016    0.343    0.139    7.576
  445.250   80.444    0.350    0.160    7.865
  445.500   71.319    0.306    0.148    8.396
  445.750   64.387    0.244    0.139    8.896
  446.000   67.832    0.246    0.137    9.586
  446.250   76.434    0.286    0.173   10.138
  446.500   88.417    0.319    0.209    9.518
  446.750   97.494    0.349    0.174    8.127
  447.000  102.835    0.361    0.137    7.324
  447.250   97.268    0.343    0.158    6.687
  447.500   89.387    0.324    0.186    6.651
  447.750   92.239    0.310    0.200    6.603
  448.000  100.723    0.314    0.192    6.531
  448.250  108.733    0.325    0.161    6.483
  448.500  114.786    0.335    0.166    6.424
  448.750  119.534    0.342    0.166    6.354
  449.000  122.386    0.349    0.159    6.285
  449.250  124.229    0.342    0.151    6.193
  449.500  120.203    0.346    0.144    6.148
  449.750  113.865    0.349    0.147    6.184
  450.000  116.953    0.352    0.155    5.795
  450.250  120.695    0.354    0.161    6.232
  450.500  122.242    0.357    0.163    6.257
  450.750  123.314    0.371    0.163    6.246
  451.000  123.556    0.380    0.154    6.365
  451.250  116.862    0.388    0.146    6.498
  451.500  109.576    0.357    0.143    6.758
  451.750  104.541    0.343    0.168    7.055
  452.000   99.269    0.333    0.163    7.448
  452.250   89.492    0.325    0.155    7.833
  452.500   80.901    0.315    0.187    7.937
  452.750   70.649    0.307    0.231    7.648
  453.000   64.250    0.300    0.255    7.248
  453.250   58.979    0.300    0.272    6.767
  453.500   54.657    0.310    0.293    6.857
  453.750   52.824    0.316    0.274    7.198
  454.000   54.430    0.319    0.257    7.542
  454.250   61.137    0.329    0.273    7.932
  454.500   66.122    0.347    0.287    8.312
  454.750   71.641    0.358    0.271    8.581
  455.000   75.916    0.370    0.256    8.760
  455.250   77.997    0.365    0.245    8.616
  455.500   78.358    0.358    0.237    8.490
  455.750   77.948    0.357    0.243    8.351
  456.000   76.828    0.367    0.251    8.168
  456.250   76.595    0.376    0.234    7.827
  456.500   77.549    0.379    0.236    6.783
  456.750   80.165    0.372    0.253    6.101
  457.000   81.414    0.362    0.242    5.268
  457.250   83.675    0.354    0.235    4.721
  457.500   84.687    0.348    0.240    4.465
  457.750   85.107    0.349    0.229    4.146
  458.000   83.511    0.357    0.215    4.017
  458.250   80.553    0.361    0.217    3.966
  458.500   83.464    0.358    0.238    3.989
  458.750   84.714    0.358    0.248    3.916
  459.000   83.593    0.365    0.239    3.859
  459.250   82.235    0.371    0.229    3.860
  459.500   85.738    0.360    0.223    3.889
  459.750   90.132    0.345    0.216    3.956
  460.000   93.279    0.335    0.206    4.176
  460.250   95.479    0.332    0.199    4.335
  460.500   95.484    0.338    0.191    4.517
  460.750   91.754    0.343    0.185    4.654
  461.000   91.760    0.344    0.199    4.621
  461.250   92.299    0.339    0.194    4.331
  461.500   87.442    0.340    0.173    4.220
  461.750   79.325    0.348    0.204    4.021
  462.000   71.801    0.353    0.221    3.846
  462.250   66.588    0.347    0.234    3.706
  462.500   67.485    0.340    0.239    3.646
  462.750   69.209    0.333    0.239    3.639
  463.000   71.467    0.334    0.238    3.606
  463.250   74.320    0.339    0.238    3.594
  463.500   75.865    0.339    0.234    3.568
  463.750   71.959    0.330    0.229    3.528
  464.000   69.413    0.325    0.228    3.313
  464.250   66.573    0.325    0.227    3.030
  464.500   63.140    0.333    0.237    2.855
  464.750   58.817    0.345    0.249    2.636
  465.000   55.562    0.350    0.248    2.466
  465.250   53.670    0.347    0.240    2.268
  465.500   51.660    0.341    0.242    2.239
  465.750   50.420    0.341    0.256    2.235
  466.000   51.019    0.348    0.263    2.240
  466.250   51.795    0.336    0.270    2.261
  466.500   52.512    0.327    0.276    2.266
  466.750   53.347    0.321    0.266    2.258
  467.000   52.700    0.331    0.262    2.242
  467.250   50.275    0.337    0.267    2.197
  467.500   47.672    0.342    0.265    2.105
  467.750   45.365    0.351    0.268    2.051
  468.000   44.304    0.359    0.285    1.999
  468.250   44.309    0.362    0.296    1.933
  468.500   44.433    0.363    0.289    1.887
  468.750   44.675    0.361    0.280    1.856
  469.000   44.977    0.360    0.292    1.792
  469.250   47.296    0.368    0.304    1.779
  469.500   50.562    0.371    0.310    1.750
  469.750   55.192    0.369    0.318    1.731
  470.000   63.143    0.363    0.322    1.715
  470.250   71.389    0.359    0.321    2.121
  470.500   84.557    0.356    0.228    2.667
  470.750  102.113    0.353    0.174    3.298
  471.000  148.780    0.350    0.141    4.452
  471.250  154.893    0.367    0.133    5.284
  471.500  153.060    0.379    0.134    5.395
  471.750  147.789    0.386    0.146    5.277
  472.000  117.852    0.376    0.160    5.210
  472.250  105.585    0.355    0.183    5.509
  472.500  103.871    0.335    0.210    5.992
  472.750  102.869    0.325    0.204    6.689
  473.000  101.451    0.319    0.139    8.303
  473.250   91.792    0.309    0.113   11.081
  473.500   67.073    0.287    0.014   16.385
  473.750   56.466    0.160   -0.012   22.488
  474.000   48.349    0.114   -0.023   28.810
  474.250   26.416    0.126   -0.016   32.221
  474.500   25.592    0.176   -0.009   31.517
  474.750   27.436    0.214   -0.001   31.463
  475.000   29.517    0.216    0.014   32.060
