~VERSION INFORMATION
 VERS.                 2.0:   CWLS LOG ASCII STANDARD -VERSION 2.0
 WRAP.                  NO:   ONE LINE PER DEPTH STEP
~WELL INFORMATION BLOCK
#MNEM.UNIT           DATA                    DESCRIPTION OF MNEMONIC
#---------    -------------------            -------------------------------
# Generated from Intellog Unique Number	CS_67_68/WELL/820
WELL.         DOME PETROLEUM LIMITED         : Well_name    - WELL
LOC .         00/11-08-068-01W4/0            : Location     - LOCATION
UWI .         00/11-08-068-01W4/0            : Uwi          - UNIQUE WELL ID
ENTR.         SP                             : Entered      - ENTERED BY
SRVC.         SCHLUMBERGER                   : Scn          - SERVICE COMPANY
STRT.M        380                            : top_depth    - START DEPTH
STOP.M        635                            : bot_depth    - STOP DEPTH
STEP.M        0.25                           : increment    - STEP LENGTH
 NULL. -999.2500:NULL Value
~CURVE INFORMATION BLOCK
#MNEM UNIT       ERCB CURVE CODE    CURVE DESCRIPTION
#-----------   ------------------   ----------------------------------
DEPT.M        00 001 00 00         : DEPTH        - DEPTH
ILD .OHMM     00 120 00 00         : RESD         - DEEP RESISTIVITY (DIL)
DPHI.V/V      00 890 00 00         : PHID         - DENSITY POROSITY (LIMESTONE)
NPHI.V/V      00 330 00 00         : PHIN         - NEUTRON POROSITY (LIMESTONE)
GR  .API      00 310 00 00         : GR           - GAMMA RAY
~PARAMETER INFORMATION
#MNEM.UNIT           DATA             DESCRIPTION OF MNEMONIC
#---------         -----------     ------------------------------
GL  .M        665.82               : gl           - GROUND LEVEL ELEVATION
EREF.M        669.7                : kb           - ELEVATION OF DEPTH REFERENCE
DATM.M        665.82               : datum        - DATUM ELEVATION
TDD .M        634                  : tdd          - TOTAL DEPTH DRILLER
RUN .         ONE                  : Run          - RUN NUMBER
ENG .         BILL                 : Engineer     - RECORDING ENGINEER
WIT .         JIM                  : Witness      - WITNESSED BY
MUD .         GEL                  : Mud_type     - MUD TYPE
MATR.         LIMESTONE            : Logunit      - NEUTRON MATRIX
TMAX.C        25                   : BHT          - MAXIMUM RECORDED TEMPERATURE
BHTD.M        636                  : BHTDEP       - MAXIMUM RECORDED TEMPERATURE
MATR.         1                    : LOGUNIT      - NEUTRON MATRIX
RMT .C        25                   : MDTP         - TEMPERATURE OF MUD
NEUT.         1                    : NEUTRON      - NEUTRON TYPE
RESI.         0                    : RESIST       - RESISTIVITY TYPE
RMC .OHMM     0.25                 : RMC          - RESISTIVITY OF MUD CAKE
RMF .OHMM     0.25                 : RMF          - RESISTIVITY OF MUD FILTRATE
SUFT.C        15                   : SUFT         - SURFACE TEMPERATURE
~A  DEPTH     RESD     PHID     PHIN       GR
# ...
  554.000    7.489    0.317    0.379   67.980
  554.250    8.269    0.317    0.370   64.865
  554.500    8.729    0.310    0.375   64.023
  554.750    8.959    0.315    0.378   63.550
  555.000    8.774    0.318    0.381   65.040
  555.250    8.641    0.319    0.375   62.601
  555.500    8.336    0.319    0.366   60.594
  555.750    8.073    0.316    0.375   63.433
  556.000    7.817    0.309    0.408   73.460
  556.250    7.626    0.305    0.408   79.924
  556.500    7.540    0.297    0.403   80.984
  556.750    7.467    0.294    0.392   80.390
  557.000    7.437    0.298    0.382   78.194
  557.250    7.463    0.303    0.372   77.904
  557.500    7.688    0.296    0.358   81.974
  557.750    7.803    0.292    0.348   85.369
  558.000    8.362    0.286    0.349   87.228
  558.250    8.664    0.281    0.362   88.048
  558.500    8.743    0.276    0.368   88.428
  558.750    8.692    0.275    0.375   89.980
  559.000    8.385    0.274    0.384   93.191
  559.250    8.105    0.264    0.388   98.119
  559.500    7.630    0.260    0.375  103.294
  559.750    6.893    0.263    0.360   94.655
  560.000    6.193    0.250    0.350   80.795
  560.250    5.787    0.239    0.362  103.898
  560.500    5.583    0.229    0.401  105.819
  560.750    5.488    0.224    0.412  101.296
  561.000    5.466    0.230    0.383   90.810
  561.250    5.781    0.247    0.358   78.732
  561.500    6.517    0.267    0.333   71.873
  561.750    6.997    0.268    0.322   69.497
  562.000    7.358    0.279    0.326   72.462
  562.250    7.623    0.288    0.339   71.620
  562.500    7.693    0.293    0.348   69.671
  562.750    7.691    0.296    0.335   65.084
  563.000    7.660    0.296    0.325   65.591
  563.250    7.544    0.291    0.321   84.826
  563.500    7.514    0.263    0.336   90.557
  563.750    7.526    0.264    0.348   91.739
  564.000    7.696    0.265    0.358   89.668
  564.250    7.795    0.262    0.354   89.192
  564.500    8.001    0.258    0.345   91.850
  564.750    8.304    0.254    0.342   94.814
  565.000    8.555    0.260    0.336   95.936
  565.250    8.699    0.260    0.324  101.606
  565.500    8.779    0.239    0.317  108.804
  565.750    8.826    0.228    0.320  125.276
  566.000    8.247    0.226    0.334  123.328
  566.250    7.635    0.234    0.349   98.233
  566.500    7.270    0.254    0.347   83.207
  566.750    7.213    0.268    0.336   75.366
  567.000    7.239    0.272    0.330   85.207
  567.250    7.332    0.254    0.336   97.749
  567.500    7.386    0.244    0.344  112.932
  567.750    7.412    0.250    0.344  117.615
  568.000    7.341    0.250    0.337  113.338
  568.250    7.325    0.242    0.334  110.962
  568.500    7.282    0.235    0.340  110.299
  568.750    7.239    0.231    0.358  113.450
  569.000    7.210    0.231    0.374  116.230
  569.250    7.168    0.244    0.382  110.350
  569.500    7.099    0.267    0.386   91.642
  569.750    6.991    0.286    0.372   78.826
  570.000    6.964    0.287    0.336   63.617
  570.250    6.820    0.281    0.317   88.561
  570.500    6.767    0.287    0.319   98.219
  570.750    6.765    0.298    0.343  104.007
  571.000    6.802    0.308    0.338   72.772
  571.250    6.812    0.302    0.330   63.767
  571.500    6.823    0.293    0.329   71.210
  571.750    6.899    0.283    0.333   81.179
  572.000    6.976    0.269    0.358   85.921
  572.250    7.039    0.260    0.361   87.535
  572.500    7.051    0.268    0.360   76.378
  572.750    7.035    0.276    0.362   68.350
  573.000    6.955    0.286    0.365   61.062
  573.250    6.837    0.294    0.362   53.834
  573.500    6.658    0.320    0.352   43.780
  573.750    6.448    0.328    0.331   40.543
  574.000    6.279    0.323    0.318   46.395
  574.250    6.301    0.303    0.328   54.824
  574.500    6.431    0.281    0.346   64.295
  574.750    6.550    0.256    0.358   75.917
  575.000    6.648    0.253    0.367   80.231
  575.250    6.522    0.258    0.374   57.289
  575.500    6.352    0.307    0.355   49.998
  575.750    6.140    0.323    0.333   41.787
  576.000    6.013    0.327    0.327   41.745
  576.250    5.933    0.328    0.339   40.841
  576.500    5.931    0.333    0.343   39.692
  576.750    5.963    0.335    0.336   38.360
  577.000    5.995    0.334    0.330   37.207
  577.250    6.061    0.331    0.333   35.381
  577.500    6.117    0.329    0.333   35.523
  577.750    6.149    0.325    0.327   40.328
  578.000    6.194    0.320    0.319   44.213
  578.250    6.205    0.318    0.327   46.073
  578.500    6.237    0.322    0.330   42.222
  578.750    6.272    0.306    0.321   49.241
  579.000    6.294    0.282    0.333   57.485
  579.250    6.363    0.262    0.351   66.341
  579.500    6.362    0.240    0.363   78.639
  579.750    6.396    0.226    0.373   88.051
  580.000    6.503    0.222    0.378   95.251
  580.250    6.563    0.222    0.384   99.197
  580.500    6.512    0.228    0.395  101.916
  580.750    6.283    0.246    0.400  102.242
  581.000    6.016    0.260    0.401   99.188
  581.250    5.902    0.285    0.385   92.389
  581.500    5.846    0.302    0.373   79.391
  581.750    5.812    0.318    0.375   71.241
  582.000    5.821    0.331    0.381   59.101
  582.250    5.819    0.338    0.369   51.199
  582.500    5.807    0.311    0.357   52.998
  582.750    5.893    0.280    0.378   60.690
  583.000    5.981    0.278    0.416   66.783
  583.250    6.070    0.289    0.399   76.256
  583.500    6.206    0.297    0.382   70.810
  583.750    6.310    0.276    0.361   66.713
  584.000    6.356    0.255    0.349   79.380
  584.250    6.427    0.241    0.385   88.544
  584.500    6.510    0.254    0.405   89.912
  584.750    6.619    0.276    0.412   74.642
  585.000    6.667    0.286    0.367   65.816
  585.250    6.779    0.293    0.335   64.792
  585.500    7.585    0.229    0.321   68.307
  585.750    8.439    0.171    0.311   68.754
  586.000    8.825    0.135    0.301   70.247
  586.250    8.873    0.143    0.321   77.818
  586.500    8.544    0.210    0.333   85.874
  586.750    8.227    0.215    0.345   95.408
  587.000    7.937    0.192    0.351  105.249
  587.250    7.802    0.174    0.340  114.169
  587.500    7.727    0.183    0.329  105.470
  587.750    7.711    0.198    0.321   97.197
  588.000    7.580    0.222    0.316   91.504
  588.250    7.163    0.234    0.315   87.530
  588.500    6.782    0.247    0.316   80.978
  588.750    6.433    0.269    0.331   73.873
  589.000    6.253    0.278    0.331   67.444
  589.250    6.170    0.271    0.320   64.022
  589.500    6.111    0.271    0.331   61.951
  589.750    6.167    0.279    0.341   61.969
  590.000    6.294    0.257    0.323   66.040
  590.250    6.376    0.169    0.308   85.273
  590.500    6.386    0.165    0.345  107.394
  590.750    6.325    0.164    0.397  128.963
  591.000    6.171    0.164    0.426  135.488
  591.250    6.032    0.166    0.426  136.119
  591.500    6.030    0.165    0.412  135.338
  591.750    6.120    0.159    0.395  134.006
  592.000    6.246    0.151    0.386  140.161
  592.250    6.411    0.156    0.402  141.775
  592.500    6.518    0.163    0.382  123.189
  592.750    6.577    0.173    0.360  101.962
  593.000    6.588    0.181    0.345   99.338
  593.250    6.562    0.219    0.341  100.831
  593.500    6.499    0.226    0.341  102.812
  593.750    6.437    0.217    0.353  103.995
  594.000    6.399    0.199    0.362  107.882
  594.250    6.362    0.190    0.363  111.767
  594.500    6.372    0.202    0.353  110.496
  594.750    6.430    0.217    0.339  112.293
  595.000    6.600    0.241    0.327  113.232
  595.250    6.774    0.238    0.319  110.423
  595.500    6.965    0.235    0.325  107.922
  595.750    7.230    0.226    0.342  106.897
  596.000    7.476    0.224    0.333  107.036
  596.250    7.644    0.224    0.319  109.754
  596.500    7.714    0.191    0.305  113.150
  596.750    7.513    0.177    0.386  116.852
  597.000    7.384    0.179    0.388  117.850
  597.250    7.164    0.186    0.384  105.528
