~VERSION INFORMATION
 VERS.                 2.0:   CWLS LOG ASCII STANDARD -VERSION 2.0
 WRAP.                  NO:   ONE LINE PER DEPTH STEP
~WELL INFORMATION BLOCK
#MNEM.UNIT           DATA                    DESCRIPTION OF MNEMONIC
#---------    -------------------            -------------------------------
# Generated from Intellog Unique Number	CS_73_76/WELL/854
WELL.         HOUSTON OILS LIMITED           : Well_name    - WELL
LOC .         00/11-35-073-15W4/0            : Location     - LOCATION
UWI .         00/11-35-073-15W4/0            : Uwi          - UNIQUE WELL ID
ENTR.         SP                             : Entered      - ENTERED BY
SRVC.         SCHLUMBERGER                   : Scn          - SERVICE COMPANY
STRT.M        320.04                         : top_depth    - START DEPTH
STOP.M        536.29                         : bot_depth    - STOP DEPTH
STEP.M        0.25                           : increment    - STEP LENGTH
 NULL. -999.2500:NULL Value
~CURVE INFORMATION BLOCK
#MNEM UNIT       ERCB CURVE CODE    CURVE DESCRIPTION
#-----------   ------------------   ----------------------------------
DEPT.M        00 001 00 00         : DEPTH        - DEPTH
GR  .API      00 310 00 00         : GR           - GAMMA RAY
DPHI.V/V      00 890 00 00         : PHID         - DENSITY POROSITY (SANDSTONE)
NPHI.V/V      00 330 00 00         : PHIN         - NEUTRON POROSITY (SANDSTONE)
ILD .OHMM     00 120 00 00         : RESD         - DEEP RESISTIVITY (DIL)
~PARAMETER INFORMATION
#MNEM.UNIT           DATA             DESCRIPTION OF MNEMONIC
#---------         -----------     ------------------------------
GL  .M        657.758              : gl           - GROUND LEVEL ELEVATION
EREF.M        660.806              : kb           - ELEVATION OF DEPTH REFERENCE
DATM.M        657.758              : datum        - DATUM ELEVATION
TDD .M        539.496              : tdd          - TOTAL DEPTH DRILLER
RUN .         ONE                  : Run          - RUN NUMBER
ENG .         BILL                 : Engineer     - RECORDING ENGINEER
WIT .         JIM                  : Witness      - WITNESSED BY
MUD .         GEL                  : Mud_type     - MUD TYPE
MATR.         SANDSTONE            : Logunit      - NEUTRON MATRIX
TMAX.C        23.8889              : BHT          - MAXIMUM RECORDED TEMPERATURE
BHTD.M        539.496              : BHTDEP       - MAXIMUM RECORDED TEMPERATURE
MATR.         1                    : LOGUNIT      - NEUTRON MATRIX
RMT .C        25                   : MDTP         - TEMPERATURE OF MUD
NEUT.         1                    : NEUTRON      - NEUTRON TYPE
RESI.         0                    : RESIST       - RESISTIVITY TYPE
RMC .OHMM     0.25                 : RMC          - RESISTIVITY OF MUD CAKE
RMF .OHMM     0.25                 : RMF          - RESISTIVITY OF MUD FILTRATE
SUFT.C        15                   : SUFT         - SURFACE TEMPERATURE
~A  DEPTH       GR     PHID     PHIN     RESD
# ...
  450.540   87.745    0.265    0.477    6.655
  450.790   84.170    0.247    0.486    6.769
  451.040   79.129    0.232    0.469    6.986
  451.290   76.535    0.204    0.436    7.031
  451.540   77.803    0.156    0.440    7.043
  451.790   76.409    0.284    0.482    6.843
  452.040   75.668    0.288    0.512    6.636
  452.290   78.273    0.297    0.498    6.421
  452.540   80.776    0.307    0.494    6.252
  452.790   80.981    0.304    0.516    6.196
  453.040   78.130    0.289    0.530    6.196
  453.290   76.060    0.279    0.535    6.197
  453.540   77.314    0.268    0.533    6.198
  453.790   78.041    0.275    0.508    6.198
  454.040   75.983    0.259    0.500    6.199
  454.290   76.029    0.252    0.513    6.200
  454.540   78.704    0.249    0.500    6.199
  454.790   80.644    0.232    0.495    6.197
  455.040   81.618    0.227    0.517    6.297
  455.290   82.464    0.242    0.535    6.323
  455.540   83.368    0.245    0.534    6.198
  455.790   80.707    0.244    0.526    6.206
  456.040   78.803    0.241    0.514    6.213
  456.290   76.817    0.240    0.508    6.093
  456.540   76.415    0.236    0.523    6.093
  456.790   77.260    0.242    0.509    6.072
  457.040   80.316    0.240    0.499    5.886
  457.290   82.019    0.245    0.506    5.763
  457.540   82.975    0.239    0.495    5.772
  457.790   84.001    0.255    0.477    5.764
  458.040   84.018    0.258    0.462    5.879
  458.290   84.797    0.253    0.507    5.996
  458.540   86.823    0.243    0.530    5.976
  458.790   87.528    0.252    0.531    6.108
  459.040   86.451    0.256    0.515    6.096
  459.290   86.286    0.266    0.512    5.983
  459.540   86.489    0.269    0.540    5.990
  459.790   85.932    0.261    0.533    5.991
  460.040   84.933    0.255    0.514    5.992
  460.290   86.067    0.248    0.513    5.993
  460.540   86.495    0.246    0.519    5.993
  460.790   85.847    0.259    0.512    5.994
  461.040   86.178    0.252    0.529    5.995
  461.290   88.834    0.229    0.536    5.993
  461.540   88.006    0.208    0.540    5.948
  461.790   87.035    0.224    0.532    5.889
  462.040   87.393    0.254    0.513    5.900
  462.290   88.880    0.255    0.533    5.780
  462.540   91.349    0.224    0.556    5.678
  462.790   89.885    0.227    0.570    5.624
  463.040   89.702    0.238    0.568    5.475
  463.290   90.694    0.218    0.548    5.387
  463.540   92.971    0.244    0.563    5.220
  463.790   94.942    0.236    0.578    5.190
  464.040   91.209    0.244    0.564    5.181
  464.290   87.209    0.240    0.541    5.317
  464.540   83.327    0.252    0.559    5.722
  464.790   81.008    0.256    0.514    5.970
  465.040   78.482    0.256    0.469    6.278
  465.290   76.249    0.229    0.443    6.590
  465.540   75.220    0.172    0.422    7.095
  465.790   74.551    0.093    0.382    7.604
  466.040   69.226    0.061    0.347    8.184
  466.290   64.552    0.080    0.298    8.523
  466.540   67.748    0.140    0.331    9.093
  466.790   73.521    0.129    0.348    9.799
  467.040   76.874    0.107    0.316   10.519
  467.290   72.545    0.116    0.304   10.994
  467.540   73.236    0.118    0.344   11.353
  467.790   77.063    0.177    0.406   11.386
  468.040   82.659    0.262    0.461   11.144
  468.290   84.217    0.267    0.503   10.230
  468.540   83.924    0.249    0.513    9.121
  468.790   84.195    0.250    0.523    8.187
  469.040   84.452    0.260    0.481    7.574
  469.290   86.067    0.260    0.470    7.140
  469.540   86.577    0.250    0.502    6.723
  469.790   86.644    0.201    0.482    6.532
  470.040   85.869    0.150    0.449    6.385
  470.290   81.691    0.080    0.361    6.791
  470.540   76.221    0.031    0.294    7.637
  470.790   69.255    0.012    0.276    8.619
  471.040   64.691    0.040    0.301    9.877
  471.290   67.899    0.078    0.336   11.091
  471.540   75.352    0.089    0.337   11.627
  471.790   81.462    0.107    0.373   12.082
  472.040   88.971    0.133    0.465   11.278
  472.290   90.260    0.152    0.458   10.039
  472.540   88.346    0.176    0.435    9.169
  472.790   85.669    0.145    0.406    8.626
  473.040   83.720    0.106    0.378    8.371
  473.290   86.633    0.153    0.405    8.281
  473.540   93.958    0.172    0.456    8.201
  473.790   96.452    0.181    0.476    7.946
  474.040   96.528    0.184    0.487    7.726
  474.290   99.802    0.178    0.494    7.345
  474.540   96.757    0.179    0.466    7.128
  474.790   99.591    0.188    0.431    7.107
  475.040  104.214    0.201    0.455    7.105
  475.290  107.088    0.200    0.479    7.109
  475.540  107.091    0.210    0.488    7.137
  475.790  104.820    0.223    0.446    7.363
  476.040  103.755    0.208    0.422    7.502
  476.290   98.744    0.202    0.415    7.658
  476.540   96.331    0.209    0.419    7.656
  476.790   99.229    0.203    0.432    7.521
  477.040   95.950    0.187    0.469    7.214
  477.290   92.533    0.164    0.503    6.896
  477.540   91.332    0.150    0.512    6.813
  477.790   90.335    0.136    0.462    6.737
  478.040   92.776    0.146    0.451    6.654
  478.290   95.496    0.175    0.482    6.451
  478.540   95.740    0.187    0.493    6.264
  478.790   96.754    0.208    0.481    5.627
  479.040   97.846    0.236    0.496    3.812
  479.290   99.376    0.253    0.542    3.215
  479.540   97.003    0.228    0.577    2.848
  479.790   96.305    0.223    0.597    2.590
  480.040   95.650    0.226    0.589    2.483
  480.290   97.373    0.233    0.593    2.356
  480.540  101.405    0.222    0.599    2.339
  480.790  101.795    0.214    0.587    2.299
  481.040  102.000    0.213    0.586    2.314
  481.290  102.368    0.204    0.595    2.389
  481.540  100.360    0.190    0.588    2.562
  481.790   98.358    0.174    0.579    2.875
  482.040   97.017    0.168    0.514    3.358
  482.290   93.234    0.180    0.466    4.268
  482.540   90.401    0.162    0.466    5.267
  482.790   85.820    0.146    0.405    6.415
  483.040   86.043    0.132    0.386    7.308
  483.290   90.124    0.156    0.414    7.379
  483.540   94.298    0.150    0.444    7.149
  483.790   84.895    0.127    0.458    7.179
  484.040   75.583    0.091    0.379    7.403
  484.290   75.267    0.034    0.337    7.839
  484.540   82.273    0.141    0.356    8.378
  484.790   87.979    0.164    0.406    8.560
  485.040   92.486    0.158    0.423    8.389
  485.290   97.202    0.154    0.442    7.646
  485.540  101.166    0.167    0.465    6.451
  485.790  100.590    0.178    0.469    5.653
  486.040   99.444    0.179    0.485    5.202
  486.290   98.871    0.179    0.513    5.065
  486.540  101.326    0.189    0.552    4.923
  486.790  103.179    0.188    0.586    4.678
  487.040  104.308    0.178    0.564    4.565
  487.290  103.943    0.179    0.553    4.256
  487.540  101.195    0.187    0.562    3.903
  487.790  101.457    0.200    0.568    3.693
  488.040  102.623    0.210    0.565    3.417
  488.290  103.687    0.201    0.585    3.267
  488.540  101.478    0.197    0.562    3.203
  488.790   97.931    0.190    0.568    3.215
  489.040   94.867    0.173    0.582    3.314
  489.290   93.776    0.160    0.595    3.506
  489.540   92.734    0.148    0.563    3.793
  489.790   92.229    0.114    0.475    4.032
  490.040   93.886    0.083    0.453    4.091
  490.290   97.335    0.192    0.500    4.139
  490.540  102.679    0.194    0.539    4.088
  490.790  103.951    0.188    0.544    3.961
  491.040  104.316    0.176    0.533    3.920
  491.290  105.098    0.161    0.501    4.096
  491.540  102.363    0.152    0.490    4.280
  491.790   99.558    0.165    0.481    4.533
  492.040   99.052    0.167    0.486    4.642
  492.290  101.637    0.172    0.533    4.421
  492.540  103.162    0.179    0.540    4.144
  492.790   99.701    0.188    0.541    4.756
  493.040   84.463    0.182    0.553    5.928
  493.290   75.432    0.186    0.412    8.900
  493.540   60.889    0.206    0.389   14.320
  493.790   57.277    0.257    0.389   22.371
