~VERSION INFORMATION
 VERS.                 2.0:   CWLS LOG ASCII STANDARD -VERSION 2.0
 WRAP.                  NO:   ONE LINE PER DEPTH STEP
~WELL INFORMATION BLOCK
#MNEM.UNIT           DATA                    DESCRIPTION OF MNEMONIC
#---------    -------------------            -------------------------------
# Generated from Intellog Unique Number	CS_73_76/WELL/851
WELL.         BOW VALLEY INDUSTRIES LTD.     : Well_name    - WELL
LOC .         00/11-30-073-13W4/0            : Location     - LOCATION
UWI .         00/11-30-073-13W4/0            : Uwi          - UNIQUE WELL ID
ENTR.         SP                             : Entered      - ENTERED BY
SRVC.         SCHLUMBERGER                   : Scn          - SERVICE COMPANY
STRT.M        325                            : top_depth    - START DEPTH
STOP.M        557                            : bot_depth    - STOP DEPTH
STEP.M        0.25                           : increment    - STEP LENGTH
 NULL. -999.2500:NULL Value
~CURVE INFORMATION BLOCK
#MNEM UNIT       ERCB CURVE CODE    CURVE DESCRIPTION
#-----------   ------------------   ----------------------------------
DEPT.M        00 001 00 00         : DEPTH        - DEPTH
ILD .OHMM     00 120 00 00         : RESD         - DEEP RESISTIVITY (DIL)
DPHI.V/V      00 890 00 00         : PHID         - DENSITY POROSITY (LIMESTONE)
NPHI.V/V      00 330 00 00         : PHIN         - NEUTRON POROSITY (LIMESTONE)
GR  .API      00 310 00 00         : GR           - GAMMA RAY
~PARAMETER INFORMATION
#MNEM.UNIT           DATA             DESCRIPTION OF MNEMONIC
#---------         -----------     ------------------------------
GL  .M        672.66               : gl           - GROUND LEVEL ELEVATION
EREF.M        676.31               : kb           - ELEVATION OF DEPTH REFERENCE
DATM.M        672.31               : datum        - DATUM ELEVATION
TDD .M        665                  : tdd          - TOTAL DEPTH DRILLER
RUN .         ONE                  : Run          - RUN NUMBER
ENG .         BILL                 : Engineer     - RECORDING ENGINEER
WIT .         JIM                  : Witness      - WITNESSED BY
MUD .         GEL                  : Mud_type     - MUD TYPE
MATR.         LIMESTONE            : Logunit      - NEUTRON MATRIX
TMAX.C        24                   : BHT          - MAXIMUM RECORDED TEMPERATURE
BHTD.M        665                  : BHTDEP       - MAXIMUM RECORDED TEMPERATURE
MATR.         1                    : LOGUNIT      - NEUTRON MATRIX
RMT .C        25                   : MDTP         - TEMPERATURE OF MUD
NEUT.         1                    : NEUTRON      - NEUTRON TYPE
RESI.         0                    : RESIST       - RESISTIVITY TYPE
RMC .OHMM     0.25                 : RMC          - RESISTIVITY OF MUD CAKE
RMF .OHMM     0.25                 : RMF          - RESISTIVITY OF MUD FILTRATE
SUFT.C        15                   : SUFT         - SURFACE TEMPERATURE
~A  DEPTH     RESD     PHID     PHIN       GR
# ...
  368.500    5.782    0.228    0.469  103.000
  368.750    6.004    0.238    0.454   99.400
  369.000    6.120    0.246    0.442   97.605
  369.250    6.357    0.241    0.425  106.064
  369.500    6.603    0.230    0.420  109.694
  369.750    6.991    0.224    0.437  110.300
  370.000    6.993    0.227    0.449  106.094
  370.250    7.127    0.233    0.441   99.482
  370.500    7.000    0.236    0.450   97.689
  370.750    7.002    0.241    0.476   95.293
  371.000    6.877    0.224    0.487   92.898
  371.250    7.141    0.181    0.463   91.103
  371.500    7.419    0.145    0.454   93.525
  371.750    7.563    0.176    0.466   97.156
  372.000    7.426    0.162    0.460   95.966
  372.250    7.157    0.124    0.438  100.196
  372.500    6.899    0.169    0.444  101.414
  372.750    6.774    0.204    0.450  101.427
  373.000    6.776    0.235    0.449   99.632
  373.250    6.908    0.227    0.456   96.031
  373.500    7.041    0.244    0.476   94.237
  373.750    7.453    0.260    0.474   88.228
  374.000    7.597    0.275    0.449   83.422
  374.250    7.600    0.277    0.444   80.422
  374.500    7.465    0.270    0.439   82.245
  374.750    7.469    0.260    0.435   85.273
  375.000    7.334    0.253    0.434   84.684
  375.250    7.199    0.245    0.439   85.301
  375.500    6.939    0.238    0.428   88.332
  375.750    6.814    0.249    0.419   89.546
  376.000    6.817    0.254    0.432   90.159
  376.250    7.082    0.243    0.443   88.370
  376.500    7.219    0.216    0.422   88.379
  376.750    7.359    0.192    0.427   87.793
  377.000    7.364    0.243    0.436   86.603
  377.250    7.365    0.253    0.440   87.214
  377.500    7.509    0.245    0.423   87.227
  377.750    7.800    0.235    0.462   84.231
  378.000    8.101    0.250    0.469   81.833
  378.250    8.260    0.266    0.445   78.233
  378.500    8.420    0.271    0.422   69.814
  378.750    8.423    0.277    0.409   64.406
  379.000    8.429    0.286    0.398   60.203
  379.250    8.431    0.293    0.383   60.217
  379.500    8.125    0.295    0.378   60.830
  379.750    7.979    0.290    0.385   60.242
  380.000    7.837    0.288    0.396   60.257
  380.250    7.987    0.294    0.403   63.286
  380.500    8.454    0.292    0.410   65.108
  380.750    8.618    0.289    0.415   61.502
  381.000    9.121    0.291    0.398   53.084
  381.250    9.473    0.304    0.378   48.278
  381.500    9.838    0.351    0.451   41.061
  381.750   10.415    0.514    0.560   35.051
  382.000   10.614    0.607    0.635   33.858
  382.250   10.424    0.429    0.678   44.718
  382.500   10.044    0.362    0.716   50.754
  382.750    8.984    0.324    0.425   53.782
  383.000    8.819    0.312    0.415   53.191
  383.250    8.188    0.308    0.411   50.795
  383.500    7.746    0.305    0.406   52.618
  383.750    7.465    0.299    0.397   56.847
  384.000    7.194    0.298    0.389   59.270
  384.250    7.196    0.303    0.392   58.078
  384.500    7.338    0.313    0.405   56.895
  384.750    7.342    0.315    0.421   56.304
  385.000    7.210    0.310    0.423   55.712
  385.250    7.213    0.303    0.423   53.918
  385.500    7.215    0.308    0.415   52.725
  385.750    7.218    0.320    0.406   53.944
  386.000    7.090    0.327    0.401   55.769
  386.250    6.962    0.322    0.407   57.587
  386.500    6.965    0.321    0.416   57.602
  386.750    6.969    0.322    0.417   55.811
  387.000    6.973    0.322    0.424   57.031
  387.250    6.846    0.322    0.433   58.246
  387.500    6.849    0.320    0.445   60.066
  387.750    6.725    0.318    0.451   63.699
  388.000    6.730    0.317    0.430   64.912
  388.250    6.608    0.328    0.424   66.734
  388.500    6.611    0.334    0.434   65.547
  388.750    6.614    0.346    0.441   63.150
  389.000    6.619    0.351    0.452   60.752
  389.250    6.621    0.352    0.467   59.558
  389.500    6.878    0.338    0.462   60.180
  389.750    6.881    0.330    0.446   62.601
  390.000    6.884    0.329    0.439   64.419
  390.250    7.017    0.328    0.444   63.232
  390.500    7.020    0.325    0.459   62.039
  390.750    7.159    0.327    0.465   62.654
  391.000    7.298    0.329    0.469   64.478
  391.250    7.301    0.335    0.457   65.700
  391.500    7.304    0.336    0.453   66.309
  391.750    7.309    0.329    0.464   66.323
  392.000    7.313    0.326    0.476   64.536
  392.250    7.316    0.328    0.487   64.543
  392.500    7.458    0.330    0.457   65.162
  392.750    7.460    0.331    0.440   66.379
  393.000    7.464    0.337    0.459   67.598
  393.250    7.329    0.337    0.477   68.216
  393.500    7.199    0.337    0.471   67.625
  393.750    7.068    0.343    0.458   67.037
  394.000    7.073    0.346    0.461   67.656
  394.250    7.075    0.338    0.478   68.269
  394.500    7.488    0.326    0.461   67.684
  394.750    8.075    0.331    0.452   66.491
  395.000    8.231    0.325    0.455   65.903
  395.250    8.548    0.301    0.448   65.311
  395.500    8.552    0.139    0.413   65.927
  395.750    8.090    0.136    0.367   70.160
  396.000    7.652    0.193    0.403   71.379
  396.250    7.374    0.236    0.445   70.788
  396.500    6.975    0.269    0.445   69.596
  396.750    6.598    0.283    0.437   67.803
  397.000    6.478    0.274    0.445   67.822
  397.250    6.362    0.266    0.448   67.234
  397.500    6.366    0.269    0.449   66.037
  397.750    6.489    0.281    0.449   63.042
  398.000    6.491    0.304    0.431   60.643
  398.250    6.743    0.319    0.424   58.245
  398.500    6.621    0.316    0.420   57.657
  398.750    6.503    0.301    0.413   62.491
  399.000    6.384    0.283    0.407   66.722
  399.250    5.928    0.270    0.405   70.352
  399.500    5.712    0.255    0.404   73.978
  399.750    5.204    0.243    0.401   79.414
  400.000    4.742    0.226    0.423   83.647
  400.250    4.240    0.206    0.450   84.260
  400.500    4.086    0.216    0.450   88.493
  400.750    4.012    0.227    0.447   81.276
  401.000    4.409    0.244    0.528   70.447
  401.250    4.578    0.295    0.483   65.041
  401.500    5.223    0.306    0.444   63.244
  401.750    5.424    0.315    0.423   62.054
  402.000    5.742    0.317    0.414   67.496
  402.250    5.743    0.291    0.434   71.118
  402.500    5.536    0.284    0.459   75.955
  402.750    5.236    0.279    0.451   77.173
  403.000    5.046    0.275    0.443   76.580
  403.250    5.341    0.272    0.436   77.198
  403.500    5.547    0.269    0.452   76.609
  403.750    5.761    0.284    0.459   73.615
  404.000    6.098    0.300    0.471   72.421
  404.250    6.454    0.297    0.463   70.625
  404.500    6.578    0.292    0.451   68.233
  404.750    6.705    0.298    0.443   67.040
  405.000    6.966    0.306    0.425   65.247
  405.250    6.969    0.307    0.413   65.257
  405.500    7.103    0.304    0.427   67.083
  405.750    6.976    0.303    0.443   67.099
  406.000    6.979    0.307    0.452   67.108
  406.250    6.984    0.309    0.442   65.918
  406.500    6.986    0.321    0.447   65.329
  406.750    6.991    0.326    0.449   63.539
  407.000    6.994    0.326    0.444   62.343
  407.250    6.868    0.316    0.428   63.564
  407.500    6.871    0.307    0.436   65.385
  407.750    6.874    0.308    0.444   66.609
  408.000    6.877    0.310    0.440   66.614
  408.250    6.881    0.311    0.420   65.422
  408.500    6.885    0.304    0.415   65.438
  408.750    6.889    0.299    0.421   62.440
  409.000    6.764    0.293    0.426   61.246
  409.250    6.768    0.305    0.429   58.852
  409.500    6.771    0.311    0.428   59.468
  409.750    6.651    0.316    0.429   61.290
  410.000    6.531    0.314    0.430   62.510
  410.250    6.533    0.308    0.432   63.730
  410.500    6.536    0.303    0.437   64.341
  410.750    6.538    0.312    0.441   64.960
  411.000    6.421    0.307    0.439   65.579
  411.250    6.306    0.298    0.438   64.987
  411.500    6.308    0.294    0.441   63.797
  411.750    6.194    0.310    0.442   63.207
