~VERSION INFORMATION
 VERS.                 2.0:   CWLS LOG ASCII STANDARD -VERSION 2.0
 WRAP.                  NO:   ONE LINE PER DEPTH STEP
~WELL INFORMATION BLOCK
#MNEM.UNIT           DATA                    DESCRIPTION OF MNEMONIC
#---------    -------------------            -------------------------------
# Generated from Intellog Unique Number	CW_70_72/WELL/3021
NULL.         -999.25                        : NULL_VALUE
WELL.         MANNVILLE ET AL HONDO 10-11    : Well_name    - WELL              
LOC .         10-11-070-02W5                 : Location     - LOCATION          
UWI .         00/10-11-070-02W5/0            : Uwi          - UNIQUE WELL ID    
ENTR.         JAYE                           : Entered      - ENTERED BY        
SRVC.         SCHLUMBERGER                   : Scn          - SERVICE COMPANY   
DATE.         26 MAR 80                      : Date         - LOG DATE          
STRT.M        440                            : top_depth    - START DEPTH       
STOP.M        655                            : bot_depth    - STOP DEPTH        
STEP.M        0.25                           : increment    - STEP LENGTH       
~CURVE INFORMATION BLOCK
#MNEM UNIT       ERCB CURVE CODE    CURVE DESCRIPTION
#-----------   ------------------   ----------------------------------
DEPT.M        00 001 00 00         : DEPTH        - DEPTH                       
ILD .OHMM     00 120 00 00         : RESD         - DEEP RESISTIVITY (DIL)      
CALI.MM       00 280 01 00         : CAL          - CALIPER                     
GR  .API      00 310 00 00         : GR           - GAMMA RAY                   
NPHI.V/V      00 330 00 00         : PHIN         - NEUTRON POROSITY (SANDSTONE)
DPHI.V/V      00 890 00 00         : PHID         - DENSITY POROSITY (SANDSTONE)
~PARAMETER INFORMATION       
#MNEM.UNIT           DATA             DESCRIPTION OF MNEMONIC
#---------         -----------     ------------------------------
GL  .M        593.3                : gl           - GROUND LEVEL ELEVATION      
EREF.M        598.2                : kb           - ELEVATION OF DEPTH REFERENCE
DATM.M        593.3                : datum        - DATUM ELEVATION             
TDD .M        669                  : tdd          - TOTAL DEPTH DRILLER         
RUN .         ONE                  : Run          - RUN NUMBER                  
ENG .         DECKER/MCEWEN        : Engineer     - RECORDING ENGINEER          
WIT .         CONLEY               : Witness      - WITNESSED BY                
BASE.         EDM                  : Branch       - HOME BASE OF LOGGING UNIT   
MUD .         GEL CHEM             : Mud_type     - MUD TYPE                    
MATR.         SANDSTONE            : Logunit      - NEUTRON MATRIX              
TMAX.C        23.3                 : BHT          - MAXIMUM RECORDED TEMPERATURE
BHTD.M        666.5                : BHTDEP       - MAXIMUM RECORDED TEMPERATURE
RMT .C        14.4                 : MDTP         - TEMPERATURE OF MUD          
MUDD.KG/M     1095                 : MWT          - MUD DENSITY                 
NEUT.         1                    : NEUTRON      - NEUTRON TYPE                
RESI.         0                    : RESIST       - RESISTIVITY TYPE            
RM  .OHMM     3.21                 : RM           - RESISTIVITY OF MUD          
RMC .OHMM     0.25                 : RMC          - RESISTIVITY OF MUD CAKE     
RMF .OHMM     3.02                 : RMF          - RESISTIVITY OF MUD FILTRATE 
SUFT.C        0                    : SUFT         - SURFACE TEMPERATURE         
~A  DEPTH     RESD      CAL       GR     PHIN     PHID
# ...
  513.000    2.106  157.690   65.465    0.428    0.279
  513.250    2.082  157.880   62.587    0.425    0.296
  513.500    2.069  158.382   59.521    0.428    0.307
  513.750    2.049  158.672   59.197    0.439    0.302
  514.000    2.052  158.544   61.180    0.437    0.298
  514.250    2.059  158.422   61.912    0.435    0.290
  514.500    2.054  158.401   61.528    0.430    0.285
  514.750    2.050  158.383   63.322    0.420    0.287
  515.000    2.037  158.154   63.932    0.404    0.289
  515.250    2.010  158.135   58.688    0.391    0.285
  515.500    2.090  158.004   56.121    0.384    0.287
  515.750    2.261  158.299   57.231    0.378    0.291
  516.000    2.343  158.073   62.699    0.375    0.282
  516.250    2.482  158.773   71.844    0.369    0.258
  516.500    2.601  167.164   79.743    0.374    0.237
  516.750    2.585  179.398   86.207    0.416    0.211
  517.000    2.560  184.149   89.248    0.439    0.235
  517.250    2.632  184.649   92.536    0.449    0.223
  517.500    2.945  190.029   96.014    0.459    0.210
  517.750    3.057  193.536   97.871    0.462    0.216
  518.000    2.899  189.569   95.802    0.466    0.208
  518.250    2.760  183.115   92.052    0.456    0.198
  518.500    2.511  176.551   89.237    0.454    0.184
  518.750    2.332  176.530   92.650    0.454    0.184
  519.000    2.187  182.430   94.195    0.445    0.225
  519.250    2.141  169.845   86.644    0.440    0.249
  519.500    2.189  162.662   76.853    0.431    0.263
  519.750    2.404  159.942   69.552    0.417    0.275
  520.000    2.631  158.259   64.370    0.414    0.283
  520.250    2.878  157.822   64.358    0.418    0.270
  520.500    3.113  160.293   69.079    0.391    0.241
  520.750    3.262  163.285   76.106    0.400    0.190
  521.000    3.393  165.445   83.943    0.423    0.190
  521.250    3.514  163.970   83.432    0.412    0.226
  521.500    3.600  162.285   80.989    0.392    0.221
  521.750    3.633  162.474   82.534    0.400    0.212
  522.000    3.672  163.906   84.330    0.414    0.201
  522.250    3.685  165.340   85.314    0.424    0.193
  522.500    3.663  166.773   84.367    0.427    0.185
  522.750    3.600  167.065   83.545    0.421    0.195
  523.000    3.605  166.007   83.220    0.413    0.197
  523.250    3.658  164.844   84.205    0.409    0.196
  523.500    3.692  163.160   85.874    0.410    0.212
  523.750    3.803  164.285   88.290    0.403    0.191
  524.000    3.999  167.067   89.150    0.398    0.163
  524.250    4.097  168.498   88.579    0.402    0.141
  524.500    4.189  168.995   88.625    0.402    0.149
  524.750    4.227  169.491   89.613    0.395    0.165
  525.000    4.225  169.892   91.903    0.397    0.174
  525.250    4.199  170.073   92.702    0.405    0.174
  525.500    4.166  170.472   91.756    0.410    0.161
  525.750    4.149  170.968   89.002    0.414    0.164
  526.000    4.124  171.052   92.601    0.420    0.159
  526.250    4.107  170.928   91.219    0.430    0.160
  526.500    4.075  170.490   89.525    0.427    0.152
  526.750    4.035  170.677   92.002    0.420    0.159
  527.000    3.981  170.452   94.671    0.406    0.150
  527.250    3.971  170.431   92.913    0.412    0.150
  527.500    3.948  172.695   89.725    0.419    0.181
  527.750    3.887  171.741   87.967    0.411    0.161
  528.000    3.778  169.844   88.452    0.405    0.153
  528.250    3.476  169.311   89.190    0.414    0.153
  528.500    3.180  169.603   91.731    0.412    0.169
  528.750    2.792  169.786   93.526    0.415    0.182
  529.000    2.479  168.624   92.828    0.436    0.191
  529.250    2.256  165.073   88.206    0.445    0.209
  529.500    2.052  161.525   78.040    0.432    0.250
  529.750    1.994  157.454   71.923    0.421    0.260
  530.000    2.153  155.463   68.236    0.413    0.266
  530.250    2.352  154.713   66.042    0.404    0.276
  530.500    2.535  155.007   64.785    0.394    0.259
  530.750    2.621  157.269   65.457    0.385    0.204
  531.000    2.690  161.609   68.061    0.349    0.164
  531.250    2.866  158.994   71.600    0.386    0.209
  531.500    3.043  153.782   76.073    0.407    0.231
  531.750    3.273  154.175   82.849    0.414    0.195
  532.000    3.595  156.747   83.832    0.421    0.184
  532.250    3.745  159.326   85.441    0.415    0.186
  532.500    3.851  162.730   87.609    0.415    0.177
  532.750    3.813  164.574   89.653    0.420    0.171
  533.000    3.405  165.181   91.631    0.427    0.179
  533.250    3.086  165.367   90.998    0.438    0.192
  533.500    2.932  163.476   87.186    0.444    0.225
  533.750    2.987  159.720   81.567    0.436    0.246
  534.000    3.183  158.040   74.329    0.425    0.258
  534.250    3.176  159.366   75.687    0.439    0.250
  534.500    2.862  161.839   80.097    0.455    0.245
  534.750    2.556  165.764   80.768    0.471    0.268
  535.000    2.361  163.042   78.949    0.408    0.268
  535.250    2.290  159.079   78.441    0.390    0.243
  535.500    2.328  156.980   78.491    0.386    0.254
  535.750    2.407  155.914   80.472    0.392    0.253
  536.000    2.443  155.690   83.386    0.404    0.255
  536.250    2.474  155.778   86.489    0.416    0.271
  536.500    2.386  155.758   81.804    0.429    0.284
  536.750    2.332  155.318   77.556    0.446    0.274
  537.000    2.336  155.086   72.748    0.438    0.277
  537.250    2.465  154.865   67.067    0.442    0.289
  537.500    2.578  154.533   67.304    0.428    0.294
  537.750    2.800  154.299   68.226    0.425    0.278
  538.000    3.121  154.594   65.408    0.432    0.252
  538.250    3.526  155.091   62.407    0.420    0.237
  538.500    4.105  155.798   60.339    0.395    0.214
  538.750    3.799  157.647   58.705    0.354    0.182
  539.000    3.122  160.946   58.942    0.292    0.133
  539.250    2.586  160.305   59.990    0.301    0.192
  539.500    2.249  157.580   61.846    0.350    0.266
  539.750    1.982  156.424   61.399    0.413    0.304
  540.000    1.937  155.256   61.635    0.422    0.299
  540.250    1.958  154.506   62.121    0.430    0.292
  540.500    1.987  153.866   61.984    0.446    0.300
  540.750    2.028  153.219   64.463    0.438    0.301
  541.000    2.085  152.994   66.818    0.453    0.292
  541.250    2.364  153.078   66.432    0.473    0.288
  541.500    2.641  153.372   65.049    0.436    0.286
  541.750    3.017  153.657   63.854    0.415    0.291
  542.000    2.959  154.050   63.529    0.400    0.285
  542.250    2.703  154.346   65.013    0.377    0.277
  542.500    2.422  154.933   67.056    0.357    0.253
  542.750    2.259  155.136   67.850    0.363    0.232
  543.000    2.162  155.114   68.587    0.394    0.269
  543.250    2.169  154.886   69.882    0.428    0.288
  543.500    2.197  154.658   74.107    0.417    0.275
  543.750    2.221  155.051   77.895    0.413    0.264
  544.000    2.229  155.752   72.961    0.412    0.270
  544.250    2.178  155.741   74.690    0.419    0.281
  544.500    2.085  155.824   75.614    0.433    0.284
  544.750    2.022  155.386   75.602    0.428    0.285
  545.000    2.010  155.262   75.715    0.422    0.282
  545.250    2.083  154.929   75.329    0.430    0.269
  545.500    2.240  154.390   73.260    0.426    0.259
  545.750    2.579  153.641   71.068    0.398    0.267
  546.000    2.997  153.103   70.183    0.383    0.270
  546.250    3.847  153.081   70.607    0.381    0.246
  546.500    4.479  154.929   71.779    0.366    0.227
  546.750    5.031  156.879   73.449    0.332    0.170
  547.000    5.301  158.104   65.336    0.285    0.119
  547.250    5.104  159.539   61.837    0.257    0.082
  547.500    4.282  160.034   68.177    0.290    0.095
  547.750    3.853  159.706   72.837    0.344    0.126
  548.000    3.505  158.337   77.436    0.365    0.151
  548.250    3.445  156.343   79.603    0.382    0.202
  548.500    3.503  155.386   80.711    0.366    0.219
  548.750    3.649  155.681   82.942    0.362    0.195
  549.000    3.546  156.696   81.808    0.365    0.196
  549.250    3.227  158.337   85.158    0.375    0.193
