~VERSION INFORMATION
 VERS.                 2.0:   CWLS LOG ASCII STANDARD -VERSION 2.0
 WRAP.                  NO:   ONE LINE PER DEPTH STEP
~WELL INFORMATION BLOCK
#MNEM.UNIT           DATA                    DESCRIPTION OF MNEMONIC
#---------    -------------------            -------------------------------
# Generated from Intellog Unique Number	CW_73_75/WELL/903
WELL.         CDN SUP ET AL FRANCIS 10-01    : Well_name    - WELL
LOC .         00/10-01-074-21W4/0            : Location     - LOCATION
UWI .         00/10-01-074-21W4/0            : Uwi          - UNIQUE WELL ID
ENTR.         JAYE                           : Entered      - ENTERED BY
SRVC.         SCHLUMBERGER                   : Scn          - SERVICE COMPANY
DATE.         16 FEB 75                      : Date         - LOG DATE
STRT.M        396.24                         : top_depth    - START DEPTH
STOP.M        636.99                         : bot_depth    - STOP DEPTH
STEP.M        0.25                           : increment    - STEP LENGTH
 NULL. -999.2500:NULL Value
~CURVE INFORMATION BLOCK
#MNEM UNIT       ERCB CURVE CODE    CURVE DESCRIPTION
#-----------   ------------------   ----------------------------------
DEPT.M        00 001 00 00         : DEPTH        - DEPTH
DPHI.V/V      00 890 00 00         : PHID         - DENSITY POROSITY (SANDSTONE)
NPHI.V/V      00 330 00 00         : PHIN         - NEUTRON POROSITY (SANDSTONE)
GR  .API      00 310 00 00         : GR           - GAMMA RAY
CALI.MM       00 280 01 00         : CAL          - CALIPER
ILD .OHMM     00 120 00 00         : RESD         - DEEP RESISTIVITY (DIL)
~PARAMETER INFORMATION
#MNEM.UNIT           DATA             DESCRIPTION OF MNEMONIC
#---------         -----------     ------------------------------
GL  .M        708.05               : gl           - GROUND LEVEL ELEVATION
EREF.M        710.489              : kb           - ELEVATION OF DEPTH REFERENCE
DATM.M        708.05               : datum        - DATUM ELEVATION
TDD .M        694.944              : tdd          - TOTAL DEPTH DRILLER
RUN .         ONE                  : Run          - RUN NUMBER
ENG .         LLOYD                : Engineer     - RECORDING ENGINEER
WIT .         NESSIER              : Witness      - WITNESSED BY
BASE.         EDMONTON             : Branch       - HOME BASE OF LOGGING UNIT
MUD .         GEL                  : Mud_type     - MUD TYPE
MATR.         SANDSTONE            : Logunit      - NEUTRON MATRIX
TMAX.C        26.1111              : BHT          - MAXIMUM RECORDED TEMPERATURE
BHTD.M        695.249              : BHTDEP       - MAXIMUM RECORDED TEMPERATURE
RMT .C        4.44444              : MDTP         - TEMPERATURE OF MUD
MUDD.KG/M     1104                 : MWT          - MUD DENSITY
NEUT.         1                    : NEUTRON      - NEUTRON TYPE
RESI.         0                    : RESIST       - RESISTIVITY TYPE
RM  .OHMM     5.12                 : RM           - RESISTIVITY OF MUD
RMC .OHMM     0                    : RMC          - RESISTIVITY OF MUD CAKE
RMF .OHMM     3.6                  : RMF          - RESISTIVITY OF MUD FILTRATE
SUFT.C        -17.7778             : SUFT         - SURFACE TEMPERATURE
~A  DEPTH     PHID     PHIN       GR      CAL     RESD
# ...
  432.740    0.289    0.492   74.325  161.621   11.717
  432.990    0.301    0.499   74.636  161.842   11.009
  433.240    0.305    0.494   78.766  161.343   10.269
  433.490    0.295    0.458   84.471  161.869    9.249
  433.740    0.255    0.433   89.389  164.142    8.104
  433.990    0.229    0.444   93.397  165.900    7.340
  434.240    0.219    0.464   97.588  166.736    6.697
  434.490    0.226    0.481   98.565  167.059    6.315
  434.740    0.240    0.475   96.635  166.970    6.044
  434.990    0.255    0.462   90.582  166.267    5.958
  435.240    0.249    0.484   89.500  166.895    5.926
  435.490    0.244    0.499   89.690  167.525    5.961
  435.740    0.257    0.510   90.547  168.566    6.129
  435.990    0.242    0.495   91.283  169.914    6.538
  436.240    0.219    0.476   90.200  170.545    6.975
  436.490    0.188    0.470   89.543  171.072    7.041
  436.740    0.171    0.471   89.853  172.113    7.030
  436.990    0.188    0.466   90.105  173.460    6.865
  437.240    0.196    0.465   90.537  173.886    6.705
  437.490    0.219    0.465   88.606  173.695    6.818
  437.740    0.231    0.468   81.948  172.581    7.974
  437.990    0.228    0.464   64.623  170.131    9.604
  438.240    0.269    0.447   52.147  166.040   12.023
  438.490    0.312    0.442   43.186  162.977   14.804
  438.740    0.318    0.447   42.951  161.657   19.016
  438.990    0.325    0.446   45.688  160.645   23.937
  439.240    0.327    0.450   45.938  159.530   27.891
  439.490    0.333    0.449   45.219  158.928   30.530
  439.740    0.330    0.459   46.441  158.942   31.915
  439.990    0.332    0.459   47.297  159.059   32.757
  440.240    0.342    0.443   48.153  159.176   33.067
  440.490    0.327    0.431   48.344  159.294   33.259
  440.740    0.318    0.433   46.170  159.513   33.145
  440.990    0.328    0.444   43.573  159.528   33.031
  441.240    0.331    0.451   43.036  159.850   33.101
  441.490    0.328    0.446   43.469  160.173   33.232
  441.740    0.326    0.437   44.931  160.084   33.609
  441.990    0.322    0.437   46.637  160.200   33.990
  442.240    0.318    0.448   48.342  160.216   34.566
  442.490    0.320    0.459   48.351  160.332   34.702
  442.740    0.324    0.467   47.147  160.551   35.550
  442.990    0.327    0.474   45.459  160.565   37.854
  443.240    0.332    0.463   44.679  160.990   40.530
  443.490    0.346    0.455   44.324  161.005   42.526
  443.740    0.347    0.453   43.242  161.225   43.326
  443.990    0.334    0.461   42.704  161.240   43.818
  444.240    0.324    0.456   44.107  161.253   43.428
  444.490    0.317    0.462   45.994  161.369   41.718
  444.740    0.329    0.468   44.123  161.590   40.591
  444.990    0.338    0.452   41.465  161.603   38.706
  445.240    0.348    0.443   39.414  161.517   36.840
  445.490    0.339    0.452   39.118  161.632   33.923
  445.740    0.340    0.446   40.339  161.749   27.819
  445.990    0.346    0.442   41.015  161.559   21.273
  446.240    0.341    0.441   41.386  161.575   17.065
  446.490    0.337    0.443   41.273  161.485   13.943
  446.740    0.334    0.442   40.555  161.499   12.512
  446.990    0.336    0.441   41.594  161.614   11.585
  447.240    0.340    0.443   43.359  161.526   11.027
  447.490    0.338    0.446   45.125  161.440   10.929
  447.740    0.334    0.446   47.013  161.249   11.135
  447.990    0.332    0.420   47.748  161.467   11.240
  448.240    0.343    0.406   47.938  161.584   11.305
  448.490    0.331    0.406   47.099  161.804   11.287
  448.740    0.335    0.412   46.502  161.819   11.105
  448.990    0.340    0.411   45.965  161.833   10.746
  449.240    0.338    0.415   45.669  161.848   10.247
  449.490    0.338    0.430   45.799  162.065    9.825
  449.740    0.342    0.444   46.899  162.186    9.473
  449.990    0.350    0.442   48.240  162.199    9.268
  450.240    0.352    0.435   49.522  162.111    9.135
  450.490    0.343    0.433   50.803  162.124    8.988
  450.740    0.339    0.432   51.478  162.037    8.940
  450.990    0.349    0.430   51.486  161.948    9.042
  451.240    0.343    0.425   51.434  161.858    9.246
  451.490    0.322    0.403   50.594  161.668    9.595
  451.740    0.300    0.388   48.239  161.477    9.811
  451.990    0.285    0.371   44.491  161.492   10.125
  452.240    0.272    0.371   45.528  161.504   10.392
  452.490    0.283    0.406   48.688  161.520   10.530
  452.740    0.301    0.423   51.667  161.534   10.532
  452.990    0.319    0.440   53.917  161.548   10.362
  453.240    0.318    0.454   56.532  161.461   10.364
  453.490    0.310    0.444   60.601  161.371   10.835
  453.740    0.279    0.441   65.639  161.592   11.390
  453.990    0.247    0.460   75.769  161.606   11.776
  454.240    0.227    0.411   95.232  161.518   11.975
  454.490    0.252    0.354   81.241  161.531   11.088
  454.740    0.270    0.382   56.158  161.648   10.247
  454.990    0.295    0.423   50.046  161.970    9.700
  455.240    0.326    0.472   49.084  162.398    9.421
  455.490    0.338    0.467   48.366  162.718    9.303
  455.740    0.324    0.462   48.252  162.732    9.391
  455.990    0.306    0.472   47.474  162.647    9.325
  456.240    0.282    0.509   47.663  162.556    9.140
  456.490    0.282    0.506   49.491  162.365    8.894
  456.740    0.304    0.473   50.771  162.173    8.670
  456.990    0.356    0.465   50.538  162.291    8.514
  457.240    0.351    0.450   48.667  162.512    8.361
  457.490    0.342    0.448   48.009  162.421    8.302
  457.740    0.352    0.447   47.775  162.540    8.335
  457.990    0.349    0.445   47.784  162.554    8.367
  458.240    0.339    0.447   47.125  162.668    8.447
  458.490    0.338    0.448   47.194  162.994    8.574
  458.740    0.335    0.450   47.566  163.109    8.768
  458.990    0.331    0.465   47.029  163.124    8.884
  459.240    0.331    0.459   44.250  163.239    9.051
  459.490    0.332    0.444   42.803  163.356    9.137
  459.740    0.330    0.444   42.630  163.374    9.241
  459.990    0.328    0.447   43.002  163.283    9.260
  460.240    0.320    0.449   43.133  163.195    9.314
  460.490    0.323    0.450   42.838  163.210    9.333
  460.740    0.331    0.454   42.361  163.223    9.370
  460.990    0.331    0.465   42.734  163.442    9.389
  461.240    0.327    0.465   42.560  163.456    9.340
  461.490    0.323    0.462   42.386  163.472    9.240
  461.740    0.320    0.475   42.759  163.384    9.091
  461.990    0.328    0.476   42.039  163.500    8.911
  462.240    0.336    0.472   41.503  163.618    8.783
  462.490    0.333    0.466   40.421  163.527    8.657
  462.740    0.332    0.465   39.762  163.544    8.564
  462.990    0.329    0.471   39.467  163.354    8.520
  463.240    0.330    0.479   37.779  163.365    8.521
  463.490    0.335    0.480   35.606  163.687    8.508
  463.740    0.335    0.477   33.856  163.599    8.510
  463.990    0.332    0.471   33.926  163.716    8.481
  464.240    0.326    0.464   34.843  163.732    8.483
  464.490    0.321    0.457   36.791  163.543    8.470
  464.740    0.330    0.452   38.314  163.248    8.472
  464.990    0.336    0.451   38.687  162.850    8.427
  465.240    0.333    0.453   39.180  162.659    8.368
  465.490    0.350    0.461   40.279  162.779    8.339
  465.740    0.352    0.466   41.318  162.790    8.326
  465.990    0.348    0.458   41.629  162.807    8.282
  466.240    0.335    0.450   41.759  162.716    8.238
  466.490    0.334    0.446   41.646  162.631    8.210
  466.740    0.341    0.449   42.685  162.950    8.213
  466.990    0.345    0.450   42.330  163.068    8.215
  467.240    0.344    0.465   43.672  163.084    8.277
  467.490    0.340    0.461   45.437  162.995    8.295
  467.740    0.335    0.450   46.234  162.804    8.343
  467.990    0.329    0.449   46.000  162.611    8.391
  468.240    0.318    0.459   45.341  162.420    8.393
  468.490    0.317    0.465   44.502  162.230    8.395
  468.740    0.335    0.460   43.662  162.349    8.398
  468.990    0.341    0.454   43.852  162.362    8.431
