~VERSION INFORMATION
 VERS.                 2.0:   CWLS LOG ASCII STANDARD -VERSION 2.0
 WRAP.                  NO:   ONE LINE PER DEPTH STEP
~WELL INFORMATION BLOCK
#MNEM.UNIT           DATA                    DESCRIPTION OF MNEMONIC
#---------    -------------------            -------------------------------
# Generated from Intellog Unique Number	CS_73_76/WELL/2209
WELL.         PEX WAPPAU                     : Well_name    - WELL
LOC .         00/12-10-074-11W4/0            : Location     - LOCATION
UWI .         00/12-10-074-11W4/0            : Uwi          - UNIQUE WELL ID
ENTR.         SP                             : Entered      - ENTERED BY
SRVC.         SCHLUMBERGER                   : Scn          - SERVICE COMPANY
STRT.M        330                            : top_depth    - START DEPTH
STOP.M        530                            : bot_depth    - STOP DEPTH
STEP.M        0.25                           : increment    - STEP LENGTH
 NULL. -999.2500:NULL Value
~CURVE INFORMATION BLOCK
#MNEM UNIT       ERCB CURVE CODE    CURVE DESCRIPTION
#-----------   ------------------   ----------------------------------
DEPT.M        00 001 00 00         : DEPTH        - DEPTH
ILD .OHMM     00 120 00 00         : RESD         - DEEP RESISTIVITY (DIL)
DPHI.V/V      00 890 00 00         : PHID         - DENSITY POROSITY (LIMESTONE)
NPHI.V/V      00 330 00 00         : PHIN         - NEUTRON POROSITY (LIMESTONE)
GR  .API      00 310 00 00         : GR           - GAMMA RAY
~PARAMETER INFORMATION
#MNEM.UNIT           DATA             DESCRIPTION OF MNEMONIC
#---------         -----------     ------------------------------
GL  .M        656.9                : gl           - GROUND LEVEL ELEVATION
EREF.M        660.1                : kb           - ELEVATION OF DEPTH REFERENCE
DATM.M        656.9                : datum        - DATUM ELEVATION
TDD .M        780                  : tdd          - TOTAL DEPTH DRILLER
RUN .         ONE                  : Run          - RUN NUMBER
ENG .         BILL                 : Engineer     - RECORDING ENGINEER
WIT .         JIM                  : Witness      - WITNESSED BY
MUD .         GEL                  : Mud_type     - MUD TYPE
MATR.         LIMESTONE            : Logunit      - NEUTRON MATRIX
TMAX.C        21                   : BHT          - MAXIMUM RECORDED TEMPERATURE
BHTD.M        780                  : BHTDEP       - MAXIMUM RECORDED TEMPERATURE
MATR.         1                    : LOGUNIT      - NEUTRON MATRIX
RMT .C        25                   : MDTP         - TEMPERATURE OF MUD
NEUT.         1                    : NEUTRON      - NEUTRON TYPE
RESI.         0                    : RESIST       - RESISTIVITY TYPE
RMC .OHMM     0.25                 : RMC          - RESISTIVITY OF MUD CAKE
RMF .OHMM     0.25                 : RMF          - RESISTIVITY OF MUD FILTRATE
SUFT.C        15                   : SUFT         - SURFACE TEMPERATURE
~A  DEPTH     RESD     PHID     PHIN       GR
# ...
  504.000    4.254    0.244    0.398   78.769
  504.250    4.021    0.253    0.391   69.547
  504.500    3.946    0.238    0.383   65.858
  504.750    3.873    0.233    0.397   70.775
  505.000    3.730    0.238    0.399   72.004
  505.250    3.660    0.264    0.400   65.241
  505.500    3.460    0.276    0.408   57.863
  505.750    3.395    0.285    0.400   46.182
  506.000    3.270    0.300    0.388   44.337
  506.250    3.209    0.295    0.371   47.410
  506.500    3.091    0.275    0.391   44.336
  506.750    3.091    0.284    0.377   48.023
  507.000    3.149    0.274    0.370   67.080
  507.250    3.209    0.263    0.395   72.612
  507.500    3.395    0.264    0.407   74.455
  507.750    3.459    0.257    0.419   71.381
  508.000    3.591    0.253    0.411   67.077
  508.250    3.729    0.250    0.380   67.076
  508.500    3.945    0.257    0.376   62.772
  508.750    4.095    0.259    0.382   60.927
  509.000    4.415    0.259    0.361   66.459
  509.250    4.670    0.242    0.341   74.450
  509.500    5.130    0.204    0.333   83.056
  509.750    5.529    0.168    0.356   91.661
  510.000    5.850    0.187    0.370   94.734
  510.250    6.306    0.196    0.377   94.118
  510.500    6.306    0.177    0.377   94.118
  510.750    6.547    0.172    0.386   94.732
  511.000    6.546    0.182    0.398   95.961
  511.250    6.670    0.173    0.392   97.189
  511.500    6.546    0.162    0.405   95.345
  511.750    6.546    0.180    0.420   91.655
  512.000    6.305    0.194    0.393   86.737
  512.250    6.072    0.212    0.375   83.047
  512.500    5.848    0.199    0.393   79.973
  512.750    5.739    0.167    0.403   74.439
  513.000    5.528    0.195    0.402   73.209
  513.250    5.528    0.198    0.381   78.741
  513.500    5.528    0.185    0.405   91.650
  513.750    5.527    0.174    0.420   97.182
  514.000    5.632    0.177    0.424   99.025
  514.250    5.632    0.179    0.428   93.492
  514.500    5.738    0.174    0.388   93.491
  514.750    5.738    0.192    0.371   92.876
  515.000    5.631    0.211    0.364   90.416
  515.250    5.424    0.209    0.387   88.571
  515.500    5.323    0.225    0.419   76.275
  515.750    4.846    0.251    0.430   65.209
  516.000    4.330    0.285    0.442   47.380
  516.250    4.170    0.285    0.353   28.937
  516.500    4.092    0.285    0.335   51.067
  516.750    4.170    0.306    0.344   63.361
  517.000    4.329    0.324    0.376   55.983
  517.250    4.249    0.329    0.392   48.606
  517.500    4.411    0.312    0.386   46.761
  517.750    4.495    0.317    0.382   50.448
  518.000    4.755    0.322    0.387   55.980
  518.250    5.030    0.161    0.346   64.586
  518.500    5.321    0.156    0.324   73.807
  518.750    5.845    0.173    0.328   65.200
  519.000    6.542    0.179    0.318   56.592
  519.250    7.460    0.156    0.300   49.829
  519.500    8.349    0.133    0.290   52.902
  519.750    8.833    0.133    0.300   56.590
  520.000    9.170    0.161    0.306   54.745
  520.250    8.999    0.176    0.310   51.670
  520.500    8.832    0.194    0.279   43.063
  520.750    8.506    0.171    0.257   35.685
  521.000    8.193    0.163    0.242   33.840
  521.250    8.040    0.160    0.226   41.217
  521.500    7.744    0.204    0.285   44.904
  521.750    7.744    0.229    0.312   35.068
  522.000    7.890    0.221    0.306   28.305
  522.250    8.347    0.204    0.264   22.156
  522.500    8.830    0.188    0.216   17.238
  522.750    9.883    0.150    0.167   16.622
  523.000   10.855    0.000    0.144   20.310
  523.250   11.923    0.000    0.155   25.227
  523.500   13.344    0.052    0.203   27.685
  523.750   14.656    0.050    0.235   33.217
  524.000   16.403    0.044    0.240   35.676
  524.250   18.358    0.040    0.236   36.289
  524.500   21.737    0.048    0.229   32.600
  524.750   25.258    0.060    0.231   28.296
  525.000   27.227    0.066    0.242   24.607
  525.250   28.804    0.054    0.227   20.303
  525.500   29.905    0.044    0.205   18.458
  525.750   30.471    0.047    0.162   17.228
  526.000   29.347    0.059    0.168   16.612
  526.250   27.740    0.070    0.184   20.300
  526.500   25.254    0.076    0.202   20.914
  526.750   23.871    0.053    0.208   17.839
  527.000   22.991    0.041    0.183   15.994
  527.250   22.562    0.033    0.176   13.534
  527.500   22.562    0.063    0.181   11.690
  527.750   22.561    0.076    0.181   10.459
  528.000   22.988    0.082    0.177   10.458
  528.250   23.423    0.073    0.171   11.072
  528.500   24.319    0.065    0.167   11.072
  528.750   24.779    0.054    0.170   11.685
  529.000   24.779    0.059    0.176   12.300
  529.250   25.247    0.055    0.181   12.299
  529.500   24.777    0.054    0.181   12.298
  529.750   24.777    0.061    0.181   11.683
  530.000   24.315    0.066    0.182    9.837
