~VERSION INFORMATION
 VERS.                 2.0:   CWLS LOG ASCII STANDARD -VERSION 2.0
 WRAP.                  NO:   ONE LINE PER DEPTH STEP
~WELL INFORMATION BLOCK
#MNEM.UNIT           DATA                    DESCRIPTION OF MNEMONIC
#---------    -------------------            -------------------------------
# Generated from Intellog Unique Number	CS_71_72/WELL/862
WELL.         HB PITLOCHRIE                  : Well_name    - WELL
LOC .         00/10-20-071-12W4/0            : Location     - LOCATION
UWI .         00/10-20-071-12W4/0            : Uwi          - UNIQUE WELL ID
ENTR.         SP                             : Entered      - ENTERED BY
SRVC.         SCHLUMBERGER                   : Scn          - SERVICE COMPANY
STRT.M        262.128                        : top_depth    - START DEPTH
STOP.M        490.378                        : bot_depth    - STOP DEPTH
STEP.M        0.25                           : increment    - STEP LENGTH
 NULL. -999.2500:NULL Value
~CURVE INFORMATION BLOCK
#MNEM UNIT       ERCB CURVE CODE    CURVE DESCRIPTION
#-----------   ------------------   ----------------------------------
DEPT.M        00 001 00 00         : DEPTH        - DEPTH
GR  .API      00 310 00 00         : GR           - GAMMA RAY
DPHI.V/V      00 890 00 00         : PHID         - DENSITY POROSITY (SANDSTONE)
NPHI.V/V      00 330 00 00         : PHIN         - NEUTRON POROSITY (SANDSTONE)
ILD .OHMM     00 120 00 00         : RESD         - DEEP RESISTIVITY (DIL)
~PARAMETER INFORMATION
#MNEM.UNIT           DATA             DESCRIPTION OF MNEMONIC
#---------         -----------     ------------------------------
GL  .M        592.836              : gl           - GROUND LEVEL ELEVATION
EREF.M        595.884              : kb           - ELEVATION OF DEPTH REFERENCE
DATM.M        592.836              : datum        - DATUM ELEVATION
TDD .M        492.252              : tdd          - TOTAL DEPTH DRILLER
RUN .         ONE                  : Run          - RUN NUMBER
ENG .         BILL                 : Engineer     - RECORDING ENGINEER
WIT .         JIM                  : Witness      - WITNESSED BY
MUD .         GEL                  : Mud_type     - MUD TYPE
MATR.         SANDSTONE            : Logunit      - NEUTRON MATRIX
TMAX.C        16.1111              : BHT          - MAXIMUM RECORDED TEMPERATURE
BHTD.M        492.252              : BHTDEP       - MAXIMUM RECORDED TEMPERATURE
MATR.         1                    : LOGUNIT      - NEUTRON MATRIX
RMT .C        25                   : MDTP         - TEMPERATURE OF MUD
NEUT.         1                    : NEUTRON      - NEUTRON TYPE
RESI.         0                    : RESIST       - RESISTIVITY TYPE
RMC .OHMM     0.25                 : RMC          - RESISTIVITY OF MUD CAKE
RMF .OHMM     0.25                 : RMF          - RESISTIVITY OF MUD FILTRATE
SUFT.C        15                   : SUFT         - SURFACE TEMPERATURE
~A  DEPTH       GR     PHID     PHIN     RESD
# ...
  305.628  114.198    0.234    0.496    4.564
  305.878  108.714    0.251    0.475    4.549
  306.128  101.301    0.265    0.459    4.629
  306.378   94.823    0.280    0.458    4.823
  306.628   89.091    0.296    0.473    5.193
  306.878   87.698    0.295    0.456    5.543
  307.128   93.143    0.263    0.448    5.853
  307.378   95.354    0.234    0.444    6.185
  307.628   96.962    0.209    0.439    6.453
  307.878   95.546    0.178    0.427    6.783
  308.128   97.297    0.160    0.421    6.980
  308.378  100.339    0.142    0.420    7.101
  308.628  103.943    0.169    0.461    7.137
  308.878  106.049    0.195    0.493    7.147
  309.128  104.037    0.215    0.500    7.002
  309.378  105.024    0.231    0.497    6.578
  309.628  107.222    0.250    0.500    6.009
  309.878  107.752    0.243    0.492    5.734
  310.128  107.508    0.250    0.499    5.554
  310.378  107.025    0.249    0.501    5.521
  310.628  106.444    0.234    0.495    5.459
  310.878  106.534    0.223    0.488    5.427
  311.128  107.884    0.218    0.480    5.427
  311.378  109.268    0.226    0.487    5.248
  311.628  111.022    0.230    0.497    5.139
  311.878  111.025    0.218    0.502    4.978
  312.128  113.906    0.231    0.510    4.935
  312.378  116.785    0.213    0.504    4.924
  312.628  117.444    0.230    0.491    5.067
  312.878  115.598    0.220    0.478    5.192
  313.128  111.942    0.229    0.462    5.394
  313.378  109.025    0.262    0.462    5.557
  313.628  106.203    0.276    0.481    5.743
  313.878  102.556    0.270    0.495    5.922
  314.128  105.371    0.247    0.499    5.927
  314.378  108.537    0.244    0.505    5.695
  314.628  110.944    0.230    0.499    5.549
  314.878  110.064    0.218    0.479    5.518
  315.128  103.029    0.253    0.465    5.608
  315.378   95.830    0.280    0.457    5.754
  315.628   90.216    0.301    0.455    5.992
  315.878   87.608    0.305    0.449    6.326
  316.128   89.268    0.284    0.449    6.626
  316.378   90.917    0.278    0.445    6.846
  316.628   92.336    0.281    0.437    6.918
  316.878   91.934    0.273    0.431    6.936
  317.128   93.585    0.264    0.438    6.889
  317.378   95.899    0.271    0.447    6.827
  317.628   97.420    0.279    0.457    6.816
  317.878   97.277    0.265    0.463    6.825
  318.128   92.183    0.249    0.446    6.889
  318.378   87.916    0.255    0.430    6.965
  318.628   92.944    0.271    0.417    7.068
  318.878   96.896    0.265    0.413    7.171
  319.128  101.161    0.259    0.412    7.204
  319.378  106.806    0.250    0.417    7.302
  319.628  110.860    0.229    0.429    7.359
  319.878  110.241    0.229    0.441    7.386
  320.128  109.737    0.248    0.439    7.360
  320.378  109.595    0.247    0.449    7.316
  320.628  109.739    0.239    0.448    7.246
  320.878  110.767    0.236    0.442    6.957
  321.128  112.551    0.221    0.437    6.770
  321.378  114.006    0.223    0.432    6.618
  321.628  112.648    0.238    0.429    6.522
  321.878  108.316    0.229    0.431    6.543
  322.128  102.453    0.217    0.425    6.611
  322.378   95.024    0.218    0.427    6.703
  322.628   87.265    0.291    0.439    6.806
  322.878   84.006    0.325    0.452    6.874
  323.128   82.866    0.329    0.464    6.891
  323.378   81.865    0.313    0.472    6.827
  323.628   81.869    0.313    0.466    6.819
  323.878   80.336    0.318    0.448    6.794
  324.128   86.430    0.324    0.440    6.781
  324.378   90.518    0.263    0.438    6.808
  324.628   91.619    0.248    0.431    6.916
  324.878   87.823    0.259    0.429    7.069
  325.128   82.128    0.258    0.436    7.145
  325.378   77.523    0.256    0.447    7.226
  325.628   74.214    0.265    0.459    7.275
  325.878   72.532    0.282    0.466    7.312
  326.128   77.193    0.287    0.453    7.326
  326.378   81.118    0.296    0.451    7.293
  326.628   84.378    0.305    0.459    7.279
  326.878   85.147    0.289    0.457    7.244
  327.128   83.555    0.295    0.449    7.205
  327.378   87.459    0.301    0.441    7.165
  327.628   93.085    0.293    0.435    7.106
  327.878   97.085    0.274    0.434    7.088
  328.128  100.966    0.268    0.432    7.087
  328.378  105.040    0.267    0.428    7.075
  328.628  108.859    0.249    0.433    7.044
  328.878  111.622    0.238    0.437    7.018
  329.128  113.918    0.235    0.440    6.986
  329.378  114.248    0.234    0.455    6.974
  329.628  109.137    0.232    0.465    6.951
  329.878  102.764    0.239    0.469    6.915
  330.128  100.914    0.251    0.465    6.881
  330.378   99.708    0.241    0.465    6.859
  330.628   92.707    0.237    0.465    6.848
  330.878   84.458    0.256    0.454    6.839
  331.128   74.542    0.275    0.454    6.834
  331.378   69.232    0.295    0.450    6.886
  331.628   65.711    0.303    0.443    6.974
  331.878   63.645    0.293    0.447    6.989
  332.128   62.836    0.288    0.452    6.978
  332.378   61.343    0.282    0.446    6.944
  332.628   59.839    0.294    0.446    6.913
  332.878   58.656    0.293    0.438    6.911
  333.128   60.307    0.316    0.429    6.956
  333.378   61.606    0.311    0.427    6.994
  333.628   62.341    0.300    0.438    7.099
  333.878   61.218    0.312    0.453    7.203
  334.128   63.215    0.326    0.445    7.312
  334.378   65.841    0.320    0.451    7.390
  334.628   66.747    0.318    0.453    7.469
  334.878   64.861    0.329    0.447    7.484
  335.128   64.029    0.323    0.441    7.546
  335.378   68.435    0.308    0.435    7.518
  335.628   72.049    0.316    0.432    7.367
  335.878   76.213    0.315    0.438    7.158
  336.128   78.495    0.300    0.441    7.022
  336.378   79.546    0.292    0.448    6.874
  336.628   78.760    0.282    0.460    6.759
  336.878   74.149    0.283    0.463    6.661
  337.128   68.913    0.293    0.446    6.609
  337.378   65.450    0.305    0.441    6.611
  337.628   64.398    0.319    0.441    6.627
  337.878   62.924    0.325    0.442    6.744
  338.128   60.959    0.339    0.452    6.827
  338.378   59.078    0.349    0.459    6.933
  338.628   56.870    0.344    0.462    7.063
  338.878   55.325    0.343    0.459    7.200
  339.128   55.782    0.347    0.458    7.253
  339.378   55.387    0.337    0.463    7.260
  339.628   54.624    0.330    0.463    7.235
  339.878   55.318    0.332    0.453    7.229
  340.128   57.362    0.340    0.442    7.259
  340.378   60.992    0.347    0.450    7.297
  340.628   63.142    0.343    0.463    7.316
  340.878   64.383    0.336    0.480    7.335
  341.128   63.231    0.338    0.482    7.370
  341.378   61.138    0.339    0.467    7.418
  341.628   58.942    0.331    0.469    7.459
  341.878   57.115    0.344    0.472    7.457
  342.128   57.718    0.343    0.465    7.492
  342.378   59.881    0.331    0.464    7.527
  342.628   63.966    0.324    0.470    7.562
  342.878   65.581    0.329    0.482    7.609
  343.128   61.935    0.327    0.486    7.624
  343.378   61.158    0.333    0.466    7.638
  343.628   63.381    0.333    0.449    7.614
  343.878   64.176    0.325    0.444    7.612
  344.128   62.875    0.319    0.455    7.602
  344.378   61.869    0.324    0.470    7.548
  344.628   60.720    0.341    0.481    7.519
  344.878   61.139    0.353    0.485    7.461
  345.128   62.855    0.358    0.489    7.448
  345.378   64.982    0.360    0.493    7.369
  345.628   65.321    0.360    0.483    7.335
  345.878   64.730    0.343    0.498    7.319
  346.128   64.594    0.330    0.480    7.288
  346.378   64.615    0.328    0.461    7.289
  346.628   64.547    0.324    0.456    7.278
  346.878   64.660    0.317    0.476    7.255
  347.128   64.311    0.339    0.484    7.257
  347.378   62.626    0.343    0.479    7.219
  347.628   60.666    0.334    0.474    7.212
  347.878   60.327    0.337    0.472    7.214
  348.128   62.078    0.341    0.467    7.208
  348.378   64.362    0.331    0.460    7.206
  348.628   66.886    0.329    0.464    7.212
  348.878   68.634    0.340    0.455    7.192
