~VERSION INFORMATION
 VERS.                 2.0:   CWLS LOG ASCII STANDARD -VERSION 2.0
 WRAP.                  NO:   ONE LINE PER DEPTH STEP
~WELL INFORMATION BLOCK
#MNEM.UNIT           DATA                    DESCRIPTION OF MNEMONIC
#---------    -------------------            -------------------------------
# Generated from Intellog Unique Number	CC_80_83/WELL/2389
NULL.         -999.25                        : NULL_VALUE
WELL.         GULF RESDELN                   : Well_name    - WELL
LOC .         10-33-082-06W4                 : Location     - LOCATION          
UWI .         00/10-33-082-06W4/0            : Uwi          - UNIQUE WELL ID    
ENTR.         DW                             : Entered      - ENTERED BY        
SRVC.         SCHLUMBERGER                   : Scn          - SERVICE COMPANY   
DATE.         22 FEB 79                      : Date         - LOG DATE
STRT.M        130                            : top_depth    - START DEPTH       
STOP.M        304.899                        : bot_depth    - STOP DEPTH        
STEP.M        0.3                            : increment    - STEP LENGTH       
~CURVE INFORMATION BLOCK
#MNEM UNIT       ERCB CURVE CODE    CURVE DESCRIPTION
#-----------   ------------------   ----------------------------------
DEPT.M        00 001 00 00         : DEPTH        - DEPTH                       
DPHI.V/V      00 890 00 00         : PHID         - DENSITY POROSITY (LIMESTONE)
NPHI.V/V      00 330 00 00         : PHIN         - NEUTRON POROSITY (LIMESTONE)
GR  .API      00 310 00 00         : GR           - GAMMA RAY                   
ILD .OHMM     00 120 00 00         : RESD         - DEEP RESISTIVITY (DIL)      
~PARAMETER INFORMATION       
#MNEM.UNIT           DATA             DESCRIPTION OF MNEMONIC
#---------         -----------     ------------------------------
GL  .M        511.06               : gl           - GROUND LEVEL ELEVATION      
EREF.M        514.7                : kb           - ELEVATION OF DEPTH REFERENCE
DATM.M        514.7                : datum        - DATUM ELEVATION             
TDD .M        307                  : tdd          - TOTAL DEPTH DRILLER         
RUN .         ONE                  : Run          - RUN NUMBER                  
ENG .         BILL                 : Engineer     - RECORDING ENGINEER          
WIT .         JIM                  : Witness      - WITNESSED BY                
MUD .         GEL                  : Mud_type     - MUD TYPE                    
MATR.         LIMESTONE            : Logunit      - NEUTRON MATRIX              
TMAX.C        19.8                 : BHT          - MAXIMUM RECORDED TEMPERATURE
BHTD.M        307                  : BHTDEP       - MAXIMUM RECORDED TEMPERATURE
MATR.         1                    : LOGUNIT      - NEUTRON MATRIX              
RMT .C        25                   : MDTP         - TEMPERATURE OF MUD          
NEUT.         1                    : NEUTRON      - NEUTRON TYPE                
RESI.         0                    : RESIST       - RESISTIVITY TYPE            
RMC .OHMM     0.25                 : RMC          - RESISTIVITY OF MUD CAKE     
RMF .OHMM     0.25                 : RMF          - RESISTIVITY OF MUD FILTRATE 
SUFT.C        15                   : SUFT         - SURFACE TEMPERATURE         
~A  DEPTH     PHID     PHIN       GR     RESD
# ...
  234.401    0.267    0.375   59.507    9.445
  234.701    0.274    0.388   54.019    8.606
  235.001    0.294    0.387   50.986    8.606
  235.301    0.308    0.379   50.393    8.768
  235.601    0.306    0.371   50.406    9.101
  235.901    0.302    0.355   55.316    9.805
  236.201    0.281    0.352   65.728   10.368
  236.501    0.252    0.360   73.084   10.964
  236.801    0.224    0.371   73.105   10.965
  237.101    0.207    0.383   62.114   10.965
  237.401    0.259    0.404   57.242   10.763
  237.701    0.295    0.394   55.428   10.565
  238.001    0.308    0.382   53.607    9.991
  238.301    0.303    0.367   51.791    9.275
  238.601    0.294    0.367   48.752    8.936
  238.901    0.303    0.383   47.553    8.771
  239.201    0.315    0.373   48.175    8.937
  239.501    0.293    0.372   50.028    9.276
  239.801    0.293    0.374   59.833    9.628
  240.101    0.268    0.373   64.744    9.994
  240.401    0.254    0.374   64.760   10.568
  240.701    0.265    0.382   62.330   10.767
  241.001    0.287    0.389   59.292   10.569
  241.301    0.303    0.400   60.534   10.183
  241.601    0.287    0.402   65.443    9.811
  241.901    0.267    0.361   67.911    9.630
  242.201    0.260    0.380   72.212    9.453
  242.501    0.255    0.385   74.060    9.453
  242.801    0.254    0.384   74.078    9.453
  243.101    0.271    0.393   67.980    9.631
  243.401    0.284    0.412   56.991    9.280
  243.701    0.302    0.397   48.449    9.109
  244.001    0.318    0.368   53.969    9.109
  244.301    0.295    0.384   61.327    9.281
  244.601    0.283    0.409   55.840    9.281
  244.901    0.300    0.396   49.743    9.456
  245.201    0.308    0.398   55.264    9.815
  245.501    0.290    0.398   58.342   10.574
  245.801    0.274    0.411   54.077   11.182
  246.101    0.281    0.409   55.319   12.273
  246.401    0.295    0.388   59.009   14.785
  246.701    0.278    0.417   57.191   20.672
  247.001    0.309    0.409   62.109   21.061
  247.301    0.293    0.399   63.341   19.550
  247.601    0.276    0.399   63.973   16.230
  247.901    0.265    0.398   62.160   15.637
  248.201    0.274    0.398   59.726   21.460
  248.501    0.302    0.439   45.073   28.375
  248.801    0.333    0.427   45.700   31.729
  249.101    0.307    0.409   50.611   31.145
  249.401    0.308    0.412   57.355   27.340
  249.701    0.287    0.404   61.039   22.696
  250.001    0.288    0.393   63.503   18.152
  250.301    0.275    0.388   70.861   15.641
  250.601    0.248    0.420   74.546   14.519
  250.901    0.246    0.411   72.120   13.229
  251.201    0.246    0.408   70.303   12.985
  251.501    0.249    0.418   72.766   12.985
  251.801    0.260    0.415   76.454   13.479
  252.101    0.260    0.429   68.523   14.253
  252.401    0.255    0.424   70.990   15.938
  252.701    0.255    0.407   71.618   17.494
  253.001    0.258    0.408   69.192   19.562
  253.301    0.270    0.417   59.425   21.472
  253.601    0.283    0.431   51.494   23.567
  253.901    0.291    0.425   52.123   25.390
  254.201    0.297    0.447   52.755   27.354
  254.501    0.312    0.453   49.102   31.163
  254.801    0.314    0.435   45.451   32.346
  255.101    0.316    0.438   45.467   32.347
  255.401    0.309    0.434   46.099   31.166
  255.701    0.306    0.432   40.614   29.474
  256.001    0.309    0.431   44.303   31.168
  256.301    0.320    0.432   49.824   34.853
  256.601    0.301    0.439   47.391   37.549
  256.901    0.317    0.471   43.742   38.975
  257.201    0.331    0.435   48.650   34.856
  257.501    0.318    0.412   61.510   23.577
  257.801    0.291    0.399   70.704   18.168
  258.101    0.254    0.417   71.944   15.948
  258.401    0.242    0.445   63.401   16.554
  258.701    0.258    0.405   53.022   20.317
  259.001    0.302    0.416   46.315   23.146
  259.301    0.325    0.432   48.166   24.936
  259.601    0.306    0.406   59.804   26.370
  259.901    0.287    0.402   60.436   30.041
  260.201    0.283    0.440   45.164   36.870
  260.501    0.293    0.435   35.398   48.751
  260.801    0.326    0.408   40.922   56.583
  261.101    0.317    0.396   48.888   47.855
  261.401    0.309    0.389   61.745   31.186
  261.701    0.292    0.385   67.879   24.031
  262.001    0.270    0.396   66.675   21.895
  262.301    0.262    0.423   64.249   20.707
  262.601    0.265    0.447   61.207   20.707
  262.901    0.289    0.459   55.726   21.494
  263.201    0.293    0.476   46.567   26.380
  263.501    0.300    0.474   34.969   35.535
  263.801    0.336    0.437   30.704   46.985
  264.101    0.355    0.426   30.112   60.979
  264.401    0.347    0.419   34.413   63.295
  264.701    0.334    0.416   39.320   46.990
  265.001    0.326    0.414   54.014   36.209
  265.301    0.319    0.421   51.589   32.383
  265.601    0.312    0.434   49.158   32.992
  265.901    0.334    0.462   44.287   42.819
  266.201    0.332    0.472   40.638   57.680
  266.501    0.348    0.444   37.600   69.486
  266.801    0.335    0.461   36.395   66.948
  267.101    0.334    0.446   37.020   50.636
  267.401    0.312    0.456   57.828   41.260
  267.701    0.292    0.474   56.012   37.593
  268.001    0.301    0.454   51.749   34.253
  268.301    0.304    0.439   51.157   32.393
  268.601    0.304    0.429   52.398   29.515
  268.901    0.290    0.413   56.698   25.909
  269.201    0.262    0.382   56.717   21.913
  269.501    0.239    0.378   55.511   21.509
  269.801    0.251    0.417   50.026   24.964
  270.101    0.271    0.450   42.091   29.519
  270.401    0.355    0.440   35.997   40.512
  270.701    0.355    0.440   31.736   56.643
  271.001    0.352    0.437   31.141   86.924
  271.301    0.365    0.433   31.776   91.920
  271.601    0.352    0.439   33.013  106.687
  271.901    0.348    0.462   32.416  112.819
  272.201    0.362    0.474   31.826  112.824
  272.501    0.357    0.453   34.291  106.698
  272.801    0.349    0.447   37.974   97.217
  273.101    0.341    0.461   39.218   91.938
  273.401    0.336    0.477   41.076   88.580
  273.701    0.334    0.470   40.480   90.248
  274.001    0.339    0.484   38.050   97.229
  274.301    0.358    0.481   35.010  104.749
  274.601    0.367    0.456   33.192  112.852
  274.901    0.354    0.461   32.604  128.567
  275.201    0.365    0.461   33.839  138.512
  275.500    0.363    0.458   34.472  141.118
  275.800    0.356    0.464   31.434  141.123
  276.100    0.354    0.483   32.060  149.237
  276.400    0.351    0.481   35.746  146.487
  276.700    0.351    0.490   38.209  135.979
  277.000    0.366    0.513   38.230  106.749
  277.300    0.375    0.529   40.697   82.257
  277.600    0.376    0.520   38.879   79.253
  277.900    0.369    0.496   35.840   83.809
  278.200    0.359    0.473   35.857   80.748
  278.500    0.358    0.466   38.930   69.576
  278.800    0.360    0.456   49.343   63.393
  279.100    0.353    0.450   56.703   49.766
  279.400    0.339    0.429   60.998   31.246
  279.700    0.280    0.422   67.132   23.197
  280.000    0.299    0.452   66.547   21.136
  280.300    0.315    0.440   67.168   19.620
  280.600    0.278    0.422   71.467   20.365
  280.900    0.264    0.447   69.651   21.940
  281.200    0.297    0.439   87.402   22.773
  281.500    0.255    0.430   88.643   22.354
  281.800    0.240    0.445   79.488   19.261
  282.100    0.249    0.451   79.510   15.405
  282.400    0.241    0.424   78.306   13.273
  282.700    0.226    0.407   75.878   12.553
  283.000    0.238    0.396   77.731   12.094
  283.300    0.198    0.393   83.862   12.322
  283.600    0.217    0.419   91.218   12.790
  283.900    0.250    0.414   97.352   13.031
  284.200    0.248    0.387  101.653   13.780
  284.500    0.255    0.399  104.112   13.526
  284.800    0.246    0.425  104.747   12.792
  285.100    0.243    0.430  104.148   12.556
  285.400    0.263    0.428  102.333   12.792
  285.700    0.256    0.428   98.072   13.278
  286.000    0.284    0.439   90.750   15.411
  286.300    0.296    0.440   73.034   17.557
