~VERSION INFORMATION
 VERS.                 2.0:   CWLS LOG ASCII STANDARD -VERSION 2.0
 WRAP.                  NO:   ONE LINE PER DEPTH STEP
~WELL INFORMATION BLOCK
#MNEM.UNIT           DATA                    DESCRIPTION OF MNEMONIC
#---------    -------------------            -------------------------------
# Generated from Intellog Unique Number	CW_70_72/WELL/1055
NULL.         -999.25                        : NULL_VALUE
WELL.         NORCEN VICTOR 11-08            : Well_name    - WELL              
LOC .         11-08-072-01W5                 : Location     - LOCATION          
UWI .         00/11-08-072-01W5/0            : Uwi          - UNIQUE WELL ID    
ENTR.         JAYE                           : Entered      - ENTERED BY        
SRVC.         WESTERN ATLAS                  : Scn          - SERVICE COMPANY   
DATE.         11 MAR 81                      : Date         - LOG DATE          
STRT.M        424                            : top_depth    - START DEPTH       
STOP.M        673                            : bot_depth    - STOP DEPTH        
STEP.M        0.25                           : increment    - STEP LENGTH       
~CURVE INFORMATION BLOCK
#MNEM UNIT       ERCB CURVE CODE    CURVE DESCRIPTION
#-----------   ------------------   ----------------------------------
DEPT.M        00 001 00 00         : DEPTH        - DEPTH                       
DPHI.V/V      00 890 00 00         : PHID         - DENSITY POROSITY (SANDSTONE)
NPHI.V/V      00 330 00 00         : PHIN         - NEUTRON POROSITY (SANDSTONE)
GR  .API      00 310 00 00         : GR           - GAMMA RAY                   
CALI.MM       00 280 01 00         : CAL          - CALIPER                     
ILD .OHMM     00 120 00 00         : RESD         - DEEP RESISTIVITY (DIL)      
~PARAMETER INFORMATION       
#MNEM.UNIT           DATA             DESCRIPTION OF MNEMONIC
#---------         -----------     ------------------------------
GL  .M        610.84               : gl           - GROUND LEVEL ELEVATION      
EREF.M        615.4                : kb           - ELEVATION OF DEPTH REFERENCE
DATM.M        610.84               : datum        - DATUM ELEVATION             
TDD .M        685                  : tdd          - TOTAL DEPTH DRILLER         
RUN .         ONE                  : Run          - RUN NUMBER                  
BASE.         R.D.                 : Branch       - HOME BASE OF LOGGING UNIT   
MUD .         GEL CHEM             : Mud_type     - MUD TYPE                    
MATR.         SANDSTONE            : Logunit      - NEUTRON MATRIX              
TMAX.C        30                   : BHT          - MAXIMUM RECORDED TEMPERATURE
BHTD.M        685.4                : BHTDEP       - MAXIMUM RECORDED TEMPERATURE
RMT .C        5                    : MDTP         - TEMPERATURE OF MUD          
MUDD.KG/M     1110                 : MWT          - MUD DENSITY                 
NEUT.         1                    : NEUTRON      - NEUTRON TYPE                
RESI.         0                    : RESIST       - RESISTIVITY TYPE            
RM  .OHMM     7                    : RM           - RESISTIVITY OF MUD          
RMC .OHMM     3.5                  : RMC          - RESISTIVITY OF MUD CAKE     
RMF .OHMM     4.5                  : RMF          - RESISTIVITY OF MUD FILTRATE 
SUFT.C        0                    : SUFT         - SURFACE TEMPERATURE         
~A  DEPTH     PHID     PHIN       GR      CAL     RESD
# ...
  570.000    0.161    0.379   89.229  218.933    2.975
  570.250    0.152    0.369   92.915  218.851    2.947
  570.500    0.148    0.362   94.637  218.774    2.936
  570.750    0.146    0.357   95.476  218.798    2.939
  571.000    0.145    0.353   95.301  218.828    2.955
  571.250    0.143    0.347   96.391  218.955    2.977
  571.500    0.141    0.344   96.217  218.877    2.988
  571.750    0.139    0.348   93.956  218.906    2.976
  572.000    0.133    0.355   89.798  218.929    2.958
  572.250    0.125    0.353   88.043  218.849    2.946
  572.500    0.147    0.359   90.905  218.664    2.913
  572.750    0.162    0.377   95.220  218.480    2.873
  573.000    0.173    0.372   99.790  218.296    2.840
  573.250    0.190    0.357  103.157  218.006    2.850
  573.500    0.164    0.366  105.071  217.398    2.865
  573.750    0.143    0.384  105.846  217.002    2.887
  574.000    0.128    0.381  106.429  216.927    2.897
  574.250    0.136    0.373  102.714  216.846    2.935
  574.500    0.156    0.361  100.454  216.450    2.968
  574.750    0.155    0.350  101.861  216.264    2.984
  575.000    0.130    0.340  106.359  212.444    2.994
  575.250    0.126    0.359  102.073  212.440    2.985
  575.500    0.122    0.368   98.166  212.434    3.057
  575.750    0.115    0.366   95.707  212.743    3.095
  576.000    0.121    0.354   90.099  212.738    3.157
  576.250    0.128    0.346   92.992  212.837    3.227
  576.500    0.135    0.337   88.517  213.144    3.249
  576.750    0.133    0.338   85.239  213.245    3.229
  577.000    0.107    0.353   85.361  213.344    3.168
  577.250    0.096    0.357   86.176  213.338    3.118
  577.500    0.116    0.348   89.007  213.121    3.064
  577.750    0.127    0.341   92.656  213.117    2.978
  578.000    0.135    0.334   94.163  212.586    2.904
  578.250    0.132    0.335   87.548  212.160    2.811
  578.500    0.119    0.343   91.259  211.629    2.727
  578.750    0.122    0.348   95.475  211.412    2.650
  579.000    0.119    0.347   98.683  211.302    2.571
  579.250    0.117    0.351   98.050  211.086    2.526
  579.500    0.133    0.356   97.605  210.871    2.506
  579.750    0.141    0.360   95.587  211.180    2.495
  580.000    0.124    0.365   93.253  211.594    2.498
  580.250    0.117    0.366   89.660  211.693    2.506
  580.500    0.129    0.361   91.798  211.793    2.523
  580.750    0.147    0.350   98.091  212.100    2.545
  581.000    0.144    0.339   96.955  212.410    2.572
  581.250    0.131    0.347   95.629  212.928    2.604
  581.500    0.138    0.359   96.066  213.448    2.687
  581.750    0.147    0.359   99.904  214.175    2.782
  582.000    0.143    0.346  103.742  214.486    2.947
  582.250    0.139    0.339  103.675  214.898    3.132
  582.500    0.138    0.348   93.407  215.208    3.398
  582.750    0.142    0.352   88.618  215.307    3.757
  583.000    0.152    0.350   82.254  215.302    4.185
  583.250    0.166    0.349   77.150  215.505    4.566
  583.500    0.195    0.351   75.131  215.710    4.826
  583.750    0.217    0.352   74.624  215.913    4.851
  584.000    0.216    0.347   77.328  216.013    4.830
  584.250    0.175    0.338   82.173  216.006    4.826
  584.500    0.165    0.341   76.943  215.896    4.825
  584.750    0.164    0.345   77.506  215.680    4.858
  585.000    0.167    0.352   75.488  215.570    4.853
  585.250    0.177    0.360   74.288  215.144    4.779
  585.500    0.183    0.368   77.370  214.718    4.670
  585.750    0.175    0.368   80.514  214.397    4.447
  586.000    0.171    0.349   83.345  214.181    4.368
  586.250    0.174    0.355   83.027  213.861    4.254
  586.500    0.175    0.363   77.985  213.540    4.203
  586.750    0.174    0.361   78.044  213.219    4.186
  587.000    0.170    0.331   78.797  213.212    4.174
  587.250    0.157    0.326   77.723  213.313    4.204
  587.500    0.149    0.332   77.530  213.410    4.312
  587.750    0.151    0.336   78.786  213.511    4.491
  588.000    0.162    0.330   80.294  213.610    4.581
  588.250    0.165    0.319   83.250  213.603    4.613
  588.500    0.140    0.312   85.199  213.702    4.567
  588.750    0.125    0.302   80.850  213.802    4.488
  589.000    0.108    0.295   78.391  213.794    4.426
  589.250    0.090    0.284   80.781  213.790    4.441
  589.500    0.086    0.277   88.963  213.784    4.446
  589.750    0.120    0.290   95.824  213.779    4.377
  590.000    0.130    0.302   97.772  213.771    4.222
  590.250    0.076    0.288   71.573  213.975    4.019
  590.500    0.033    0.255   64.201  213.970    3.763
  590.750    0.000    0.271   69.739  213.965    3.636
  591.000    0.042    0.306   80.881  214.271    3.546
  591.250    0.089    0.351   86.231  214.476    3.466
  591.500    0.137    0.357   87.361  214.786    3.425
  591.750    0.122    0.344   86.224  214.991    3.397
  592.000    0.110    0.333   87.794  215.405    3.370
  592.250    0.111    0.323   88.043  215.503    3.374
  592.500    0.117    0.323   86.150  215.812    3.378
  592.750    0.120    0.329   85.579  216.120    3.383
  593.000    0.116    0.332   86.016  216.534    3.392
  593.250    0.106    0.333   86.706  216.948    3.423
  593.500    0.095    0.337   89.158  217.258    3.466
  593.750    0.089    0.342   93.563  217.566    3.543
  594.000    0.096    0.346   92.300  217.771    3.593
  594.250    0.105    0.350   88.014  217.660    3.652
  594.500    0.113    0.357   85.303  217.549    3.691
  594.750    0.091    0.340   85.300  217.440    3.723
  595.000    0.081    0.331   93.042  217.224    3.812
  595.250    0.079    0.336   93.479  216.903    3.962
  595.500    0.076    0.343   84.848  216.582    4.088
  595.750    0.068    0.343   80.374  216.365    4.186
  596.000    0.075    0.333   85.849  216.148    4.262
  596.250    0.098    0.327   91.072  216.039    4.356
  596.500    0.113    0.327   86.912  216.034    4.411
  596.750    0.112    0.329   83.949  215.711    4.408
  597.000    0.102    0.329   81.174  215.706    4.406
  597.250    0.095    0.324   80.856  215.910    4.378
  597.500    0.099    0.315   88.220  216.010    4.351
  597.750    0.109    0.327   93.381  216.423    4.316
  598.000    0.111    0.337   96.903  216.627    4.313
  598.250    0.112    0.345   95.892  216.727    4.400
  598.500    0.121    0.355   91.040  216.721    4.506
  598.750    0.124    0.351   85.873  216.611    4.605
  599.000    0.107    0.338   87.632  216.603    4.724
  599.250    0.109    0.327   94.367  216.387    4.846
  599.500    0.108    0.321   91.026  216.276    4.861
  599.750    0.104    0.312   89.259  216.376    4.759
  600.000    0.093    0.300   92.089  216.370    4.547
  600.250    0.096    0.305   93.094  216.259    4.313
  600.500    0.077    0.316   93.090  216.043    4.106
  600.750    0.049    0.314   90.820  215.932    3.794
  601.000    0.016    0.306   89.619  215.612    3.383
  601.250    0.006    0.301   94.653  215.187    2.982
  601.500    0.054    0.304  101.010  214.656    2.463
  601.750    0.082    0.313  104.785  213.706    2.076
  602.000    0.102    0.321   97.980  213.386    1.652
  602.250    0.087    0.322   92.058  213.380    1.349
  602.500    0.064    0.334   92.117  213.899    1.137
  602.750    0.092    0.362   95.073  215.151    1.087
  603.000    0.141    0.391   96.644  216.616    1.115
  603.250    0.248    0.411   98.089  220.282    1.192
  603.500    0.264    0.434   94.244  223.950    1.323
  603.750    0.259    0.449   89.392  225.729    1.454
  604.000    0.262    0.435   87.814  225.722    1.614
  604.250    0.240    0.418   92.281  222.988    1.797
  604.500    0.156    0.405   97.882  216.265    2.051
  604.750    0.135    0.394  100.334  213.110    2.462
  605.000    0.131    0.383  102.283  213.734    3.318
  605.250    0.141    0.373  101.902  214.883    3.844
  605.500    0.157    0.353   98.120  215.612    4.125
  605.750    0.104    0.343   91.064  215.921    4.224
  606.000    0.076    0.329   89.108  215.704    4.301
  606.250    0.058    0.329   92.190  215.069    4.463
