~VERSION INFORMATION
 VERS.                 2.0:   CWLS LOG ASCII STANDARD -VERSION 2.0
 WRAP.                  NO:   ONE LINE PER DEPTH STEP
~WELL INFORMATION BLOCK
#MNEM.UNIT           DATA                    DESCRIPTION OF MNEMONIC
#---------    -------------------            -------------------------------
# Generated from Intellog Unique Number	CW_70_72/WELL/1031
NULL.         -999.25                        : NULL_VALUE
WELL.         SUNCOR TOMATO 10-01            : Well_name    - WELL              
LOC .         10-01-072-24W4                 : Location     - LOCATION          
UWI .         00/10-01-072-24W4/0            : Uwi          - UNIQUE WELL ID    
ENTR.         JAYE                           : Entered      - ENTERED BY        
SRVC.         COMPUTALOG                     : Scn          - SERVICE COMPANY   
DATE.         3 MAR 80                       : Date         - LOG DATE          
STRT.M        435                            : top_depth    - START DEPTH       
STOP.M        645                            : bot_depth    - STOP DEPTH        
STEP.M        0.25                           : increment    - STEP LENGTH       
~CURVE INFORMATION BLOCK
#MNEM UNIT       ERCB CURVE CODE    CURVE DESCRIPTION
#-----------   ------------------   ----------------------------------
DEPT.M        00 001 00 00         : DEPTH        - DEPTH                       
DPHI.V/V      00 890 00 00         : PHID         - DENSITY POROSITY (SANDSTONE)
NPHI.V/V      00 330 00 00         : PHIN         - NEUTRON POROSITY (SANDSTONE)
GR  .API      00 310 00 00         : GR           - GAMMA RAY                   
CALI.MM       00 280 01 00         : CAL          - CALIPER                     
ILD .OHMM     00 120 00 00         : RESD         - DEEP RESISTIVITY (DIL)      
~PARAMETER INFORMATION       
#MNEM.UNIT           DATA             DESCRIPTION OF MNEMONIC
#---------         -----------     ------------------------------
GL  .M        670.96               : gl           - GROUND LEVEL ELEVATION      
EREF.M        674.31               : kb           - ELEVATION OF DEPTH REFERENCE
DATM.M        670.96               : datum        - DATUM ELEVATION             
TDD .M        662                  : tdd          - TOTAL DEPTH DRILLER         
RUN .         ONE                  : Run          - RUN NUMBER                  
ENG .         JESIOLOWSKI          : Engineer     - RECORDING ENGINEER          
WIT .         KOKOTOTLO            : Witness      - WITNESSED BY                
BASE.         EDM                  : Branch       - HOME BASE OF LOGGING UNIT   
MUD .         GEL CHEM             : Mud_type     - MUD TYPE                    
MATR.         SANDSTONE            : Logunit      - NEUTRON MATRIX              
TMAX.C        21                   : BHT          - MAXIMUM RECORDED TEMPERATURE
BHTD.M        662                  : BHTDEP       - MAXIMUM RECORDED TEMPERATURE
RMT .C        16.6                 : MDTP         - TEMPERATURE OF MUD          
MUDD.KG/M     1140                 : MWT          - MUD DENSITY                 
NEUT.         1                    : NEUTRON      - NEUTRON TYPE                
RESI.         0                    : RESIST       - RESISTIVITY TYPE            
RM  .OHMM     6                    : RM           - RESISTIVITY OF MUD          
RMC .OHMM     0                    : RMC          - RESISTIVITY OF MUD CAKE     
RMF .OHMM     5.8                  : RMF          - RESISTIVITY OF MUD FILTRATE 
SUFT.C        0                    : SUFT         - SURFACE TEMPERATURE         
~A  DEPTH     PHID     PHIN       GR      CAL     RESD
# ...
  544.500    0.332    0.357   67.963  147.377    4.391
  544.750    0.323    0.359   68.104  147.611    4.229
  545.000    0.315    0.390   66.630  147.223    3.872
  545.250    0.305    0.397   71.423  145.800    3.592
  545.500    0.300    0.353   74.603  144.999    3.357
  545.750    0.292    0.327   80.327  145.132    3.259
  546.000    0.279    0.332   81.088  145.883    3.215
  546.250    0.281    0.352   72.230  146.320    3.179
  546.500    0.296    0.352   64.181  146.556    3.186
  546.750    0.303    0.346   64.135  146.376    3.245
  547.000    0.298    0.340   61.358  145.472    3.330
  547.250    0.294    0.324   55.976  144.255    3.515
  547.500    0.291    0.338   58.784  143.558    4.107
  547.750    0.290    0.360   66.058  143.480    4.851
  548.000    0.296    0.364   67.627  143.609    5.447
  548.250    0.302    0.393   62.244  144.673    5.397
  548.500    0.297    0.382   60.585  145.112    4.724
  548.750    0.287    0.371   62.277  145.032    4.342
  549.000    0.294    0.374   61.050  144.236    4.238
  549.250    0.302    0.381   62.929  143.842    4.188
  549.500    0.302    0.367   65.240  143.356    4.213
  549.750    0.290    0.351   68.234  143.382    4.283
  550.000    0.286    0.362   69.801  143.409    4.283
  550.250    0.295    0.330   70.809  143.637    4.196
  550.500    0.286    0.338   71.754  144.183    4.055
  550.750    0.274    0.360   71.212  143.483    3.914
  551.000    0.288    0.377   71.289  142.270    3.804
  551.250    0.282    0.344   80.550  141.991    3.693
  551.500    0.274    0.339   76.532  142.425    3.664
  551.750    0.285    0.368   69.662  143.382    3.623
  552.000    0.287    0.352   71.104  144.447    3.588
  552.250    0.285    0.321   70.996  145.093    3.588
  552.500    0.279    0.332   69.088  145.430    3.587
  552.750    0.271    0.341   73.510  145.865    3.620
  553.000    0.250    0.352   80.785  146.932    3.641
  553.250    0.211    0.323   90.975  148.197    3.709
  553.500    0.186    0.317   98.251  149.670    3.858
  553.750    0.190    0.335  101.866  151.040    4.042
  554.000    0.186    0.324  103.060  151.893    4.300
  554.250    0.177    0.317  105.681  152.541    4.530
  554.500    0.163    0.340  107.062  152.466    4.783
  554.750    0.167    0.374  105.899  152.384    5.012
  555.000    0.166    0.375  106.723  152.003    5.125
  555.250    0.155    0.323  113.749  151.920    5.211
  555.500    0.154    0.307  112.647  151.428    5.230
  555.750    0.163    0.329  111.112  150.631    5.230
  556.000    0.170    0.348  116.403  149.623    5.219
  556.250    0.158    0.372  116.853  149.237    5.218
  556.500    0.168    0.382  113.331  148.849    5.191
  556.750    0.172    0.349  108.073  148.665    5.149
  557.000    0.170    0.302  108.710  149.106    5.092
  557.250    0.171    0.329  110.277  149.754    5.053
  557.500    0.173    0.359  111.036  150.191    5.006
  557.750    0.173    0.374  110.309  150.532    4.996
  558.000    0.183    0.361  105.484  149.935    4.976
  558.250    0.192    0.342   99.048  148.412    4.966
  558.500    0.183    0.384   94.162  146.884    4.939
  558.750    0.174    0.368   85.801  145.255    4.928
  559.000    0.199    0.335   90.098  144.662    4.928
  559.250    0.205    0.358   98.241  145.103    4.918
  559.500    0.167    0.373   95.777  146.061    4.936
  559.750    0.111    0.303   92.440  148.465    5.067
  560.000    0.109    0.230   92.953  151.388    5.378
  560.250    0.137    0.253   94.272  151.824    6.098
  560.500    0.158    0.265   97.514  148.543    6.657
  560.750    0.174    0.301  100.321  145.988    6.720
  561.000    0.191    0.327   98.228  145.392    6.246
  561.250    0.199    0.357   99.051  146.038    5.762
  561.500    0.196    0.354  100.990  147.512    5.395
  561.750    0.191    0.323   97.531  150.539    5.120
  562.000    0.185    0.317  105.736  153.042    5.015
  562.250    0.180    0.351  112.328  155.554    4.941
  562.500    0.182    0.383  105.149  156.406    4.948
  562.750    0.190    0.392  102.496  153.949    4.966
  563.000    0.197    0.369   95.191  151.804    5.024
  563.250    0.185    0.341   90.366  150.591    5.078
  563.500    0.162    0.291  100.929  149.582    5.155
  563.750    0.176    0.347  103.489  150.439    5.234
  564.000    0.184    0.355  104.249  152.221    5.270
  564.250    0.185    0.340  107.119  153.799    5.292
  564.500    0.184    0.320  110.114  155.375    5.279
  564.750    0.184    0.344  104.175  156.539    5.288
  565.000    0.180    0.337   99.101  156.777    5.258
  565.250    0.173    0.322  102.531  156.487    5.237
  565.500    0.155    0.316  105.771  155.582    5.210
  565.750    0.150    0.320  107.524  155.402    5.197
  566.000    0.169    0.330  110.828  155.845    5.197
  566.250    0.178    0.347  117.299  156.700    5.197
  566.500    0.184    0.352  113.715  157.243    5.177
  566.750    0.189    0.342   90.959  157.479    5.147
  567.000    0.179    0.332   98.730  157.403    5.070
  567.250    0.173    0.405  108.301  157.014    5.012
  567.500    0.179    0.414  111.357  156.827    4.956
  567.750    0.191    0.379  106.037  156.340    4.927
  568.000    0.194    0.355  108.349  155.953    4.883
  568.250    0.185    0.373  115.623  155.982    4.854
  568.500    0.184    0.368  107.139  156.001    4.782
  568.750    0.172    0.316  101.262  156.241    4.711
  569.000    0.157    0.306  109.466  156.472    4.664
  569.250    0.168    0.339  109.296  156.498    4.603
  569.500    0.169    0.351   88.589  156.524    4.569
  569.750    0.141    0.370   77.996  156.859    4.534
  570.000    0.114    0.363   74.226  156.678    4.795
  570.250    0.086    0.217   75.669  155.984    5.386
  570.500    0.091    0.217   82.075  155.490    5.804
  570.750    0.106    0.265   87.302  155.105    6.481
  571.000    0.116    0.302   94.577  155.026    7.143
  571.250    0.126    0.324  107.064  154.642    7.278
  571.500    0.158    0.348  101.993  154.252    6.853
  571.750    0.184    0.342   90.965  153.661    6.348
  572.000    0.182    0.272   86.885  153.269    6.123
  572.250    0.185    0.291   95.463  153.193    5.900
  572.500    0.194    0.339   99.139  153.113    5.745
  572.750    0.210    0.353   97.728  153.555    5.543
  573.000    0.202    0.321   99.482  153.996    5.329
  573.250    0.197    0.326   97.326  154.432    5.085
  573.500    0.199    0.344   92.502  155.086    4.842
  573.750    0.211    0.353   88.486  155.419    4.665
  574.000    0.208    0.315  103.701  155.961    4.595
  574.250    0.201    0.326  112.031  156.608    4.569
  574.500    0.189    0.349  115.707  157.463    4.508
  574.750    0.168    0.380  114.546  158.526    4.415
  575.000    0.181    0.301  118.965  159.894    4.277
  575.250    0.199    0.327  124.751  161.882    4.059
  575.500    0.197    0.380  123.216  164.184    3.922
  575.750    0.179    0.381  114.670  163.387    3.835
  576.000    0.158    0.344  105.752  162.273    3.843
  576.250    0.111    0.327  103.161  161.163    3.928
  576.500    0.111    0.337  106.093  160.053    4.086
  576.750    0.142    0.347  111.382  159.455    4.289
  577.000    0.155    0.328  118.471  159.175    4.486
  577.250    0.160    0.326  115.944  158.788    4.613
  577.500    0.161    0.327  114.904  158.503    4.708
  577.750    0.165    0.332  110.081  158.531    4.743
  578.000    0.159    0.343  112.766  158.352    4.752
  578.250    0.150    0.337  118.676  158.164    4.708
  578.500    0.147    0.313  118.320  157.984    4.689
  578.750    0.152    0.285  115.790  157.597    4.593
  579.000    0.161    0.318  112.517  157.525    4.518
  579.250    0.161    0.355  104.094  157.341    4.498
  579.500    0.153    0.369  104.110  157.577    4.507
  579.750    0.148    0.362  114.364  157.809    4.634
  580.000    0.138    0.348  111.215  157.936    4.866
  580.250    0.145    0.331  101.987  158.174    5.004
  580.500    0.156    0.318  102.188  158.196    5.030
  580.750    0.159    0.348  103.819  158.225    4.900
