~VERSION INFORMATION
 VERS.                 2.0:   CWLS LOG ASCII STANDARD -VERSION 2.0
 WRAP.                  NO:   ONE LINE PER DEPTH STEP
~WELL INFORMATION BLOCK
#MNEM.UNIT           DATA                    DESCRIPTION OF MNEMONIC
#---------    -------------------            -------------------------------
# Generated from Intellog Unique Number	CW_70_72/WELL/1042
NULL.         -999.25                        : NULL_VALUE
WELL.         MIKAS AMOCO MEYER              : Well_name    - WELL              
LOC .         10-26-071-25W4                 : Location     - LOCATION          
UWI .         00/10-26-071-25W4/0            : Uwi          - UNIQUE WELL ID    
ENTR.         JAYE                           : Entered      - ENTERED BY        
SRVC.         SCHLUMBERGER                   : Scn          - SERVICE COMPANY   
DATE.         4 MAR 73                       : Date         - LOG DATE          
STRT.M        374.904                        : top_depth    - START DEPTH       
STOP.M        609.654                        : bot_depth    - STOP DEPTH        
STEP.M        0.25                           : increment    - STEP LENGTH       
~CURVE INFORMATION BLOCK
#MNEM UNIT       ERCB CURVE CODE    CURVE DESCRIPTION
#-----------   ------------------   ----------------------------------
DEPT.M        00 001 00 00         : DEPTH        - DEPTH                       
DPHI.V/V      00 890 00 00         : PHID         - DENSITY POROSITY (SANDSTONE)
NPHI.V/V      00 330 00 00         : PHIN         - NEUTRON POROSITY (SANDSTONE)
GR  .API      00 310 00 00         : GR           - GAMMA RAY                   
CALI.MM       00 280 01 00         : CAL          - CALIPER                     
ILD .OHMM     00 120 00 00         : RESD         - DEEP RESISTIVITY (DIL)      
~PARAMETER INFORMATION       
#MNEM.UNIT           DATA             DESCRIPTION OF MNEMONIC
#---------         -----------     ------------------------------
GL  .M        589.94               : gl           - GROUND LEVEL ELEVATION      
EREF.M        593.75               : kb           - ELEVATION OF DEPTH REFERENCE
DATM.M        589.94               : datum        - DATUM ELEVATION             
TDD .M        667.817              : tdd          - TOTAL DEPTH DRILLER         
RUN .         ONE                  : Run          - RUN NUMBER                  
BASE.         EDM                  : Branch       - HOME BASE OF LOGGING UNIT   
MUD .         GEL CHEM             : Mud_type     - MUD TYPE                    
MATR.         SANDSTONE            : Logunit      - NEUTRON MATRIX              
TMAX.C        28.3333              : BHT          - MAXIMUM RECORDED TEMPERATURE
BHTD.M        667.817              : BHTDEP       - MAXIMUM RECORDED TEMPERATURE
RMT .C        17.7778              : MDTP         - TEMPERATURE OF MUD          
MUDD.KG/M     0                    : MWT          - MUD DENSITY                 
NEUT.         1                    : NEUTRON      - NEUTRON TYPE                
RESI.         0                    : RESIST       - RESISTIVITY TYPE            
RM  .OHMM     3.6                  : RM           - RESISTIVITY OF MUD          
RMC .OHMM     0                    : RMC          - RESISTIVITY OF MUD CAKE     
RMF .OHMM     0                    : RMF          - RESISTIVITY OF MUD FILTRATE 
SUFT.C        0                    : SUFT         - SURFACE TEMPERATURE         
~A  DEPTH     PHID     PHIN       GR      CAL     RESD
# ...
  520.904    0.152    0.409  100.038  165.228    4.443
  521.154    0.159    0.407   94.386  164.113    4.521
  521.404    0.120    0.415   93.055  164.131    4.624
  521.654    0.087    0.426   96.537  164.767    4.738
  521.904    0.101    0.436   97.705  165.301    4.876
  522.154    0.096    0.462   94.427  166.041    4.959
  522.404    0.133    0.497   93.401  166.779    4.937
  522.654    0.166    0.491   93.960  167.416    4.848
  522.904    0.173    0.488   94.337  167.637    4.701
  523.154    0.171    0.470   94.650  168.169    4.550
  523.404    0.152    0.464   98.132  169.222    4.429
  523.654    0.163    0.461   95.097  170.167    4.367
  523.904    0.161    0.455   91.880  170.699    4.354
  524.154    0.151    0.444   90.917  171.025    4.357
  524.404    0.157    0.428   92.997  171.044    4.351
  524.654    0.150    0.424   95.808  170.339    4.361
  524.904    0.149    0.433   97.951  169.225    4.389
  525.154    0.137    0.440  102.893  168.826    4.400
  525.404    0.151    0.456  104.913  168.226    4.410
  525.654    0.161    0.450  102.123  168.142    4.449
  525.904    0.171    0.432   97.810  167.850    4.499
  526.154    0.177    0.413   92.948  167.661    4.585
  526.404    0.159    0.414   86.381  167.160    4.666
  526.654    0.131    0.427   83.347  167.386    4.703
  526.904    0.132    0.441   85.184  167.713    4.724
  527.154    0.149    0.449   93.111  167.526    4.770
  527.404    0.150    0.456   93.304  166.509    4.781
  527.654    0.152    0.436   91.793  165.393    4.742
  527.904    0.134    0.418   88.940  165.103    4.651
  528.154    0.100    0.423   80.790  164.294    4.636
  528.404    0.078    0.429   79.156  163.589    4.603
  528.654    0.123    0.423   83.612  163.400    4.572
  528.904    0.141    0.419   87.398  163.214    4.560
  529.154    0.153    0.435   87.896  163.643    4.587
  529.404    0.158    0.451   87.297  164.383    4.598
  529.654    0.146    0.452   89.196  165.223    4.636
  529.904    0.125    0.435   92.677  166.584    4.665
  530.154    0.134    0.441   96.281  167.733    4.666
  530.404    0.148    0.412  100.249  168.166    4.654
  530.654    0.151    0.426   99.956  168.186    4.623
  530.904    0.158    0.457   98.321  168.201    4.591
  531.154    0.159    0.442   96.748  167.909    4.602
  531.404    0.147    0.425   94.871  167.202    4.604
  531.654    0.148    0.431   95.611  166.189    4.609
  531.904    0.153    0.438  100.981  165.694    4.636
  532.154    0.142    0.447  101.783  165.295    4.795
  532.404    0.134    0.453   95.217  165.314    5.063
  532.654    0.116    0.452   89.198  165.231    5.395
  532.904    0.131    0.454   83.119  165.349    5.866
  533.154    0.180    0.462   78.561  165.470    6.743
  533.404    0.196    0.444   75.284  165.386    8.014
  533.654    0.199    0.405   72.493  165.401    9.900
  533.904    0.123    0.360   70.494  165.627   11.742
  534.154    0.064    0.320   69.590  165.952   13.699
  534.404    0.043    0.324   73.742  166.281   14.091
  534.654    0.120    0.407   80.451  166.194   13.414
  534.904    0.170    0.427   82.715  165.800   12.421
  535.154    0.182    0.414   83.455  165.197   11.758
  535.404    0.178    0.391   82.613  165.113   10.927
  535.654    0.159    0.377   83.476  165.953   10.062
  535.904    0.136    0.370   83.365  167.415    9.299
  536.154    0.131    0.386   78.990  168.258    8.311
  536.404    0.126    0.407   71.936  168.794    7.402
  536.654    0.075    0.431   63.299  169.119    7.205
  536.904    0.051    0.297   55.880  170.064    8.251
  537.154    0.026    0.251   52.298  170.599    9.191
  537.404   -0.000    0.232   66.863  171.236    9.883
  537.654    0.021    0.322   75.825  171.559    9.620
  537.904    0.072    0.373   80.647  171.788    8.457
  538.154    0.123    0.426   84.068  171.702    7.286
  538.404    0.135    0.441   86.026  171.408    6.358
  538.654    0.121    0.420   85.793  171.218    5.532
  538.904    0.129    0.415   84.647  170.518    5.119
  539.154    0.111    0.450   89.833  170.222    4.577
  539.404    0.122    0.463   91.305  169.728    4.349
  539.654    0.146    0.439   91.742  169.640    4.297
  539.904    0.153    0.431   92.300  169.346    4.346
  540.154    0.141    0.448   90.544  169.161    4.456
  540.404    0.119    0.423   87.814  169.278    4.532
  540.654    0.087    0.431   90.382  170.127    4.602
  540.904    0.118    0.446   94.960  170.347    4.674
  541.154    0.109    0.451   95.214  170.362    4.784
  541.404    0.114    0.436   92.605  170.380    4.911
  541.654    0.125    0.426   91.642  169.882    5.035
  541.904    0.140    0.428   90.861  169.282    5.130
  542.154    0.128    0.440   90.140  168.786    5.202
  542.404    0.116    0.428   87.897  168.289    5.231
  542.654    0.127    0.418   84.375  167.994    5.324
  542.904    0.119    0.413   81.158  167.086    5.446
  543.154    0.086    0.386   75.383  166.791    5.824
  543.404    0.048    0.361   70.887  166.193    6.858
  543.654    0.025    0.337   71.385  165.698    7.430
  543.904    0.022    0.335   81.870  165.605    7.434
  544.154    0.106    0.387   91.928  165.623    7.222
  544.404    0.126    0.412   99.124  165.746    6.579
  544.654    0.134    0.428   97.065  165.866    6.113
  544.904    0.146    0.420   93.847  166.192    5.722
  545.154    0.160    0.400   91.482  167.240    5.601
  545.404    0.162    0.393   88.632  168.084    5.804
  545.654    0.138    0.390   87.180  168.719    6.323
  545.904    0.115    0.379   84.572  169.046    6.913
  546.154    0.080    0.358   82.694  169.065    7.219
  546.404    0.063    0.353   87.576  169.805    6.915
  546.654    0.084    0.380   90.814  170.854    6.617
  546.904    0.147    0.421   92.651  171.590    6.217
  547.154    0.161    0.422   94.671  172.643    5.547
  547.404    0.158    0.406   98.154  172.658    5.221
  547.654    0.135    0.409   97.676  173.090    5.082
  547.904    0.150    0.444   90.928  173.417    5.181
  548.154    0.157    0.423   87.892  173.124    5.418
  548.404    0.150    0.408   85.467  172.727    5.861
  548.654    0.131    0.399   85.477  171.612    6.454
  548.904    0.127    0.391   87.984  170.082    6.890
  549.154    0.155    0.388   88.908  169.171    6.884
  549.404    0.170    0.389   89.833  169.088    6.674
  549.654    0.165    0.382   94.044  169.105    5.890
  549.904    0.150    0.430  101.423  169.120    4.634
  550.154    0.154    0.491  106.183  168.108    3.708
  550.404    0.158    0.531  107.534  167.403    3.044
  550.654    0.204    0.562  107.117  167.007    2.575
  550.904    0.180    0.601  108.407  167.235    2.247
  551.154    0.177    0.602  110.853  167.868    2.080
  551.404    0.175    0.589  109.402  170.981    2.017
  551.654    0.155    0.562  103.262  175.636    1.971
  551.904    0.180    0.504   94.686  176.483    1.987
  552.154    0.196    0.475   90.493  172.682    1.988
  552.404    0.155    0.451   89.104  169.399    2.026
  552.654    0.117    0.422   91.733  167.561    2.069
  552.904    0.112    0.408   93.691  164.897    2.126
  553.154    0.088    0.424   91.327  163.472    2.150
  553.404    0.058    0.473   93.530  164.106    2.168
  553.654    0.104    0.458   95.915  170.106    2.169
  553.904    0.120    0.463   97.082  170.019    2.170
  554.154    0.109    0.480   97.337  169.006    2.164
  554.404    0.095    0.464   96.373  168.716    2.149
  554.654    0.117    0.453   93.338  168.939    2.126
  554.904    0.093    0.460   89.147  169.683    2.024
  555.154    0.106    0.442   83.797  169.695    1.959
  555.404    0.104    0.361   78.144  168.475    1.872
  555.654    0.027    0.289   71.395  164.990    1.859
  555.904   -0.012    0.281   73.171  165.521    1.919
  556.154   -0.007    0.316   79.333  167.188    2.158
  556.404    0.077    0.429   89.452  169.992    2.637
  556.654    0.127    0.436   92.203  170.728    3.311
  556.904    0.116    0.418   89.472  166.417    4.762
  557.154    0.122    0.396   84.916  162.206    5.576
