~VERSION INFORMATION
 VERS.                 2.0:   CWLS LOG ASCII STANDARD -VERSION 2.0
 WRAP.                  NO:   ONE LINE PER DEPTH STEP
~WELL INFORMATION BLOCK
#MNEM.UNIT           DATA                    DESCRIPTION OF MNEMONIC
#---------    -------------------            -------------------------------
# Generated from Intellog Unique Number	CW_70_72/WELL/1049
NULL.         -999.25                        : NULL_VALUE
WELL.         HOME CDN SUP MITSUE 10-34      : Well_name    - WELL              
LOC .         10-34-071-03W5                 : Location     - LOCATION          
UWI .         00/10-34-071-03W5/0            : Uwi          - UNIQUE WELL ID    
ENTR.         JAYE                           : Entered      - ENTERED BY        
SRVC.         COMPUTALOG                     : Scn          - SERVICE COMPANY   
DATE.         7 SEPT 84                      : Date         - LOG DATE          
STRT.M        420                            : top_depth    - START DEPTH       
STOP.M        625                            : bot_depth    - STOP DEPTH        
STEP.M        0.25                           : increment    - STEP LENGTH       
~CURVE INFORMATION BLOCK
#MNEM UNIT       ERCB CURVE CODE    CURVE DESCRIPTION
#-----------   ------------------   ----------------------------------
DEPT.M        00 001 00 00         : DEPTH        - DEPTH                       
DPHI.V/V      00 890 00 00         : PHID         - DENSITY POROSITY (SANDSTONE)
NPHI.V/V      00 330 00 00         : PHIN         - NEUTRON POROSITY (SANDSTONE)
GR  .API      00 310 00 00         : GR           - GAMMA RAY                   
CALI.MM       00 280 01 00         : CAL          - CALIPER                     
ILD .OHMM     00 120 00 00         : RESD         - DEEP RESISTIVITY (DIL)      
~PARAMETER INFORMATION       
#MNEM.UNIT           DATA             DESCRIPTION OF MNEMONIC
#---------         -----------     ------------------------------
GL  .M        625.4                : gl           - GROUND LEVEL ELEVATION      
EREF.M        628.3                : kb           - ELEVATION OF DEPTH REFERENCE
DATM.M        625.4                : datum        - DATUM ELEVATION             
TDD .M        643                  : tdd          - TOTAL DEPTH DRILLER         
RUN .         ONE                  : Run          - RUN NUMBER                  
ENG .         MACLEAN              : Engineer     - RECORDING ENGINEER          
WIT .         COOK/YARDLEY         : Witness      - WITNESSED BY                
BASE.         EDM                  : Branch       - HOME BASE OF LOGGING UNIT   
MUD .         GEL CHEM             : Mud_type     - MUD TYPE                    
MATR.         SANDSTONE            : Logunit      - NEUTRON MATRIX              
TMAX.C        22                   : BHT          - MAXIMUM RECORDED TEMPERATURE
BHTD.M        632.5                : BHTDEP       - MAXIMUM RECORDED TEMPERATURE
RMT .C        17                   : MDTP         - TEMPERATURE OF MUD          
MUDD.KG/M     1120                 : MWT          - MUD DENSITY                 
NEUT.         1                    : NEUTRON      - NEUTRON TYPE                
RESI.         0                    : RESIST       - RESISTIVITY TYPE            
RM  .OHMM     4                    : RM           - RESISTIVITY OF MUD          
RMC .OHMM     3.2                  : RMC          - RESISTIVITY OF MUD CAKE     
RMF .OHMM     3.8                  : RMF          - RESISTIVITY OF MUD FILTRATE 
SUFT.C        0                    : SUFT         - SURFACE TEMPERATURE         
~A  DEPTH     PHID     PHIN       GR      CAL     RESD
# ...
  602.500    0.146    0.378   44.643  199.821    5.633
  602.750    0.144    0.372   45.466  201.297    5.631
  603.000    0.149    0.361   43.481  202.461    5.702
  603.250    0.149    0.345   42.058  203.207    5.851
  603.500    0.140    0.339   41.509  203.538    5.970
  603.750    0.136    0.337   41.206  203.871    6.194
  604.000    0.143    0.335   40.845  203.891    6.546
  604.250    0.155    0.332   40.793  204.011    6.767
  604.500    0.157    0.327   40.992  204.134    6.853
  604.750    0.153    0.323   41.314  204.051    6.927
  605.000    0.150    0.319   41.388  203.963    6.899
  605.250    0.147    0.313   41.525  203.982    6.808
  605.500    0.139    0.316   41.787  203.690    6.668
  605.750    0.128    0.324   41.983  203.501    6.518
  606.000    0.115    0.333   42.931  203.001    6.361
  606.250    0.114    0.342   44.628  202.707    6.183
  606.500    0.128    0.354   47.634  202.622    5.967
  606.750    0.141    0.366   51.203  202.848    5.247
  607.000    0.153    0.384   53.585  203.703    4.445
  607.250    0.163    0.408   55.344  204.654    3.092
  607.500    0.179    0.489   57.912  206.858    2.374
  607.750    0.214    0.524   56.801  209.164    1.857
  608.000    0.261    0.523   51.446  211.159    1.630
  608.250    0.246    0.509   51.956  211.386    1.617
  608.500    0.239    0.517   53.528  208.079    1.650
  608.750    0.232    0.502   55.974  205.912    1.699
  609.000    0.224    0.473   55.486  203.540    1.789
  609.250    0.208    0.469   52.315  200.854    1.870
  609.500    0.207    0.498   53.575  197.963    1.926
  609.750    0.212    0.513   55.583  195.900    2.002
  610.000    0.188    0.480   55.158  195.503    2.254
  610.250    0.171    0.413   51.923  196.978    2.581
  610.500    0.160    0.393   48.816  200.429    3.016
  610.750    0.136    0.375   47.391  203.257    3.551
  611.000    0.100    0.360   47.465  205.043    4.088
  611.250    0.093    0.370   49.722  203.816    4.867
  611.500    0.108    0.370   51.606  203.109    5.460
  611.750    0.119    0.366   49.746  202.712    5.448
  612.000    0.123    0.362   48.758  202.415    5.237
  612.250    0.128    0.368   52.452  201.811    5.177
  612.500    0.131    0.357   55.334  201.311    5.263
  612.750    0.122    0.333   54.472  201.333    5.481
  613.000    0.109    0.345   53.361  201.350    6.046
  613.250    0.087    0.323   52.498  201.577    6.426
  613.500    0.043    0.294   49.077  201.698    6.008
  613.750    0.068    0.378   47.527  202.444    5.473
  614.000    0.137    0.408   50.536  206.728    5.272
  614.250    0.154    0.397   52.918  212.570    5.163
  614.500    0.125    0.322   53.428  211.343    5.133
  614.750    0.098    0.291   48.759  203.769    5.131
  615.000    0.074    0.312   46.211  202.229    5.006
  615.250    0.100    0.369   47.284  203.182    4.716
  615.500    0.216    0.403   50.353  204.970    4.442
  615.750    0.235    0.409   55.419  207.486    4.432
  616.000    0.195    0.377   56.242  208.440    4.808
  616.250    0.181    0.352   55.942  205.339    5.383
  616.500    0.158    0.335   53.768  202.653    6.028
  616.750    0.134    0.313   47.541  200.592    6.600
  617.000    0.124    0.316   45.056  199.571    7.081
  617.250    0.121    0.330   46.003  199.489    7.052
  617.500    0.130    0.356   49.571  199.714    6.508
  617.750    0.129    0.374   54.012  200.463    5.917
  618.000    0.123    0.383   56.771  201.312    6.220
  618.250    0.128    0.274   55.471  202.475    7.419
  618.500    0.213    0.195   49.742  203.326   10.382
  618.750    0.263    0.172   39.832  199.809   14.530
  619.000    0.311    0.161   25.553  196.395   20.601
  619.250    0.303    0.183   24.257  196.106   25.932
  619.500    0.290    0.199   24.765  196.019   29.690
  619.750    0.275    0.214   26.025  196.248   33.554
  620.000    0.265    0.229   26.972  196.472   29.450
  620.250    0.262    0.233   28.107  196.597   25.466
  620.500    0.273    0.236   28.929  196.718   21.858
  620.750    0.280    0.243   30.126  196.533   19.256
  621.000    0.282    0.249   30.762  196.447   16.963
  621.250    0.281    0.252   31.147  196.360   15.139
  621.500    0.279    0.259   31.222  196.380   13.689
  621.750    0.275    0.268   31.233  196.399   11.947
  622.000    0.259    0.273   31.493  196.419   11.006
  622.250    0.239    0.288   31.442  196.334   11.002
  622.500    0.196    0.252   31.953  196.454   11.521
  622.750    0.120    0.176   33.711  196.583   13.240
  623.000    0.034    0.162   33.348  196.702   15.300
  623.250    0.019    0.153   26.434  197.031   16.785
  623.500    0.028    0.146   25.010  197.467   17.741
  623.750    0.032    0.144   24.898  197.695   17.933
  624.000    0.035    0.153   25.594  197.817   17.434
  624.250    0.038    0.163   25.606  198.044   16.545
  624.500    0.051    0.169   26.492  198.272   14.848
  624.750    0.059    0.179   27.250  198.395   13.550
  625.000    0.061    0.189   28.761  198.516   12.931
