~VERSION INFORMATION
 VERS.                 2.0:   CWLS LOG ASCII STANDARD -VERSION 2.0
 WRAP.                  NO:   ONE LINE PER DEPTH STEP
~WELL INFORMATION BLOCK
#MNEM.UNIT           DATA                    DESCRIPTION OF MNEMONIC
#---------    -------------------            -------------------------------
# Generated from Intellog Unique Number	CW_70_72/WELL/2905
NULL.         -999.25                        : NULL_VALUE
WELL.         CHEVRON CALLING WEST           : Well_name    - WELL              
LOC .         10-20-070-21W4                 : Location     - LOCATION          
UWI .         00/10-20-070-21W4/0            : Uwi          - UNIQUE WELL ID    
ENTR.         MAX                            : Entered      - ENTERED BY        
SRVC.         SCHLUMBERGER                   : Scn          - SERVICE COMPANY   
DATE.         14 JAN 75                      : Date         - LOG DATE
STRT.M        420.624                        : top_depth    - START DEPTH       
STOP.M        591.374                        : bot_depth    - STOP DEPTH        
STEP.M        0.25                           : increment    - STEP LENGTH       
~CURVE INFORMATION BLOCK
#MNEM UNIT       ERCB CURVE CODE    CURVE DESCRIPTION
#-----------   ------------------   ----------------------------------
DEPT.M        00 001 00 00         : DEPTH        - DEPTH                       
ILD .OHMM     00 120 00 00         : RESD         - DEEP RESISTIVITY (DIL)      
NPHI.V/V      00 330 00 00         : PHIN         - NEUTRON POROSITY (SANDSTONE)
DPHI.V/V      00 890 00 00         : PHID         - DENSITY POROSITY (SANDSTONE)
CALI.MM       00 280 01 00         : CAL          - CALIPER                     
GR  .API      00 310 00 00         : GR           - GAMMA RAY                   
~PARAMETER INFORMATION       
#MNEM.UNIT           DATA             DESCRIPTION OF MNEMONIC
#---------         -----------     ------------------------------
GL  .M        666.719              : gl           - GROUND LEVEL ELEVATION      
EREF.M        669.036              : kb           - ELEVATION OF DEPTH REFERENCE
DATM.M        666.719              : datum        - DATUM ELEVATION             
TDD .M        588.264              : tdd          - TOTAL DEPTH DRILLER         
RUN .         ONE                  : Run          - RUN NUMBER                  
ENG .         BILL                 : Engineer     - RECORDING ENGINEER          
WIT .         JIM                  : Witness      - WITNESSED BY                
MUD .         GEL                  : Mud_type     - MUD TYPE                    
MATR.         SANDSTONE            : Logunit      - NEUTRON MATRIX              
TMAX.C        21.1111              : BHT          - MAXIMUM RECORDED TEMPERATURE
BHTD.M        588.264              : BHTDEP       - MAXIMUM RECORDED TEMPERATURE
RMT .C        15.5556              : MDTP         - TEMPERATURE OF MUD          
MUDD.KG/M     9000                 : MWT          - MUD DENSITY                 
NEUT.         1                    : NEUTRON      - NEUTRON TYPE                
RESI.         0                    : RESIST       - RESISTIVITY TYPE            
RM  .OHMM     3.5                  : RM           - RESISTIVITY OF MUD          
RMC .OHMM     4.29                 : RMC          - RESISTIVITY OF MUD CAKE     
RMF .OHMM     4.87                 : RMF          - RESISTIVITY OF MUD FILTRATE 
SUFT.C        -20.5556             : SUFT         - SURFACE TEMPERATURE         
~A  DEPTH     RESD     PHIN     PHID      CAL       GR
# ...
  493.624    3.117    0.442    0.257  206.596   70.512
  493.874    3.031    0.436    0.250  206.056   70.188
  494.124    2.790    0.433    0.246  205.494   70.444
  494.374    2.639    0.427    0.239  206.424   70.704
  494.624    2.543    0.421    0.229  208.853   66.558
  494.874    2.449    0.428    0.226  211.787   61.233
  495.124    2.424    0.424    0.298  213.222   59.437
  495.374    2.401    0.425    0.300  213.655   59.688
  495.624    2.356    0.427    0.287  215.580   59.658
  495.874    2.333    0.425    0.284  216.525   60.208
  496.124    2.289    0.425    0.299  216.943   60.766
  496.374    2.288    0.434    0.296  216.403   61.902
  496.624    2.288    0.449    0.290  215.351   62.154
  496.874    2.305    0.440    0.282  214.782   62.128
  497.124    2.303    0.447    0.292  214.731   61.209
  497.374    2.302    0.461    0.285  214.660   60.290
  497.624    2.321    0.448    0.298  214.617   60.843
  497.874    2.319    0.432    0.302  214.545   60.814
  498.124    2.296    0.429    0.293  213.997   61.946
  498.374    2.274    0.438    0.281  213.940   61.329
  498.624    2.251    0.457    0.247  213.868   59.239
  498.874    2.250    0.451    0.243  213.314   61.547
  499.124    2.227    0.452    0.312  213.249   61.513
  499.374    2.226    0.446    0.324  213.192   59.419
  499.624    2.244    0.437    0.323  212.637   58.504
  499.874    2.244    0.435    0.310  212.573   59.061
  500.124    2.261    0.464    0.302  212.508   60.786
  500.374    2.323    0.473    0.290  212.465   61.343
  500.624    2.407    0.467    0.291  211.903   62.774
  500.874    2.518    0.453    0.291  211.832   64.498
  501.124    2.585    0.447    0.296  211.774   65.052
  501.374    2.607    0.467    0.299  211.731   65.899
  501.624    2.653    0.477    0.302  211.667   67.036
  501.874    2.725    0.459    0.297  212.100   67.879
  502.124    2.823    0.449    0.288  211.999   67.849
  502.374    2.823    0.452    0.274  211.985   67.815
  502.624    2.896    0.457    0.272  212.425   68.361
  502.874    2.948    0.461    0.263  212.360   69.506
  503.124    2.973    0.464    0.253  212.296   70.055
  503.374    2.973    0.464    0.264  212.231   70.025
  503.624    2.968    0.467    0.265  212.188   70.277
  503.874    2.967    0.468    0.265  212.614   71.712
  504.124    3.047    0.448    0.258  212.571   74.032
  504.374    3.215    0.444    0.245  212.989   76.935
  504.624    3.333    0.461    0.245  213.444   78.664
  504.874    3.361    0.475    0.229  214.864   80.980
  505.124    3.297    0.481    0.206  215.802   80.354
  505.374    3.206    0.472    0.196  216.242   81.201
  505.624    3.203    0.464    0.204  216.191   80.874
  505.874    3.260    0.470    0.207  215.125   79.661
  506.124    3.348    0.476    0.211  215.075   79.921
  506.374    3.469    0.463    0.220  215.515   81.355
  506.624    3.628    0.449    0.223  216.445   83.373
  506.874    3.760    0.442    0.230  217.375   85.685
  507.124    3.969    0.435    0.219  218.320   84.480
  507.374    4.189    0.430    0.234  219.250   86.503
  507.624    4.224    0.458    0.220  220.685   90.287
  507.874    4.033    0.484    0.205  225.594   88.785
  508.124    3.886    0.522    0.221  227.036   84.341
  508.374    3.642    0.534    0.258  225.977   80.484
  508.624    3.541    0.508    0.271  224.420   80.152
  508.874    3.541    0.493    0.258  222.373   82.468
  509.124    3.534    0.469    0.249  218.827   85.074
  509.374    3.533    0.447    0.261  214.791   85.636
  509.624    3.563    0.440    0.287  214.734   84.129
  509.874    3.693    0.464    0.259  215.174   82.039
  510.124    3.933    0.461    0.238  215.109   79.949
  510.374    4.385    0.456    0.250  215.549   79.030
  510.624    4.933    0.452    0.240  215.996   77.230
  510.874    5.351    0.453    0.247  216.926   73.960
  511.124    5.597    0.455    0.252  217.366   71.283
  511.374    5.343    0.428    0.242  218.801   68.899
  511.624    4.874    0.406    0.186  222.218   68.278
  511.874    4.445    0.383    0.146  220.164   70.300
  512.124    4.167    0.456    0.179  217.613   74.672
  512.374    3.942    0.453    0.254  216.078   78.453
  512.624    3.798    0.434    0.252  214.009   79.300
  512.874    3.760    0.439    0.253  213.462   81.322
  513.124    3.897    0.432    0.243  213.895   83.638
  513.374    4.002    0.427    0.227  214.825   84.779
  513.624    4.036    0.435    0.201  215.272   91.786
  513.874    4.033    0.434    0.189  215.712   91.467
  514.124    4.030    0.429    0.165  215.648   91.429
  514.374    3.991    0.435    0.162  216.095   89.922
  514.624    3.991    0.451    0.184  217.032   87.538
  514.874    3.983    0.469    0.188  218.460   86.330
  515.124    4.054    0.482    0.192  220.889   86.590
  515.374    4.089    0.472    0.178  222.814   88.024
  515.624    4.123    0.474    0.171  223.254   90.625
  515.874    4.196    0.459    0.174  223.680   92.064
  516.124    4.428    0.447    0.172  223.630   92.324
  516.374    4.384    0.448    0.155  223.572   89.638
  516.624    4.110    0.466    0.158  224.013   87.259
  516.874    3.749    0.462    0.171  224.438   82.223
  517.124    3.358    0.455    0.198  223.891   76.026
  517.374    3.091    0.453    0.228  221.844   68.644
  517.624    2.845    0.440    0.283  219.292   63.911
  517.874    2.845    0.437    0.279  218.240   59.761
  518.124    2.763    0.448    0.270  221.657   57.667
  518.374    2.687    0.459    0.267  223.099   59.391
  518.624    2.685    0.464    0.266  223.532   64.061
  518.874    2.860    0.448    0.290  220.476   61.971
  519.124    3.131    0.434    0.288  219.439   61.937
  519.374    3.523    0.434    0.270  217.377   66.015
  519.624    5.921    0.383    0.257  216.823   61.865
  519.874    8.522    0.336    0.247  216.773   58.008
  520.124    9.500    0.260    0.206  217.710   58.562
  520.374    9.069    0.195    0.158  221.127   59.703
  520.624    6.646    0.210    0.052  222.569   60.550
  520.874    5.335    0.234    0.058  223.478   61.389
  521.124    4.362    0.264    0.095  223.939   62.241
  521.374    3.871    0.299    0.113  223.882   64.846
  521.624    3.312    0.307    0.126  223.320   67.460
  521.874    2.860    0.325    0.148  219.284   68.307
  522.124    2.730    0.409    0.238  216.732   69.146
  522.374    2.703    0.426    0.266  215.680   69.704
  522.624    2.751    0.443    0.269  215.616   70.551
  522.874    2.877    0.439    0.275  215.558   71.978
  523.124    3.009    0.444    0.271  215.494   72.825
  523.374    3.119    0.438    0.264  215.429   74.260
  523.624    3.203    0.413    0.250  215.386   76.278
  523.874    3.350    0.414    0.221  215.307   76.840
  524.124    3.440    0.430    0.231  215.250   77.091
  524.374    3.533    0.467    0.236  214.710   76.180
  524.624    3.563    0.477    0.236  214.638   75.555
  524.874    3.560    0.451    0.225  214.588   76.989
  525.124    3.525    0.464    0.239  214.516   78.130
  525.374    3.458    0.494    0.236  211.965   76.917
  525.624    3.393    0.481    0.241  209.932   78.348
  525.874    3.360    0.466    0.241  208.873   78.612
  526.124    3.388    0.469    0.248  209.810   79.157
  526.374    3.417    0.461    0.248  211.743   81.469
  526.624    3.445    0.458    0.245  212.183   82.916
  526.874    3.445    0.464    0.239  212.118   85.522
  527.124    3.315    0.469    0.228  211.563   87.246
  527.374    3.501    0.464    0.226  211.499   87.506
  527.624    3.563    0.443    0.231  211.932   86.591
  527.874    3.626    0.441    0.225  211.384   85.671
  528.124    3.689    0.451    0.211  211.320   85.050
  528.374    3.754    0.453    0.203  211.262   84.722
  528.624    3.786    0.441    0.190  212.200   84.680
  528.874    3.818    0.444    0.207  213.627   84.944
  529.124    3.885    0.433    0.208  215.069   85.498
  529.374    3.882    0.433    0.213  216.994   86.345
  529.624    3.879    0.439    0.198  218.919   87.780
  529.874    3.842    0.450    0.187  220.851   89.508
