~VERSION INFORMATION
 VERS.                 2.0:   CWLS LOG ASCII STANDARD -VERSION 2.0
 WRAP.                  NO:   ONE LINE PER DEPTH STEP
~WELL INFORMATION BLOCK
#MNEM.UNIT           DATA                    DESCRIPTION OF MNEMONIC
#---------    -------------------            -------------------------------
# Generated from Intellog Unique Number	CX_WELLS/WELL/3890
WELL.         PARA ET AL SANESKI             : Well_name    - WELL
LOC .         00/10-17-087-18W4/0            : Location     - LOCATION
UWI .         00/10-17-087-18W400            : Uwi          - UNIQUE WELL ID
ENTR.         TIM                            : Entered      - ENTERED BY
SRVC.         SCHLUMBERGER                   : Scn          - SERVICE COMPANY
STRT.M        100                            : top_depth    - START DEPTH
STOP.M        230                            : bot_depth    - STOP DEPTH
STEP.M        0.25                           : increment    - STEP LENGTH
 NULL. -999.2500:NULL Value
~CURVE INFORMATION BLOCK
#MNEM UNIT       ERCB CURVE CODE    CURVE DESCRIPTION
#-----------   ------------------   ----------------------------------
DEPT.M        00 001 00 00         : DEPTH        - DEPTH
GR  .API      00 310 00 00         : GR           - GAMMA RAY
NPHI.V/V      00 330 00 00         : PHIN         - NEUTRON POROSITY (SANDSTONE)
DPHI.V/V      00 890 00 00         : PHID         - DENSITY POROSITY (SANDSTONE)
ILD .OHMM     00 120 00 00         : RESD         - DEEP RESISTIVITY (DIL)
~PARAMETER INFORMATION
#MNEM.UNIT           DATA             DESCRIPTION OF MNEMONIC
#---------         -----------     ------------------------------
GL  .M        518                  : gl           - GROUND LEVEL ELEVATION
EREF.M        520.7                : kb           - ELEVATION OF DEPTH REFERENCE
DATM.M        520.7                : datum        - DATUM ELEVATION
TDD .M        230                  : tdd          - TOTAL DEPTH DRILLER
RUN .         ONE                  : Run          - RUN NUMBER
ENG .         BILL                 : Engineer     - RECORDING ENGINEER
WIT .         JIM                  : Witness      - WITNESSED BY
MUD .         GEL                  : Mud_type     - MUD TYPE
MATR.         SANDSTONE            : Logunit      - NEUTRON MATRIX
TMAX.C        15.6                 : BHT          - MAXIMUM RECORDED TEMPERATURE
BHTD.M        230                  : BHTDEP       - MAXIMUM RECORDED TEMPERATURE
MATR.         1                    : LOGUNIT      - NEUTRON MATRIX
RMT .C        22                   : MDTP         - TEMPERATURE OF MUD
NEUT.         1                    : NEUTRON      - NEUTRON TYPE
RESI.         5.5                  : RESIST       - RESISTIVITY TYPE
RMC .OHMM     0.25                 : RMC          - RESISTIVITY OF MUD CAKE
RMF .OHMM     5                    : RMF          - RESISTIVITY OF MUD FILTRATE
SUFT.C        4                    : SUFT         - SURFACE TEMPERATURE
~A  DEPTH       GR     PHIN     PHID     RESD
# ...
  143.500   82.229    0.439    0.230   15.608
  143.750   80.967    0.402    0.233   15.616
  144.000   80.338    0.410    0.236   15.631
  144.250   79.706    0.409    0.236   15.649
  144.500   79.701    0.413    0.236   15.993
  144.750   79.070    0.428    0.238   16.009
  145.000   78.440    0.457    0.241   16.024
  145.250   77.808    0.464    0.242   16.035
  145.500   77.803    0.465    0.239   15.724
  145.750   79.683    0.438    0.232   15.735
  146.000   85.958    0.429    0.222   15.111
  146.250   90.350    0.406    0.212   15.122
  146.500   94.742    0.386    0.217   14.523
  146.750   98.505    0.445    0.218   13.941
  147.000   98.500    0.471    0.218   12.322
  147.250   97.242    0.487    0.215   11.585
  147.500   96.611    0.505    0.212   11.354
  147.750   96.607    0.517    0.210   11.131
  148.000   96.602    0.524    0.208   11.147
  148.250   95.971    0.517    0.206   11.152
  148.500   94.082    0.493    0.201   11.403
  148.750   92.824    0.474    0.196   11.651
  149.000   90.308    0.465    0.184   11.910
  149.250   89.049    0.464    0.175   12.172
  149.500   87.790    0.458    0.180   12.701
  149.750   85.902    0.450    0.200   12.713
  150.000   84.015    0.432    0.221   12.990
  150.250   83.383    0.391    0.228   13.558
  150.500   85.263    0.371    0.235   13.568
  150.750   87.144    0.374    0.223   13.873
  151.000   91.535    0.396    0.192   14.175
  151.250   95.299    0.400    0.182   14.188
  151.500  101.574    0.400    0.177   14.201
  151.750  112.872    0.432    0.184   13.632
  152.000  119.775    0.453    0.192   12.819
  152.250  122.910    0.466    0.192   11.326
  152.500  124.162    0.486    0.190    9.800
  152.750  124.158    0.515    0.182    9.028
  153.000  121.016    0.525    0.153    9.034
  153.250  114.733    0.517    0.146    9.430
  153.500  107.822    0.513    0.132    9.639
  153.750  108.446    0.522    0.146    9.849
  154.000  109.699    0.457    0.171   10.063
  154.250  112.835    0.426    0.178   10.952
  154.500  111.575    0.422    0.190   11.188
  154.750  107.803    0.355    0.190   11.922
  155.000  104.660    0.364    0.181   12.182
  155.250  102.773    0.391    0.169   12.985
  155.500  100.257    0.398    0.141   13.546
  155.750   97.743    0.368    0.134   14.432
  156.000   91.459    0.342    0.156   16.038
  156.250   93.339    0.347    0.178   16.383
  156.500   97.103    0.393    0.183   17.454
  156.750  100.239    0.421    0.191   17.471
  157.000  102.118    0.447    0.192   17.855
  157.250  101.485    0.461    0.191   17.876
  157.500  100.856    0.473    0.191   17.889
  157.750  100.224    0.447    0.192   17.541
  158.000  100.848    0.402    0.189   17.554
  158.250  102.727    0.390    0.187   17.571
  158.500  103.352    0.400    0.184   17.957
  158.750  102.721    0.411    0.188   18.352
  159.000  102.089    0.442    0.216   17.995
  159.250   99.574    0.440    0.223   18.008
  159.500   90.780    0.409    0.247   17.299
  159.750   81.984    0.405    0.258   16.955
  160.000   78.842    0.409    0.279   16.967
  160.250   76.954    0.411    0.281   17.713
  160.500   76.951    0.414    0.281   18.094
  160.750   76.946    0.422    0.282   18.894
  161.000   76.944    0.447    0.282   19.300
  161.250   78.195    0.457    0.278   19.730
  161.500   78.819    0.440    0.229   20.164
  161.750   80.070    0.417    0.162   20.183
  162.000   80.696    0.393    0.139   20.632
  162.250   81.319    0.370    0.137   20.646
  162.500   81.943    0.366    0.164   20.661
  162.750   82.567    0.398    0.194   20.686
  163.000   83.191    0.410    0.216   20.705
  163.250   84.443    0.400    0.241   20.725
  163.500   85.067    0.394    0.249   20.322
  163.750   84.436    0.389    0.261   19.913
  164.000   83.803    0.379    0.262   18.726
  164.250   83.173    0.406    0.262   17.980
  164.500   83.170    0.457    0.256   17.626
  164.750   82.537    0.486    0.251   18.018
  165.000   83.161    0.474    0.242   18.414
  165.250   83.785    0.436    0.228   19.215
  165.500   83.154    0.406    0.211   19.638
  165.750   81.894    0.392    0.199   20.497
  166.000   81.891    0.386    0.199   20.511
  166.250   82.514    0.397    0.222   20.962
  166.500   83.139    0.421    0.230   20.992
  166.750   83.763    0.422    0.238   21.002
  167.000   84.387    0.410    0.243   21.022
  167.250   85.640    0.407    0.241   21.042
  167.500   88.774    0.449    0.216   21.510
  167.750   90.655    0.469    0.213   21.092
  168.000   93.791    0.454    0.210   19.825
  168.250   96.298    0.442    0.204   19.035
  168.500   93.155    0.443    0.192   17.536
  168.750   89.385    0.442    0.178   17.191
  169.000   84.986    0.410    0.162   18.316
  169.250   83.726    0.397    0.168   20.343
  169.500   86.233    0.371    0.213   22.129
  169.750   90.626    0.402    0.227   22.611
  170.000   96.273    0.418    0.231   21.710
  170.250  101.292    0.421    0.221   19.583
  170.500  106.312    0.449    0.223   16.254
  170.750  113.215    0.516    0.224   13.491
  171.000  118.861    0.500    0.219   11.922
  171.250  117.602    0.464    0.187   10.980
  171.500  112.576    0.428    0.180   10.991
  171.750  105.665    0.419    0.187   11.710
  172.000  102.521    0.413    0.197   13.003
  172.250  100.006    0.402    0.200   15.060
  172.500   98.119    0.413    0.192   16.045
  172.750   95.603    0.425    0.174   16.394
  173.000   94.343    0.439    0.168   16.409
  173.250   94.341    0.444    0.175   16.774
  173.500   94.965    0.434    0.181   16.786
  173.750   96.215    0.425    0.187   16.806
  174.000   96.212    0.414    0.188   16.826
  174.250   95.580    0.412    0.191   16.838
  174.500   96.831    0.444    0.191   16.854
  174.750   98.085    0.460    0.183   16.870
  175.000  101.848    0.468    0.176   16.886
  175.250  104.984    0.457    0.180   16.910
  175.500  107.493    0.450    0.180   16.918
  175.750  106.233    0.438    0.181   16.938
  176.000  103.090    0.424    0.185   16.958
  176.250  100.574    0.410    0.188   16.970
  176.500   98.686    0.400    0.193   16.991
  176.750   98.683    0.400    0.204   16.999
  177.000   98.679    0.399    0.213   18.119
  177.250   98.675    0.425    0.219   18.518
  177.500   96.787    0.449    0.225   19.318
  177.750   94.901    0.452    0.226   19.739
  178.000   91.757    0.423    0.212   21.035
  178.250   87.359    0.297    0.145   22.877
  178.500   82.332    0.246    0.114   25.943
  178.750   67.885    0.219    0.091   31.982
  179.000   64.742    0.200    0.056   46.556
  179.250   63.482    0.186    0.038   67.770
  179.500   67.875    0.173    0.020   75.272
  179.750   74.150    0.170    0.071   67.899
  180.000   80.425    0.184    0.121   59.987
  180.250   82.305    0.368    0.161   54.111
  180.500   82.928    0.382    0.126   45.857
  180.750   83.553    0.322    0.110   39.679
  181.000   86.688    0.297    0.160   34.342
  181.250   89.197    0.301    0.183   30.971
  181.500   90.449    0.378    0.193   27.375
  181.750   91.700    0.404    0.210   25.737
  182.000   91.698    0.415    0.218   24.705
  182.250   92.322    0.422    0.206   22.770
  182.500   93.574    0.426    0.195   22.317
  182.750   94.198    0.457    0.195   21.423
  183.000   92.311    0.463    0.210   20.997
  183.250   86.656    0.422    0.180   21.017
  183.500   81.628    0.359    0.116   21.936
  183.750   80.997    0.321    0.074   23.856
  184.000   84.133    0.270    0.116   30.651
  184.250   89.153    0.314    0.169   31.992
  184.500   92.916    0.381    0.178   28.277
  184.750   97.307    0.415    0.190   26.579
  185.000   98.558    0.430    0.194   25.514
  185.250   99.182    0.432    0.193   22.541
  185.500   97.922    0.421    0.188   20.333
  185.750   95.408    0.412    0.180   19.121
  186.000   92.265    0.401    0.168   19.139
  186.250   89.750    0.360    0.140   19.976
  186.500   89.746    0.331    0.124   21.735
  186.750   93.509    0.322    0.152   23.157
