~VERSION INFORMATION
 VERS.                 2.0:   CWLS LOG ASCII STANDARD -VERSION 2.0
 WRAP.                  NO:   ONE LINE PER DEPTH STEP
~WELL INFORMATION BLOCK
#MNEM.UNIT           DATA                    DESCRIPTION OF MNEMONIC
#---------    -------------------            -------------------------------
# Generated from Intellog Unique Number	CS_77_79/WELL/996
WELL.         NORTHSTAR ET AL THORNBURY      : Well_name    - WELL
LOC .         00/11-18-079-12W4/0            : Location     - LOCATION
UWI .         00/11-18-079-12W4/0            : Uwi          - UNIQUE WELL ID
ENTR.         JHS                            : Entered      - ENTERED BY
SRVC.         SCHLUMBERGER                   : Scn          - SERVICE COMPANY
STRT.M        275                            : top_depth    - START DEPTH
STOP.M        520                            : bot_depth    - STOP DEPTH
STEP.M        0.25                           : increment    - STEP LENGTH
 NULL. -999.2500:NULL Value
~CURVE INFORMATION BLOCK
#MNEM UNIT       ERCB CURVE CODE    CURVE DESCRIPTION
#-----------   ------------------   ----------------------------------
DEPT.M        00 001 00 00         : DEPTH        - DEPTH
DPHI.V/V      00 890 00 00         : PHID         - DENSITY POROSITY (LIMESTONE)
NPHI.V/V      00 330 00 00         : PHIN         - NEUTRON POROSITY (LIMESTONE)
GR  .API      00 310 00 00         : GR           - GAMMA RAY
ILD .OHMM     00 120 00 00         : RESD         - DEEP RESISTIVITY (DIL)
RHOB.KG/M3    00 350 00 00         : DENS         - BULK DENSITY
~PARAMETER INFORMATION
#MNEM.UNIT           DATA             DESCRIPTION OF MNEMONIC
#---------         -----------     ------------------------------
GL  .M        707.3                : gl           - GROUND LEVEL ELEVATION
EREF.M        711.3                : kb           - ELEVATION OF DEPTH REFERENCE
DATM.M        711.3                : datum        - DATUM ELEVATION
TDD .M        526.6                : tdd          - TOTAL DEPTH DRILLER
RUN .         ONE                  : Run          - RUN NUMBER
ENG .         BILL                 : Engineer     - RECORDING ENGINEER
WIT .         JIM                  : Witness      - WITNESSED BY
MUD .         GEL                  : Mud_type     - MUD TYPE
MATR.         LIMESTONE            : Logunit      - NEUTRON MATRIX
TMAX.C        25.1                 : BHT          - MAXIMUM RECORDED TEMPERATURE
BHTD.M        526.6                : BHTDEP       - MAXIMUM RECORDED TEMPERATURE
MATR.         1                    : LOGUNIT      - NEUTRON MATRIX
RMT .C        25                   : MDTP         - TEMPERATURE OF MUD
NEUT.         1                    : NEUTRON      - NEUTRON TYPE
RESI.         0                    : RESIST       - RESISTIVITY TYPE
RMC .OHMM     0.25                 : RMC          - RESISTIVITY OF MUD CAKE
RMF .OHMM     0.25                 : RMF          - RESISTIVITY OF MUD FILTRATE
SUFT.C        15                   : SUFT         - SURFACE TEMPERATURE
~A  DEPTH     PHID     PHIN       GR     RESD     DENS
# ...
  311.500    0.281    0.408   96.902   14.517    0.000
  311.750    0.266    0.418  101.208   13.739    0.000
  312.000    0.248    0.431  102.440   13.493    0.000
  312.250    0.229    0.430   98.140   13.762    0.000
  312.500    0.223    0.416   91.994   13.770    0.000
  312.750    0.228    0.389   85.234   14.316    0.000
  313.000    0.239    0.378   78.475   14.328    0.000
  313.250    0.220    0.389   77.862   13.811    0.000
  313.500    0.228    0.393   83.398   12.353    0.000
  313.750    0.217    0.381   91.393   10.251    0.000
  314.000    0.182    0.392   97.543    9.166    0.000
  314.250    0.168    0.419  103.693    8.351    0.000
  314.500    0.169    0.433  114.147    7.610    0.000
  314.750    0.183    0.436  122.141    6.808    0.000
  315.000    0.177    0.434  127.063    6.321    0.000
  315.250    0.163    0.447  129.524    5.980    0.000
  315.500    0.163    0.479  130.142    5.659    0.000
  315.750    0.188    0.491  127.071    5.354    0.000
  316.000    0.178    0.498  128.303    5.460    0.000
  316.250    0.162    0.504  126.461    5.569    0.000
  316.500    0.146    0.486  122.774    5.789    0.000
  316.750    0.168    0.475  118.474    5.795    0.000
  317.000    0.135    0.473  118.476    5.691    0.000
  317.250    0.145    0.493  128.930    5.284    0.000
  317.500    0.168    0.480  133.851    4.726    0.000
  317.750    0.185    0.490  134.468    4.306    0.000
  318.000    0.189    0.513  129.553    3.852    0.000
  318.250    0.177    0.535  125.867    3.644    0.000
  318.500    0.174    0.554  131.402    3.647    0.000
  318.750    0.194    0.566  130.176    3.791    0.000
  319.000    0.237    0.564  129.563    4.579    0.000
  319.250    0.230    0.542  127.722    5.426    0.000
  319.500    0.224    0.510  123.421    7.474    0.000
  319.750    0.226    0.450  116.047    9.370    0.000
  320.000    0.251    0.424  111.746   10.696    0.000
  320.250    0.262    0.423  108.675   11.762    0.000
  320.500    0.243    0.428  108.677   12.456    0.000
  320.750    0.227    0.434  110.524   12.464    0.000
  321.000    0.238    0.441  108.067   11.794    0.000
  321.250    0.250    0.446  104.382   10.549    0.000
  321.500    0.261    0.453  103.770    8.917    0.000
  321.750    0.262    0.439  107.461    6.992    0.000
  322.000    0.232    0.434  119.759    5.801    0.000
  322.250    0.192    0.455  127.139    5.918    0.000
  322.500    0.175    0.515  127.757    6.266    0.000
  322.750    0.172    0.485  126.529    7.288    0.000
  323.000    0.189    0.458  120.999    8.638    0.000
  323.250    0.240    0.452  117.927   10.049    0.000
  323.500    0.245    0.466  114.857   10.843    0.000
  323.750    0.250    0.447  113.629   11.482    0.000
  324.000    0.256    0.441  111.788   11.712    0.000
  324.250    0.262    0.453  108.102   11.947    0.000
  324.500    0.260    0.459  101.957   11.731    0.000
  324.750    0.249    0.464   99.500   11.312    0.000
  325.000    0.282    0.456   98.889   10.903    0.000
  325.250    0.265    0.434  101.965   10.128    0.000
  325.500    0.250    0.439  104.426   10.329    0.000
  325.750    0.241    0.445  105.043   10.733    0.000
  326.000    0.232    0.436  100.128   11.579    0.000
  326.250    0.239    0.410   93.368   13.723    0.000
  326.500    0.278    0.419   81.690   17.535    0.000
  326.750    0.317    0.436   67.553   21.588    0.000
  327.000    0.334    0.440   61.409   22.006    0.000
  327.250    0.317    0.435   65.715   20.821    0.000
  327.500    0.315    0.431   71.865   17.277    0.000
  327.750    0.310    0.434   76.786   16.046    0.000
  328.000    0.287    0.438   81.091   16.673    0.000
  328.250    0.257    0.443   85.398   19.030    0.000
  328.500    0.285    0.456   81.712   23.418    0.000
  328.750    0.316    0.454   74.337   28.816    0.000
  329.000    0.316    0.452   70.651   34.806    0.000
  329.250    0.295    0.448   73.113   38.263    0.000
  329.500    0.317    0.434   73.116   39.767    0.000
  329.750    0.303    0.430   70.659   38.340    0.000
  330.000    0.304    0.435   69.432   34.282    0.000
  330.250    0.311    0.456   69.435   25.895    0.000
  330.500    0.304    0.463   70.667   19.933    0.000
  330.750    0.291    0.448   76.817   15.925    0.000
  331.000    0.282    0.438   83.582   13.467    0.000
  331.250    0.274    0.440   86.658   13.478    0.000
  331.500    0.274    0.464   88.507   13.746    0.000
  331.750    0.284    0.479   87.278   14.558    0.000
  332.000    0.293    0.476   84.822   15.709    0.000
  332.250    0.280    0.485   86.055   17.270    0.000
  332.500    0.282    0.485   84.214   19.349    0.000
  332.750    0.298    0.481   82.985   20.878    0.000
  333.000    0.307    0.490   77.456   22.527    0.000
  333.250    0.290    0.501   77.459   24.770    0.000
  333.500    0.283    0.507   76.846   26.225    0.000
  333.750    0.279    0.478   76.849   26.746    0.000
  334.000    0.255    0.463   78.695   25.789    0.000
  334.250    0.220    0.430   78.699   23.942    0.000
  334.500    0.196    0.404   79.930   20.625    0.000
  334.750    0.233    0.389   83.621   16.176    0.000
  335.000    0.300    0.447   89.157   12.923    0.000
  335.250    0.301    0.464   92.848    9.579    0.000
  335.500    0.290    0.448   97.769    8.100    0.000
  335.750    0.268    0.458   99.616    8.106    0.000
  336.000    0.250    0.469   99.618    8.270    0.000
  336.250    0.268    0.480  103.309    8.594    0.000
  336.500    0.269    0.473  103.312    9.275    0.000
  336.750    0.266    0.458   99.627   10.007    0.000
  337.000    0.284    0.455   96.555   10.598    0.000
  337.250    0.293    0.463   92.255   10.807    0.000
  337.500    0.291    0.458   89.183   11.020    0.000
  337.750    0.291    0.432   90.415   10.625    0.000
  338.000    0.296    0.422   91.648   10.056    0.000
  338.250    0.289    0.428   88.576   10.252    0.000
  338.500    0.279    0.436   82.432   10.861    0.000
  338.750    0.274    0.437   80.590   11.283    0.000
  339.000    0.284    0.449   77.519   13.376    0.000
  339.250    0.301    0.458   74.447   15.265    0.000
  339.500    0.337    0.453   63.999   19.877    0.000
  339.750    0.346    0.444   63.388   23.118    0.000
  340.000    0.337    0.432   62.160   27.400    0.000
  340.250    0.315    0.425   57.859   30.121    0.000
  340.500    0.332    0.421   56.633   33.124    0.000
  340.750    0.349    0.441   55.406   33.775    0.000
  341.000    0.355    0.457   57.867   33.816    0.000
  341.250    0.340    0.455   57.870   33.230    0.000
  341.500    0.333    0.453   57.872   32.644    0.000
  341.750    0.348    0.457   60.334   32.059    0.000
  342.000    0.348    0.468   60.337   32.693    0.000
  342.250    0.354    0.468   56.652   35.948    0.000
  342.500    0.356    0.464   56.653   38.792    0.000
  342.750    0.344    0.466   59.116   39.553    0.000
  343.000    0.348    0.471   59.118   40.358    0.000
  343.250    0.344    0.460   60.350   38.905    0.000
  343.500    0.337    0.457   66.501   37.500    0.000
  343.750    0.344    0.458   65.888   34.170    0.000
  344.000    0.350    0.465   65.276   29.439    0.000
  344.250    0.340    0.453   62.819   27.335    0.000
  344.500    0.327    0.448   60.977   25.390    0.000
  344.750    0.325    0.463   61.596   24.931    0.000
  345.000    0.351    0.465   60.984   24.497    0.000
  345.250    0.341    0.470   59.757   24.514    0.000
  345.500    0.334    0.475   59.758   23.640    0.000
  345.750    0.336    0.461   60.991   22.371    0.000
  346.000    0.329    0.454   56.691   21.559    0.000
  346.250    0.312    0.465   52.390   20.025    0.000
  346.500    0.330    0.463   52.392   18.592    0.000
  346.750    0.316    0.476   54.854   17.923    0.000
  347.000    0.310    0.476   57.315   17.277    0.000
  347.250    0.312    0.466   55.474   17.297    0.000
  347.500    0.322    0.460   54.862   17.312    0.000
  347.750    0.338    0.463   54.865   17.332    0.000
