~VERSION INFORMATION
 VERS.                 2.0:   CWLS LOG ASCII STANDARD -VERSION 2.0
 WRAP.                  NO:   ONE LINE PER DEPTH STEP
~WELL INFORMATION BLOCK
#MNEM.UNIT           DATA                    DESCRIPTION OF MNEMONIC
#---------    -------------------            -------------------------------
# Generated from Intellog Unique Number	CW_79_81/WELL/879
WELL.         PARAMOUNT ET AL HORIZON        : Well_name    - WELL
LOC .         00/10-35-079-19W4/0            : Location     - LOCATION
UWI .         00/10-35-079-19W4/0            : Uwi          - UNIQUE WELL ID
ENTR.         MAX                            : Entered      - ENTERED BY
SRVC.         COMPUTALOG                     : Scn          - SERVICE COMPANY
STRT.M        198.12                         : top_depth    - START DEPTH
STOP.M        367.62                         : bot_depth    - STOP DEPTH
STEP.M        0.25                           : increment    - STEP LENGTH
 NULL. -999.2500:NULL Value
~CURVE INFORMATION BLOCK
#MNEM UNIT       ERCB CURVE CODE    CURVE DESCRIPTION
#-----------   ------------------   ----------------------------------
DEPT.M        00 001 00 00         : DEPTH        - DEPTH
ILD .OHMM     00 120 00 00         : RESD         - DEEP RESISTIVITY (DIL)
NPHI.V/V      00 330 00 00         : PHIN         - NEUTRON POROSITY (SANDSTONE)
DPHI.V/V      00 890 00 00         : PHID         - DENSITY POROSITY (SANDSTONE)
CALI.MM       00 280 01 00         : CAL          - CALIPER
GR  .API      00 310 00 00         : GR           - GAMMA RAY
~PARAMETER INFORMATION
#MNEM.UNIT           DATA             DESCRIPTION OF MNEMONIC
#---------         -----------     ------------------------------
GL  .M        563.88               : gl           - GROUND LEVEL ELEVATION
EREF.M        566.928              : kb           - ELEVATION OF DEPTH REFERENCE
DATM.M        563.88               : datum        - DATUM ELEVATION
TDD .M        368.198              : tdd          - TOTAL DEPTH DRILLER
RUN .         ONE                  : Run          - RUN NUMBER
ENG .         BILL                 : Engineer     - RECORDING ENGINEER
WIT .         JIM                  : Witness      - WITNESSED BY
MUD .         GEL                  : Mud_type     - MUD TYPE
MATR.         SANDSTONE            : Logunit      - NEUTRON MATRIX
TMAX.C        16.1111              : BHT          - MAXIMUM RECORDED TEMPERATURE
BHTD.M        368.198              : BHTDEP       - MAXIMUM RECORDED TEMPERATURE
RMT .C        15                   : MDTP         - TEMPERATURE OF MUD
MUDD.KG/M     9800                 : MWT          - MUD DENSITY
NEUT.         1                    : NEUTRON      - NEUTRON TYPE
RESI.         0                    : RESIST       - RESISTIVITY TYPE
RM  .OHMM     1.35                 : RM           - RESISTIVITY OF MUD
RMC .OHMM     0                    : RMC          - RESISTIVITY OF MUD CAKE
RMF .OHMM     1.05                 : RMF          - RESISTIVITY OF MUD FILTRATE
SUFT.C        -20.5556             : SUFT         - SURFACE TEMPERATURE
~A  DEPTH     RESD     PHIN     PHID      CAL       GR
  198.120   12.315    0.381    0.340  159.530   46.391
  198.370   12.434    0.348    0.324  161.052   50.543
  198.620   11.601    0.330    0.321  162.084   53.810
  198.870   10.846    0.361    0.326  161.114   53.532
  199.120   10.211    0.359    0.321  159.134   56.503
  199.370    9.735    0.355    0.311  154.665   59.768
  199.620    9.815    0.357    0.306  153.686   62.739
  199.870   10.252    0.343    0.302  154.214   65.121
  200.120   11.166    0.316    0.296  157.250   66.912
  200.370   11.921    0.299    0.278  158.779   65.748
  200.620   12.597    0.335    0.214  158.302   72.852
  200.870   12.836    0.372    0.282  156.833   77.006
  201.120   12.677    0.362    0.294  153.862   85.591
  201.370   11.923    0.363    0.282  149.887   91.516
  201.620   10.533    0.374    0.278  149.408   93.898
  201.870    8.825    0.359    0.277  151.937   91.253
  202.120    8.071    0.396    0.254  155.467   88.908
  202.370    7.713    0.406    0.245  161.498   93.354
  202.620    7.714    0.390    0.252  163.527  104.895
  202.870    8.588    0.372    0.257  164.565  106.094
  203.120    9.502    0.369    0.264  163.092  108.178
  203.370   10.536    0.360    0.271  161.119   98.740
  203.620   12.602    0.356    0.276  159.639   89.891
  203.870   13.158    0.350    0.274  158.169   89.614
  204.120   14.033    0.337    0.269  157.196   89.039
  204.370   14.668    0.335    0.271  156.723   88.762
  204.620   15.265    0.338    0.279  155.750   95.574
  204.870   15.821    0.326    0.304  154.277   90.861
  205.120   16.338    0.319    0.315  153.304   73.443
  205.370   17.491    0.315    0.313  152.828   69.618
  205.620   18.087    0.313    0.301  152.355   69.341
  205.870   18.842    0.317    0.282  151.886   54.583
  206.120   19.637    0.322    0.273  151.910   43.963
  206.370   19.399    0.289    0.269  152.445   38.070
  206.620   18.327    0.290    0.298  152.473   32.179
  206.870   17.056    0.307    0.322  152.501   31.603
  207.120   15.586    0.327    0.310  152.528   45.210
  207.370   14.514    0.323    0.283  152.552   57.047
  207.620   13.283    0.324    0.265  152.584   78.040
  207.870   12.171    0.344    0.262  151.614   88.104
  208.120   11.179    0.356    0.253  151.638   90.189
  208.370   10.543    0.370    0.237  152.670   93.160
  208.620    9.392    0.366    0.218  154.692   99.971
  208.870    8.598    0.373    0.223  159.723  102.060
  209.120    8.201    0.374    0.227  160.261  106.211
  209.370    8.241    0.378    0.221  161.286  112.436
  209.620    8.122    0.360    0.223  161.814  108.609
  209.870    7.884    0.358    0.228  161.341  103.010
  210.120    7.368    0.396    0.219  160.368  110.708
  210.370    6.415    0.449    0.223  159.892  114.270
  210.620    5.383    0.459    0.234  160.420  118.129
  210.870    5.026    0.447    0.208  160.458  122.280
  211.120    4.589    0.434    0.208  160.475  124.959
  211.370    4.351    0.441    0.201  160.507  120.544
  211.620    4.272    0.434    0.220  161.031  123.513
  211.870    4.272    0.444    0.206  162.066  128.849
  212.120    4.312    0.461    0.179  161.093  134.772
  212.370    4.154    0.473    0.152  160.624  136.266
  212.620    3.916    0.470    0.148  161.149  134.807
  212.870    3.797    0.459    0.151  161.677  134.231
  213.120    3.758    0.443    0.103  162.205  126.565
  213.370    3.838    0.419    0.272  162.733  135.447
  213.620    4.156    0.404    0.262  162.757  136.941
  213.870    4.832    0.370    0.269  161.284  130.457
  214.120    5.587    0.336    0.280  156.312  121.905
  214.370    6.501    0.354    0.268  153.838  120.444
  214.620    7.534    0.388    0.278  156.867  127.552
  214.870    8.091    0.393    0.262  160.894  128.454
  215.120    7.813    0.404    0.256  160.925  123.747
  215.370    7.575    0.389    0.273  162.457  121.987
  215.620    7.695    0.363    0.270  163.485  125.253
  215.870    8.053    0.324    0.270  163.013  121.429
  216.120    9.284    0.327    0.267  161.539  113.763
  216.370   10.238    0.326    0.273  161.070   98.711
  216.620   10.993    0.343    0.285  158.093   91.341
  216.870   11.788    0.370    0.300  153.618   88.405
  217.120   12.702    0.382    0.312  154.146   87.535
  217.370   12.981    0.373    0.309  156.174   91.686
  217.620   12.743    0.382    0.318  157.703   93.772
  217.870   11.949    0.387    0.328  157.227   91.423
  218.120   11.512    0.386    0.329  155.253   84.644
  218.370   11.513    0.360    0.332  154.287   76.683
  218.620   11.751    0.360    0.349  153.811   66.654
  218.870   12.229    0.365    0.366  152.842   59.284
  219.120   13.301    0.373    0.367  152.873   55.164
  219.370   14.494    0.375    0.349  153.397   53.705
  219.620   15.567    0.372    0.348  153.422   56.083
  219.870   15.805    0.365    0.327  152.952   58.167
  220.120   15.687    0.350    0.320  152.980   59.070
  220.370   15.329    0.343    0.332  153.011   61.452
  220.620   14.535    0.320    0.315  153.536   63.536
  220.870   14.456    0.286    0.298  153.560   71.235
  221.120   14.774    0.251    0.273  153.594   67.410
  221.370   15.490    0.213    0.237  155.120   64.767
  221.620   17.040    0.175    0.055  159.653   62.125
  221.870   17.159    0.149    0.081  160.685   61.550
  222.120   16.921    0.214    0.133  160.730   62.748
  222.370   16.405    0.258    0.202  160.741   61.583
  222.620   16.008    0.292    0.277  157.266   58.940
  222.870   15.770    0.295    0.257  157.290   55.411
  223.120   15.533    0.310    0.303  156.314   52.177
  223.370   15.533    0.319    0.324  154.344   54.852
  223.620   15.692    0.336    0.323  153.374   64.619
  223.870   15.613    0.341    0.317  152.898   61.092
  224.120   15.335    0.336    0.321  153.930   62.583
  224.370   14.978    0.337    0.329  154.454   65.556
  224.620   14.820    0.336    0.330  153.978   59.366
  224.870   14.780    0.336    0.332  154.010   53.178
  225.120   14.940    0.338    0.333  154.041   50.831
  225.370   15.059    0.340    0.331  154.572   52.326
  225.620   14.941    0.345    0.332  154.596   55.299
  225.870   14.544    0.356    0.334  152.122   59.156
  226.120   13.432    0.374    0.337  149.649   60.943
  226.370   12.439    0.388    0.331  148.676   61.846
  226.620   11.089    0.370    0.322  150.708   64.522
  226.870   10.573    0.336    0.307  152.730   65.424
  227.120   10.136    0.303    0.250  153.758   65.147
  227.370    9.421    0.320    0.199  156.788   66.938
  227.620    8.190    0.387    0.225  159.324   69.907
  227.870    6.959    0.418    0.281  156.350   77.312
  228.120    6.245    0.395    0.314  154.873   74.078
  228.370    6.166    0.366    0.324  155.401   71.729
  228.620    6.921    0.352    0.331  155.932   67.313
  228.870    8.669    0.368    0.352  155.456   62.307
  229.120    9.543    0.370    0.363  155.487   59.371
  229.370    9.822    0.363    0.359  155.512   59.681
  229.620   10.180    0.360    0.356  154.542   59.108
  229.870   10.538    0.373    0.352  154.073   59.420
  230.120   10.459    0.379    0.348  153.597   58.845
  230.370   10.459    0.392    0.343  152.624   57.384
  230.620   10.777    0.373    0.336  156.654   55.628
  230.870   11.254    0.349    0.328  159.683   57.712
  231.120   11.851    0.376    0.340  157.717   61.274
  231.370   12.407    0.385    0.324  155.240   66.906
  231.620   12.527    0.361    0.316  154.263   71.648
  231.870   12.527    0.357    0.330  154.298   79.053
  232.120   12.567    0.347    0.345  153.822   82.317
  232.370   12.687    0.363    0.361  154.846   87.063
  232.620   12.727    0.349    0.359  155.374   64.327
  232.870   12.767    0.342    0.327  155.902   58.434
  233.120   13.006    0.350    0.346  155.430   55.498
  233.370   13.721    0.341    0.352  155.461   55.512
  233.620   14.079    0.335    0.355  155.989   60.256
  233.870   14.079    0.341    0.365  156.016   65.890
  234.120   14.001    0.356    0.351  156.548   64.133
  234.370   13.802    0.354    0.345  158.577   63.559
