~VERSION INFORMATION
 VERS.                 2.0:   CWLS LOG ASCII STANDARD -VERSION 2.0
 WRAP.                  NO:   ONE LINE PER DEPTH STEP
~WELL INFORMATION BLOCK
#MNEM.UNIT           DATA                    DESCRIPTION OF MNEMONIC
#---------    -------------------            -------------------------------
# Generated from Intellog Unique Number	CW_79_81/WELL/2477
WELL.         10-35-080-20W4                 : Well_name    - WELL
LOC .         00/10-35-080-20W4/0            : Location     - LOCATION
UWI .         00/10-35-080-20W4/0            : Uwi          - UNIQUE WELL ID
ENTR.         MAX                            : Entered      - ENTERED BY
SRVC.         SCHLUMBERGER                   : Scn          - SERVICE COMPANY
STRT.M        149.352                        : top_depth    - START DEPTH
STOP.M        380.852                        : bot_depth    - STOP DEPTH
STEP.M        0.25                           : increment    - STEP LENGTH
 NULL. -999.2500:NULL Value
~CURVE INFORMATION BLOCK
#MNEM UNIT       ERCB CURVE CODE    CURVE DESCRIPTION
#-----------   ------------------   ----------------------------------
DEPT.M        00 001 00 00         : DEPTH        - DEPTH
ILD .OHMM     00 120 00 00         : RESD         - DEEP RESISTIVITY (DIL)
NPHI.V/V      00 330 00 00         : PHIN         - NEUTRON POROSITY (SANDSTONE)
DPHI.V/V      00 890 00 00         : PHID         - DENSITY POROSITY (SANDSTONE)
GR  .API      00 310 00 00         : GR           - GAMMA RAY
CALI.MM       00 280 01 00         : CAL          - CALIPER
~PARAMETER INFORMATION
#MNEM.UNIT           DATA             DESCRIPTION OF MNEMONIC
#---------         -----------     ------------------------------
GL  .M        581.254              : gl           - GROUND LEVEL ELEVATION
EREF.M        578.053              : kb           - ELEVATION OF DEPTH REFERENCE
DATM.M        581.254              : datum        - DATUM ELEVATION
TDD .M        404.165              : tdd          - TOTAL DEPTH DRILLER
RUN .         ONE                  : Run          - RUN NUMBER
ENG .         BILL                 : Engineer     - RECORDING ENGINEER
WIT .         JIM                  : Witness      - WITNESSED BY
MUD .         GEL                  : Mud_type     - MUD TYPE
MATR.         SANDSTONE            : Logunit      - NEUTRON MATRIX
TMAX.C        26.6667              : BHT          - MAXIMUM RECORDED TEMPERATURE
BHTD.M        404.165              : BHTDEP       - MAXIMUM RECORDED TEMPERATURE
MATR.         1                    : LOGUNIT      - NEUTRON MATRIX
RMT .C        20                   : MDTP         - TEMPERATURE OF MUD
NEUT.         1                    : NEUTRON      - NEUTRON TYPE
RESI.         0                    : RESIST       - RESISTIVITY TYPE
RMC .OHMM     2.42                 : RMC          - RESISTIVITY OF MUD CAKE
RMF .OHMM     2.1                  : RMF          - RESISTIVITY OF MUD FILTRATE
SUFT.C        -23.3333             : SUFT         - SURFACE TEMPERATURE
~A  DEPTH     RESD     PHIN     PHID       GR      CAL
# ...
  331.852   11.535    0.440    0.250  100.158  171.625
  332.102   11.428    0.433    0.252  100.516  171.167
  332.352   11.336    0.439    0.254  101.232  171.119
  332.602   11.166    0.435    0.241  102.394  171.067
  332.852   10.999    0.440    0.238  103.736  171.030
  333.102   10.835    0.450    0.241  104.186  170.785
  333.352   10.712    0.460    0.245  103.625  170.432
  333.602   10.706    0.459    0.242  103.083  170.385
  333.852   10.701    0.452    0.236  104.049  170.336
  334.102   10.697    0.444    0.239  105.211  170.294
  334.352   10.458    0.436    0.241  105.659  170.850
  334.602   10.264    0.436    0.241  105.870  171.605
  334.852   10.185    0.438    0.239  106.023  172.160
  335.102   10.090    0.423    0.239  105.848  172.354
  335.352   10.009    0.414    0.238  105.086  173.559
  335.602   10.005    0.414    0.227  107.196  173.918
  335.852   10.001    0.413    0.231  110.198  173.064
  336.102    9.996    0.414    0.241  110.768  172.816
  336.352    9.937    0.418    0.252  107.953  173.880
  336.602    9.594    0.422    0.250  102.678  176.000
  336.852    9.025    0.417    0.234  100.184  176.782
  337.102    9.087    0.404    0.221  102.055  175.532
  337.352    9.301    0.399    0.227  104.817  174.286
  337.602    9.609    0.399    0.235  106.455  173.637
  337.852    9.912    0.405    0.235  106.433  173.787
  338.102   10.022    0.420    0.221  105.096  174.869
  338.352    9.866    0.426    0.220  102.105  176.501
  338.602    9.505    0.434    0.222   97.572  174.449
  338.852    9.467    0.426    0.240   94.637  171.795
  339.102    9.809    0.408    0.249   93.305  168.538
  339.352   10.495    0.391    0.249   92.924  165.480
  339.602   11.380    0.395    0.272   91.492  164.309
  339.852   11.820    0.398    0.286   88.004  164.683
  340.102   12.165    0.392    0.283   86.794  165.032
  340.352   12.589    0.388    0.274   85.049  165.085
  340.602   13.007    0.386    0.258   82.294  164.842
  340.852   13.390    0.382    0.239   78.292  164.300
  341.102   13.866    0.369    0.221   73.481  163.603
  341.352   14.291    0.344    0.203   75.682  164.390
  341.602   15.252    0.328    0.189   79.930  163.947
  341.852   16.367    0.328    0.176   80.084  163.801
  342.102   17.605    0.317    0.164   78.874  163.757
  342.352   18.976    0.291    0.146   77.842  163.914
  342.602   20.882    0.267    0.118   77.932  164.824
  342.852   22.541    0.271    0.131   80.873  165.601
  343.102   22.698    0.316    0.149   85.830  165.569
  343.352   22.107    0.341    0.167   88.124  166.124
  343.602   21.061    0.356    0.197   88.574  166.674
  343.852   19.701    0.365    0.227   88.131  166.927
  344.102   17.707    0.361    0.217   88.314  166.964
  344.352   16.161    0.345    0.207   90.516  167.338
  344.602   15.919    0.341    0.204   94.052  168.093
  344.852   15.681    0.358    0.218   95.095  169.450
  345.102   15.447    0.378    0.236   94.239  169.802
  345.352   15.101    0.392    0.244   92.197  168.852
  345.602   14.290    0.403    0.230   89.844  167.517
  345.852   13.543    0.405    0.222   90.062  167.045
  346.102   13.242    0.406    0.222   87.429  167.400
  346.352   13.310    0.384    0.200   84.081  168.058
  346.602   14.033    0.360    0.173   81.681  168.016
  346.852   15.120    0.347    0.164   82.013  167.069
  347.102   15.270    0.353    0.204   86.970  165.721
  347.352   15.498    0.387    0.222   86.941  165.254
  347.602   14.931    0.395    0.230   89.290  164.405
  347.852   14.065    0.401    0.239   90.218  164.162
  348.102   13.262    0.405    0.242   90.314  164.318
  348.352   12.692    0.409    0.238   89.814  164.671
  348.602   12.430    0.413    0.230   88.248  165.013
  348.852   12.519    0.399    0.226   86.491  164.973
  349.102   13.073    0.371    0.200   83.617  165.724
  349.352   14.171    0.338    0.181   80.923  166.178
  349.602   15.583    0.311    0.163   79.594  166.336
  349.852   17.173    0.303    0.164   80.103  166.295
  350.102   19.014    0.343    0.221   82.311  166.151
  350.352   18.861    0.378    0.238   82.779  165.690
  350.602   17.905    0.392    0.248   83.706  166.445
  350.852   15.677    0.405    0.240   84.631  166.896
  351.102   14.143    0.411    0.227   85.317  167.252
  351.352   13.462    0.409    0.217   85.350  167.813
  351.602   13.162    0.406    0.210   84.133  169.040
  351.852   13.156    0.414    0.211   84.109  169.414
  352.102   13.640    0.400    0.211   85.274  168.970
  352.352   14.143    0.390    0.210   86.080  168.821
  352.602   14.296    0.384    0.205   86.886  168.772
  352.852   13.976    0.380    0.200   88.166  168.727
  353.102   13.267    0.384    0.201   91.153  168.596
  353.352   12.766    0.391    0.207   94.344  168.124
  353.602   12.208    0.389    0.219   96.931  169.686
  353.852   11.676    0.393    0.223   98.449  172.144
  354.102   11.211    0.399    0.224   99.493  173.702
  354.352   10.804    0.404    0.223  100.954  173.958
  354.602   10.331    0.398    0.213  104.011  174.064
  354.852    9.940    0.398    0.210  103.987  174.851
  355.102    9.647    0.406    0.218  106.098  174.813
  355.352    9.522    0.412    0.221  109.636  174.472
  355.602    9.449    0.420    0.222  111.868  174.226
  355.852    9.410    0.425    0.224  111.605  174.279
  356.102    9.518    0.419    0.224  109.643  174.536
  356.352    9.734    0.415    0.217  111.842  174.074
  356.602    9.946    0.418    0.222  109.923  174.027
  356.852   10.328    0.412    0.214  104.796  173.683
  357.102   10.864    0.403    0.192   99.192  172.436
  357.352   11.519    0.390    0.163   94.714  170.283
  357.602   12.431    0.361    0.147   92.374  167.568
  357.852   13.629    0.343    0.200   95.074  166.261
  358.102   15.293    0.354    0.218   97.660  166.219
  358.352   16.205    0.361    0.225   99.712  166.478
  358.602   16.442    0.359    0.227  100.161  166.832
  358.852   16.374    0.351    0.225   99.186  167.181
  359.102   16.610    0.345    0.219   98.211  167.606
  359.352   17.251    0.344    0.224   98.184  167.980
  359.602   17.886    0.353    0.223   97.447  167.942
  359.852   18.745    0.365    0.213   91.548  167.597
  360.102   19.654    0.370    0.199   87.723  167.350
  360.352   20.496    0.367    0.190   87.402  167.302
  360.602   21.477    0.363    0.198   86.582  167.326
  360.852   22.652    0.353    0.184   88.535  167.705
  361.102   23.146    0.332    0.169   94.681  168.451
  361.352   22.756    0.333    0.189  100.296  168.910
  361.602   21.506    0.348    0.212  104.310  169.064
  361.852   19.558    0.364    0.221  106.422  169.114
  362.102   16.492    0.358    0.216  107.051  169.723
  362.352   13.771    0.358    0.215  106.783  170.927
  362.602   12.784    0.359    0.222  105.093  174.084
  362.852   12.074    0.362    0.231  103.052  176.951
  363.102   11.509    0.375    0.233   95.314  180.920
  363.352   11.275    0.393    0.234   82.945  186.087
  363.602   12.158    0.396    0.246   71.044  190.996
  363.852   13.861    0.385    0.244   59.148  189.699
  364.102   17.513    0.383    0.295   50.812  184.835
  364.352   22.760    0.370    0.324   46.037  182.684
  364.602   29.548    0.371    0.343   44.349  184.241
  364.852   36.025    0.384    0.353   44.621  187.700
  365.102   37.972    0.382    0.355   44.871  188.364
  365.352   38.247    0.392    0.351   43.855  187.902
  365.602   40.521    0.398    0.353   43.590  187.048
  365.852   41.573    0.400    0.354   43.685  187.104
  366.102   41.248    0.397    0.355   44.731  187.062
  366.352   39.582    0.392    0.355   46.904  186.316
  366.602   36.327    0.392    0.348   50.703  184.234
  366.852   34.174    0.391    0.331   54.384  182.106
  367.102   31.252    0.387    0.318   55.788  180.045
  367.352   29.086    0.380    0.311   57.545  179.197
  367.602   27.216    0.375    0.305   61.435  178.550
  367.852   25.473    0.376    0.297   66.277  177.804
  368.102   23.548    0.380    0.285   68.704  177.272
