~VERSION INFORMATION
 VERS.                 2.0:   CWLS LOG ASCII STANDARD -VERSION 2.0
 WRAP.                  NO:   ONE LINE PER DEPTH STEP
~WELL INFORMATION BLOCK
#MNEM.UNIT           DATA                    DESCRIPTION OF MNEMONIC
#---------    -------------------            -------------------------------
# Generated from Intellog Unique Number	CW_79_81/WELL/2477
WELL.         10-35-080-20W4                 : Well_name    - WELL
LOC .         00/10-35-080-20W4/0            : Location     - LOCATION
UWI .         00/10-35-080-20W4/0            : Uwi          - UNIQUE WELL ID
ENTR.         MAX                            : Entered      - ENTERED BY
SRVC.         SCHLUMBERGER                   : Scn          - SERVICE COMPANY
STRT.M        149.352                        : top_depth    - START DEPTH
STOP.M        380.852                        : bot_depth    - STOP DEPTH
STEP.M        0.25                           : increment    - STEP LENGTH
 NULL. -999.2500:NULL Value
~CURVE INFORMATION BLOCK
#MNEM UNIT       ERCB CURVE CODE    CURVE DESCRIPTION
#-----------   ------------------   ----------------------------------
DEPT.M        00 001 00 00         : DEPTH        - DEPTH
ILD .OHMM     00 120 00 00         : RESD         - DEEP RESISTIVITY (DIL)
NPHI.V/V      00 330 00 00         : PHIN         - NEUTRON POROSITY (SANDSTONE)
DPHI.V/V      00 890 00 00         : PHID         - DENSITY POROSITY (SANDSTONE)
GR  .API      00 310 00 00         : GR           - GAMMA RAY
CALI.MM       00 280 01 00         : CAL          - CALIPER
~PARAMETER INFORMATION
#MNEM.UNIT           DATA             DESCRIPTION OF MNEMONIC
#---------         -----------     ------------------------------
GL  .M        581.254              : gl           - GROUND LEVEL ELEVATION
EREF.M        578.053              : kb           - ELEVATION OF DEPTH REFERENCE
DATM.M        581.254              : datum        - DATUM ELEVATION
TDD .M        404.165              : tdd          - TOTAL DEPTH DRILLER
RUN .         ONE                  : Run          - RUN NUMBER
ENG .         BILL                 : Engineer     - RECORDING ENGINEER
WIT .         JIM                  : Witness      - WITNESSED BY
MUD .         GEL                  : Mud_type     - MUD TYPE
MATR.         SANDSTONE            : Logunit      - NEUTRON MATRIX
TMAX.C        26.6667              : BHT          - MAXIMUM RECORDED TEMPERATURE
BHTD.M        404.165              : BHTDEP       - MAXIMUM RECORDED TEMPERATURE
MATR.         1                    : LOGUNIT      - NEUTRON MATRIX
RMT .C        20                   : MDTP         - TEMPERATURE OF MUD
NEUT.         1                    : NEUTRON      - NEUTRON TYPE
RESI.         0                    : RESIST       - RESISTIVITY TYPE
RMC .OHMM     2.42                 : RMC          - RESISTIVITY OF MUD CAKE
RMF .OHMM     2.1                  : RMF          - RESISTIVITY OF MUD FILTRATE
SUFT.C        -23.3333             : SUFT         - SURFACE TEMPERATURE
~A  DEPTH     RESD     PHIN     PHID       GR      CAL
# ...
  258.852   14.762    0.459    0.394   43.008  223.059
  259.102   14.650    0.452    0.393   43.719  223.857
  259.352   14.618    0.444    0.392   43.355  224.352
  259.602   14.614    0.441    0.395   43.230  224.544
  259.852   14.610    0.443    0.400   43.880  224.635
  260.102   14.559    0.446    0.399   45.911  225.113
  260.352   14.334    0.459    0.398   50.131  225.524
  260.602   14.120    0.473    0.402   54.897  225.514
  260.852   14.065    0.472    0.404   58.051  225.504
  261.102   14.112    0.465    0.405   59.716  224.686
  261.352   14.211    0.459    0.401   60.964  221.344
  261.602   14.333    0.461    0.384   64.465  210.577
  261.852   14.438    0.462    0.375   67.690  199.204
  262.102   14.862    0.459    0.370   68.162  191.921
  262.352   15.299    0.448    0.363   65.235  186.456
  262.602   15.749    0.435    0.358   59.026  182.608
  262.852   16.127    0.430    0.358   52.696  179.671
  263.102   16.265    0.454    0.369   52.948  175.922
  263.352   16.383    0.450    0.377   55.426  173.386
  263.602   16.139    0.450    0.380   56.853  172.971
  263.852   15.812    0.450    0.379   56.490  172.559
  264.102   15.463    0.460    0.377   54.694  172.347
  264.352   15.177    0.474    0.378   52.838  171.227
  264.602   15.039    0.469    0.381   53.806  166.181
  264.852   14.920    0.456    0.381   56.286  163.223
  265.102   14.915    0.455    0.384   59.143  162.810
  265.352   14.910    0.446    0.384   59.854  162.398
  265.602   14.906    0.435    0.382   58.535  162.186
  265.852   14.901    0.429    0.379   56.620  162.176
  266.102   14.873    0.432    0.381   57.548  161.997
  266.352   14.755    0.429    0.380   61.021  161.146
  266.602   14.642    0.430    0.374   61.970  161.135
  266.852   14.612    0.432    0.367   60.056  160.822
  267.102   14.607    0.434    0.362   58.380  160.610
  267.352   14.602    0.433    0.360   58.255  160.601
  267.602   14.598    0.428    0.358   59.499  160.841
  267.852   14.592    0.425    0.353   60.985  162.093
  268.102   14.588    0.431    0.348   62.650  162.891
  268.352   14.583    0.432    0.340   63.778  163.688
  268.602   14.686    0.430    0.325   63.772  164.083
  268.852   14.952    0.425    0.302   61.977  164.075
  269.102   15.575    0.413    0.268   56.980  163.643
  269.352   16.558    0.393    0.248   53.495  161.527
  269.602   17.802    0.287    0.151   49.911  159.093
  269.852   19.857    0.226    0.099   48.831  158.478
  270.102   22.338    0.202    0.084   49.541  158.873
  270.352   25.189    0.214    0.102   51.264  159.468
  270.602   29.275    0.273    0.159   53.514  159.204
  270.852   28.387    0.305    0.196   55.248  157.930
  271.102   24.443    0.326    0.222   57.388  157.115
  271.352   21.322    0.348    0.264   59.708  156.297
  271.602   18.602    0.375    0.302   61.611  155.883
  271.852   16.593    0.403    0.324   62.501  155.974
  272.102   15.614    0.422    0.334   61.829  156.534
  272.352   14.912    0.426    0.338   62.072  157.366
  272.602   14.583    0.428    0.344   64.689  157.357
  272.852   14.261    0.423    0.348   67.308  157.346
  273.102   13.946    0.416    0.348   68.853  157.335
  273.352   13.664    0.414    0.348   68.788  157.326
  273.602   13.440    0.432    0.354   66.912  157.232
  273.852   13.333    0.445    0.353   65.912  156.800
  274.102   13.427    0.449    0.347   66.146  156.387
  274.352   13.487    0.428    0.343   65.300  159.771
  274.602   13.508    0.420    0.337   66.109  161.874
  274.852   13.576    0.433    0.329   67.983  161.530
  275.102   13.956    0.442    0.321   66.608  161.306
  275.352   14.384    0.428    0.313   64.603  160.416
  275.602   14.912    0.409    0.301   65.767  159.558
  275.852   15.212    0.419    0.299   66.040  159.308
  276.102   15.374    0.428    0.303   66.371  159.464
  276.352   15.424    0.430    0.310   67.474  159.725
  276.602   15.161    0.443    0.323   70.165  159.850
  276.852   14.478    0.445    0.338   71.865  160.637
  277.102   14.157    0.442    0.344   68.996  161.383
  277.352   13.842    0.451    0.340   68.258  161.842
  277.602   13.636    0.457    0.333   68.828  162.201
  277.852   13.555    0.456    0.328   69.519  162.456
  278.102   13.506    0.451    0.319   68.628  162.402
  278.352   13.297    0.449    0.309   67.860  162.344
  278.602   12.905    0.457    0.300   74.956  162.302
  278.852   12.178    0.477    0.301   81.164  162.564
  279.102   11.396    0.481    0.302   88.145  163.123
  279.352   10.666    0.469    0.299   94.354  164.079
  279.602    9.763    0.465    0.296   94.193  165.795
  279.852    8.778    0.468    0.299   89.966  166.587
  280.102    8.088    0.467    0.306   86.617  164.521
  280.352    7.885    0.479    0.309   86.471  163.077
  280.602    8.082    0.489    0.312   85.971  162.235
  280.852    8.628    0.489    0.314   84.524  161.986
  281.102    9.482    0.483    0.315   84.792  162.411
  281.352    9.773    0.483    0.319   86.244  162.785
  281.602    9.841    0.467    0.315   86.939  163.941
  281.852    9.801    0.454    0.302   88.696  165.692
  282.102    9.617    0.447    0.292   91.520  167.051
  282.352    9.353    0.444    0.289   93.810  167.718
  282.602    9.075    0.445    0.296   92.800  168.068
  282.852    8.732    0.429    0.292   95.002  168.019
  283.102    8.412    0.429    0.290   95.452  168.368
  283.352    8.196    0.431    0.287   96.078  168.725
  283.602    8.104    0.430    0.286   96.173  169.082
  283.852    8.086    0.421    0.288   95.498  169.437
  284.102    7.998    0.410    0.291   93.979  169.702
  284.352    7.874    0.425    0.293   92.472  169.230
  284.602    7.870    0.441    0.300   89.126  168.787
  284.852    8.041    0.439    0.309   84.176  167.739
  285.102    8.424    0.428    0.316   80.232  167.090
  285.352    8.887    0.418    0.320   78.485  167.445
  285.602    9.028    0.421    0.318   79.092  169.833
  285.852    9.094    0.416    0.329   81.041  173.963
  286.102    9.359    0.404    0.314   80.304  173.114
  286.352    9.425    0.406    0.292   78.677  175.577
  286.602    9.352    0.410    0.283   79.246  179.746
  286.852    9.263    0.409    0.289   81.775  181.410
  287.102    9.382    0.408    0.290   82.547  172.227
  287.352    9.670    0.409    0.287   81.781  164.653
  287.602    9.953    0.416    0.285   84.844  164.208
  287.852    9.968    0.429    0.282   88.084  164.360
  288.102    9.671    0.447    0.277   89.603  167.320
  288.352    9.149    0.465    0.275   89.104  170.990
  288.602    8.512    0.481    0.289   88.036  167.845
  288.852    8.253    0.493    0.300   88.749  162.360
  289.102    7.893    0.502    0.316   86.828  163.115
  289.352    7.762    0.492    0.316   82.767  163.573
  289.602    7.730    0.479    0.311   80.009  163.524
  289.852    7.783    0.472    0.297   79.450  162.872
  290.102    8.142    0.459    0.257   79.075  161.708
  290.352    8.857    0.435    0.235   77.323  162.073
  290.602    9.659    0.405    0.221   73.975  163.634
  290.852   10.593    0.356    0.215   72.048  164.592
  291.102   11.247    0.325    0.232   73.447  165.347
  291.352   11.430    0.339    0.270   77.696  165.902
  291.602   11.263    0.422    0.311   82.038  165.846
  291.852   10.516    0.449    0.318   82.504  165.803
  292.102    9.192    0.442    0.313   81.535  166.152
  292.352    8.519    0.444    0.312   79.847  166.204
  292.602    8.274    0.444    0.313   79.702  165.962
  292.852    8.301    0.442    0.314   81.102  165.418
  293.102    8.433    0.441    0.311   81.688  164.469
  293.352    8.493    0.437    0.311   81.170  164.012
  293.602    8.490    0.442    0.310   81.859  163.564
  293.852    8.533    0.448    0.309   81.479  162.217
  294.102    8.561    0.453    0.308   80.266  160.564
  294.352    8.573    0.452    0.309   79.586  159.309
  294.602    8.645    0.440    0.308   82.032  159.762
  294.852    8.707    0.431    0.307   82.503  162.215
  295.102    8.576    0.448    0.301   83.425  165.377
