~VERSION INFORMATION
 VERS.                 2.0:   CWLS LOG ASCII STANDARD -VERSION 2.0
 WRAP.                  NO:   ONE LINE PER DEPTH STEP
~WELL INFORMATION BLOCK
#MNEM.UNIT           DATA                    DESCRIPTION OF MNEMONIC
#---------    -------------------            -------------------------------
# Generated from Intellog Unique Number	CX_WELLS/WELL/3977
WELL.         BOW VALLEY INDUSTRIES          : Well_name    - WELL
LOC .         00/11-02-071-15W4/0            : Location     - LOCATION
UWI .         00/11-02-071-15W4/0            : Uwi          - UNIQUE WELL ID
ENTR.         SP                             : Entered      - ENTERED BY
SRVC.         SCHLUMBERGER                   : Scn          - SERVICE COMPANY
STRT.M        265                            : top_depth    - START DEPTH
STOP.M        485                            : bot_depth    - STOP DEPTH
STEP.M        0.25                           : increment    - STEP LENGTH
 NULL. -999.2500:NULL Value
~CURVE INFORMATION BLOCK
#MNEM UNIT       ERCB CURVE CODE    CURVE DESCRIPTION
#-----------   ------------------   ----------------------------------
DEPT.M        00 001 00 00         : DEPTH        - DEPTH
NPHI.V/V      00 330 00 00         : PHIN         - NEUTRON POROSITY (LIMESTONE)
ILD .OHMM     00 120 00 00         : RESD         - DEEP RESISTIVITY (DIL)
GR  .API      00 310 00 00         : GR           - GAMMA RAY
DPHI.V/V      00 890 00 00         : PHID         - DENSITY POROSITY (LIMESTONE)
~PARAMETER INFORMATION
#MNEM.UNIT           DATA             DESCRIPTION OF MNEMONIC
#---------         -----------     ------------------------------
GL  .M        569.5                : gl           - GROUND LEVEL ELEVATION
EREF.M        572.7                : kb           - ELEVATION OF DEPTH REFERENCE
DATM.M        569.5                : datum        - DATUM ELEVATION
TDD .M        484                  : tdd          - TOTAL DEPTH DRILLER
RUN .         ONE                  : Run          - RUN NUMBER
ENG .         BILL                 : Engineer     - RECORDING ENGINEER
WIT .         JIM                  : Witness      - WITNESSED BY
MUD .         GEL                  : Mud_type     - MUD TYPE
MATR.         LIMESTONE            : Logunit      - NEUTRON MATRIX
TMAX.C        26                   : BHT          - MAXIMUM RECORDED TEMPERATURE
BHTD.M        484                  : BHTDEP       - MAXIMUM RECORDED TEMPERATURE
MATR.         1                    : LOGUNIT      - NEUTRON MATRIX
RMT .C        25                   : MDTP         - TEMPERATURE OF MUD
NEUT.         1                    : NEUTRON      - NEUTRON TYPE
RESI.         0                    : RESIST       - RESISTIVITY TYPE
RMC .OHMM     0.25                 : RMC          - RESISTIVITY OF MUD CAKE
RMF .OHMM     0.25                 : RMF          - RESISTIVITY OF MUD FILTRATE
SUFT.C        15                   : SUFT         - SURFACE TEMPERATURE
~A  DEPTH     PHIN     RESD       GR     PHID
# ...
  395.500    0.355    4.818   97.102    0.264
  395.750    0.368    4.777   91.735    0.267
  396.000    0.397    4.674   87.591    0.269
  396.250    0.398    4.582   89.190    0.266
  396.500    0.374    4.558   93.360    0.257
  396.750    0.360    4.658   96.245    0.233
  397.000    0.351    4.858   96.559    0.217
  397.250    0.350    4.945   99.076    0.214
  397.500    0.360    4.810  104.774    0.213
  397.750    0.378    4.550  108.880    0.217
  398.000    0.406    4.296  114.394    0.225
  398.250    0.437    3.972  117.951    0.235
  398.500    0.468    3.715  118.511    0.239
  398.750    0.441    3.753  115.588    0.233
  399.000    0.429    3.856  114.315    0.226
  399.250    0.425    3.993  116.282    0.219
  399.500    0.428    4.078  116.294    0.219
  399.750    0.436    4.067  114.411    0.220
  400.000    0.450    4.046  112.345    0.216
  400.250    0.458    3.901  111.377    0.212
  400.500    0.458    3.823  108.514    0.204
  400.750    0.440    3.659  103.824    0.195
  401.000    0.450    3.632  102.242    0.187
  401.250    0.466    3.561  101.091    0.190
  401.500    0.480    3.490  105.382    0.209
  401.750    0.470    3.408  110.714    0.222
  402.000    0.458    3.322  113.411    0.223
  402.250    0.451    3.232  117.520    0.221
  402.500    0.445    3.145  118.386    0.220
  402.750    0.434    3.136  115.709    0.217
  403.000    0.421    3.198  112.663    0.215
  403.250    0.412    3.285  108.822    0.214
  403.500    0.405    3.472  103.882    0.217
  403.750    0.401    3.825   98.027    0.225
  404.000    0.396    4.126   95.408    0.238
  404.250    0.405    4.765   92.303    0.242
  404.500    0.415    5.121   90.114    0.222
  404.750    0.406    5.402   88.108    0.200
  405.000    0.398    5.677   85.920    0.183
  405.250    0.410    5.843   85.317    0.193
  405.500    0.409    5.925   85.638    0.214
  405.750    0.332    6.854   85.830    0.218
  406.000    0.297    8.234   86.085    0.149
  406.250    0.270    8.949   86.161    0.116
  406.500    0.265    9.933   85.007    0.111
  406.750    0.282   10.457   79.029    0.183
  407.000    0.317    9.946   76.289    0.225
  407.250    0.346    8.109   78.747    0.245
  407.500    0.370    7.195   80.469    0.256
  407.750    0.390    6.703   82.130    0.234
  408.000    0.398    6.317   82.019    0.198
  408.250    0.389    6.077   85.882    0.177
  408.500    0.380    5.923   93.293    0.173
  408.750    0.381    5.818   96.784    0.177
  409.000    0.385    5.756  103.031    0.180
  409.250    0.382    5.750  107.076    0.179
  409.500    0.373    5.797  106.721    0.170
  409.750    0.353    5.935  105.021    0.157
  410.000    0.355    6.120  103.504    0.145
  410.250    0.349    6.456  102.048    0.124
  410.500    0.325    6.890   93.257    0.108
  410.750    0.301    6.985   88.378    0.108
  411.000    0.322    6.992   88.391    0.131
  411.250    0.348    6.839   91.030    0.152
  411.500    0.368    6.408   98.927    0.170
  411.750    0.359    6.129  105.968    0.184
  412.000    0.353    5.833  111.236    0.197
  412.250    0.362    5.749  106.112    0.187
  412.500    0.376    5.720  102.151    0.189
  412.750    0.368    5.692  100.266    0.200
  413.000    0.355    5.665  103.640    0.209
  413.250    0.349    5.626  108.053    0.215
  413.500    0.374    5.804  112.220    0.216
  413.750    0.390    5.872  114.431    0.209
  414.000    0.397    6.206  105.885    0.190
  414.250    0.396    6.083   91.226    0.154
  414.500    0.385    5.647   75.649    0.133
  414.750    0.374    5.331   79.758    0.152
  415.000    0.377    5.197   87.103    0.192
  415.250    0.384    5.161   95.184    0.207
  415.500    0.375    5.234   98.312    0.189
  415.750    0.358    5.418   95.451    0.170
  416.000    0.341    5.694   93.814    0.167
  416.250    0.322    5.806   93.090    0.178
  416.500    0.318    5.650   91.205    0.161
  416.750    0.337    5.384   90.851    0.150
  417.000    0.347    4.849   91.106    0.169
  417.250    0.354    4.727   95.949    0.193
  417.500    0.366    4.775   99.690    0.210
  417.750    0.366    4.787  101.226    0.217
  418.000    0.372    4.615  102.647    0.214
  418.250    0.384    4.275  102.715    0.214
  418.500    0.391    3.492  104.255    0.216
  418.750    0.391    3.052  109.464    0.221
  419.000    0.405    2.728  113.141    0.227
  419.250    0.421    2.504  117.248    0.232
  419.500    0.442    2.422  118.787    0.234
  419.750    0.436    2.452  118.371    0.228
  420.000    0.430    2.836  117.159    0.198
  420.250    0.425    3.286  107.145    0.143
  420.500    0.392    3.954  100.679    0.118
  420.750    0.356    4.987  103.011    0.113
  421.000    0.335    5.923   99.233    0.067
  421.250    0.320    6.512   94.354    0.048
  421.500    0.301    6.578   94.427    0.075
  421.750    0.287    6.141   98.717    0.123
  422.000    0.313    5.754  104.295    0.160
  422.250    0.353    5.609  105.830    0.187
  422.500    0.369    5.916  107.798    0.188
  422.750    0.356    6.679  103.896    0.176
  423.000    0.336    7.539   94.250    0.149
  423.250    0.310    8.638   85.459    0.110
  423.500    0.287    9.879   77.829    0.082
  423.750    0.265   10.579   77.412    0.063
  424.000    0.263   10.647   81.520    0.081
  424.250    0.284    9.774   84.465    0.118
  424.500    0.310    8.770   87.661    0.145
  424.750    0.336    7.839   88.768    0.157
  425.000    0.344    6.775   90.368    0.148
  425.250    0.336    6.288   91.785    0.139
  425.500    0.333    5.718   98.521    0.132
  425.750    0.341    5.298  109.046    0.158
  426.000    0.351    5.020  116.636    0.173
  426.250    0.358    4.784  121.476    0.179
  426.500    0.367    4.516  118.614    0.180
  426.750    0.406    4.256  114.897    0.181
  427.000    0.433    4.063  116.376    0.175
  427.250    0.418    3.946  119.567    0.171
  427.500    0.402    3.882  121.961    0.164
  427.750    0.400    3.915  120.078    0.159
  428.000    0.418    3.926  114.159    0.155
  428.250    0.406    3.944  114.784    0.164
  428.500    0.398    3.985  116.202    0.174
  428.750    0.396    4.009  116.028    0.178
  429.000    0.389    4.081  113.228    0.179
  429.250    0.382    4.320  112.687    0.180
  429.500    0.378    4.489  113.799    0.179
  429.750    0.405    4.640  113.872    0.164
  430.000    0.408    4.722  108.320    0.149
  430.250    0.389    4.754   95.311    0.132
  430.500    0.374    4.696   98.807    0.133
  430.750    0.361    4.644  105.542    0.161
  431.000    0.378    4.518  112.951    0.176
  431.250    0.386    4.330  116.995    0.182
  431.500    0.395    4.111  118.230    0.185
  431.750    0.395    3.940  118.975    0.177
  432.000    0.391    3.841  117.824    0.163
  432.250    0.385    3.872  112.334    0.151
  432.500    0.378    3.964  109.411    0.142
  432.750    0.385    3.763  113.518    0.166
  433.000    0.405    3.396  119.827    0.183
  433.250    0.414    3.248  124.544    0.195
  433.500    0.422    3.113  128.345    0.195
  433.750    0.418    3.541  130.556    0.183
  434.000    0.410    4.742  126.289    0.164
  434.250    0.375    5.804  114.197    0.145
  434.500    0.335    6.971  100.882    0.114
  434.750    0.298    8.531   83.900    0.069
  435.000    0.275    9.832   79.573    0.111
  435.250    0.280   10.689   84.842    0.139
  435.500    0.299   11.402   80.635    0.163
  435.750    0.298   12.165   73.616    0.176
  436.000    0.292   13.225   71.365    0.193
  436.250    0.292   14.430   73.701    0.223
  436.500    0.303   15.984   75.485    0.246
  436.750    0.310   17.508   76.045    0.253
  437.000    0.320   19.359   71.779    0.249
  437.250    0.313   20.886   67.632    0.229
  437.500    0.306   22.367   64.587    0.182
  437.750    0.295   23.372   62.459    0.165
  438.000    0.286   23.346   61.369    0.190
  438.250    0.278   21.549   61.747    0.215
  438.500    0.309   22.183   64.510    0.222
  438.750    0.323   23.581   66.844    0.210
