~VERSION INFORMATION
 VERS.                 2.0:   CWLS LOG ASCII STANDARD -VERSION 2.0
 WRAP.                  NO:   ONE LINE PER DEPTH STEP
~WELL INFORMATION BLOCK
#MNEM.UNIT           DATA                    DESCRIPTION OF MNEMONIC
#---------    -------------------            -------------------------------
# Generated from Intellog Unique Number	CS_73_76/WELL/3243
WELL.         SIEBENS OIL GAS LID.           : Well_name    - WELL
LOC .         00/10-26-076-09W4/0            : Location     - LOCATION
UWI .         00/10-26-076-09W4/0            : Uwi          - UNIQUE WELL ID
ENTR.         SP                             : Entered      - ENTERED BY
SRVC.         SCHLUMBERGER                   : Scn          - SERVICE COMPANY
STRT.M        240.792                        : top_depth    - START DEPTH
STOP.M        463.042                        : bot_depth    - STOP DEPTH
STEP.M        0.25                           : increment    - STEP LENGTH
 NULL. -999.2500:NULL Value
~CURVE INFORMATION BLOCK
#MNEM UNIT       ERCB CURVE CODE    CURVE DESCRIPTION
#-----------   ------------------   ----------------------------------
DEPT.M        00 001 00 00         : DEPTH        - DEPTH
GR  .API      00 310 00 00         : GR           - GAMMA RAY
DPHI.V/V      00 890 00 00         : PHID         - DENSITY POROSITY (SANDSTONE)
NPHI.V/V      00 330 00 00         : PHIN         - NEUTRON POROSITY (SANDSTONE)
ILD .OHMM     00 120 00 00         : RESD         - DEEP RESISTIVITY (DIL)
~PARAMETER INFORMATION
#MNEM.UNIT           DATA             DESCRIPTION OF MNEMONIC
#---------         -----------     ------------------------------
GL  .M        650.748              : gl           - GROUND LEVEL ELEVATION
EREF.M        654.406              : kb           - ELEVATION OF DEPTH REFERENCE
DATM.M        650.748              : datum        - DATUM ELEVATION
TDD .M        473.659              : tdd          - TOTAL DEPTH DRILLER
RUN .         ONE                  : Run          - RUN NUMBER
ENG .         BILL                 : Engineer     - RECORDING ENGINEER
WIT .         JIM                  : Witness      - WITNESSED BY
MUD .         GEL                  : Mud_type     - MUD TYPE
MATR.         SANDSTONE            : Logunit      - NEUTRON MATRIX
TMAX.C        15.5556              : BHT          - MAXIMUM RECORDED TEMPERATURE
BHTD.M        473.659              : BHTDEP       - MAXIMUM RECORDED TEMPERATURE
MATR.         1                    : LOGUNIT      - NEUTRON MATRIX
RMT .C        25                   : MDTP         - TEMPERATURE OF MUD
NEUT.         1                    : NEUTRON      - NEUTRON TYPE
RESI.         0                    : RESIST       - RESISTIVITY TYPE
RMC .OHMM     0.25                 : RMC          - RESISTIVITY OF MUD CAKE
RMF .OHMM     0.25                 : RMF          - RESISTIVITY OF MUD FILTRATE
SUFT.C        15                   : SUFT         - SURFACE TEMPERATURE
~A  DEPTH       GR     PHID     PHIN     RESD
# ...
  371.292   59.485    0.336    0.462    5.888
  371.542   60.098    0.347    0.474    6.150
  371.792   60.660    0.358    0.466    6.486
  372.042   62.597    0.358    0.455    6.524
  372.292   62.539    0.355    0.458    6.421
  372.542   61.246    0.350    0.470    6.371
  372.792   61.380    0.344    0.470    6.181
  373.042   61.628    0.335    0.457    6.100
  373.292   63.995    0.341    0.460    6.092
  373.542   66.183    0.345    0.459    5.970
  373.792   64.534    0.340    0.452    5.979
  374.042   62.445    0.352    0.466    5.981
  374.292   63.110    0.353    0.482    5.985
  374.542   64.118    0.351    0.472    5.976
  374.792   64.108    0.348    0.478    6.115
  375.042   62.619    0.347    0.475    6.106
  375.292   62.198    0.346    0.461    6.104
  375.542   62.486    0.339    0.453    6.255
  375.792   61.030    0.337    0.447    6.332
  376.042   59.436    0.327    0.455    6.637
  376.292   59.511    0.309    0.444    7.121
  376.542   58.992    0.285    0.413    7.328
  376.792   58.461    0.250    0.348    7.570
  377.042   59.555    0.193    0.324    7.655
  377.292   61.581    0.257    0.417    7.520
  377.542   62.648    0.341    0.421    6.709
  377.792   61.478    0.345    0.435    6.165
  378.042   60.091    0.345    0.451    6.049
  378.292   60.229    0.350    0.463    5.928
  378.542   61.320    0.358    0.464    5.944
  378.792   61.636    0.356    0.454    5.947
  379.042   61.937    0.357    0.443    5.949
  379.292   62.501    0.349    0.456    5.965
  379.542   61.835    0.333    0.448    5.839
  379.792   62.586    0.322    0.439    5.853
  380.042   62.544    0.324    0.432    5.858
  380.292   62.387    0.341    0.444    5.860
  380.542   61.977    0.345    0.456    5.867
  380.792   60.633    0.342    0.459    5.753
  381.042   59.509    0.325    0.456    5.761
  381.292   60.147    0.331    0.445    5.864
  381.542   60.744    0.321    0.435    6.056
  381.792   62.018    0.330    0.449    6.103
  382.042   61.528    0.336    0.457    6.111
  382.292   60.853    0.339    0.455    6.121
  382.542   63.318    0.335    0.448    5.993
  382.792   63.295    0.327    0.452    5.907
  383.042   62.637    0.320    0.451    5.795
  383.292   60.791    0.319    0.460    5.695
  383.542   62.254    0.326    0.470    5.702
  383.792   62.597    0.333    0.478    5.697
  384.042   62.034    0.345    0.469    5.808
  384.292   62.667    0.350    0.471    5.818
  384.542   63.928    0.338    0.477    5.839
  384.792   64.409    0.342    0.471    5.936
  385.042   64.229    0.328    0.467    5.927
  385.292   62.543    0.337    0.468    6.058
  385.542   62.500    0.333    0.455    6.053
  385.792   63.894    0.344    0.448    6.060
  386.042   64.443    0.338    0.456    6.064
  386.292   65.436    0.339    0.471    5.988
  386.542   66.598    0.353    0.483    5.971
  386.792   67.994    0.343    0.479    5.857
  387.042   68.588    0.338    0.472    5.874
  387.292   69.274    0.338    0.465    5.744
  387.542   69.211    0.338    0.463    5.768
  387.792   69.232    0.338    0.468    5.650
  388.042   69.306    0.338    0.469    5.663
  388.292   69.805    0.335    0.468    5.667
  388.542   70.776    0.333    0.478    5.671
  388.792   71.068    0.328    0.492    5.676
  389.042   71.213    0.325    0.500    5.607
  389.292   71.291    0.316    0.489    5.447
  389.542   71.641    0.296    0.479    5.184
  389.792   74.660    0.249    0.462    5.040
  390.042   77.718    0.192    0.450    4.921
  390.292   81.659    0.203    0.438    5.189
  390.542   85.676    0.230    0.454    5.368
  390.792   87.563    0.243    0.456    5.267
  391.042   88.406    0.228    0.481    4.807
  391.292   90.578    0.227    0.508    4.129
  391.542   92.853    0.237    0.533    3.711
  391.792   95.842    0.238    0.544    3.370
  392.042   98.585    0.231    0.524    3.368
  392.292  100.501    0.225    0.478    3.703
  392.542  101.122    0.234    0.468    4.046
  392.792  100.361    0.242    0.469    4.390
  393.042  101.029    0.229    0.476    4.601
  393.292  102.269    0.207    0.480    4.888
  393.542  102.945    0.196    0.483    5.181
  393.792  102.293    0.207    0.489    5.329
  394.042  102.595    0.224    0.491    5.609
  394.292  102.833    0.239    0.460    5.761
  394.542  102.891    0.223    0.431    5.854
  394.792  101.976    0.223    0.426    5.879
  395.042  101.040    0.222    0.448    5.758
  395.292  100.613    0.219    0.463    5.594
  395.542   99.234    0.224    0.473    5.218
  395.792   93.172    0.211    0.476    4.805
  396.042   91.345    0.202    0.478    4.291
  396.292   92.191    0.214    0.474    3.986
  396.542   90.916    0.230    0.475    3.476
  396.792   89.611    0.238    0.493    3.083
  397.042   87.597    0.254    0.519    2.737
  397.292   85.610    0.269    0.550    2.388
  397.542   85.090    0.277    0.581    2.147
  397.792   86.147    0.270    0.567    2.026
  398.042   87.249    0.264    0.545    1.966
  398.292   86.680    0.258    0.542    1.985
  398.542   85.373    0.254    0.559    2.008
  398.792   83.720    0.257    0.566    2.077
  399.042   85.862    0.266    0.574    2.097
  399.292   90.262    0.270    0.584    2.125
  399.542   93.504    0.265    0.572    2.149
  399.792   95.286    0.254    0.561    2.216
  400.042   96.275    0.239    0.555    2.326
  400.292   95.374    0.247    0.549    2.461
  400.542   93.622    0.262    0.541    2.730
  400.792   92.140    0.234    0.529    2.999
  401.042   92.198    0.212    0.495    3.188
  401.292   91.592    0.211    0.460    3.468
  401.542   94.227    0.207    0.469    3.825
  401.792   95.809    0.199    0.469    4.111
  402.042   95.028    0.210    0.448    4.466
  402.292   91.404    0.191    0.436    4.654
  402.542   88.387    0.153    0.425    4.907
  402.792   87.853    0.132    0.428    4.990
  403.042   92.216    0.130    0.440    4.998
  403.292   96.839    0.173    0.461    4.858
  403.542   97.586    0.188    0.467    4.359
  403.792   97.458    0.205    0.477    3.905
  404.042   98.103    0.204    0.488    3.506
  404.292   96.583    0.200    0.491    3.259
  404.542   95.231    0.193    0.487    3.031
  404.792   96.366    0.195    0.491    2.946
  405.042   96.767    0.205    0.486    2.852
  405.292   99.012    0.210    0.490    2.855
  405.542  100.513    0.219    0.497    3.007
  405.792   99.086    0.219    0.497    3.107
  406.042   97.904    0.219    0.505    3.140
  406.292   98.050    0.211    0.514    3.132
  406.542   98.755    0.210    0.519    3.041
  406.792   98.719    0.220    0.519    2.958
  407.042   98.743    0.226    0.518    3.005
  407.292   97.508    0.229    0.527    3.168
  407.542   96.192    0.219    0.515    3.261
  407.792   95.037    0.214    0.510    3.368
  408.042   96.185    0.220    0.521    3.378
  408.292   98.201    0.213    0.526    3.381
  408.542  100.831    0.209    0.522    3.273
  408.792  101.765    0.205    0.517    3.236
  409.042  101.197    0.213    0.530    3.090
  409.292   96.992    0.223    0.535    3.309
  409.542   92.322    0.224    0.544    3.704
  409.792   85.899    0.223    0.511    4.496
  410.042   79.130    0.211    0.477    5.187
  410.292   72.687    0.220    0.426    6.268
  410.542   74.501    0.226    0.406    7.854
  410.792   74.976    0.206    0.407    9.734
  411.042   75.373    0.211    0.401   10.684
  411.292   75.997    0.216    0.409   11.381
  411.542   76.112    0.207    0.405   11.497
  411.792   73.515    0.189    0.411   12.363
  412.042   68.815    0.211    0.417   13.898
  412.292   63.479    0.302    0.421   16.447
  412.542   56.329    0.295    0.417   21.237
  412.792   55.880    0.275    0.411   25.856
  413.042   56.892    0.263    0.399   33.179
  413.292   57.819    0.260    0.402   42.141
  413.542   59.265    0.281    0.403   53.922
  413.792   59.164    0.292    0.412   58.306
  414.042   59.166    0.303    0.415   59.221
  414.292   60.853    0.301    0.412   55.932
  414.542   66.003    0.296    0.409   55.345
