~VERSION INFORMATION
 VERS.                 2.0:   CWLS LOG ASCII STANDARD -VERSION 2.0
 WRAP.                  NO:   ONE LINE PER DEPTH STEP
~WELL INFORMATION BLOCK
#MNEM.UNIT           DATA                    DESCRIPTION OF MNEMONIC
#---------    -------------------            -------------------------------
# Generated from Intellog Unique Number	CS_77_79/WELL/1013
WELL.         CWWE LEISMER                   : Well_name    - WELL
LOC .         00/12-14-079-08W4/0            : Location     - LOCATION
UWI .         00/12-14-079-08W4/0            : Uwi          - UNIQUE WELL ID
ENTR.         JHS                            : Entered      - ENTERED BY
SRVC.         SCHLUMBERGER                   : Scn          - SERVICE COMPANY
STRT.M        155                            : top_depth    - START DEPTH
STOP.M        380                            : bot_depth    - STOP DEPTH
STEP.M        0.25                           : increment    - STEP LENGTH
 NULL. -999.2500:NULL Value
~CURVE INFORMATION BLOCK
#MNEM UNIT       ERCB CURVE CODE    CURVE DESCRIPTION
#-----------   ------------------   ----------------------------------
DEPT.M        00 001 00 00         : DEPTH        - DEPTH
DPHI.V/V      00 890 00 00         : PHID         - DENSITY POROSITY (LIMESTONE)
NPHI.V/V      00 330 00 00         : PHIN         - NEUTRON POROSITY (LIMESTONE)
GR  .API      00 310 00 00         : GR           - GAMMA RAY
ILD .OHMM     00 120 00 00         : RESD         - DEEP RESISTIVITY (DIL)
RHOB.KG/M3    00 350 00 00         : DENS         - BULK DENSITY
~PARAMETER INFORMATION
#MNEM.UNIT           DATA             DESCRIPTION OF MNEMONIC
#---------         -----------     ------------------------------
GL  .M        591.18               : gl           - GROUND LEVEL ELEVATION
EREF.M        595.43               : kb           - ELEVATION OF DEPTH REFERENCE
DATM.M        595.43               : datum        - DATUM ELEVATION
TDD .M        381.3                : tdd          - TOTAL DEPTH DRILLER
RUN .         ONE                  : Run          - RUN NUMBER
ENG .         BILL                 : Engineer     - RECORDING ENGINEER
WIT .         JIM                  : Witness      - WITNESSED BY
MUD .         GEL                  : Mud_type     - MUD TYPE
MATR.         LIMESTONE            : Logunit      - NEUTRON MATRIX
TMAX.C        20                   : BHT          - MAXIMUM RECORDED TEMPERATURE
BHTD.M        381.3                : BHTDEP       - MAXIMUM RECORDED TEMPERATURE
MATR.         1                    : LOGUNIT      - NEUTRON MATRIX
RMT .C        25                   : MDTP         - TEMPERATURE OF MUD
NEUT.         1                    : NEUTRON      - NEUTRON TYPE
RESI.         0                    : RESIST       - RESISTIVITY TYPE
RMC .OHMM     0.25                 : RMC          - RESISTIVITY OF MUD CAKE
RMF .OHMM     0.25                 : RMF          - RESISTIVITY OF MUD FILTRATE
SUFT.C        15                   : SUFT         - SURFACE TEMPERATURE
~A  DEPTH     PHID     PHIN       GR     RESD     DENS
# ...
  228.000    0.301    0.303   70.241   45.038    0.000
  228.250    0.362    0.404   72.679   27.789    0.000
  228.500    0.374    0.390   73.902   20.658    0.000
  228.750    0.370    0.377   74.523   18.490    0.000
  229.000    0.359    0.383   71.511   17.506    0.000
  229.250    0.362    0.407   67.900   17.529    0.000
  229.500    0.375    0.416   70.330   18.224    0.000
  229.750    0.379    0.426   75.789   18.582    0.000
  230.000    0.370    0.438   72.783   18.950    0.000
  230.250    0.357    0.419   69.773   18.968    0.000
  230.500    0.360    0.400   69.179   19.353    0.000
  230.750    0.374    0.412   64.961   19.374    0.000
  231.000    0.361    0.419   66.185   19.752    0.000
  231.250    0.354    0.406   71.643   19.771    0.000
  231.500    0.355    0.398   74.081   19.439    0.000
  231.750    0.361    0.411   68.648   19.451    0.000
  232.000    0.370    0.431   60.803   19.124    0.000
  232.250    0.378    0.446   61.419   19.137    0.000
  232.500    0.384    0.429   64.461   18.806    0.000
  232.750    0.383    0.417   63.267   18.834    0.000
  233.000    0.378    0.410   65.095   18.501    0.000
  233.250    0.376    0.410   68.740   18.528    0.000
  233.500    0.376    0.415   69.359   18.543    0.000
  233.750    0.377    0.423   68.766   18.565    0.000
  234.000    0.379    0.423   68.784   18.247    0.000
  234.250    0.377    0.405   70.613   17.922    0.000
  234.500    0.368    0.391   71.232   17.618    0.000
  234.750    0.366    0.400   71.247   17.630    0.000
  235.000    0.363    0.417   71.260   17.325    0.000
  235.250    0.368    0.425   71.276   17.026    0.000
  235.500    0.375    0.416   70.082   16.732    0.000
  235.750    0.380    0.403   67.069   16.754    0.000
  236.000    0.379    0.391   65.271   16.765    0.000
  236.250    0.380    0.389   70.124   16.784    0.000
  236.500    0.381    0.397   71.957   16.802    0.000
  236.750    0.369    0.398   68.945   16.823    0.000
  237.000    0.357    0.389   64.724   17.484    0.000
  237.250    0.356    0.392   61.715   17.502    0.000
  237.500    0.365    0.420   67.177   17.853    0.000
  237.750    0.373    0.445   67.797   17.870    0.000
  238.000    0.380    0.404   67.203   17.563    0.000
  238.250    0.367    0.386   70.848   17.258    0.000
  238.500    0.337    0.426   75.701   16.642    0.000
  238.750    0.314    0.459   84.183    4.612    0.000
  239.000    0.311    0.494   93.874    3.977    0.000
  239.250    0.317    0.468   96.920    3.495    0.000
  239.500    0.318    0.463   96.331    3.310    0.000
  239.750    0.313    0.482   95.135    3.376    0.000
  240.000    0.313    0.484   95.143    3.640    0.000
  240.250    0.320    0.453   96.972    4.642    0.000
  240.500    0.323    0.437   92.150    5.599    0.000
  240.750    0.324    0.430   86.118    6.627    0.000
  241.000    0.329    0.408   86.734    7.993    0.000
  241.250    0.326    0.393   94.615    9.113    0.000
  241.500    0.318    0.415   98.864   10.395    0.000
  241.750    0.314    0.403  101.295   11.005    0.000
  242.000    0.315    0.376  104.334   11.223    0.000
  242.250    0.314    0.359  100.720   11.236    0.000
  242.500    0.300    0.365   97.714   11.250    0.000
  242.750    0.288    0.409   97.730   11.265    0.000
  243.000    0.280    0.422   98.345   11.067    0.000
  243.250    0.276    0.405  104.412   10.878    0.000
  243.500    0.280    0.394  106.244   10.688    0.000
  243.750    0.284    0.406  106.256   10.504    0.000
  244.000    0.290    0.409  105.662   10.319    0.000
  244.250    0.287    0.366  101.447   10.142    0.000
  244.500    0.278    0.349  103.274   10.149    0.000
  244.750    0.271    0.378  105.106    9.975    0.000
  245.000    0.275    0.422  103.909    9.446    0.000
  245.250    0.288    0.401  104.528    8.941    0.000
  245.500    0.283    0.391  108.173    8.307    0.000
  245.750    0.254    0.421  114.235    7.439    0.000
  246.000    0.242    0.435  119.090    6.660    0.000
  246.250    0.229    0.441  120.922    6.188    0.000
  246.500    0.223    0.450  123.355    5.973    0.000
  246.750    0.226    0.462  126.390    5.867    0.000
  247.000    0.235    0.465  123.985    5.871    0.000
  247.250    0.237    0.448  119.768    5.879    0.000
  247.500    0.233    0.437  120.388    5.997    0.000
  247.750    0.230    0.435  122.819    6.004    0.000
  248.000    0.232    0.441  122.835    6.011    0.000
  248.250    0.236    0.439  120.436    5.907    0.000
  248.500    0.233    0.424  119.239    5.802    0.000
  248.750    0.230    0.417  119.252    5.702    0.000
  249.000    0.230    0.419  121.688    5.500    0.000
  249.250    0.234    0.435  122.908    5.306    0.000
  249.500    0.242    0.449  120.507    5.214    0.000
  249.750    0.247    0.454  119.312    5.122    0.000
  250.000    0.253    0.448  118.723    4.940    0.000
  250.250    0.257    0.453  117.528    4.678    0.000
  250.500    0.258    0.495  116.933    4.512    0.000
  250.750    0.263    0.486  120.579    4.115    0.000
  251.000    0.274    0.475  121.202    3.754    0.000
  251.250    0.276    0.489  121.212    3.489    0.000
  251.500    0.276    0.511  121.229    3.428    0.000
  251.750    0.271    0.511  118.218    3.496    0.000
  252.000    0.268    0.505  116.418    3.632    0.000
  252.250    0.274    0.493  118.851    3.706    0.000
  252.500    0.282    0.487  116.449    3.642    0.000
  252.750    0.276    0.479  114.649    3.577    0.000
  253.000    0.270    0.482  118.292    3.515    0.000
  253.250    0.269    0.495  121.334    3.652    0.000
  253.500    0.280    0.505  120.740    4.167    0.000
  253.750    0.288    0.484  117.125    4.578    0.000
  254.000    0.288    0.457  108.069    4.938    0.000
  254.250    0.278    0.437  105.667    4.851    0.000
  254.500    0.271    0.437  103.867    4.593    0.000
  254.750    0.267    0.452  106.298    4.348    0.000
  255.000    0.266    0.473  111.151    3.966    0.000
  255.250    0.265    0.485  112.983    3.686    0.000
  255.500    0.266    0.500  112.395    3.489    0.000
  255.750    0.275    0.512  113.616    3.430    0.000
  256.000    0.284    0.531  114.843    3.497    0.000
  256.250    0.293    0.503  115.462    3.568    0.000
  256.500    0.294    0.483  116.080    3.706    0.000
  256.750    0.294    0.470  113.674    3.923    0.000
  257.000    0.294    0.483  109.460    4.394    0.000
  257.250    0.288    0.474  106.445    4.737    0.000
  257.500    0.280    0.463  101.622    5.205    0.000
  257.750    0.274    0.450  100.429    5.719    0.000
  258.000    0.272    0.423  102.863    6.168    0.000
  258.250    0.276    0.430  105.295    6.653    0.000
  258.500    0.285    0.471  101.076    7.047    0.000
  258.750    0.285    0.465   97.466    7.184    0.000
  259.000    0.269    0.442   96.271    7.327    0.000
  259.250    0.261    0.407   96.285    7.336    0.000
  259.500    0.255    0.403   95.691    7.207    0.000
  259.750    0.250    0.415   93.895    7.081    0.000
  260.000    0.252    0.415   95.121    6.958    0.000
  260.250    0.251    0.426   96.339    7.508    0.000
  260.500    0.251    0.416   94.541    7.797    0.000
  260.750    0.265    0.402   94.554    8.413    0.000
  261.000    0.261    0.408   98.804    8.740    0.000
  261.250    0.254    0.404   95.797    9.251    0.000
  261.500    0.269    0.396   90.970    9.613    0.000
  261.750    0.280    0.407   88.571    9.989    0.000
  262.000    0.287    0.430   89.194   10.001    0.000
  262.250    0.286    0.422   88.595   10.202    0.000
  262.500    0.284    0.413   86.797   10.603    0.000
  262.750    0.281    0.406   84.996   10.610    0.000
  263.000    0.279    0.416   85.616   10.820    0.000
  263.250    0.276    0.426   88.658   10.834    0.000
  263.500    0.276    0.428   86.252   10.845    0.000
  263.750    0.280    0.416   84.454   10.656    0.000
  264.000    0.283    0.400   84.468   10.281    0.000
  264.250    0.276    0.393   86.294    9.914    0.000
