~VERSION INFORMATION
 VERS.                 2.0:   CWLS LOG ASCII STANDARD -VERSION 2.0
 WRAP.                  NO:   ONE LINE PER DEPTH STEP
~WELL INFORMATION BLOCK
#MNEM.UNIT           DATA                    DESCRIPTION OF MNEMONIC
#---------    -------------------            -------------------------------
# Generated from Intellog Unique Number	CS_69_70/WELL/873
WELL.         ET AL HEART LAKE               : Well_name    - WELL
LOC .         00/10-29-069-10W4/0            : Location     - LOCATION
UWI .         00/10-29-069-10W4/0            : Uwi          - UNIQUE WELL ID
ENTR.         SP                             : Entered      - ENTERED BY
SRVC.         SCHLUMBERGER                   : Scn          - SERVICE COMPANY
STRT.M        250                            : top_depth    - START DEPTH
STOP.M        460                            : bot_depth    - STOP DEPTH
STEP.M        0.25                           : increment    - STEP LENGTH
 NULL. -999.2500:NULL Value
~CURVE INFORMATION BLOCK
#MNEM UNIT       ERCB CURVE CODE    CURVE DESCRIPTION
#-----------   ------------------   ----------------------------------
DEPT.M        00 001 00 00         : DEPTH        - DEPTH
ILD .OHMM     00 120 00 00         : RESD         - DEEP RESISTIVITY (DIL)
DPHI.V/V      00 890 00 00         : PHID         - DENSITY POROSITY (LIMESTONE)
NPHI.V/V      00 330 00 00         : PHIN         - NEUTRON POROSITY (LIMESTONE)
GR  .API      00 310 00 00         : GR           - GAMMA RAY
~PARAMETER INFORMATION
#MNEM.UNIT           DATA             DESCRIPTION OF MNEMONIC
#---------         -----------     ------------------------------
GL  .M        598                  : gl           - GROUND LEVEL ELEVATION
EREF.M        601.5                : kb           - ELEVATION OF DEPTH REFERENCE
DATM.M        598                  : datum        - DATUM ELEVATION
TDD .M        500                  : tdd          - TOTAL DEPTH DRILLER
RUN .         ONE                  : Run          - RUN NUMBER
ENG .         BILL                 : Engineer     - RECORDING ENGINEER
WIT .         JIM                  : Witness      - WITNESSED BY
MUD .         GEL                  : Mud_type     - MUD TYPE
MATR.         LIMESTONE            : Logunit      - NEUTRON MATRIX
TMAX.C        22                   : BHT          - MAXIMUM RECORDED TEMPERATURE
BHTD.M        500                  : BHTDEP       - MAXIMUM RECORDED TEMPERATURE
MATR.         1                    : LOGUNIT      - NEUTRON MATRIX
RMT .C        25                   : MDTP         - TEMPERATURE OF MUD
NEUT.         1                    : NEUTRON      - NEUTRON TYPE
RESI.         0                    : RESIST       - RESISTIVITY TYPE
RMC .OHMM     0.25                 : RMC          - RESISTIVITY OF MUD CAKE
RMF .OHMM     0.25                 : RMF          - RESISTIVITY OF MUD FILTRATE
SUFT.C        15                   : SUFT         - SURFACE TEMPERATURE
~A  DEPTH     RESD     PHID     PHIN       GR
# ...
  380.500    3.938    0.313    0.503   72.766
  380.750    4.114    0.322    0.480   70.760
  381.000    4.296    0.320    0.466   70.754
  381.250    4.421    0.316    0.453   71.896
  381.500    4.523    0.312    0.487   73.461
  381.750    4.636    0.315    0.493   73.635
  382.000    4.708    0.318    0.468   71.329
  382.250    4.737    0.321    0.448   68.295
  382.500    4.739    0.323    0.435   66.109
  382.750    4.706    0.324    0.427   72.334
  383.000    4.672    0.328    0.440   78.498
  383.250    4.623    0.327    0.455   82.847
  383.500    4.616    0.311    0.464   80.903
  383.750    4.609    0.294    0.458   80.107
  384.000    4.610    0.278    0.449   80.706
  384.250    4.621    0.263    0.440   82.150
  384.500    4.649    0.258    0.443   81.840
  384.750    4.864    0.257    0.456   80.017
  385.000    5.304    0.251    0.466   77.588
  385.250    5.741    0.101    0.465   71.894
  385.500    6.354    0.050    0.354   61.176
  385.750    6.775    0.024    0.250   53.545
  386.000    7.076    0.117    0.227   67.332
  386.250    6.151    0.173    0.350   76.159
  386.500    5.520    0.216    0.380   79.902
  386.750    4.982    0.235    0.400   81.285
  387.000    4.651    0.245    0.409   81.520
  387.250    4.465    0.235    0.429   81.088
  387.500    4.311    0.229    0.456   80.840
  387.750    4.264    0.229    0.452   80.893
  388.000    4.211    0.229    0.427   81.066
  388.250    4.204    0.221    0.428   81.482
  388.500    4.230    0.215    0.442   83.049
  388.750    4.263    0.210    0.429   85.158
  389.000    4.273    0.220    0.419   83.153
  389.250    4.307    0.224    0.422   81.391
  389.500    4.325    0.220    0.432   81.444
  389.750    4.311    0.220    0.442   81.860
  390.000    4.328    0.216    0.448   81.305
  390.250    4.347    0.211    0.440   80.331
  390.500    4.389    0.214    0.430   79.114
  390.750    4.483    0.218    0.428   75.716
  391.000    4.535    0.220    0.425   73.471
  391.250    4.512    0.222    0.424   78.969
  391.500    4.291    0.228    0.435   83.621
  391.750    4.073    0.237    0.448   84.884
  392.000    3.926    0.246    0.448   83.545
  392.250    3.833    0.252    0.461   83.115
  392.500    3.784    0.256    0.457   84.679
  392.750    3.779    0.255    0.472   86.548
  393.000    3.794    0.252    0.478   85.572
  393.250    3.882    0.250    0.466   87.379
  393.500    3.965    0.247    0.455   88.824
  393.750    4.027    0.244    0.459   89.361
  394.000    4.058    0.243    0.462   87.840
  394.250    4.067    0.245    0.466   89.104
  394.500    4.031    0.247    0.477   92.121
  394.750    3.936    0.241    0.474   93.808
  395.000    3.793    0.238    0.466   90.956
  395.250    3.514    0.238    0.462   88.831
  395.500    3.311    0.228    0.475   90.820
  395.750    3.102    0.229    0.494   93.898
  396.000    2.923    0.238    0.520   96.734
  396.250    2.744    0.247    0.542   98.964
  396.500    2.634    0.254    0.549  100.107
  396.750    2.487    0.250    0.532  101.128
  397.000    2.261    0.239    0.518  101.664
  397.250    2.048    0.234    0.508  101.596
  397.500    1.877    0.238    0.526  100.742
  397.750    1.729    0.249    0.535   99.101
  398.000    1.688    0.259    0.542   98.185
  398.250    1.727    0.264    0.570   97.388
  398.500    1.794    0.257    0.585   97.261
  398.750    1.839    0.251    0.592   97.255
  399.000    1.888    0.245    0.571   96.400
  399.250    1.946    0.237    0.542   93.912
  399.500    2.037    0.235    0.517   91.967
  399.750    2.180    0.248    0.516   91.536
  400.000    2.307    0.252    0.544   93.645
  400.250    2.441    0.245    0.562   93.638
  400.500    2.687    0.247    0.515   88.667
  400.750    2.785    0.255    0.482   86.603
  401.000    2.931    0.263    0.466   84.296
  401.250    3.090    0.260    0.469   83.502
  401.500    3.197    0.250    0.451   85.853
  401.750    3.284    0.247    0.454   88.509
  402.000    3.391    0.247    0.472   87.775
  402.250    3.509    0.250    0.470   86.013
  402.500    3.651    0.246    0.457   85.159
  402.750    3.821    0.239    0.449   84.484
  403.000    3.909    0.232    0.447   84.478
  403.250    3.985    0.231    0.446   86.164
  403.500    3.986    0.239    0.447   88.273
  403.750    3.929    0.250    0.446   88.267
  404.000    3.894    0.257    0.449   84.627
  404.250    3.888    0.262    0.459   83.228
  404.500    4.053    0.255    0.452   82.314
  404.750    4.495    0.238    0.459   79.220
  405.000    4.919    0.090    0.477   73.584
  405.250    5.334    0.071    0.348   68.252
  405.500    5.741    0.062    0.256   64.312
  405.750    6.052    0.123    0.233   69.266
  406.000    5.821    0.174    0.292   80.391
  406.250    5.215    0.209    0.436   85.285
  406.500    4.804    0.228    0.463   88.484
  406.750    4.527    0.236    0.451   91.199
  407.000    4.305    0.235    0.442   89.981
  407.250    4.141    0.238    0.437   86.766
  407.500    4.043    0.241    0.441   88.029
  407.750    3.947    0.235    0.436   91.108
  408.000    3.883    0.229    0.429   94.126
  408.250    3.863    0.222    0.426   93.876
  408.500    3.857    0.214    0.427   90.357
  408.750    3.837    0.227    0.446   89.442
  409.000    3.832    0.232    0.473   89.436
  409.250    3.841    0.233    0.458   90.880
  409.500    3.835    0.233    0.447   92.203
  409.750    3.844    0.231    0.456   93.164
  410.000    3.852    0.229    0.452   91.824
  410.250    3.891    0.225    0.445   91.213
  410.500    3.921    0.225    0.440   93.504
  410.750    3.990    0.232    0.431  104.993
  411.000    4.059    0.233    0.421  116.603
  411.250    4.184    0.195    0.450  122.343
  411.500    4.265    0.142    0.425  102.126
  411.750    4.323    0.125    0.392   90.078
  412.000    4.237    0.180    0.378   87.225
  412.250    3.831    0.222    0.423   82.559
  412.500    3.543    0.248    0.442   77.711
  412.750    3.338    0.269    0.454   75.524
  413.000    3.253    0.264    0.447   82.475
  413.250    3.248    0.254    0.438   89.305
  413.500    3.299    0.246    0.438   85.061
  413.750    3.413    0.241    0.440   85.901
  414.000    3.525    0.240    0.437   88.373
  414.250    3.647    0.236    0.428   89.213
  414.500    3.760    0.231    0.421   89.448
  414.750    3.804    0.226    0.436   88.714
  415.000    3.439    0.241    0.429   85.196
  415.250    3.052    0.254    0.419   83.072
  415.500    2.709    0.268    0.443   81.067
  415.750    2.272    0.261    0.492   84.446
  416.000    1.979    0.252    0.516   86.920
  416.250    1.793    0.248    0.502   83.100
  416.500    1.699    0.253    0.515   80.855
  416.750    1.738    0.256    0.533   84.115
  417.000    1.805    0.255    0.542   85.618
  417.250    1.903    0.262    0.543   85.611
  417.500    2.048    0.282    0.516   84.938
  417.750    2.238    0.287    0.479   84.144
  418.000    2.390    0.260    0.469   82.986
  418.250    2.563    0.224    0.478   81.224
  418.500    2.763    0.196    0.462   80.551
  418.750    3.008    0.181    0.446   75.400
  419.000    3.177    0.209    0.437   75.574
  419.250    3.244    0.242    0.450   80.226
  419.500    3.132    0.270    0.467   81.368
  419.750    2.996    0.253    0.473   77.850
  420.000    2.860    0.243    0.460   79.658
  420.250    2.766    0.259    0.465   83.220
  420.500    2.783    0.266    0.466   84.181
  420.750    2.880    0.271    0.454   78.546
  421.000    3.002    0.277    0.443   79.808
  421.250    3.165    0.230    0.434   82.705
  421.500    3.318    0.145    0.434   84.331
  421.750    3.388    0.119    0.421   85.413
  422.000    3.460    0.148    0.407   90.306
  422.250    3.423    0.187    0.413   93.263
  422.500    3.244    0.212    0.423   91.320
  422.750    3.022    0.214    0.428   87.983
  423.000    2.774    0.207    0.448   92.332
  423.250    2.589    0.212    0.477   96.680
  423.500    2.444    0.218    0.505   99.094
  423.750    2.369    0.223    0.514  101.325
