~VERSION INFORMATION
 VERS.                 2.0:   CWLS LOG ASCII STANDARD -VERSION 2.0
 WRAP.                  NO:   ONE LINE PER DEPTH STEP
~WELL INFORMATION BLOCK
#MNEM.UNIT           DATA                    DESCRIPTION OF MNEMONIC
#---------    -------------------            -------------------------------
# Generated from Intellog Unique Number	CW_73_75/WELL/2742
WELL.         SUNCOR MITSUE 10-20            : Well_name    - WELL
LOC .         00/10-20-073-04W5/0            : Location     - LOCATION
UWI .         00/10-20-073-04W5/0            : Uwi          - UNIQUE WELL ID
ENTR.         JAYE                           : Entered      - ENTERED BY
SRVC.         SCHLUMBERGER                   : Scn          - SERVICE COMPANY
DATE.         28 JAN 81                      : Date         - LOG DATE
STRT.M        350                            : top_depth    - START DEPTH
STOP.M        565                            : bot_depth    - STOP DEPTH
STEP.M        0.25                           : increment    - STEP LENGTH
 NULL. -999.2500:NULL Value
~CURVE INFORMATION BLOCK
#MNEM UNIT       ERCB CURVE CODE    CURVE DESCRIPTION
#-----------   ------------------   ----------------------------------
DEPT.M        00 001 00 00         : DEPTH        - DEPTH
DPHI.V/V      00 890 00 00         : PHID         - DENSITY POROSITY (SANDSTONE)
NPHI.V/V      00 330 00 00         : PHIN         - NEUTRON POROSITY (SANDSTONE)
GR  .API      00 310 00 00         : GR           - GAMMA RAY
CALI.MM       00 280 01 00         : CAL          - CALIPER
ILD .OHMM     00 120 00 00         : RESD         - DEEP RESISTIVITY (DIL)
~PARAMETER INFORMATION
#MNEM.UNIT           DATA             DESCRIPTION OF MNEMONIC
#---------         -----------     ------------------------------
GL  .M        582.23               : gl           - GROUND LEVEL ELEVATION
EREF.M        586.56               : kb           - ELEVATION OF DEPTH REFERENCE
DATM.M        582.23               : datum        - DATUM ELEVATION
TDD .M        1628                 : tdd          - TOTAL DEPTH DRILLER
RUN .         ONE                  : Run          - RUN NUMBER
MUD .         GEL CHEM             : Mud_type     - MUD TYPE
MATR.         SANDSTONE            : Logunit      - NEUTRON MATRIX
TMAX.C        46.4                 : BHT          - MAXIMUM RECORDED TEMPERATURE
BHTD.M        1626.5               : BHTDEP       - MAXIMUM RECORDED TEMPERATURE
RMT .C        15                   : MDTP         - TEMPERATURE OF MUD
MUDD.KG/M     0                    : MWT          - MUD DENSITY
NEUT.         1                    : NEUTRON      - NEUTRON TYPE
RESI.         0                    : RESIST       - RESISTIVITY TYPE
RM  .OHMM     1.7                  : RM           - RESISTIVITY OF MUD
RMC .OHMM     0                    : RMC          - RESISTIVITY OF MUD CAKE
RMF .OHMM     1.28                 : RMF          - RESISTIVITY OF MUD FILTRATE
SUFT.C        0                    : SUFT         - SURFACE TEMPERATURE
~A  DEPTH     PHID     PHIN       GR      CAL     RESD
# ...
  532.500    0.217    0.392   66.831  304.836    9.628
  532.750    0.237    0.400   69.034  304.877    9.332
  533.000    0.258    0.403   69.554  305.012    9.236
  533.250    0.248    0.405   71.382  305.361    9.246
  533.500    0.237    0.388   73.645  306.122    9.359
  533.750    0.222    0.355   74.913  307.193    9.657
  534.000    0.200    0.336   71.445  308.575   10.041
  534.250    0.175    0.322   68.972  309.547   10.478
  534.500    0.152    0.320   67.372  309.165   10.976
  534.750    0.123    0.323   63.093  307.748   11.411
  535.000    0.129    0.320   64.485  306.225   11.510
  535.250    0.135    0.308   68.932  304.910   11.499
  535.500    0.125    0.302   72.195  303.490   10.999
  535.750    0.118    0.305   75.767  303.108    9.625
  536.000    0.114    0.309   80.959  303.458    8.469
  536.250    0.132    0.334   82.601  304.843    7.190
  536.500    0.156    0.364   82.935  306.849    6.279
  536.750    0.184    0.429   85.448  310.933    5.546
  537.000    0.234    0.400   90.391  318.551    5.002
  537.250    0.199    0.409   99.199  317.027    4.486
  537.500    0.216    0.428   94.173  329.629    4.116
  537.750    0.290    0.449   89.082  345.765    4.255
  538.000    0.355    0.474   86.487  354.004    4.542
  538.250    0.311    0.448   87.940  332.124    4.914
  538.500    0.248    0.381   88.584  318.446    5.449
  538.750    0.203    0.358   84.679  309.655    5.917
  539.000    0.179    0.324   81.522  305.739    6.365
  539.250    0.167    0.339   78.675  302.037    6.667
  539.500    0.155    0.360   79.631  302.385    6.763
  539.750    0.153    0.377   85.323  305.847    6.757
  540.000    0.171    0.385   91.328  307.962    6.738
  540.250    0.181    0.378   90.726  308.519    6.719
  540.500    0.182    0.368   91.306  308.236    6.676
  540.750    0.185    0.369   92.075  304.426    6.632
  541.000    0.191    0.383   90.415  300.929    6.650
  541.250    0.192    0.378   88.440  299.203    6.771
  541.500    0.194    0.382   84.909  298.609    7.229
  541.750    0.207    0.384   82.376  296.254    8.016
  542.000    0.193    0.360   80.587  292.344    8.689
  542.250    0.161    0.336   77.305  294.669    8.880
  542.500    0.139    0.318   72.589  297.087    8.366
  542.750    0.139    0.341   75.352  300.549    7.504
  543.000    0.158    0.375   84.721  304.739    6.884
  543.250    0.169    0.365   87.111  309.763    6.400
  543.500    0.172    0.368   83.205  312.808    6.180
  543.750    0.178    0.377   81.543  315.436    6.035
  544.000    0.174    0.384   81.939  318.275    6.041
  544.250    0.170    0.382   83.457  310.624    6.186
  544.500    0.168    0.377   84.972  306.197    6.382
  544.750    0.164    0.375   87.861  305.087    6.560
  545.000    0.170    0.377   89.313  303.981    6.568
  545.250    0.178    0.376   86.467  303.705    6.536
  545.500    0.174    0.361   86.363  304.048    6.457
  545.750    0.162    0.351   88.067  304.603    6.378
  546.000    0.166    0.382   84.350  307.130    6.507
  546.250    0.154    0.396   78.449  314.123    6.739
  546.500    0.131    0.353   78.781  310.730    7.127
  546.750    0.141    0.331   81.607  306.817    7.395
  547.000    0.157    0.336   86.241  309.038    7.291
  547.250    0.145    0.342   89.377  312.082    7.148
  547.500    0.137    0.340   86.406  318.140    6.325
  547.750    0.188    0.341   87.551  327.939    4.931
  548.000    0.353    0.365   91.807  340.750    3.793
  548.250    0.400    0.400   93.822  358.856    2.820
  548.500    0.472    0.548   88.358  380.706    2.069
  548.750    0.530    0.586   80.902  387.594    1.603
  549.000    0.586    0.606   73.881  365.609    1.408
  549.250    0.577    0.624   71.220  354.323    1.337
  549.500    0.539    0.589   74.545  319.560    1.308
  549.750    0.553    0.584   74.316  340.888    1.309
  550.000    0.563    0.606   68.666  380.289    1.336
  550.250    0.511    0.627   68.189  390.714    1.389
  550.500    0.482    0.601   71.014  381.917    1.480
  550.750    0.518    0.549   73.278  365.748    1.653
  551.000    0.557    0.568   75.917  377.107    1.868
  551.250    0.438    0.563   78.743  361.766    2.290
  551.500    0.366    0.532   82.440  301.351    3.069
  551.750    0.413    0.494   85.016  323.614    3.975
  552.000    0.437    0.421   77.869  372.154    5.188
  552.250    0.408    0.374   72.905  344.664    5.862
  552.500    0.562    0.463   73.237  335.766    5.758
  552.750    0.561    0.525   71.076  416.818    5.374
  553.000    0.507    0.551   70.723  446.872    5.159
  553.250    0.453    0.587   74.112  400.684    5.155
  553.500    0.432    0.435   76.126  347.434    5.288
  553.750    0.504    0.419   77.206  366.685    5.477
  554.000    0.543    0.448   78.473  388.532    5.493
  554.250    0.507    0.498   78.867  395.318    5.488
  554.500    0.435    0.515   76.584  341.964    5.557
  554.750    0.430    0.529   76.104  356.230    5.690
  555.000    0.323    0.520   76.688  367.586    5.916
  555.250    0.279    0.416   77.393  327.630    6.058
  555.500    0.409    0.437   79.283  362.359    5.696
  555.750    0.479    0.485   79.554  412.250    5.041
  556.000    0.473    0.541   79.387  404.496    4.419
  556.250    0.416    0.536   82.648  378.977    3.911
  556.500    0.372    0.537   87.781  361.147    3.595
  556.750    0.346    0.533   91.852  316.829    3.795
  557.000    0.347    0.523   85.890  262.436    4.337
  557.250    0.343    0.477   88.717  245.859    4.736
  557.500    0.289    0.404   92.602  251.184    5.095
  557.750    0.183    0.368   96.735  271.577    5.440
  558.000    0.152    0.352   99.249  296.438    5.570
  558.250    0.121    0.376   98.023  312.261    5.683
  558.500    0.160    0.394   92.747  355.400    5.742
  558.750    0.207    0.402   93.515  354.812    5.903
  559.000    0.147    0.386   95.841  297.823    6.278
  559.250    0.169    0.377   97.669  284.771    6.856
  559.500    0.184    0.365   92.643  283.558    7.128
  559.750    0.157    0.352   90.357  275.492    7.121
  560.000    0.135    0.342   91.501  266.697    6.902
  560.250    0.211    0.377   95.385  272.653    6.640
  560.500    0.240    0.396  100.830  283.801    6.267
  560.750    0.194    0.409  103.902  288.096    5.782
  561.000    0.273    0.418   97.380  289.273    5.480
  561.250    0.359    0.445   96.964  287.543    5.453
  561.500    0.243    0.494   95.988  280.512    6.511
  561.750    0.175    0.493   88.841  269.121    7.670
  562.000    0.106    0.343   66.052  257.731   10.200
  562.250    0.080    0.241   38.464  243.224   14.359
  562.500    0.064    0.131   26.083  237.340   19.986
  562.750    0.046    0.115   26.979  234.881   25.210
  563.000    0.029    0.116   29.492  233.046   27.846
  563.250    0.012    0.116   26.084  231.944   29.282
  563.500    0.011    0.110   24.110  231.560   28.383
  563.750    0.035    0.112   24.692  231.703   26.539
  564.000    0.043    0.120   26.398  231.838   24.861
  564.250    0.046    0.129   27.103  231.561   23.732
  564.500    0.033    0.129   26.935  231.491   22.872
  564.750    0.023    0.123   24.777  231.729   22.176
  565.000    0.022    0.117   22.864  232.395   21.904
