~VERSION INFORMATION
 VERS.                 2.0:   CWLS LOG ASCII STANDARD -VERSION 2.0
 WRAP.                  NO:   ONE LINE PER DEPTH STEP
~WELL INFORMATION BLOCK
#MNEM.UNIT           DATA                    DESCRIPTION OF MNEMONIC
#---------    -------------------            -------------------------------
# Generated from Intellog Unique Number	CW_79_81/WELL/2467
WELL.         10-15-081-19W4                 : Well_name    - WELL
LOC .         00/10-15-081-19W4/0            : Location     - LOCATION
UWI .         00/10-15-081-19W400            : Uwi          - UNIQUE WELL ID
ENTR.         MAX                            : Entered      - ENTERED BY
SRVC.         SCHLUMBERGER                   : Scn          - SERVICE COMPANY
STRT.M        167.64                         : top_depth    - START DEPTH
STOP.M        365.64                         : bot_depth    - STOP DEPTH
STEP.M        0.25                           : increment    - STEP LENGTH
 NULL. -999.2500:NULL Value
~CURVE INFORMATION BLOCK
#MNEM UNIT       ERCB CURVE CODE    CURVE DESCRIPTION
#-----------   ------------------   ----------------------------------
DEPT.M        00 001 00 00         : DEPTH        - DEPTH
ILD .OHMM     00 120 00 00         : RESD         - DEEP RESISTIVITY (DIL)
NPHI.V/V      00 330 00 00         : PHIN         - NEUTRON POROSITY (SANDSTONE)
DPHI.V/V      00 890 00 00         : PHID         - DENSITY POROSITY (SANDSTONE)
GR  .API      00 310 00 00         : GR           - GAMMA RAY
CALI.MM       00 280 01 00         : CAL          - CALIPER
~PARAMETER INFORMATION
#MNEM.UNIT           DATA             DESCRIPTION OF MNEMONIC
#---------         -----------     ------------------------------
GL  .M        576.377              : gl           - GROUND LEVEL ELEVATION
EREF.M        578.815              : kb           - ELEVATION OF DEPTH REFERENCE
DATM.M        576.377              : datum        - DATUM ELEVATION
TDD .M        373.99               : tdd          - TOTAL DEPTH DRILLER
RUN .         ONE                  : Run          - RUN NUMBER
ENG .         BILL                 : Engineer     - RECORDING ENGINEER
WIT .         JIM                  : Witness      - WITNESSED BY
MUD .         GEL                  : Mud_type     - MUD TYPE
MATR.         SANDSTONE            : Logunit      - NEUTRON MATRIX
TMAX.C        20                   : BHT          - MAXIMUM RECORDED TEMPERATURE
BHTD.M        373.99               : BHTDEP       - MAXIMUM RECORDED TEMPERATURE
MATR.         1                    : LOGUNIT      - NEUTRON MATRIX
RMT .C        15.5556              : MDTP         - TEMPERATURE OF MUD
NEUT.         1                    : NEUTRON      - NEUTRON TYPE
RESI.         0                    : RESIST       - RESISTIVITY TYPE
RMC .OHMM     7.16                 : RMC          - RESISTIVITY OF MUD CAKE
RMF .OHMM     8.11                 : RMF          - RESISTIVITY OF MUD FILTRATE
SUFT.C        -20                  : SUFT         - SURFACE TEMPERATURE
~A  DEPTH     RESD     PHIN     PHID       GR      CAL
# ...
  240.640   11.618    0.489    0.355   55.864  158.157
  240.890   11.745    0.491    0.356   58.289  159.127
  241.140   12.005    0.487    0.342   58.977  160.297
  241.390   12.172    0.481    0.350   57.333  161.429
  241.640   12.274    0.475    0.353   55.341  162.268
  241.890   12.355    0.472    0.350   54.274  162.618
  242.140   12.437    0.470    0.344   54.768  162.572
  242.390   12.592    0.466    0.342   56.910  162.508
  242.640   12.969    0.459    0.348   57.366  162.469
  242.890   13.338    0.452    0.338   56.413  162.422
  243.140   13.720    0.452    0.335   55.114  162.376
  243.390   14.214    0.461    0.327   54.162  162.522
  243.640   14.888    0.466    0.309   53.499  162.865
  243.890   15.979    0.427    0.272   51.493  163.285
  244.140   17.095    0.363    0.213   47.367  163.639
  244.390   18.224    0.331    0.169   46.879  163.993
  244.640   18.218    0.386    0.170   48.816  163.159
  244.890   17.550    0.423    0.181   50.866  161.937
  245.140   16.705    0.418    0.183   51.762  161.310
  245.390   15.889    0.436    0.178   51.270  162.590
  245.640   15.408    0.467    0.208   51.244  163.353
  245.890   15.066    0.473    0.192   54.687  162.523
  246.140   14.732    0.477    0.219   62.810  162.280
  246.390   14.404    0.485    0.261   69.605  162.429
  246.640   14.187    0.494    0.298   73.105  162.676
  246.890   14.509    0.490    0.320   76.203  162.458
  247.140   15.763    0.473    0.298   80.269  161.604
  247.390   18.034    0.446    0.265   77.929  160.382
  247.640   22.233    0.418    0.224   67.439  160.332
  247.890   28.178    0.320    0.137   54.462  161.262
  248.140   34.394    0.186    0.033   44.028  162.586
  248.390   36.525    0.150    0.004   40.525  163.397
  248.640   31.233    0.149    0.009   40.494  163.747
  248.890   24.976    0.154    0.040   41.619  163.709
  249.140   20.995    0.190    0.103   43.445  163.074
  249.390   18.322    0.277    0.164   46.424  161.853
  249.640   16.450    0.386    0.210   49.806  160.244
  249.890   14.873    0.443    0.264   51.673  158.382
  250.140   13.894    0.454    0.312   51.885  157.110
  250.390   13.193    0.462    0.313   50.011  157.058
  250.640   12.881    0.460    0.310   51.431  157.300
  250.890   12.825    0.458    0.310   53.136  157.058
  251.140   12.886    0.460    0.313   53.626  156.330
  251.390   12.894    0.473    0.315   52.856  155.886
  251.640   12.983    0.482    0.309   52.586  155.832
  251.890   12.973    0.484    0.314   53.252  155.790
  252.140   12.965    0.486    0.314   53.572  155.748
  252.390   12.956    0.485    0.313   53.891  155.704
  252.640   12.946    0.484    0.311   54.383  155.657
  252.890   12.936    0.480    0.307   55.044  155.681
  253.140   12.927    0.480    0.314   55.018  156.035
  253.390   12.824    0.475    0.314   57.072  156.385
  253.640   12.792    0.469    0.313   58.084  156.437
  253.890   12.783    0.464    0.311   58.982  156.584
  254.140   12.774    0.460    0.309   60.283  156.923
  254.390   12.764    0.458    0.305   62.630  157.252
  254.640   12.754    0.471    0.307   65.250  157.223
  254.890   12.747    0.466    0.301   65.685  157.167
  255.140   12.737    0.471    0.302   64.731  157.125
  255.390   12.729    0.473    0.305   64.357  157.083
  255.640   12.720    0.469    0.307   65.085  157.033
  255.890   12.690    0.470    0.307   65.540  157.051
  256.140   12.583    0.469    0.300   63.343  157.420
  256.390   12.577    0.470    0.301   64.241  158.156
  256.640   12.569    0.468    0.302   63.055  158.298
  256.890   12.515    0.467    0.303   61.873  158.254
  257.140   12.415    0.467    0.303   61.559  158.217
  257.390   12.315    0.468    0.301   62.092  158.160
  257.640   12.306    0.472    0.293   63.752  158.106
  257.890   12.298    0.477    0.300   65.572  158.456
  258.140   12.155    0.475    0.305   65.663  158.504
  258.390   12.059    0.474    0.309   65.407  158.453
  258.640   12.029    0.476    0.313   66.188  158.403
  258.890   11.933    0.484    0.320   69.296  158.347
  259.140   11.924    0.489    0.320   68.785  158.303
  259.390   11.831    0.488    0.315   69.454  158.257
  259.640   11.737    0.480    0.311   70.986  158.213
  259.890   11.644    0.476    0.306   71.997  158.169
  260.140   11.467    0.479    0.300   72.547  158.123
  260.390   11.053    0.482    0.295   74.135  158.081
  260.640   10.365    0.488    0.277   73.818  158.512
  260.890   10.280    0.488    0.284   71.137  158.463
  261.140   10.426    0.481    0.297   70.583  157.828
  261.390   10.685    0.476    0.298   70.441  157.389
  261.640   10.933    0.477    0.288   69.950  157.346
  261.890   11.005    0.485    0.285   68.764  157.299
  262.140   10.996    0.490    0.300   68.736  157.235
  262.390   10.987    0.483    0.297   70.628  157.191
  262.640   11.041    0.475    0.288   72.378  157.144
  262.890   11.074    0.474    0.281   74.663  157.293
  263.140   10.985    0.478    0.278   77.409  157.740
  263.390   10.479    0.467    0.275   81.165  158.715
  263.640    9.646    0.450    0.261   86.197  159.885
  263.890    8.698    0.464    0.251   92.181  161.013
  264.140    8.073    0.480    0.242   94.697  162.141
  264.390    7.644    0.491    0.238   94.438  162.683
  264.640    7.357    0.494    0.240   92.675  162.346
  264.890    7.236    0.488    0.241   91.397  161.115
  265.140    7.452    0.496    0.240   92.097  161.066
  265.390    7.888    0.503    0.247   89.988  161.411
  265.640    8.351    0.497    0.253   86.839  161.172
  265.890    8.782    0.491    0.259   85.770  160.930
  266.140    9.119    0.491    0.265   87.706  160.879
  266.390    9.240    0.494    0.270   91.999  160.823
  266.640    8.892    0.499    0.292   95.103  160.774
  266.890    8.506    0.496    0.288   96.928  161.124
  267.140    8.184    0.492    0.277   98.229  161.760
  267.390    7.946    0.488    0.264   98.662  162.496
  267.640    7.770    0.482    0.253   98.866  163.334
  267.890    7.552    0.476    0.244  100.981  164.616
  268.140    7.322    0.478    0.236  103.605  165.387
  268.390    7.212    0.481    0.230  104.733  166.902
  268.640    7.141    0.489    0.225  103.954  168.130
  268.890    7.085    0.491    0.220  103.465  169.260
  269.140    7.029    0.485    0.218  103.496  170.291
  269.390    6.983    0.484    0.224  101.917  171.022
  269.640    7.031    0.495    0.212   99.967  170.974
  269.890    7.180    0.479    0.210   96.006  168.568
  270.140    7.372    0.448    0.206   92.396  167.051
  270.390    7.503    0.436    0.204   88.321  165.832
  270.640    7.524    0.446    0.212   84.649  164.908
  270.890    7.463    0.455    0.236   84.553  164.933
  271.140    7.458    0.451    0.250   87.653  165.292
  271.390    7.562    0.450    0.245   91.093  165.637
  271.640    7.708    0.453    0.232   92.451  165.398
  271.890    7.956    0.452    0.229   93.002  163.782
  272.140    8.276    0.452    0.235   92.690  161.674
  272.390    8.461    0.465    0.223   89.920  161.542
  272.640    8.205    0.464    0.219   88.925  161.090
  272.890    7.620    0.465    0.228   91.446  161.827
  273.140    7.401    0.475    0.218   94.308  162.860
  273.390    7.450    0.484    0.212   94.743  162.811
  273.640    7.757    0.485    0.216   92.000  161.683
  273.890    8.616    0.474    0.208   86.090  161.178
  274.140    9.880    0.451    0.183   79.800  162.756
  274.390   11.460    0.407    0.105   72.139  163.497
  274.640   11.289    0.308    0.052   65.695  163.346
  274.890   10.089    0.282    0.047   66.478  162.712
  275.140    8.788    0.353    0.090   76.163  161.987
  275.390    7.607    0.445    0.170   92.328  161.376
  275.640    6.848    0.481    0.246   93.503  160.511
  275.890    6.599    0.491    0.245   89.542  160.469
  276.140    6.430    0.493    0.250   88.705  160.717
  276.390    6.379    0.503    0.257   88.910  161.062
  276.640    6.433    0.518    0.267   88.883  161.407
  276.890    6.561    0.515    0.280   88.395  161.823
