~VERSION INFORMATION
 VERS.                 2.0:   CWLS LOG ASCII STANDARD -VERSION 2.0
 WRAP.                  NO:   ONE LINE PER DEPTH STEP
~WELL INFORMATION BLOCK
#MNEM.UNIT           DATA                    DESCRIPTION OF MNEMONIC
#---------    -------------------            -------------------------------
# Generated from Intellog Unique Number	CS_71_72/WELL/899
WELL.         PEX PHILLIPS AEC GRIST         : Well_name    - WELL
LOC .         00/11-17-071-07W4/0            : Location     - LOCATION
UWI .         00/11-17-071-07W4/0            : Uwi          - UNIQUE WELL ID
ENTR.         SP                             : Entered      - ENTERED BY
SRVC.         SCHLUMBERGER                   : Scn          - SERVICE COMPANY
STRT.M        300                            : top_depth    - START DEPTH
STOP.M        520                            : bot_depth    - STOP DEPTH
STEP.M        0.25                           : increment    - STEP LENGTH
 NULL. -999.2500:NULL Value
~CURVE INFORMATION BLOCK
#MNEM UNIT       ERCB CURVE CODE    CURVE DESCRIPTION
#-----------   ------------------   ----------------------------------
DEPT.M        00 001 00 00         : DEPTH        - DEPTH
ILD .OHMM     00 120 00 00         : RESD         - DEEP RESISTIVITY (DIL)
DPHI.V/V      00 890 00 00         : PHID         - DENSITY POROSITY (LIMESTONE)
NPHI.V/V      00 330 00 00         : PHIN         - NEUTRON POROSITY (LIMESTONE)
GR  .API      00 310 00 00         : GR           - GAMMA RAY
~PARAMETER INFORMATION
#MNEM.UNIT           DATA             DESCRIPTION OF MNEMONIC
#---------         -----------     ------------------------------
GL  .M        659.5                : gl           - GROUND LEVEL ELEVATION
EREF.M        663.5                : kb           - ELEVATION OF DEPTH REFERENCE
DATM.M        659.5                : datum        - DATUM ELEVATION
TDD .M        526                  : tdd          - TOTAL DEPTH DRILLER
RUN .         ONE                  : Run          - RUN NUMBER
ENG .         BILL                 : Engineer     - RECORDING ENGINEER
WIT .         JIM                  : Witness      - WITNESSED BY
MUD .         GEL                  : Mud_type     - MUD TYPE
MATR.         LIMESTONE            : Logunit      - NEUTRON MATRIX
TMAX.C        23                   : BHT          - MAXIMUM RECORDED TEMPERATURE
BHTD.M        526                  : BHTDEP       - MAXIMUM RECORDED TEMPERATURE
MATR.         1                    : LOGUNIT      - NEUTRON MATRIX
RMT .C        25                   : MDTP         - TEMPERATURE OF MUD
NEUT.         1                    : NEUTRON      - NEUTRON TYPE
RESI.         0                    : RESIST       - RESISTIVITY TYPE
RMC .OHMM     0.25                 : RMC          - RESISTIVITY OF MUD CAKE
RMF .OHMM     0.25                 : RMF          - RESISTIVITY OF MUD FILTRATE
SUFT.C        15                   : SUFT         - SURFACE TEMPERATURE
~A  DEPTH     RESD     PHID     PHIN       GR
# ...
  343.500   12.475    0.186    0.385   78.408
  343.750    9.752    0.227    0.429   79.934
  344.000    8.489    0.271    0.470   77.556
  344.250    7.863    0.284    0.462   72.311
  344.500    7.367    0.250    0.445   73.349
  344.750    7.154    0.241    0.429   79.085
  345.000    7.025    0.264    0.422   77.439
  345.250    6.938    0.293    0.419   73.780
  345.500    6.929    0.304    0.423   70.670
  345.750    6.860    0.308    0.428   74.270
  346.000    6.810    0.300    0.427   80.188
  346.250    6.625    0.268    0.415   88.913
  346.500    6.301    0.244    0.441   95.380
  346.750    5.959    0.221    0.475  101.298
  347.000    5.689    0.214    0.481  103.983
  347.250    5.524    0.223    0.470  107.339
  347.500    5.404    0.215    0.465  102.827
  347.750    5.327    0.217    0.468   98.802
  348.000    5.322    0.245    0.475   96.302
  348.250    5.336    0.248    0.475   94.046
  348.500    5.379    0.219    0.509   93.803
  348.750    5.527    0.229    0.534   93.011
  349.000    5.754    0.263    0.517   91.549
  349.250    6.413    0.273    0.485   90.147
  349.500    6.829    0.260    0.463   89.233
  349.750    7.189    0.249    0.454   89.051
  350.000    7.571    0.244    0.461   86.795
  350.250    7.780    0.245    0.467   89.846
  350.500    7.845    0.253    0.448   93.874
  350.750    7.865    0.258    0.401   91.862
  351.000    7.899    0.254    0.385   87.776
  351.250    7.890    0.245    0.398   91.376
  351.500    7.957    0.236    0.401   93.451
  351.750    8.006    0.229    0.396   92.904
  352.000    8.138    0.228    0.395   92.783
  352.250    8.187    0.230    0.406   90.954
  352.500    8.254    0.242    0.416   89.857
  352.750    8.291    0.251    0.410   93.030
  353.000    8.219    0.233    0.419   93.459
  353.250    8.041    0.210    0.429   92.850
  353.500    7.852    0.206    0.425   92.363
  353.750    7.624    0.242    0.467   90.961
  354.000    7.362    0.269    0.491   89.986
  354.250    7.162    0.288    0.500   90.109
  354.500    6.993    0.269    0.481   90.049
  354.750    6.895    0.233    0.463   88.038
  355.000    6.886    0.234    0.471   89.320
  355.250    6.852    0.243    0.477   90.175
  355.500    6.869    0.240    0.472   88.224
  355.750    6.875    0.241    0.453   89.628
  356.000    6.882    0.221    0.434   93.351
  356.250    6.884    0.255    0.471   96.341
  356.500    6.942    0.283    0.495   90.364
  356.750    7.337    0.304    0.504   82.618
  357.000    7.828    0.321    0.493   77.373
  357.250    8.321    0.333    0.483   75.178
  357.500    8.962    0.336    0.491   78.779
  357.750    9.156    0.253    0.494   82.196
  358.000    8.709    0.229    0.475   84.820
  358.250    8.393    0.219    0.471   86.285
  358.500    8.073    0.241    0.457   85.981
  358.750    7.765    0.255    0.440   85.007
  359.000    7.455    0.252    0.435   85.313
  359.250    7.159    0.252    0.427   86.412
  359.500    7.068    0.257    0.421   87.145
  359.750    6.994    0.271    0.442   87.268
  360.000    6.950    0.283    0.460   85.561
  360.250    6.953    0.291    0.461   76.412
  360.500    7.049    0.299    0.458   63.054
  360.750    7.339    0.303    0.448   56.529
  361.000    7.863    0.293    0.426   62.081
  361.250    8.032    0.274    0.411   67.206
  361.500    8.253    0.264    0.427   71.294
  361.750    8.336    0.260    0.453   75.626
  362.000    8.469    0.284    0.468   70.382
  362.250    8.508    0.298    0.447   70.017
  362.500    8.387    0.307    0.423   73.434
  362.750    8.344    0.312    0.399   74.167
  363.000    8.257    0.315    0.407   73.802
  363.250    8.218    0.322    0.409   74.170
  363.500    8.242    0.311    0.403   74.964
  363.750    8.244    0.292    0.409   76.124
  364.000    8.328    0.286    0.420   77.162
  364.250    8.508    0.283    0.432   78.261
  364.500    8.747    0.276    0.441   79.482
  364.750    8.766    0.265    0.448   80.765
  365.000    8.823    0.254    0.435   84.182
  365.250    8.780    0.248    0.421   87.294
  365.500    8.750    0.258    0.438   83.696
  365.750    8.647    0.285    0.447   77.780
  366.000    8.605    0.282    0.416   75.951
  366.250    8.546    0.260    0.396   77.173
  366.500    8.488    0.255    0.389   78.577
  366.750    8.490    0.261    0.399   80.652
  367.000    8.387    0.230    0.406   85.411
  367.250    8.251    0.209    0.396   89.987
  367.500    8.117    0.201    0.429   94.442
  367.750    7.971    0.219    0.441   95.602
  368.000    7.783    0.247    0.429   86.636
  368.250    7.715    0.276    0.438   76.328
  368.500    7.408    0.279    0.450   74.255
  368.750    6.888    0.265    0.439   78.954
  369.000    6.179    0.250    0.453   82.432
  369.250    5.680    0.242    0.467   84.873
  369.500    5.342    0.244    0.464   85.301
  369.750    5.033    0.240    0.457   83.960
  370.000    4.878    0.249    0.462   82.863
  370.250    4.736    0.264    0.486   83.536
  370.500    4.686    0.271    0.507   83.293
  370.750    4.734    0.265    0.521   80.793
  371.000    4.874    0.278    0.515   75.975
  371.250    5.055    0.296    0.479   72.682
  371.500    5.303    0.300    0.448   68.779
  371.750    5.479    0.300    0.427   68.231
  372.000    5.505    0.299    0.454   68.172
  372.250    5.539    0.298    0.476   68.600
  372.500    5.491    0.298    0.498   72.078
  372.750    5.322    0.299    0.500   75.190
  373.000    5.052    0.300    0.491   78.790
  373.250    4.724    0.289    0.471   85.014
  373.500    4.409    0.271    0.434   89.712
  373.750    4.161    0.250    0.469   90.262
  374.000    3.973    0.283    0.500   87.396
  374.250    3.924    0.314    0.533   81.236
  374.500    4.218    0.329    0.521   76.480
  374.750    4.872    0.340    0.489   69.892
  375.000    5.584    0.335    0.464   65.258
  375.250    6.116    0.329    0.449   65.442
  375.500    6.984    0.343    0.462   61.234
  375.750    7.579    0.360    0.485   55.013
  376.000    8.287    0.354    0.501   47.267
  376.250    8.809    0.339    0.437   46.231
  376.500    9.347    0.331    0.416   48.246
  376.750    9.548    0.331    0.419   49.345
  377.000    9.719    0.331    0.422   49.712
  377.250    9.744    0.331    0.419   49.347
  377.500    9.625    0.332    0.412   49.226
  377.750    9.576    0.338    0.410   50.447
  378.000    9.460    0.346    0.409   52.157
  378.250    9.343    0.339    0.407   53.500
  378.500    9.279    0.332    0.407   54.416
  378.750    9.218    0.330    0.416   54.234
  379.000    9.612    0.329    0.428   54.052
  379.250    9.474    0.337    0.433   53.505
  379.500    9.410    0.345    0.425   51.920
  379.750    9.435    0.342    0.421   52.592
  380.000    9.567    0.340    0.431   53.630
  380.250    9.720    0.350    0.451   53.265
  380.500    9.892    0.197    0.466   52.168
  380.750   10.776    0.119    0.363   50.096
  381.000   13.934    0.065    0.161   47.474
  381.250   18.853    0.029    0.128   44.669
  381.500   24.198    0.018    0.118   42.169
  381.750   30.187    0.018    0.121   45.403
  382.000   35.929    0.012    0.129   47.417
  382.250   40.111    0.001    0.133   47.602
  382.500   43.284   -0.008    0.126   45.956
  382.750   44.979   -0.013    0.132   43.700
  383.000   43.921   -0.010    0.153   41.322
  383.250   38.519    0.028    0.171   40.774
  383.500   26.945    0.071    0.198   45.228
  383.750   20.827    0.224    0.287   48.707
  384.000   14.568    0.263    0.353   50.355
  384.250   11.628    0.305    0.410   51.027
  384.500   10.451    0.321    0.451   52.675
  384.750    9.681    0.333    0.437   53.592
  385.000    9.277    0.332    0.431   53.288
  385.250    8.957    0.333    0.429   55.058
  385.500    8.617    0.337    0.425   57.194
  385.750    8.398    0.332    0.419   59.025
  386.000    8.169    0.338    0.445   60.734
  386.250    7.697    0.345    0.450   62.993
  386.500    7.348    0.342    0.441   64.153
  386.750    7.055    0.334    0.439   63.971
