~VERSION INFORMATION
 VERS.                 2.0:   CWLS LOG ASCII STANDARD -VERSION 2.0
 WRAP.                  NO:   ONE LINE PER DEPTH STEP
~WELL INFORMATION BLOCK
#MNEM.UNIT           DATA                    DESCRIPTION OF MNEMONIC
#---------    -------------------            -------------------------------
# Generated from Intellog Unique Number	CW_70_72/WELL/3033
NULL.         -999.25                        : NULL_VALUE
WELL.         PANTHER FOW HUNDO 11-32        : Well_name    - WELL              
LOC .         11-32-070-01W5                 : Location     - LOCATION          
UWI .         00/11-32-070-01W5/0            : Uwi          - UNIQUE WELL ID    
ENTR.         JAYE                           : Entered      - ENTERED BY        
SRVC.         SCHLUMBERGER                   : Scn          - SERVICE COMPANY   
DATE.         18 FEB 79                      : Date         - LOG DATE          
STRT.M        410                            : top_depth    - START DEPTH       
STOP.M        655                            : bot_depth    - STOP DEPTH        
STEP.M        0.25                           : increment    - STEP LENGTH       
~CURVE INFORMATION BLOCK
#MNEM UNIT       ERCB CURVE CODE    CURVE DESCRIPTION
#-----------   ------------------   ----------------------------------
DEPT.M        00 001 00 00         : DEPTH        - DEPTH                       
ILD .OHMM     00 120 00 00         : RESD         - DEEP RESISTIVITY (DIL)      
CALI.MM       00 280 01 00         : CAL          - CALIPER                     
GR  .API      00 310 00 00         : GR           - GAMMA RAY                   
NPHI.V/V      00 330 00 00         : PHIN         - NEUTRON POROSITY (SANDSTONE)
DPHI.V/V      00 890 00 00         : PHID         - DENSITY POROSITY (SANDSTONE)
~PARAMETER INFORMATION       
#MNEM.UNIT           DATA             DESCRIPTION OF MNEMONIC
#---------         -----------     ------------------------------
GL  .M        591.1                : gl           - GROUND LEVEL ELEVATION      
EREF.M        595                  : kb           - ELEVATION OF DEPTH REFERENCE
DATM.M        591.1                : datum        - DATUM ELEVATION             
TDD .M        1533                 : tdd          - TOTAL DEPTH DRILLER         
RUN .         ONE                  : Run          - RUN NUMBER                  
ENG .         GILLIS               : Engineer     - RECORDING ENGINEER          
WIT .         WETHERLEY            : Witness      - WITNESSED BY                
BASE.         EDM                  : Branch       - HOME BASE OF LOGGING UNIT   
MUD .         GEL MUD              : Mud_type     - MUD TYPE                    
MATR.         SANDSTONE            : Logunit      - NEUTRON MATRIX              
TMAX.C        42                   : BHT          - MAXIMUM RECORDED TEMPERATURE
BHTD.M        1532.5               : BHTDEP       - MAXIMUM RECORDED TEMPERATURE
RMT .C        17                   : MDTP         - TEMPERATURE OF MUD          
MUDD.KG/M     1090                 : MWT          - MUD DENSITY                 
NEUT.         1                    : NEUTRON      - NEUTRON TYPE                
RESI.         0                    : RESIST       - RESISTIVITY TYPE            
RM  .OHMM     1.41                 : RM           - RESISTIVITY OF MUD          
RMC .OHMM     0.25                 : RMC          - RESISTIVITY OF MUD CAKE     
RMF .OHMM     1.13                 : RMF          - RESISTIVITY OF MUD FILTRATE 
SUFT.C        0                    : SUFT         - SURFACE TEMPERATURE         
~A  DEPTH     RESD      CAL       GR     PHIN     PHID
# ...
  446.500    1.912  323.656   80.260    0.495    0.270
  446.750    1.742  322.841   82.858    0.519    0.301
  447.000    1.722  261.861   81.235    0.481    0.275
  447.250    1.779  247.713   77.156    0.465    0.267
  447.500    1.866  243.225   77.867    0.489    0.278
  447.750    1.971  242.828   77.378    0.461    0.294
  448.000    2.072  242.435   76.259    0.471    0.273
  448.250    2.125  243.408   74.886    0.468    0.238
  448.500    2.192  244.063   72.507    0.459    0.255
  448.750    2.244  243.774   68.050    0.448    0.254
  449.000    2.286  243.169   65.608    0.436    0.251
  449.250    2.305  241.520   61.592    0.430    0.254
  449.500    2.308  240.281   60.035    0.441    0.268
  449.750    2.307  239.260   60.175    0.452    0.287
  450.000    2.292  238.964   62.584    0.438    0.301
  450.250    2.258  238.676   65.309    0.435    0.280
  450.500    2.219  239.967   67.969    0.441    0.256
  450.750    2.145  241.982   72.080    0.448    0.241
  451.000    2.081  247.051   77.012    0.452    0.229
  451.250    2.038  251.804   79.041    0.459    0.238
  451.500    2.014  254.135   79.057    0.488    0.252
  451.750    2.017  249.331   74.788    0.486    0.263
  452.000    2.039  242.221   72.157    0.469    0.229
  452.250    2.084  241.197   72.614    0.442    0.236
  452.500    2.137  240.798   71.559    0.463    0.250
  452.750    2.234  240.510   71.070    0.453    0.254
  453.000    2.304  240.540   76.380    0.444    0.254
  453.250    2.389  240.884   76.961    0.446    0.254
  453.500    2.506  241.849   75.214    0.450    0.244
  453.750    2.633  245.444   74.533    0.451    0.228
  454.000    2.824  252.084   78.583    0.450    0.213
  454.250    2.994  246.441   78.661    0.449    0.214
  454.500    3.106  238.383   75.273    0.446    0.234
  454.750    3.198  235.259   70.376    0.442    0.251
  455.000    3.220  234.869   67.115    0.432    0.263
  455.250    3.224  235.423   66.814    0.424    0.253
  455.500    3.186  235.648   70.046    0.415    0.235
  455.750    3.075  236.727   74.848    0.413    0.220
  456.000    2.994  237.799   82.738    0.427    0.230
  456.250    2.965  240.351   84.076    0.416    0.245
  456.500    2.975  243.107   81.636    0.402    0.236
  456.750    3.007  245.337   78.247    0.419    0.221
  457.000    3.067  246.094   78.644    0.431    0.215
  457.250    3.099  246.540   82.628    0.441    0.212
  457.500    3.138  246.042   82.454    0.458    0.229
  457.750    3.183  245.543   79.950    0.479    0.220
  458.000    3.223  245.148   75.617    0.464    0.243
  458.250    3.234  245.907   74.562    0.465    0.245
  458.500    3.225  248.141   77.979    0.485    0.258
  458.750    3.230  252.153   80.891    0.512    0.223
  459.000    3.227  263.626   82.799    0.524    0.252
  459.250    3.209  282.344   83.635    0.512    0.301
  459.500    3.195  260.633   83.648    0.475    0.284
  459.750    3.193  232.938   81.837    0.453    0.247
  460.000    3.186  229.707   78.325    0.436    0.213
  460.250    3.184  236.985   75.380    0.439    0.234
  460.500    3.188  235.960   72.684    0.446    0.249
  460.750    3.193  235.245   68.543    0.465    0.282
  461.000    3.232  235.483   64.904    0.481    0.358
  461.250    3.434  237.398   60.761    0.499    0.391
  461.500    3.738  240.679   56.429    0.571    0.438
  461.750    4.183  242.492   66.146    0.604    0.515
  462.000    4.805  241.046   81.093    0.628    0.627
  462.250    5.209  243.908  108.640    0.646    0.594
  462.500    4.953  264.302  105.381    0.652    0.354
  462.750    4.405  263.174   83.660    0.452    0.268
  463.000    3.960  238.105   66.350    0.429    0.282
  463.250    3.053  225.953   48.726    0.417    0.297
  463.500    2.403  226.187   41.625    0.403    0.286
  463.750    2.137  227.158   37.668    0.384    0.279
  464.000    1.983  228.020   33.778    0.364    0.284
  464.250    1.882  228.678   33.541    0.371    0.280
  464.500    1.853  229.657   35.130    0.389    0.301
  464.750    1.856  230.098   42.330    0.417    0.324
  465.000    1.928  230.438   51.480    0.501    0.339
  465.250    2.079  231.617   61.574    0.541    0.337
  465.500    2.238  236.369   71.104    0.585    0.349
  465.750    2.482  245.423   71.245    0.600    0.376
  466.000    2.731  249.020   57.715    0.607    0.392
  466.250    3.102  240.645   45.761    0.560    0.337
  466.500    3.446  233.217   48.550    0.459    0.254
  466.750    3.682  230.617   51.461    0.419    0.251
  467.000    3.547  228.758   52.485    0.417    0.258
  467.250    3.359  228.042   51.934    0.413    0.272
  467.500    3.134  227.227   50.753    0.405    0.277
  467.750    2.936  227.154   49.573    0.410    0.272
  468.000    2.828  227.282   48.200    0.415    0.267
  468.250    2.759  227.414   46.895    0.423    0.280
  468.500    2.706  227.647   47.161    0.425    0.293
  468.750    2.660  227.779   48.440    0.414    0.299
  469.000    2.615  227.802   49.337    0.403    0.284
  469.250    2.575  228.672   50.168    0.394    0.296
  469.500    2.521  229.432   50.626    0.392    0.297
  469.750    2.433  230.300   50.513    0.406    0.281
  470.000    2.356  230.955   49.899    0.414    0.291
  470.250    2.274  231.187   49.288    0.412    0.285
  470.500    2.206  231.740   49.300    0.408    0.273
  470.750    2.148  232.186   49.946    0.414    0.281
  471.000    2.100  232.734   52.294    0.403    0.287
  471.250    2.064  232.661   54.198    0.395    0.274
  471.500    2.051  232.895   55.979    0.400    0.285
  471.750    2.039  233.028   56.559    0.412    0.283
  472.000    2.042  233.469   57.205    0.408    0.278
  472.250    2.055  233.287   57.472    0.401    0.283
  472.500    2.062  232.997   57.175    0.396    0.292
  472.750    2.057  232.395   56.119    0.414    0.299
  473.000    2.045  231.684   55.253    0.445    0.299
  473.250    2.036  230.770   55.015    0.450    0.295
  473.500    2.016  230.691   54.778    0.443    0.284
  473.750    1.982  230.604   55.740    0.433    0.288
  474.000    1.962  230.212   56.196    0.418    0.299
  474.250    1.947  230.239   55.958    0.401    0.285
  474.500    1.953  230.890   53.016    0.391    0.257
  474.750    1.985  231.129   50.700    0.379    0.230
  475.000    2.124  230.101   48.635    0.309    0.108
  475.250    2.584  231.495   46.759    0.262    0.069
  475.500    3.144  232.259   46.085    0.278    0.160
  475.750    3.685  232.284   46.349    0.330    0.183
  476.000    4.344  231.993   50.209    0.364    0.207
  476.250    4.790  231.071   54.446    0.395    0.275
  476.500    4.438  229.836   56.983    0.426    0.304
  476.750    3.596  228.922   57.248    0.446    0.301
  477.000    2.788  228.420   54.743    0.457    0.298
  477.250    2.372  228.131   50.915    0.445    0.297
  477.500    2.094  228.160   52.695    0.432    0.291
  477.750    1.929  228.079   55.107    0.423    0.277
  478.000    1.851  228.000   55.878    0.438    0.293
  478.250    1.813  228.136   56.902    0.454    0.298
  478.500    1.801  228.156   57.863    0.472    0.297
  478.750    1.869  228.078   58.190    0.491    0.303
  479.000    1.860  228.103   58.270    0.459    0.315
  479.250    1.842  227.710   58.725    0.449    0.315
  479.500    1.834  227.522   59.246    0.451    0.308
  479.750    1.850  227.442   59.894    0.435    0.303
  480.000    1.853  226.425   60.095    0.440    0.312
  480.250    1.862  226.760   60.366    0.448    0.316
  480.500    1.869  226.890   60.630    0.439    0.315
  480.750    1.874  227.445   60.648    0.430    0.310
  481.000    1.884  227.788   60.473    0.425    0.309
  481.250    1.882  228.234   60.361    0.420    0.302
  481.500    1.889  228.360   60.065    0.441    0.306
  481.750    1.891  228.072   59.385    0.458    0.320
  482.000    1.900  227.470   57.510    0.447    0.321
  482.250    1.913  226.864   53.115    0.435    0.313
  482.500    1.923  226.891   52.564    0.420    0.305
  482.750    1.940  227.020   54.470    0.440    0.302
