~VERSION INFORMATION
 VERS.                 2.0:   CWLS LOG ASCII STANDARD -VERSION 2.0
 WRAP.                  NO:   ONE LINE PER DEPTH STEP
~WELL INFORMATION BLOCK
#MNEM.UNIT           DATA                    DESCRIPTION OF MNEMONIC
#---------    -------------------            -------------------------------
# Generated from Intellog Unique Number	CC_84_87/WELL/2308
NULL.         -999.25                        : NULL_VALUE
WELL.         SUNCOR CHEECHAM                : Well_name    - WELL              
LOC .         10-29-084-06W4                 : Location     - LOCATION          
UWI .         00/10-29-084-06W4/0            : Uwi          - UNIQUE WELL ID    
ENTR.         JHS                            : Entered      - ENTERED BY        
SRVC.         SCHLUMBERGER                   : Scn          - SERVICE COMPANY   
DATE.         16 FEB 81                      : Date         - LOG DATE
STRT.M        110                            : top_depth    - START DEPTH       
STOP.M        284.9                          : bot_depth    - STOP DEPTH        
STEP.M        0.3                            : increment    - STEP LENGTH       
~CURVE INFORMATION BLOCK
#MNEM UNIT       ERCB CURVE CODE    CURVE DESCRIPTION
#-----------   ------------------   ----------------------------------
DEPT.M        00 001 00 00         : DEPTH        - DEPTH                       
DPHI.V/V      00 890 00 00         : PHID         - DENSITY POROSITY (LIMESTONE)
NPHI.V/V      00 330 00 00         : PHIN         - NEUTRON POROSITY (LIMESTONE)
GR  .API      00 310 00 00         : GR           - GAMMA RAY                   
ILD .OHMM     00 120 00 00         : RESD         - DEEP RESISTIVITY (DIL)      
~PARAMETER INFORMATION       
#MNEM.UNIT           DATA             DESCRIPTION OF MNEMONIC
#---------         -----------     ------------------------------
GL  .M        491.2                : gl           - GROUND LEVEL ELEVATION      
EREF.M        494.9                : kb           - ELEVATION OF DEPTH REFERENCE
DATM.M        494.9                : datum        - DATUM ELEVATION             
TDD .M        289.5                : tdd          - TOTAL DEPTH DRILLER         
RUN .         ONE                  : Run          - RUN NUMBER                  
ENG .         BILL                 : Engineer     - RECORDING ENGINEER          
WIT .         JIM                  : Witness      - WITNESSED BY                
MUD .         GEL                  : Mud_type     - MUD TYPE                    
MATR.         LIMESTONE            : Logunit      - NEUTRON MATRIX              
TMAX.C        20                   : BHT          - MAXIMUM RECORDED TEMPERATURE
BHTD.M        289.5                : BHTDEP       - MAXIMUM RECORDED TEMPERATURE
MATR.         1                    : LOGUNIT      - NEUTRON MATRIX              
RMT .C        25                   : MDTP         - TEMPERATURE OF MUD          
NEUT.         1                    : NEUTRON      - NEUTRON TYPE                
RESI.         0                    : RESIST       - RESISTIVITY TYPE            
RMC .OHMM     0.25                 : RMC          - RESISTIVITY OF MUD CAKE     
RMF .OHMM     0.25                 : RMF          - RESISTIVITY OF MUD FILTRATE 
SUFT.C        15                   : SUFT         - SURFACE TEMPERATURE         
~A  DEPTH     PHID     PHIN       GR     RESD
# ...
  162.201    0.350    0.586   99.508    2.310
  162.501    0.355    0.595   93.415    2.446
  162.801    0.332    0.579   90.370    2.640
  163.101    0.274    0.540   88.545    3.015
  163.401    0.259    0.519   89.159    3.191
  163.701    0.257    0.490   89.163    3.574
  164.001    0.265    0.488   87.338    4.156
  164.301    0.267    0.480   86.122    5.209
  164.601    0.258    0.454   86.127    5.835
  164.901    0.236    0.441   86.740    6.067
  165.201    0.260    0.467   88.574    5.959
  165.501    0.274    0.464   91.017    5.747
  165.801    0.268    0.456   92.241    5.543
  166.101    0.274    0.481   92.855    5.447
  166.401    0.287    0.497   92.859    5.556
  166.701    0.281    0.522   92.254    5.666
  167.001    0.290    0.525   91.648    5.889
  167.301    0.275    0.494   95.310    6.122
  167.601    0.269    0.447  100.803    6.363
  167.901    0.241    0.427  101.417    6.737
  168.201    0.241    0.412   98.983    7.135
  168.501    0.242    0.396   98.376    7.416
  168.801    0.253    0.400   96.551    8.154
  169.101    0.225    0.399   94.116    8.012
  169.401    0.210    0.385   90.462    7.168
  169.701    0.230    0.391   92.905    6.535
  170.001    0.274    0.458   97.178    6.185
  170.301    0.252    0.475   95.353    5.747
  170.601    0.242    0.467   95.966    5.238
  170.901    0.249    0.461   97.190    5.053
  171.201    0.255    0.467   97.195    5.057
  171.501    0.259    0.460   98.419    5.160
  171.801    0.246    0.428   99.641    5.262
  172.101    0.260    0.405   95.377    5.679
  172.401    0.270    0.395   91.114    5.904
  172.701    0.262    0.435   93.557    5.910
  173.001    0.247    0.449   94.171    5.915
  173.301    0.250    0.444   92.345    5.814
  173.601    0.237    0.429   94.180    5.607
  173.901    0.237    0.439   96.013    5.207
  174.201    0.238    0.477   99.065    4.659
  174.501    0.254    0.498  100.899    4.091
  174.801    0.244    0.511  102.123    3.801
  175.101    0.249    0.514   99.078    3.736
  175.401    0.253    0.506   91.766    3.881
  175.701    0.249    0.479   89.939    4.111
  176.001    0.255    0.483   89.944    4.353
  176.301    0.287    0.489   89.338    4.697
  176.601    0.297    0.473   88.124    5.163
  176.901    0.292    0.423   86.908    5.468
  177.201    0.277    0.439   85.083    4.986
  177.501    0.265    0.472   86.306    4.217
  177.801    0.263    0.495   86.310    3.249
  178.101    0.291    0.520   94.241    2.908
  178.401    0.269    0.538   97.904    2.910
  178.701    0.277    0.533   96.079    3.025
  179.001    0.277    0.515   96.083    3.584
  179.301    0.297    0.477   92.429    4.841
  179.601    0.282    0.428   91.823    5.736
  179.901    0.282    0.390   86.340    6.796
  180.201    0.315    0.336   79.636    8.361
  180.501    0.334    0.319   81.471    8.530
  180.801    0.311    0.323   82.085    7.923
  181.101    0.286    0.332   81.478    7.222
  181.401    0.283    0.348   84.531    6.463
  181.701    0.314    0.368   85.145    6.003
  182.001    0.287    0.385   81.491    5.791
  182.301    0.309    0.387   77.836    5.797
  182.601    0.286    0.378   76.011    6.255
  182.901    0.242    0.363   71.747    7.410
  183.201    0.093    0.318   66.873    7.014
  183.501    0.149    0.282   64.438    6.395
  183.801    0.247    0.298   74.808    5.721
  184.101    0.315    0.373   79.081    4.840
  184.401    0.283    0.422   87.012    4.668
  184.701    0.248    0.452   93.115    4.763
  185.001    0.246    0.478   94.337    4.858
  185.301    0.231    0.463   94.952    4.863
  185.601    0.235    0.441   95.565    5.054
  185.901    0.228    0.420   93.740    5.155
  186.201    0.242    0.435   95.575    4.527
  186.501    0.233    0.451   96.188    3.176
  186.801    0.259    0.459   95.582    2.588
  187.101    0.279    0.472   93.147    2.359
  187.401    0.300    0.546   84.005    2.318
  187.701    0.314    0.581   78.521    2.365
  188.001    0.300    0.573   77.916    2.552
  188.301    0.289    0.535   79.139    2.913
  188.601    0.300    0.511   80.363    3.325
  188.901    0.275    0.481   82.197    3.723
  189.201    0.276    0.484   82.810    4.170
  189.501    0.257    0.484   82.815    4.500
  189.801    0.257    0.448   85.868    4.766
  190.101    0.249    0.423   87.091    4.861
  190.401    0.262    0.423   87.705    4.515
  190.701    0.248    0.439   86.491    3.749
  191.001    0.245    0.462   86.495    3.483
  191.301    0.230    0.495   90.766    3.358
  191.601    0.255    0.484   95.649    3.239
  191.901    0.257    0.476   93.824    3.242
  192.201    0.249    0.479   89.559    3.308
  192.501    0.281    0.457   85.295    3.190
  192.801    0.272    0.453   88.959    3.134
  193.101    0.276    0.517   88.963    3.081
  193.401    0.288    0.510   88.357    3.026
  193.701    0.277    0.498   88.361    3.087
  194.001    0.267    0.494   90.804    3.033
  194.301    0.266    0.533   96.296    3.037
  194.601    0.282    0.543   96.910    2.984
  194.901    0.256    0.536   93.865    3.044
  195.201    0.250    0.523   93.870    3.105
  195.501    0.273    0.487   93.874    3.288
  195.801    0.283    0.503   92.049    3.482
  196.101    0.258    0.495   90.224    3.688
  196.401    0.235    0.467   88.399    3.905
  196.701    0.230    0.457   89.012    4.135
  197.001    0.227    0.438   89.016    4.379
  197.301    0.216    0.435   82.923    4.725
  197.601    0.282    0.431   77.439    5.098
  197.901    0.301    0.355   71.346    5.710
  198.201    0.304    0.354   70.130    6.397
  198.501    0.301    0.358   73.794    6.648
  198.801    0.288    0.351   72.579    6.412
  199.101    0.262    0.348   73.802    6.420
  199.401    0.277    0.356   78.075    6.307
  199.701    0.297    0.370   79.299    5.539
  200.001    0.297    0.386   84.180    5.341
  200.301    0.280    0.411   88.453    5.055
  200.601    0.264    0.432   82.359    5.061
  200.901    0.318    0.371   76.266    5.164
  201.201    0.349    0.328   72.611    5.367
  201.501    0.343    0.328   67.737    6.601
  201.801    0.322    0.351   64.693    7.259
  202.101    0.318    0.340   64.088    7.403
  202.401    0.313    0.334   65.311    7.553
  202.701    0.273    0.341   67.755    7.282
  203.001    0.280    0.345   68.368    7.026
  203.301    0.335    0.334   70.811    6.775
  203.601    0.310    0.335   76.914    6.533
  203.901    0.303    0.373   81.795    6.417
  204.201    0.261    0.397   89.727    6.671
  204.501    0.236    0.401   89.121    7.471
  204.801    0.277    0.348   78.149    9.191
  205.101    0.297    0.301   70.837   10.688
  205.401    0.295    0.295   69.621   11.973
  205.701    0.305    0.291   68.406   12.682
  206.001    0.317    0.295   69.020   12.935
  206.301    0.303    0.300   69.634   13.442
  206.601    0.303    0.297   69.638   14.235
  206.901    0.302    0.286   73.300   14.794
  207.201    0.310    0.275   70.866   16.264
  207.501    0.307    0.267   65.992   18.219
  207.801    0.305    0.250   58.679   21.186
  208.101    0.319    0.214   51.976   26.552
  208.401    0.341    0.210   51.979   29.743
  208.701    0.329    0.234   64.179   28.151
  209.001    0.313    0.246   68.452   28.189
  209.301    0.311    0.251   69.066   32.172
  209.601    0.303    0.234   67.850   36.030
  209.901    0.336    0.215   56.269   41.912
  210.201    0.339    0.207   53.225   45.209
  210.501    0.342    0.205   52.619   53.569
  210.801    0.344    0.200   47.745   61.134
  211.101    0.358    0.191   44.090   47.985
  211.401    0.350    0.194   48.363   36.284
  211.701    0.350    0.253   55.684   30.123
  212.001    0.333    0.270   62.396   27.984
  212.301    0.322    0.263   61.790   27.494
  212.601    0.315    0.243   59.966   29.123
  212.901    0.306    0.233   59.969   29.149
  213.201    0.319    0.238   62.412   27.087
  213.501    0.303    0.275   63.026   26.113
  213.801    0.335    0.255   59.373   25.187
  214.101    0.347    0.253   60.595   24.286
