~VERSION INFORMATION
 VERS.                 2.0:   CWLS LOG ASCII STANDARD -VERSION 2.0
 WRAP.                  NO:   ONE LINE PER DEPTH STEP
~WELL INFORMATION BLOCK
#MNEM.UNIT           DATA                    DESCRIPTION OF MNEMONIC
#---------    -------------------            -------------------------------
# Generated from Intellog Unique Number	CW_70_72/WELL/3310
NULL.         -999.25                        : NULL_VALUE
WELL.         HOME ALMX SMITH                : Well_name    - WELL              
LOC .         10-33-072-26W4                 : Location     - LOCATION          
UWI .         00/10-33-072-26W4/0            : Uwi          - UNIQUE WELL ID    
ENTR.         CAMPBELL                       : Entered      - ENTERED BY        
SRVC.         SCHLUMBERGER                   : Scn          - SERVICE COMPANY   
DATE.         24 NOV 77                      : Date         - LOG DATE          
STRT.M        533.4                          : top_depth    - START DEPTH       
STOP.M        679.65                         : bot_depth    - STOP DEPTH        
STEP.M        0.25                           : increment    - STEP LENGTH       
~CURVE INFORMATION BLOCK
#MNEM UNIT       ERCB CURVE CODE    CURVE DESCRIPTION
#-----------   ------------------   ----------------------------------
DEPT.M        00 001 00 00         : DEPTH        - DEPTH                       
DELT.US/F     00 520 00 00         : DELT         - SONIC TRAVEL TIME           
CALI.MM       00 280 01 00         : CAL          - CALIPER                     
GR  .API      00 310 00 00         : GR           - GAMMA RAY                   
ILD .OHMM     00 120 00 00         : RESD         - DEEP RESISTIVITY (DIL)      
~PARAMETER INFORMATION       
#MNEM.UNIT           DATA             DESCRIPTION OF MNEMONIC
#---------         -----------     ------------------------------
GL  .M        652.272              : gl           - GROUND LEVEL ELEVATION      
EREF.M        656.082              : kb           - ELEVATION OF DEPTH REFERENCE
DATM.M        656.082              : datum        - DATUM ELEVATION             
TDD .M        722.986              : tdd          - TOTAL DEPTH DRILLER         
RUN .         ONE                  : Run          - RUN NUMBER                  
ENG .         PLUME                : Engineer     - RECORDING ENGINEER          
WIT .         WIGGINS              : Witness      - WITNESSED BY                
MUD .         GEL                  : Mud_type     - MUD TYPE                    
MATR.         SANDSTONE            : Logunit      - NEUTRON MATRIX              
TMAX.C        27.2222              : BHT          - MAXIMUM RECORDED TEMPERATURE
BHTD.M        722.986              : BHTDEP       - MAXIMUM RECORDED TEMPERATURE
RMT .C        25                   : MDTP         - TEMPERATURE OF MUD          
MUDD.KG/M     3800                 : MWT          - MUD DENSITY                 
NEUT.         1                    : NEUTRON      - NEUTRON TYPE                
RESI.         0                    : RESIST       - RESISTIVITY TYPE            
RM  .OHMM     2.66                 : RM           - RESISTIVITY OF MUD          
RMC .OHMM     3.01                 : RMC          - RESISTIVITY OF MUD CAKE     
RMF .OHMM     1.71                 : RMF          - RESISTIVITY OF MUD FILTRATE 
SUFT.C        10                   : SUFT         - SURFACE TEMPERATURE         
~A  DEPTH     DELT      CAL       GR     RESD
# ...
  620.400  308.477  233.092   66.602    4.300
  620.650  304.284  232.126   61.700    4.262
  620.900  306.177  230.660   61.430    4.185
  621.150  313.825  229.697   66.372    4.108
  621.400  320.184  229.229   72.186    3.954
  621.650  310.566  227.265   67.573    3.916
  621.900  300.941  224.302   59.489    3.994
  622.150  294.197  220.341   53.136    4.110
  622.400  312.713  211.892   38.680    4.227
  622.650  329.315  205.943   33.199    4.421
  622.900  334.395  205.468   30.902    4.614
  623.150  330.532  205.000   30.349    4.924
  623.400  328.901  206.037   31.814    5.234
  623.650  333.352  206.567   30.099    5.428
  623.900  335.873  206.595   30.698    5.467
  624.150  340.005  207.125   31.008    5.507
  624.400  339.968  207.663   31.897    5.584
  624.650  338.344  207.695   32.790    5.701
  624.900  339.278  207.726   33.969    5.895
  625.150  340.844  207.262   34.278    6.011
  625.400  338.253  207.293   31.690    6.128
  625.650  338.228  207.325   30.841    6.244
  625.900  337.548  207.356   32.025    6.206
  626.150  336.244  207.890   30.018    6.091
  626.400  334.620  207.922   28.588    6.014
  626.650  331.066  208.448   27.160    5.782
  626.900  330.717  208.483   28.343    5.782
  627.150  331.004  208.519   29.809    5.783
  627.400  330.655  208.055   31.279    5.822
  627.650  331.266  207.080   31.881    5.900
  627.900  331.560  206.612   32.480    5.900
  628.150  332.490  205.650   32.208    5.901
  628.400  331.178  206.180   32.520    5.901
  628.650  329.551  205.213   33.119    6.134
  628.900  329.841  203.751   33.721    6.328
  629.150  331.731  203.287   33.452    6.522
  629.400  333.297  203.323   33.472    6.638
  629.650  332.628  203.346   33.492    6.677
  629.900  329.394  203.888   33.514    6.600
  630.150  327.774  203.920   33.537    6.485
  630.400  326.782  203.947   33.557    6.485
  630.650  326.753  204.477   33.864    6.447
  630.900  326.720  204.509   35.626    6.447
  631.150  327.650  205.047   37.386    6.603
  631.400  328.896  205.573   37.691    6.642
  631.650  325.673  205.608   38.292    6.797
  631.900  320.528  205.141   37.444    6.991
  632.150  317.930  205.180   38.046    7.262
  632.400  317.589  205.698   38.932    7.649
  632.650  316.920  206.237   41.273    8.037
  632.900  314.006  206.763   42.739    8.269
  633.150  315.256  206.802   42.759    8.463
  633.400  316.510  207.325   45.102    8.967
  633.650  319.035  207.859   45.407   10.476
  633.900  320.601  207.894   46.877   11.908
  634.150  323.133  206.927   47.479   12.256
  634.400  325.019  206.959   47.789   11.715
  634.650  324.035  207.489   51.573   11.135
  634.900  322.723  207.524   52.174   10.749
  635.150  321.095  206.558   52.484   11.020
  635.400  318.185  206.090   49.027   11.910
  635.650  311.760  205.626   44.417   13.033
  635.900  305.017  205.653   48.201   14.194
  636.150  296.990  205.190   49.961   14.929
  636.400  303.356  205.225   49.405   14.427
  636.650  294.054  205.759   49.714   12.145
  636.900  274.197  205.783   47.705   11.488
  637.150  282.482  206.317   52.647   11.256
  637.400  302.916  206.851   59.042   11.295
  637.650  298.087  207.881   62.245   11.296
  637.900  298.062  207.912   67.766   10.871
  638.150  293.233  207.943   71.842    9.633
  638.400  278.172  205.487   75.337    8.628
  638.650  264.394  204.017   58.853    8.396
  638.900  272.358  203.047   54.533    8.397
  639.150  295.671  202.587   53.400    8.513
  639.400  306.513  202.618   52.551    8.552
  639.650  307.763  202.650   52.858    8.321
  639.900  308.370  203.180   55.192    7.934
  640.150  305.787  204.213   59.560    7.664
  640.400  296.161  205.239   59.870    8.361
  640.650  288.775  207.270   59.019   13.235
  640.900  305.696  208.299   61.937   15.441
  641.150  329.008  209.828   69.195   17.182
  641.400  321.625  209.360   70.665   19.310
  641.650  313.599  209.391   68.948   18.846
  641.900  324.441  208.928   71.285   19.350
  642.150  334.967  209.957   74.782   19.892
  642.400  341.653  210.990   74.225   20.395
  642.650  348.335  209.524   73.664   19.003
  642.900  332.318  204.565   69.054   17.108
  643.150  313.740  206.102   68.205   12.312
  643.400  299.958  205.131   58.958    6.974
  643.650  288.415  204.168   34.657    5.659
  643.900  287.426  203.696   21.361    5.427
  644.150  282.601  202.239   20.510    7.671
  644.400  260.506  201.763   17.634   15.409
  644.650  247.363  201.299   14.764   17.846
  644.900  249.892  201.841   17.967   20.013
  645.150  255.938  201.861   22.040   21.135
  645.400  284.367  201.393   25.537   22.103
  645.650  314.717  201.432   21.217   22.568
  645.900  334.197  200.961   18.634   22.143
  646.150  336.722  200.992   34.578   20.944
  646.400  339.887  201.027   56.603   19.474
  646.650  331.548  201.066   71.971   18.662
  646.900  292.822  200.591   69.385   17.966
  647.150  275.203  201.125   49.425   17.387
  647.400  237.120  201.164   32.652   18.702
  647.650  219.501  200.689   25.723   19.902
  647.900  233.861  200.724   24.587   21.295
  648.150  247.581  200.751   29.819   22.843
  648.400  262.903  200.786   35.920   23.192
  648.650  270.228  201.321   38.840   23.154
  648.900  263.161  201.348   39.150   22.844
  649.150  272.405  201.379   48.145   20.911
  649.400  280.689  201.415   58.299   19.132
  649.650  289.293  201.454   59.770   16.540
  649.900  272.954  201.481   52.841   14.955
  650.150  235.830  201.512   24.484   14.723
  650.400  205.098  201.548   19.292   14.917
  650.650  190.680  202.074   15.259   15.265
  650.900  199.924  202.105   15.571   15.382
  651.150  249.779  201.646   33.834   15.924
  651.400  262.220  201.673   61.942   17.085
  651.650  274.985  201.708   63.410   18.207
  651.900  286.466  201.736   62.277   19.175
  652.150  287.713  201.771   59.980   20.529
  652.400  289.602  200.305   58.555   22.039
  652.650  293.730  199.338   57.415   23.161
  652.900  275.152  198.379   58.596   23.974
  653.150  275.762  197.908   58.037   24.129
  653.400  296.517  197.939   61.818   23.859
  653.650  310.880  198.477   64.734   23.008
  653.900  283.668  199.011   39.564   18.831
  654.150  226.074  199.035   25.397   14.034
  654.400  219.330  199.070   21.074   10.282
  654.650  199.473  199.098   17.909    9.161
  654.900  184.092  199.137   21.693    8.117
  655.150  203.248  199.164   32.428    6.144
  655.400  241.912  199.195   40.269    4.404
  655.650  252.115  199.231   50.135    3.244
  655.900  268.716  200.260   62.895    2.741
  656.150  296.829  201.289   92.161    4.599
  656.400  353.719  202.818   98.264    7.500
  656.650  349.853  203.851  100.600   10.596
  656.900  333.193  204.884   92.803   12.917
  657.150  320.051  203.922   84.426   15.858
  657.400  313.946  200.456   81.264   15.936
  657.650  310.400  198.000   79.544   12.570
  657.900  310.044  198.023   77.253   10.791
  658.150  299.147  199.552   74.086    9.128
  658.400  273.534  198.589   63.103    7.388
  658.650  235.128  198.125   52.700    6.692
  658.900  240.215  198.156   49.535    6.461
  659.150  257.133  199.681   57.663    6.732
  659.400  278.850  200.223   64.924    7.158
  659.650  311.755  200.753   67.263    7.004
  659.900  306.290  200.781   74.231    6.733
  660.150  301.142  200.313   81.779    6.424
  660.400  303.027  199.350   84.698    6.270
  660.650  307.798  199.381   80.664    6.154
  660.900  317.365  198.411   72.577    6.077
  661.150  328.207  197.943   65.648    5.885
  661.400  336.492  196.984   58.719    5.846
  661.650  338.054  196.520   56.136    6.040
  661.900  337.389  196.552   55.867    6.195
  662.150  335.122  197.078   58.493    6.157
  662.400  334.453  197.616   59.094    6.042
  662.650  333.778  199.145   61.431    6.042
  662.900  323.200  199.667   64.346    6.468
  663.150  318.052  199.702   77.688    7.552
  663.400  314.186  201.231   84.077    7.397
  663.650  312.870  202.763   83.519    7.243
