~VERSION INFORMATION
 VERS.                 2.0:   CWLS LOG ASCII STANDARD -VERSION 2.0
 WRAP.                  NO:   ONE LINE PER DEPTH STEP
~WELL INFORMATION BLOCK
#MNEM.UNIT           DATA                    DESCRIPTION OF MNEMONIC
#---------    -------------------            -------------------------------
# Generated from Intellog Unique Number	CW_73_75/WELL/2980
WELL.         PINNACLE ET AL MARTENH 15-24   : Well_name    - WELL
LOC .         00/15-24-074-02W5/0            : Location     - LOCATION
UWI .         00/15-24-074-02W5/0            : Uwi          - UNIQUE WELL ID
ENTR.         J                              : Entered      - ENTERED BY
SRVC.         SCHLUMBERGER                   : Scn          - SERVICE COMPANY
DATE.         20 JAN 89                      : Date         - LOG DATE
STRT.M        400                            : top_depth    - START DEPTH
STOP.M        615                            : bot_depth    - STOP DEPTH
STEP.M        0.25                           : increment    - STEP LENGTH
 NULL. -999.2500:NULL Value
~CURVE INFORMATION BLOCK
#MNEM UNIT       ERCB CURVE CODE    CURVE DESCRIPTION
#-----------   ------------------   ----------------------------------
DEPT.M        00 001 00 00         : DEPTH        - DEPTH
ILD .OHMM     00 120 00 00         : RESD         - DEEP RESISTIVITY (DIL)
CALI.MM       00 280 01 00         : CAL          - CALIPER
GR  .API      00 310 00 00         : GR           - GAMMA RAY
NPHI.V/V      00 330 00 00         : PHIN         - NEUTRON POROSITY (SANDSTONE)
DPHI.V/V      00 890 00 00         : PHID         - DENSITY POROSITY (SANDSTONE)
~PARAMETER INFORMATION
#MNEM.UNIT           DATA             DESCRIPTION OF MNEMONIC
#---------         -----------     ------------------------------
GL  .M        670.3                : gl           - GROUND LEVEL ELEVATION
EREF.M        673.7                : kb           - ELEVATION OF DEPTH REFERENCE
DATM.M        670.3                : datum        - DATUM ELEVATION
TDD .M        624.2                : tdd          - TOTAL DEPTH DRILLER
RUN .         ONE                  : Run          - RUN NUMBER
ENG .         ZACHYSTAL            : Engineer     - RECORDING ENGINEER
WIT .         COX                  : Witness      - WITNESSED BY
BASE.         SLAVE LAKE           : Branch       - HOME BASE OF LOGGING UNIT
MUD .         POLYMER              : Mud_type     - MUD TYPE
MATR.         SANDSTONE            : Logunit      - NEUTRON MATRIX
TMAX.C        36                   : BHT          - MAXIMUM RECORDED TEMPERATURE
BHTD.M        619.3                : BHTDEP       - MAXIMUM RECORDED TEMPERATURE
RMT .C        16                   : MDTP         - TEMPERATURE OF MUD
MUDD.KG/M     1045                 : MWT          - MUD DENSITY
NEUT.         1                    : NEUTRON      - NEUTRON TYPE
RESI.         0                    : RESIST       - RESISTIVITY TYPE
RM  .OHMM     7.4                  : RM           - RESISTIVITY OF MUD
RMC .OHMM     0.25                 : RMC          - RESISTIVITY OF MUD CAKE
RMF .OHMM     2.1                  : RMF          - RESISTIVITY OF MUD FILTRATE
SUFT.C        -17.7778             : SUFT         - SURFACE TEMPERATURE
~A  DEPTH     RESD      CAL       GR     PHIN     PHID
# ...
  436.500    3.958  197.623   61.412    0.437    0.301
  436.750    3.887  196.725   59.534    0.426    0.308
  437.000    3.831  195.219   54.916    0.431    0.315
  437.250    3.804  193.611   55.900    0.425    0.319
  437.500    3.783  193.627   59.075    0.414    0.313
  437.750    3.784  194.457   59.267    0.432    0.266
  438.000    3.820  195.485   58.607    0.461    0.241
  438.250    3.870  197.024   57.947    0.429    0.277
  438.500    3.943  198.460   57.591    0.407    0.296
  438.750    3.987  199.185   57.356    0.390    0.251
  439.000    4.039  199.405   61.871    0.437    0.245
  439.250    4.077  199.217   66.021    0.446    0.270
  439.500    4.101  199.031   69.440    0.448    0.274
  439.750    4.057  198.540   69.997    0.449    0.290
  440.000    3.998  197.945   66.657    0.439    0.307
  440.250    3.926  197.353   64.050    0.434    0.321
  440.500    3.863  196.557   63.023    0.464    0.327
  440.750    3.793  195.659   64.007    0.449    0.329
  441.000    3.725  194.864   66.330    0.429    0.322
  441.250    3.651  194.371   69.140    0.437    0.311
  441.500    3.598  193.575   67.811    0.455    0.310
  441.750    3.533  192.780   66.359    0.447    0.321
  442.000    3.463  191.883   66.916    0.449    0.323
  442.250    3.364  191.187   70.335    0.459    0.313
  442.500    3.231  190.494   75.824    0.444    0.299
  442.750    3.019  190.103   76.807    0.429    0.283
  443.000    2.700  189.714   78.339    0.467    0.260
  443.250    2.318  189.932   82.548    0.482    0.300
  443.500    2.054  192.991   87.916    0.524    0.376
  443.750    1.951  200.820   91.517    0.541    0.411
  444.000    1.919  199.822   90.431    0.532    0.338
  444.250    1.923  196.287   78.629    0.505    0.293
  444.500    2.128  195.897   58.914    0.452    0.298
  444.750    2.625  198.550   50.157    0.442    0.325
  445.000    3.316  200.494   50.776    0.443    0.324
  445.250    3.870  198.886   54.255    0.461    0.322
  445.500    4.196  200.120   54.569    0.457    0.329
  445.750    4.338  201.150   51.534    0.427    0.341
  446.000    4.371  201.369   49.352    0.413    0.347
  446.250    4.372  196.617   47.778    0.424    0.349
  446.500    4.262  194.297   48.214    0.425    0.350
  446.750    4.170  193.503   50.476    0.458    0.347
  447.000    4.110  193.112   50.425    0.473    0.348
  447.250    4.081  195.867   48.669    0.437    0.353
  447.500    4.089  199.028   46.791    0.420    0.346
  447.750    4.120  199.145   47.227    0.416    0.333
  448.000    4.182  195.814   48.028    0.412    0.335
  448.250    4.229  194.510   48.099    0.413    0.343
  448.500    4.292  194.423   48.412    0.428    0.349
  448.750    4.309  195.150   48.117    0.426    0.348
  449.000    4.333  196.384   47.579    0.421    0.345
  449.250    4.318  196.703   45.457    0.420    0.345
  449.500    4.256  196.617   46.075    0.427    0.339
  449.750    4.180  196.736   47.547    0.425    0.346
  450.000    4.104  196.852   46.704    0.419    0.356
  450.250    4.045  196.665   43.851    0.421    0.358
  450.500    3.979  196.478   40.330    0.424    0.352
  450.750    3.944  195.989   42.227    0.441    0.350
  451.000    3.937  195.292   44.854    0.453    0.360
  451.250    4.041  194.090   48.029    0.461    0.372
  451.500    4.513  192.483   47.916    0.287    0.313
  451.750    5.012  199.094   43.543    0.274    0.184
  452.000    5.556  196.674   43.856    0.308    0.163
  452.250    6.025  190.603   45.937    0.410    0.268
  452.500    6.105  188.082   48.929    0.460    0.361
  452.750    6.095  190.635   51.556    0.474    0.359
  453.000    6.085  194.302   54.183    0.304    0.260
  453.250    5.877  195.941   48.348    0.303    0.157
  453.500    5.471  193.927   45.861    0.376    0.195
  453.750    5.151  192.523   48.368    0.471    0.280
  454.000    4.605  192.539   51.421    0.501    0.340
  454.250    4.156  193.773   54.413    0.471    0.342
  454.500    3.729  195.817   57.710    0.459    0.326
  454.750    3.409  198.369   60.642    0.454    0.318
  455.000    3.065  198.588   64.914    0.449    0.322
  455.250    2.869  196.576   66.019    0.464    0.318
  455.500    2.844  194.462   61.888    0.460    0.327
  455.750    2.876  193.156   52.522    0.458    0.345
  456.000    2.919  193.073   51.557    0.453    0.351
  456.250    2.963  192.989   57.107    0.452    0.343
  456.500    2.985  193.510   57.360    0.468    0.332
  456.750    2.991  193.829   53.838    0.466    0.341
  457.000    2.981  194.455   50.439    0.457    0.350
  457.250    2.954  194.879   50.753    0.439    0.351
  457.500    2.917  194.994   54.171    0.427    0.349
  457.750    2.864  195.010   62.461    0.450    0.346
  458.000    2.808  195.331   64.966    0.434    0.340
  458.250    2.808  195.041   55.600    0.431    0.327
  458.500    2.829  194.751   47.634    0.449    0.312
  458.750    2.856  194.260   45.878    0.444    0.327
  459.000    2.872  193.362   47.471    0.432    0.332
  459.250    2.894  191.754   49.550    0.433    0.333
  459.500    2.905  191.771   50.533    0.432    0.328
  459.750    2.906  193.511   48.777    0.427    0.320
  460.000    2.922  193.730   49.883    0.426    0.311
  460.250    2.939  190.397   56.102    0.412    0.311
  460.500    2.924  188.790   60.130    0.419    0.320
  460.750    2.903  190.531   59.713    0.434    0.326
  461.000    2.856  194.807   56.435    0.444    0.330
  461.250    2.835  196.549   56.993    0.455    0.336
  461.500    2.852  197.884   55.845    0.472    0.322
  461.750    2.921  198.812   52.567    0.517    0.402
  462.000    3.048  199.944   46.549    0.710    0.520
  462.250    3.499  201.380   39.253    0.646    0.772
  462.500    4.159  202.918   30.740    0.568    0.709
  462.750    5.055  203.644   42.560    0.475    0.599
  463.000    6.065  203.356   58.276    0.429    0.341
  463.250    6.235  201.241   65.043    0.417    0.265
  463.500    6.034  198.618   62.617    0.415    0.283
  463.750    5.576  192.444   63.662    0.435    0.302
  464.000    5.192  186.474   68.359    0.446    0.291
  464.250    5.193  188.621   70.926    0.447    0.259
  464.500    5.281  192.493   70.996    0.438    0.275
  464.750    5.449  194.638   64.491    0.427    0.302
  465.000    5.909  196.176   61.213    0.417    0.320
  465.250    6.245  196.700   58.361    0.433    0.322
  465.500    6.748  196.818   55.328    0.457    0.313
  465.750    7.264  196.832   53.875    0.463    0.308
  466.000    7.482  196.950   54.189    0.453    0.312
  466.250    7.539  196.154   58.339    0.436    0.314
  466.500    7.389  194.749   60.357    0.426    0.305
  466.750    7.229  194.055   60.062    0.445    0.306
  467.000    7.047  193.056   56.298    0.445    0.311
  467.250    6.732  190.840   55.332    0.423    0.316
  467.500    6.372  190.754   57.168    0.417    0.321
  467.750    5.878  193.103   56.508    0.417    0.326
  468.000    5.123  195.657   54.569    0.422    0.331
  468.250    4.639  198.107   52.996    0.438    0.324
  468.500    4.367  200.051   53.493    0.460    0.310
  468.750    4.273  201.081   58.494    0.468    0.322
  469.000    4.250  201.401   55.459    0.419    0.320
  469.250    4.306  202.229   48.711    0.374    0.252
  469.500    4.695  202.549   43.850    0.312    0.215
  469.750    5.253  201.449   38.929    0.266    0.157
  470.000    6.503  199.639   39.730    0.301    0.135
  470.250    8.475  197.016   43.758    0.373    0.257
  470.500    9.873  196.119   47.237    0.426    0.288
  470.750   10.435  196.034   51.265    0.436    0.290
  471.000    9.931  196.353   56.509    0.446    0.293
  471.250    8.718  196.370   61.511    0.453    0.305
  471.500    7.445  195.877   59.025    0.454    0.314
  471.750    6.536  196.299   56.660    0.454    0.310
  472.000    5.952  196.619   57.096    0.456    0.304
  472.250    5.697  197.346   60.940    0.457    0.293
  472.500    5.472  198.478   60.462    0.450    0.285
  472.750    5.285  199.508   57.428    0.434    0.278
