~VERSION INFORMATION
 VERS.                 2.0:   CWLS LOG ASCII STANDARD -VERSION 2.0
 WRAP.                  NO:   ONE LINE PER DEPTH STEP
~WELL INFORMATION BLOCK
#MNEM.UNIT           DATA                    DESCRIPTION OF MNEMONIC
#---------    -------------------            -------------------------------
# Generated from Intellog Unique Number	CS_73_76/WELL/2198
WELL.         BOW VALLEY EXPLORATION         : Well_name    - WELL
LOC .         00/11-07-074-15W4/0            : Location     - LOCATION
UWI .         00/11-07-074-15W4/0            : Uwi          - UNIQUE WELL ID
ENTR.         SP                             : Entered      - ENTERED BY
SRVC.         SCHLUMBERGER                   : Scn          - SERVICE COMPANY
STRT.M        286.512                        : top_depth    - START DEPTH
STOP.M        505.762                        : bot_depth    - STOP DEPTH
STEP.M        0.25                           : increment    - STEP LENGTH
 NULL. -999.2500:NULL Value
~CURVE INFORMATION BLOCK
#MNEM UNIT       ERCB CURVE CODE    CURVE DESCRIPTION
#-----------   ------------------   ----------------------------------
DEPT.M        00 001 00 00         : DEPTH        - DEPTH
GR  .API      00 310 00 00         : GR           - GAMMA RAY
DPHI.V/V      00 890 00 00         : PHID         - DENSITY POROSITY (SANDSTONE)
NPHI.V/V      00 330 00 00         : PHIN         - NEUTRON POROSITY (SANDSTONE)
ILD .OHMM     00 120 00 00         : RESD         - DEEP RESISTIVITY (DIL)
~PARAMETER INFORMATION
#MNEM.UNIT           DATA             DESCRIPTION OF MNEMONIC
#---------         -----------     ------------------------------
GL  .M        639.623              : gl           - GROUND LEVEL ELEVATION
EREF.M        640.69               : kb           - ELEVATION OF DEPTH REFERENCE
DATM.M        639.623              : datum        - DATUM ELEVATION
TDD .M        512.064              : tdd          - TOTAL DEPTH DRILLER
RUN .         ONE                  : Run          - RUN NUMBER
ENG .         BILL                 : Engineer     - RECORDING ENGINEER
WIT .         JIM                  : Witness      - WITNESSED BY
MUD .         GEL                  : Mud_type     - MUD TYPE
MATR.         SANDSTONE            : Logunit      - NEUTRON MATRIX
TMAX.C        16.6667              : BHT          - MAXIMUM RECORDED TEMPERATURE
BHTD.M        512.369              : BHTDEP       - MAXIMUM RECORDED TEMPERATURE
MATR.         1                    : LOGUNIT      - NEUTRON MATRIX
RMT .C        25                   : MDTP         - TEMPERATURE OF MUD
NEUT.         1                    : NEUTRON      - NEUTRON TYPE
RESI.         0                    : RESIST       - RESISTIVITY TYPE
RMC .OHMM     0.25                 : RMC          - RESISTIVITY OF MUD CAKE
RMF .OHMM     0.25                 : RMF          - RESISTIVITY OF MUD FILTRATE
SUFT.C        15                   : SUFT         - SURFACE TEMPERATURE
~A  DEPTH       GR     PHID     PHIN     RESD
# ...
  330.012   79.974    0.297    0.456    7.782
  330.262   82.080    0.366    0.530    7.643
  330.512   83.932    0.430    0.571    7.306
  330.762   82.229    0.396    0.541    7.512
  331.012   81.953    0.309    0.484    8.237
  331.262   80.534    0.269    0.475    8.927
  331.512   80.214    0.234    0.489    9.491
  331.762   79.645    0.247    0.482    9.734
  332.012   79.372    0.250    0.486    9.570
  332.262   82.901    0.246    0.498    8.973
  332.512   84.414    0.240    0.495    8.183
  332.762   82.935    0.225    0.503    7.750
  333.012   80.644    0.257    0.504    7.530
  333.262   77.487    0.278    0.513    7.406
  333.512   73.167    0.280    0.493    7.396
  333.762   68.687    0.282    0.486    7.706
  334.012   64.215    0.295    0.482    8.295
  334.262   60.518    0.309    0.481    8.889
  334.512   59.769    0.310    0.475    9.753
  334.762   64.191    0.314    0.460   10.168
  335.012   66.887    0.305    0.444   10.131
  335.262   70.435    0.295    0.459    9.668
  335.512   71.602    0.302    0.488    9.260
  335.762   65.570    0.305    0.542    9.080
  336.012   54.770    0.325    0.581    8.798
  336.262   49.549    0.360    0.608    9.084
  336.512   44.268    0.390    0.614    9.872
  336.762   46.413    0.268    0.451   11.207
  337.012   47.481    0.243    0.434   12.193
  337.262   48.482    0.257    0.426   12.699
  337.512   49.857    0.263    0.436   12.213
  337.762   50.962    0.274    0.451   12.303
  338.012   50.343    0.288    0.468   12.486
  338.262   50.627    0.304    0.474   12.468
  338.512   51.723    0.298    0.464   12.755
  338.762   53.256    0.310    0.460   12.522
  339.012   52.817    0.312    0.451   12.404
  339.262   50.712    0.314    0.444   12.287
  339.512   49.073    0.316    0.441   12.287
  339.762   49.436    0.322    0.438   12.296
  340.012   48.486    0.331    0.446   12.302
  340.262   46.769    0.338    0.455   12.121
  340.512   48.405    0.342    0.461   12.335
  340.762   49.745    0.350    0.467   12.320
  341.012   49.111    0.347    0.471   12.213
  341.262   47.041    0.344    0.474   12.315
  341.512   48.933    0.350    0.461   12.345
  341.762   50.199    0.332    0.465   12.094
  342.012   49.022    0.325    0.459   12.138
  342.262   48.116    0.333    0.452   12.410
  342.512   47.080    0.336    0.451   11.623
  342.762   46.778    0.331    0.451   11.693
  343.012   45.837    0.325    0.459   11.699
  343.262   44.295    0.329    0.459   11.688
  343.512   44.419    0.332    0.452   11.928
  343.762   44.841    0.321    0.452   11.927
  344.012   45.128    0.320    0.458   11.936
  344.262   46.687    0.347    0.450   11.944
  344.512   49.619    0.339    0.443   12.074
  344.762   50.944    0.351    0.437   12.168
  345.012   49.816    0.340    0.434   12.179
  345.262   50.146    0.332    0.426   12.184
  345.512   50.483    0.331    0.435   12.189
  345.762   52.012    0.333    0.440   12.192
  346.012   52.948    0.326    0.447   12.172
  346.262   52.248    0.330    0.447   12.425
  346.512   51.241    0.337    0.444   12.402
  346.762   49.972    0.333    0.442   11.953
  347.012   47.519    0.340    0.448   11.785
  347.262   46.683    0.339    0.457   11.791
  347.512   48.981    0.329    0.464   11.791
  347.762   49.838    0.332    0.465   11.791
  348.012   50.893    0.339    0.469   11.686
  348.262   51.174    0.347    0.478   11.595
  348.512   52.233    0.356    0.469   11.595
  348.762   53.489    0.356    0.450   11.600
  349.012   54.057    0.354    0.444   11.606
  349.262   52.071    0.347    0.452   11.610
  349.512   50.320    0.350    0.459   11.616
  349.762   48.740    0.357    0.469   11.620
  350.012   47.705    0.362    0.470   11.626
  350.262   48.633    0.363    0.464   11.630
  350.512   51.137    0.356    0.459   11.636
  350.762   51.464    0.357    0.453   11.634
  351.012   52.556    0.345    0.448   11.604
  351.262   55.563    0.334    0.443   11.444
  351.512   61.878    0.335    0.444   11.132
  351.762   69.779    0.352    0.453   10.825
  352.012   79.751    0.350    0.458   10.838
  352.262   89.264    0.344    0.484   10.769
  352.512   96.381    0.340    0.503   10.659
  352.762   78.198    0.350    0.512   11.104
  353.012   66.889    0.362    0.487   12.073
  353.262   57.274    0.354    0.482   12.801
  353.512   56.511    0.338    0.483   13.461
  353.762   61.110    0.315    0.486   13.862
  354.012   63.913    0.311    0.487   14.293
  354.262   62.915    0.324    0.486   14.765
  354.512   67.237    0.327    0.485   14.902
  354.762   70.371    0.323    0.505   15.134
  355.012   66.402    0.323    0.520   15.466
  355.262   61.286    0.322    0.520   15.446
  355.512   59.382    0.321    0.500   15.228
  355.762   57.167    0.327    0.478   15.181
  356.012   55.475    0.335    0.476   15.179
  356.262   55.071    0.332    0.480   14.994
  356.512   57.426    0.325    0.482   14.926
  356.762   57.868    0.327    0.486   14.923
  357.012   57.512    0.334    0.488   14.926
  357.262   57.207    0.330    0.481   14.925
  357.512   56.735    0.335    0.474   15.165
  357.762   55.856    0.341    0.465   16.351
  358.012   54.177    0.329    0.456   18.491
  358.262   53.835    0.327    0.442   20.991
  358.512   52.496    0.279    0.376   26.781
  358.762   51.257    0.222    0.330   32.588
  359.012   49.214    0.255    0.292   35.614
  359.262   49.017    0.318    0.318   34.379
  359.512   48.371    0.343    0.368   32.971
  359.762   47.681    0.348    0.398   31.053
  360.012   48.563    0.334    0.420   29.275
  360.262   49.011    0.334    0.451   27.538
  360.512   46.171    0.317    0.342   27.921
  360.762   42.800    0.168    0.294   34.181
  361.012   42.405    0.154    0.292   41.523
  361.262   42.909    0.196    0.337   51.529
  361.512   44.262    0.251    0.396   55.196
  361.762   44.719    0.298    0.434   52.251
  362.012   38.763    0.312    0.468   46.788
  362.262   36.382    0.185    0.352   41.166
  362.512   34.690    0.033    0.134   39.376
  362.762   35.469    0.003    0.121   38.855
  363.012   36.368    0.000    0.148   42.685
  363.262   40.069    0.017    0.195   50.034
  363.512   42.395    0.169    0.265   57.577
  363.762   47.560    0.229    0.356   51.916
  364.012   49.099    0.337    0.430   36.857
  364.262   49.917    0.370    0.488   26.687
  364.512   51.998    0.380    0.503   20.048
  364.762   52.987    0.370    0.513   15.824
  365.012   53.276    0.372    0.510   13.461
  365.262   55.588    0.366    0.504   12.532
  365.512   57.403    0.373    0.511   11.604
  365.762   56.294    0.361    0.518   11.302
  366.012   58.021    0.352    0.528   11.310
  366.262   60.011    0.346    0.535   11.311
  366.512   59.361    0.355    0.512   11.316
  366.762   58.098    0.355    0.511   11.322
  367.012   56.141    0.361    0.502   11.326
  367.262   55.754    0.351    0.513   11.330
  367.512   54.929    0.341    0.527   11.329
  367.762   57.167    0.355    0.522   11.321
  368.012   60.151    0.341    0.509   11.133
  368.262   62.257    0.357    0.505   11.219
  368.512   63.576    0.350    0.504   11.351
  368.762   64.309    0.346    0.514   11.510
  369.012   62.709    0.350    0.516   11.575
  369.262   61.781    0.347    0.500   11.383
  369.512   61.597    0.347    0.494   10.128
  369.762   66.065    0.355    0.494    8.238
  370.012   75.725    0.312    0.506    7.039
  370.262   78.265    0.275    0.528    5.454
  370.512   79.927    0.255    0.554    4.143
  370.762   81.337    0.262    0.570    3.589
  371.012   83.306    0.266    0.595    3.279
  371.262   85.244    0.288    0.610    3.155
  371.512   85.721    0.291    0.625    3.040
  371.762   85.175    0.291    0.597    3.129
  372.012   84.623    0.309    0.576    3.226
  372.262   83.924    0.299    0.572    3.406
  372.512   85.850    0.315    0.564    3.654
  372.762   89.407    0.275    0.559    4.010
  373.012   86.940    0.257    0.563    4.428
  373.262   83.046    0.267    0.508    5.003
