~VERSION INFORMATION
 VERS.                 2.0:   CWLS LOG ASCII STANDARD -VERSION 2.0
 WRAP.                  NO:   ONE LINE PER DEPTH STEP
~WELL INFORMATION BLOCK
#MNEM.UNIT           DATA                    DESCRIPTION OF MNEMONIC
#---------    -------------------            -------------------------------
# Generated from Intellog Unique Number	CW_76_78/WELL/1034
WELL.         OAKPETROREP ET AL MARTEN 16-12 : Well_name    - WELL
LOC .         00/16-12-076-03W5/0            : Location     - LOCATION
UWI .         00/16-12-076-03W5/0            : Uwi          - UNIQUE WELL ID
ENTR.         JAYE                           : Entered      - ENTERED BY
SRVC.         SCHLUMBERGER                   : Scn          - SERVICE COMPANY
DATE.         16 FEB 79                      : Date         - LOG DATE
STRT.M        550                            : top_depth    - START DEPTH
STOP.M        760                            : bot_depth    - STOP DEPTH
STEP.M        0.25                           : increment    - STEP LENGTH
 NULL. -999.2500:NULL Value
~CURVE INFORMATION BLOCK
#MNEM UNIT       ERCB CURVE CODE    CURVE DESCRIPTION
#-----------   ------------------   ----------------------------------
DEPT.M        00 001 00 00         : DEPTH        - DEPTH
ILD .OHMM     00 120 00 00         : RESD         - DEEP RESISTIVITY (DIL)
NPHI.V/V      00 330 00 00         : PHIN         - NEUTRON POROSITY (SANDSTONE)
DPHI.V/V      00 890 00 00         : PHID         - DENSITY POROSITY (SANDSTONE)
GR  .API      00 310 00 00         : GR           - GAMMA RAY
CALI.MM       00 280 01 00         : CAL          - CALIPER
~PARAMETER INFORMATION
#MNEM.UNIT           DATA             DESCRIPTION OF MNEMONIC
#---------         -----------     ------------------------------
GL  .M        834.8                : gl           - GROUND LEVEL ELEVATION
EREF.M        838.8                : kb           - ELEVATION OF DEPTH REFERENCE
DATM.M        834.8                : datum        - DATUM ELEVATION
TDD .M        809                  : tdd          - TOTAL DEPTH DRILLER
RUN .         ONE                  : Run          - RUN NUMBER
ENG .         GILLUS               : Engineer     - RECORDING ENGINEER
WIT .         LILLICO              : Witness      - WITNESSED BY
BASE.         EDM                  : Branch       - HOME BASE OF LOGGING UNIT
MUD .         GEL MUD              : Mud_type     - MUD TYPE
MATR.         SANDSTONE            : Logunit      - NEUTRON MATRIX
TMAX.C        28                   : BHT          - MAXIMUM RECORDED TEMPERATURE
BHTD.M        809.3                : BHTDEP       - MAXIMUM RECORDED TEMPERATURE
RMT .C        20                   : MDTP         - TEMPERATURE OF MUD
MUDD.KG/M     1080                 : MWT          - MUD DENSITY
NEUT.         1                    : NEUTRON      - NEUTRON TYPE
RESI.         0                    : RESIST       - RESISTIVITY TYPE
RM  .OHMM     3.53                 : RM           - RESISTIVITY OF MUD
RMC .OHMM     0                    : RMC          - RESISTIVITY OF MUD CAKE
RMF .OHMM     3.35                 : RMF          - RESISTIVITY OF MUD FILTRATE
SUFT.C        0                    : SUFT         - SURFACE TEMPERATURE
~A  DEPTH     RESD     PHIN     PHID       GR      CAL
# ...
  623.000    4.569    0.471    0.302   66.970  201.125
  623.250    4.623    0.467    0.293   65.752  200.774
  623.500    4.661    0.468    0.293   68.606  200.204
  623.750    4.681    0.475    0.301   72.652  199.430
  624.000    4.676    0.474    0.302   69.242  198.235
  624.250    4.662    0.474    0.311   67.335  197.146
  624.500    4.656    0.477    0.320   67.306  197.098
  624.750    4.677    0.488    0.317   67.466  198.508
  625.000    4.662    0.494    0.319   68.191  199.516
  625.250    4.562    0.473    0.325   69.164  202.909
  625.500    4.456    0.487    0.328   69.890  206.625
  625.750    4.343    0.504    0.355   70.615  213.156
  626.000    4.235    0.500    0.345   71.589  213.422
  626.250    4.136    0.479    0.323   71.250  203.878
  626.500    3.987    0.485    0.309   71.907  201.220
  626.750    3.894    0.483    0.316   72.758  199.820
  627.000    3.825    0.483    0.303   71.664  198.732
  627.250    3.806    0.495    0.304   73.768  198.043
  627.500    3.844    0.505    0.320   75.683  197.803
  627.750    3.912    0.486    0.341   75.467  197.962
  628.000    3.988    0.472    0.338   73.184  198.122
  628.250    4.066    0.461    0.329   72.154  198.595
  628.500    4.216    0.450    0.322   72.755  198.873
  628.750    4.379    0.466    0.313   76.859  199.448
  629.000    4.548    0.493    0.364   80.211  199.918
  629.250    4.724    0.530    0.331   79.122  200.403
  629.500    4.871    0.544    0.305   78.467  201.087
  629.750    4.966    0.538    0.309   77.939  201.772
  630.000    4.914    0.511    0.304   81.606  203.181
  630.250    4.693    0.469    0.314   88.028  203.870
  630.500    4.458    0.483    0.262   86.311  204.243
  630.750    4.178    0.503    0.272   82.837  204.613
  631.000    3.953    0.505    0.281   83.751  204.770
  631.250    3.804    0.484    0.268   87.792  204.834
  631.500    3.695    0.481    0.260   90.647  205.091
  631.750    3.622    0.482    0.254   91.997  205.255
  632.000    3.604    0.472    0.243   89.589  205.430
  632.250    3.654    0.458    0.223   89.937  205.998
  632.500    3.746    0.457    0.228   89.783  206.366
  632.750    3.855    0.475    0.216   89.569  206.317
  633.000    3.982    0.488    0.224   91.732  206.287
  633.250    4.075    0.497    0.239   94.399  206.030
  633.500    4.225    0.505    0.240   95.559  206.192
  633.750    4.380    0.511    0.220   96.221  206.244
  634.000    4.474    0.496    0.199   97.568  206.412
  634.250    4.536    0.478    0.193   98.108  206.262
  634.500    4.505    0.471    0.198   93.197  206.430
  634.750    4.492    0.485    0.211   91.348  206.074
  635.000    4.470    0.487    0.211   94.394  205.918
  635.250    4.431    0.494    0.216   97.370  206.386
  635.500    4.336    0.504    0.204   99.034  206.971
  635.750    4.204    0.496    0.184   99.570  208.599
  636.000    4.082    0.482    0.218  101.735  211.261
  636.250    4.002    0.485    0.227  100.079  212.684
  636.500    4.020    0.474    0.202  100.679  213.890
  636.750    4.053    0.470    0.224  103.152  208.941
  637.000    4.078    0.461    0.223  105.569  204.511
  637.250    4.074    0.446    0.208  105.606  206.135
  637.500    4.061    0.458    0.185   98.689  208.491
  637.750    4.064    0.472    0.171   95.031  211.054
  638.000    4.059    0.480    0.190   93.248  212.989
  638.250    4.039    0.490    0.202   96.978  213.363
  638.500    4.004    0.502    0.208   99.643  212.582
  638.750    3.925    0.510    0.198  101.179  210.867
  639.000    3.848    0.517    0.184  102.218  211.137
  639.250    3.737    0.504    0.206  103.444  211.924
  639.500    3.712    0.502    0.207  105.546  213.338
  639.750    3.736    0.517    0.226  100.508  214.966
  640.000    3.752    0.537    0.252   97.912  216.277
  640.250    3.825    0.520    0.216   98.947  217.371
  640.500    3.850    0.500    0.233  100.300  218.060
  640.750    3.830    0.477    0.215   97.766  218.643
  641.000    3.797    0.474    0.216   94.107  216.823
  641.250    3.814    0.486    0.222   90.696  211.350
  641.500    3.895    0.481    0.245   88.227  205.877
  641.750    4.039    0.471    0.257   88.264  201.449
  642.000    4.380    0.465    0.230   92.057  199.104
  642.250    4.609    0.467    0.210   94.095  199.895
  642.500    4.673    0.464    0.192   95.256  203.083
  642.750    4.676    0.466    0.184   96.921  206.588
  643.000    4.679    0.460    0.172   95.391  208.207
  643.250    4.648    0.470    0.201   93.296  206.803
  643.500    4.642    0.478    0.234   92.581  205.509
  643.750    4.628    0.492    0.226   92.552  202.957
  644.000    4.553    0.488    0.204   95.468  201.139
  644.250    4.431    0.483    0.205   96.253  199.522
  644.500    4.393    0.497    0.218   92.156  198.750
  644.750    4.486    0.496    0.225   88.496  197.863
  645.000    4.643    0.479    0.244   86.028  197.404
  645.250    4.832    0.459    0.265   85.622  196.935
  645.500    5.191    0.446    0.288   85.216  196.887
  645.750    5.576    0.454    0.286   83.876  196.957
  646.000    5.538    0.463    0.280   81.721  197.424
  646.250    5.542    0.465    0.275   80.630  197.485
  646.500    5.650    0.474    0.291   81.478  197.644
  646.750    5.696    0.486    0.283   82.140  197.494
  647.000    5.711    0.484    0.278   81.735  197.457
  647.250    5.651    0.478    0.263   80.764  197.614
  647.500    5.718    0.473    0.294   80.490  197.668
  647.750    5.875    0.470    0.295   80.899  197.838
  648.000    5.966    0.471    0.284   81.251  197.680
  648.250    6.071    0.475    0.273   80.095  197.540
  648.500    6.213    0.483    0.287   73.243  197.597
  648.750    6.490    0.486    0.296   72.585  197.859
  649.000    6.792    0.476    0.292   74.311  197.921
  649.250    6.899    0.460    0.289   75.913  198.085
  649.500    7.021    0.449    0.297   75.570  198.458
  649.750    7.064    0.462    0.301   74.293  198.517
  650.000    6.849    0.476    0.289   73.390  198.674
  650.250    6.565    0.483    0.297   73.110  198.838
  650.500    6.212    0.488    0.297   71.705  198.999
  650.750    6.021    0.497    0.288   70.551  199.367
  651.000    5.762    0.507    0.285   72.211  199.318
  651.250    5.534    0.487    0.297   73.627  199.580
  651.500    5.334    0.489    0.303   75.165  199.652
  651.750    5.114    0.484    0.295   77.079  199.609
  652.000    4.967    0.474    0.296   78.429  199.560
  652.250    4.933    0.481    0.300   80.466  199.808
  652.500    4.936    0.489    0.297   83.259  199.769
  652.750    4.968    0.485    0.315   88.931  199.845
  653.000    4.989    0.471    0.298  102.992  200.405
  653.250    4.974    0.453    0.283   97.079  200.472
  653.500    4.913    0.481    0.295   79.578  200.636
  653.750    4.807    0.482    0.283   71.597  200.907
  654.000    4.721    0.469    0.280   65.058  200.971
  654.250    4.751    0.452    0.299   63.404  201.023
  654.500    5.019    0.430    0.288   63.437  201.291
  654.750    5.351    0.406    0.271   62.158  201.562
  655.000    5.780    0.368    0.230   60.126  201.929
  655.250    6.703    0.289    0.106   59.783  202.097
  655.500    7.745    0.276    0.078   59.131  201.840
  655.750    9.016    0.315    0.098   56.098  201.067
  656.000    9.630    0.347    0.153   57.381  198.201
  656.250    8.041    0.443    0.221   61.804  196.172
  656.500    7.074    0.484    0.290   68.540  195.501
  656.750    6.235    0.476    0.313   74.963  195.652
  657.000    5.516    0.467    0.302   74.811  196.131
  657.250    5.009    0.449    0.293   76.097  196.825
  657.500    4.473    0.453    0.294   80.641  199.070
  657.750    3.928    0.477    0.281   86.750  201.742
  658.000    3.567    0.495    0.256   92.734  207.960
  658.250    3.331    0.508    0.249   95.900  216.368
  658.500    3.241    0.512    0.257   94.682  207.241
  658.750    3.225    0.525    0.239   89.772  203.646
  659.000    3.363    0.530    0.259   83.043  203.811
  659.250    3.764    0.496    0.265   79.697  205.012
