~VERSION INFORMATION
 VERS.                 2.0:   CWLS LOG ASCII STANDARD -VERSION 2.0
 WRAP.                  NO:   ONE LINE PER DEPTH STEP
~WELL INFORMATION BLOCK
#MNEM.UNIT           DATA                    DESCRIPTION OF MNEMONIC
#---------    -------------------            -------------------------------
# Generated from Intellog Unique Number	CW_76_78/WELL/2582
WELL.         BAYSEL WILLOW R                : Well_name    - WELL
LOC .         00/11-25-078-03W5/0            : Location     - LOCATION
UWI .         00/11-25-078-03W5/0            : Uwi          - UNIQUE WELL ID
ENTR.         MAX                            : Entered      - ENTERED BY
SRVC.         SCHLUMBERGER                   : Scn          - SERVICE COMPANY
STRT.M        347.472                        : top_depth    - START DEPTH
STOP.M        609.722                        : bot_depth    - STOP DEPTH
STEP.M        0.25                           : increment    - STEP LENGTH
 NULL. -999.2500:NULL Value
~CURVE INFORMATION BLOCK
#MNEM UNIT       ERCB CURVE CODE    CURVE DESCRIPTION
#-----------   ------------------   ----------------------------------
DEPT.M        00 001 00 00         : DEPTH        - DEPTH
ILD .OHMM     00 120 00 00         : RESD         - DEEP RESISTIVITY (DIL)
NPHI.V/V      00 330 00 00         : PHIN         - NEUTRON POROSITY (SANDSTONE)
DPHI.V/V      00 890 00 00         : PHID         - DENSITY POROSITY (SANDSTONE)
CALI.MM       00 280 01 00         : CAL          - CALIPER
GR  .API      00 310 00 00         : GR           - GAMMA RAY
~PARAMETER INFORMATION
#MNEM.UNIT           DATA             DESCRIPTION OF MNEMONIC
#---------         -----------     ------------------------------
GL  .M        649.102              : gl           - GROUND LEVEL ELEVATION
EREF.M        653.308              : kb           - ELEVATION OF DEPTH REFERENCE
DATM.M        649.102              : datum        - DATUM ELEVATION
TDD .M        619.963              : tdd          - TOTAL DEPTH DRILLER
RUN .         ONE                  : Run          - RUN NUMBER
ENG .         BILL                 : Engineer     - RECORDING ENGINEER
WIT .         JIM                  : Witness      - WITNESSED BY
MUD .         GEL                  : Mud_type     - MUD TYPE
MATR.         SANDSTONE            : Logunit      - NEUTRON MATRIX
TMAX.C        27.2222              : BHT          - MAXIMUM RECORDED TEMPERATURE
BHTD.M        619.963              : BHTDEP       - MAXIMUM RECORDED TEMPERATURE
RMT .C        12.2222              : MDTP         - TEMPERATURE OF MUD
MUDD.KG/M     9100                 : MWT          - MUD DENSITY
NEUT.         1                    : NEUTRON      - NEUTRON TYPE
RESI.         0                    : RESIST       - RESISTIVITY TYPE
RM  .OHMM     0.25                 : RM           - RESISTIVITY OF MUD
RMC .OHMM     0.25                 : RMC          - RESISTIVITY OF MUD CAKE
RMF .OHMM     1.3                  : RMF          - RESISTIVITY OF MUD FILTRATE
SUFT.C        -15                  : SUFT         - SURFACE TEMPERATURE
~A  DEPTH     RESD     PHIN     PHID      CAL       GR
# ...
  383.972   13.576    0.384    0.265  145.567   31.576
  384.222   15.631    0.353    0.240  145.540   32.157
  384.472   16.899    0.336    0.248  145.509   35.126
  384.722   17.803    0.339    0.265  144.955   35.705
  384.972   18.585    0.395    0.279  144.941   35.390
  385.222   18.894    0.416    0.303  144.910   34.477
  385.472   18.037    0.433    0.312  145.392   33.266
  385.722   17.538    0.414    0.300  145.364   32.352
  385.972   17.502    0.385    0.280  145.333   32.632
  386.222   18.434    0.362    0.263  146.317   32.317
  386.472   18.578    0.333    0.243  146.795   31.108
  386.722   17.735    0.307    0.237  146.764   31.389
  386.972   16.635    0.323    0.251  146.730   32.866
  387.222   16.029    0.396    0.271  145.185   33.445
  387.472   15.445    0.436    0.287  143.138   34.026
  387.722   15.282    0.406    0.292  142.601   35.203
  387.972   15.398    0.409    0.273  142.601   34.591
  388.222   15.512    0.417    0.271  143.048   33.673
  388.472   16.047    0.413    0.278  145.051   33.362
  388.722   16.456    0.401    0.272  146.534   33.941
  388.972   17.023    0.404    0.288  147.012   34.520
  389.222   17.143    0.432    0.313  146.985   35.103
  389.472   16.672    0.424    0.320  146.448   36.578
  389.722   15.362    0.414    0.318  146.448   39.848
  389.972   13.905    0.422    0.309  146.389   42.219
  390.222   13.046    0.451    0.307  146.365   41.309
  390.472   12.680    0.470    0.310  145.829   38.304
  390.722   12.774    0.472    0.313  145.292   37.391
  390.972   13.098    0.449    0.315  145.244   37.375
  391.222   13.434    0.434    0.321  145.237   38.552
  391.472   13.897    0.422    0.332  146.221   40.029
  391.722   13.753    0.457    0.339  148.719   42.699
  391.972   13.247    0.484    0.331  151.730   46.269
  392.222   12.764    0.518    0.333  149.676   43.262
  392.472   12.185    0.478    0.333  147.119   43.546
  392.722   11.538    0.428    0.326  147.119   50.097
  392.972   10.630    0.427    0.317  146.049   55.460
  393.222   10.148    0.456    0.301  146.021   53.351
  393.472   10.225    0.478    0.299  145.973   48.854
  393.722   10.963    0.513    0.312  145.963   43.760
  393.972   12.075    0.516    0.322  145.963   41.949
  394.222   13.779    0.469    0.317  145.894   42.232
  394.472   15.584    0.423    0.318  147.394   42.813
  394.722   16.558    0.426    0.309  148.378   42.199
  394.972   15.954    0.429    0.297  148.347   43.077
  395.222   14.058    0.433    0.292  147.308   46.346
  395.472   12.614    0.466    0.311  145.254   53.198
  395.722   11.021    0.494    0.320  146.235   59.158
  395.972    7.844    0.458    0.315  149.242   65.712
  396.222    5.534    0.440    0.301  151.241   79.436
  396.472    4.501    0.482    0.296  153.237   76.134
  396.722    3.897    0.524    0.303  156.740   71.934
  396.972    3.788    0.556    0.291  155.704   68.034
  397.222    3.919    0.597    0.290  153.653   64.133
  397.472    4.128    0.582    0.292  150.082   59.337
  397.722    4.627    0.532    0.290  147.019   57.529
  397.972    5.188    0.484    0.303  146.992   60.497
  398.222    5.972    0.482    0.302  147.972   58.092
  398.472    6.577    0.471    0.304  148.960   54.789
  398.722    7.303    0.480    0.316  149.920   52.081
  398.972    7.425    0.470    0.299  150.918   49.974
  399.222    7.614    0.450    0.281  150.391   52.048
  399.472    7.601    0.420    0.268  149.851   54.720
  399.722    7.524    0.446    0.285  149.823   56.795
  399.972    7.313    0.473    0.308  149.796   57.075
  400.222    7.237    0.495    0.316  149.765   51.981
  400.472    7.289    0.501    0.321  149.741   51.662
  400.722    7.406    0.514    0.322  149.204   51.945
  400.972    7.597    0.515    0.313  148.161   52.524
  401.222    7.790    0.505    0.292  147.122   55.200
  401.472    7.847    0.476    0.292  147.098   63.846
  401.722    7.429    0.484    0.301  150.601   70.400
  401.972    6.261    0.469    0.273  153.615   85.319
  402.222    5.138    0.509    0.244  157.125   90.080
  402.472    4.570    0.558    0.216  157.098   93.050
  402.722    4.249    0.588    0.194  156.561   93.032
  402.972    4.130    0.572    0.195  156.513   92.421
  403.222    4.388    0.563    0.188  156.502   93.599
  403.472    4.748    0.532    0.179  156.475   93.284
  403.722    5.274    0.543    0.188  156.956   92.370
  403.972    5.655    0.532    0.208  158.945   92.053
  404.222    6.171    0.526    0.198  160.435   91.437
  404.472    6.443    0.534    0.187  164.454   90.525
  404.722    6.375    0.548    0.209  165.435   87.523
  404.972    6.198    0.551    0.217  163.384   86.607
  405.222    5.866    0.565    0.221  161.333   86.891
  405.472    5.601    0.580    0.218  159.785   86.873
  405.722    5.445    0.581    0.224  159.252   87.151
  405.972    5.386    0.576    0.229  159.224   88.334
  406.222    5.378    0.559    0.230  159.196   89.212
  406.472    5.378    0.558    0.238  159.165   90.090
  406.722    5.411    0.564    0.250  159.135   92.165
  406.972    5.500    0.556    0.243  160.119   92.746
  407.222    5.590    0.569    0.222  161.609   92.132
  407.472    5.681    0.584    0.210  162.593   88.830
  407.722    5.672    0.588    0.216  162.562   87.918
  407.972    5.512    0.573    0.215  162.538   87.599
  408.222    5.455    0.548    0.202  162.500   87.582
  408.472    5.398    0.562    0.187  162.978   87.865
  408.722    5.436    0.577    0.192  163.463   89.641
  408.972    5.479    0.578    0.197  163.425   89.027
  409.222    5.668    0.555    0.210  163.425   86.617
  409.472    5.863    0.559    0.224  163.377   84.510
  409.722    6.122    0.589    0.238  160.308   79.119
  409.972    6.448    0.588    0.249  157.748   70.139
  410.222    6.972    0.546    0.260  154.682   65.939
  410.472    7.610    0.573    0.274  152.638   65.923
  410.722    8.307    0.557    0.290  151.090   64.710
  410.972    9.312    0.556    0.297  149.541   59.018
  411.222   10.720    0.583    0.304  149.011   46.755
  411.472   12.232    0.575    0.327  148.980   38.968
  411.722   13.961    0.546    0.316  148.980   39.848
  411.972   16.509    0.487    0.314  148.925   40.128
  412.222   17.691    0.477    0.309  150.412   40.112
  412.472   17.822    0.468    0.297  151.396   40.689
  412.722   17.822    0.478    0.293  153.388   42.173
  412.972   17.768    0.496    0.318  154.376   43.947
  413.222   17.424    0.483    0.319  152.322   43.630
  413.472   17.091    0.485    0.312  149.765   44.211
  413.722   16.761    0.475    0.304  147.198   44.790
  413.972   16.587    0.457    0.299  146.665   43.581
  414.222   16.559    0.441    0.301  146.641   41.768
  414.472   16.537    0.438    0.307  146.606   43.544
  414.722   16.496    0.439    0.309  146.582   43.528
  414.972   16.486    0.440    0.313  146.558   43.512
  415.222   16.455    0.451    0.317  147.535   43.495
  415.472   16.433    0.476    0.322  148.017   44.075
  415.722   16.433    0.486    0.321  147.480   44.056
  415.972   16.380    0.496    0.317  144.917   44.638
  416.222   16.352    0.480    0.312  142.869   47.907
  416.472   16.186    0.475    0.300  141.834   47.887
  416.722   16.012    0.502    0.297  142.814   46.680
  416.972   15.988    0.498    0.309  145.316   45.763
  417.222   15.988    0.501    0.311  147.814   46.342
  417.472   15.789    0.506    0.315  147.277   46.928
  417.722   15.771    0.500    0.317  147.250   47.208
  417.972   15.771    0.505    0.319  147.226   48.984
  418.222   15.434    0.521    0.321  147.687   48.968
  418.472   15.419    0.538    0.314  148.678   48.055
  418.722   15.419    0.505    0.306  148.647   47.738
  418.972   15.231    0.469    0.311  148.626   47.123
  419.222   14.939    0.490    0.318  149.101   48.002
  419.472   14.781    0.518    0.327  149.101   50.675
  419.722   14.496    0.520    0.328  149.548   50.656
  419.972   14.496    0.520    0.326  150.023   50.640
  420.222   14.321    0.501    0.317  150.501   52.115
