~VERSION INFORMATION
 VERS.                 2.0:   CWLS LOG ASCII STANDARD -VERSION 2.0
 WRAP.                  NO:   ONE LINE PER DEPTH STEP
~WELL INFORMATION BLOCK
#MNEM.UNIT           DATA                    DESCRIPTION OF MNEMONIC
#---------    -------------------            -------------------------------
# Generated from Intellog Unique Number	CW_73_75/WELL/1051
WELL.         CHIEFCO LILY LAKE 13-07        : Well_name    - WELL
LOC .         00/13-07-075-05W5/0            : Location     - LOCATION
UWI .         00/13-07-075-05W5/0            : Uwi          - UNIQUE WELL ID
ENTR.         JAYE                           : Entered      - ENTERED BY
SRVC.         SCHLUMBERGER                   : Scn          - SERVICE COMPANY
DATE.         14 JAN 84                      : Date         - LOG DATE
STRT.M        625                            : top_depth    - START DEPTH
STOP.M        870                            : bot_depth    - STOP DEPTH
STEP.M        0.25                           : increment    - STEP LENGTH
 NULL. -999.2500:NULL Value
~CURVE INFORMATION BLOCK
#MNEM UNIT       ERCB CURVE CODE    CURVE DESCRIPTION
#-----------   ------------------   ----------------------------------
DEPT.M        00 001 00 00         : DEPTH        - DEPTH
ILD .OHMM     00 120 00 00         : RESD         - DEEP RESISTIVITY (DIL)
NPHI.V/V      00 330 00 00         : PHIN         - NEUTRON POROSITY (SANDSTONE)
DPHI.V/V      00 890 00 00         : PHID         - DENSITY POROSITY (SANDSTONE)
GR  .API      00 310 00 00         : GR           - GAMMA RAY
CALI.MM       00 280 01 00         : CAL          - CALIPER
~PARAMETER INFORMATION
#MNEM.UNIT           DATA             DESCRIPTION OF MNEMONIC
#---------         -----------     ------------------------------
GL  .M        873.9                : gl           - GROUND LEVEL ELEVATION
EREF.M        876                  : kb           - ELEVATION OF DEPTH REFERENCE
DATM.M        873.9                : datum        - DATUM ELEVATION
TDD .M        889                  : tdd          - TOTAL DEPTH DRILLER
RUN .         ONE                  : Run          - RUN NUMBER
ENG .         BRANDSTROM           : Engineer     - RECORDING ENGINEER
WIT .         KUCHINSKI            : Witness      - WITNESSED BY
BASE.         5202                 : Branch       - HOME BASE OF LOGGING UNIT
MUD .         GEL CHEM             : Mud_type     - MUD TYPE
MATR.         SANDSTONE            : Logunit      - NEUTRON MATRIX
TMAX.C        31                   : BHT          - MAXIMUM RECORDED TEMPERATURE
BHTD.M        890.5                : BHTDEP       - MAXIMUM RECORDED TEMPERATURE
RMT .C        31                   : MDTP         - TEMPERATURE OF MUD
MUDD.KG/M     1110                 : MWT          - MUD DENSITY
NEUT.         1                    : NEUTRON      - NEUTRON TYPE
RESI.         0                    : RESIST       - RESISTIVITY TYPE
RM  .OHMM     7.829                : RM           - RESISTIVITY OF MUD
RMC .OHMM     0                    : RMC          - RESISTIVITY OF MUD CAKE
RMF .OHMM     8.115                : RMF          - RESISTIVITY OF MUD FILTRATE
SUFT.C        0                    : SUFT         - SURFACE TEMPERATURE
~A  DEPTH     RESD     PHIN     PHID       GR      CAL
# ...
  771.000    3.064    0.506    0.247   79.069  201.214
  771.250    3.098    0.474    0.230   82.364  202.584
  771.500    3.229    0.441    0.220   84.175  203.540
  771.750    3.366    0.425    0.202   82.645  203.982
  772.000    3.455    0.448    0.196   78.085  204.526
  772.250    3.481    0.474    0.204   75.195  205.379
  772.500    3.429    0.480    0.211   82.202  206.851
  772.750    3.409    0.467    0.206   85.621  208.633
  773.000    3.417    0.446    0.205   86.751  209.897
  773.250    3.416    0.449    0.205   88.624  211.988
  773.500    3.429    0.456    0.202   85.858  213.974
  773.750    3.416    0.461    0.200   87.422  215.554
  774.000    3.396    0.474    0.208   90.903  215.785
  774.250    3.378    0.488    0.208   91.909  215.606
  774.500    3.339    0.481    0.201   87.597  215.222
  774.750    3.303    0.479    0.195   83.717  214.842
  775.000    3.282    0.481    0.188   82.188  214.973
  775.250    3.221    0.478    0.182   85.610  215.522
  775.500    3.126    0.472    0.181   87.171  215.748
  775.750    3.050    0.458    0.181   87.559  216.087
  776.000    3.045    0.452    0.178   88.628  214.879
  776.250    3.137    0.492    0.169   90.067  214.701
  776.500    3.294    0.488    0.180   89.589  215.145
  776.750    3.420    0.471    0.187   85.648  215.176
  777.000    3.519    0.469    0.194   82.079  214.896
  777.250    3.558    0.459    0.196   82.465  214.714
  777.500    3.584    0.471    0.198   88.174  214.329
  777.750    3.565    0.475    0.195   89.365  214.154
  778.000    3.498    0.453    0.185   88.333  214.288
  778.250    3.388    0.444    0.178   85.318  214.620
  778.500    3.262    0.465    0.176   84.345  214.757
  778.750    3.095    0.506    0.175   85.724  214.782
  779.000    2.954    0.502    0.172   85.803  214.605
  779.250    2.905    0.485    0.173   85.572  213.813
  779.500    2.903    0.471    0.182   86.765  213.115
  779.750    2.937    0.501    0.182   88.143  211.393
  780.000    2.981    0.513    0.189   91.624  209.975
  780.250    3.043    0.493    0.188   88.547  208.047
  780.500    3.118    0.489    0.198   83.555  206.320
  780.750    3.177    0.495    0.216   79.551  203.567
  781.000    3.255    0.470    0.224   78.641  200.193
  781.250    3.388    0.452    0.219   80.144  197.850
  781.500    3.464    0.440    0.229   79.169  196.434
  781.750    3.503    0.429    0.244   78.941  195.638
  782.000    3.489    0.440    0.240   81.245  195.152
  782.250    3.438    0.452    0.240   80.149  195.180
  782.500    3.424    0.454    0.261   76.516  195.108
  782.750    3.424    0.442    0.275   73.504  194.928
  783.000    3.457    0.432    0.265   70.860  194.860
  783.250    3.509    0.438    0.247   75.579  194.885
  783.500    3.542    0.473    0.231   83.265  195.022
  783.750    3.561    0.498    0.211   83.406  195.045
  784.000    3.575    0.460    0.194   82.930  194.972
  784.250    3.588    0.468    0.200   84.555  195.007
  784.500    3.595    0.486    0.213   85.747  195.030
  784.750    3.615    0.492    0.226   80.444  195.061
  785.000    3.636    0.484    0.240   74.090  195.085
  785.250    3.649    0.474    0.255   69.716  195.111
  785.500    3.677    0.455    0.258   69.918  194.525
  785.750    3.676    0.442    0.203   68.452  194.143
  786.000    3.662    0.359    0.175   69.458  193.860
  786.250    3.643    0.340    0.133   72.815  193.371
  786.500    3.622    0.404    0.169   77.471  193.193
  786.750    3.587    0.485    0.194   85.902  193.021
  787.000    3.560    0.470    0.213   81.960  193.147
  787.250    3.480    0.447    0.233   79.069  193.487
  787.500    3.283    0.438    0.249   74.262  193.721
  787.750    3.075    0.426    0.256   71.867  193.747
  788.000    2.961    0.401    0.251   74.234  193.986
  788.250    2.922    0.461    0.237   74.746  194.320
  788.500    2.944    0.499    0.246   70.868  195.173
  788.750    3.039    0.466    0.262   68.409  196.236
  789.000    3.186    0.461    0.260   67.748  197.293
  789.250    3.295    0.465    0.262   68.323  198.559
  789.500    3.427    0.462    0.262   71.306  200.239
  789.750    3.506    0.451    0.242   76.087  201.502
  790.000    3.566    0.427    0.228   78.517  203.284
  790.250    3.627    0.452    0.223   81.626  204.961
  790.500    3.736    0.470    0.217   86.529  207.982
  790.750    3.902    0.478    0.208   83.330  210.381
  791.000    4.006    0.458    0.200   84.831  211.646
  791.250    4.013    0.447    0.200   89.735  212.398
  791.500    3.983    0.455    0.203   87.402  212.425
  791.750    3.969    0.461    0.198   82.779  212.762
  792.000    3.975    0.464    0.199   81.995  213.208
  792.250    4.005    0.473    0.202   83.308  213.236
  792.500    4.027    0.466    0.208   86.110  213.258
  792.750    4.035    0.432    0.212   82.850  213.086
  793.000    4.042    0.421    0.219   79.092  213.115
  793.250    3.990    0.439    0.231   78.739  213.141
  793.500    3.871    0.442    0.225   81.538  213.477
  793.750    3.742    0.435    0.215   86.938  213.712
  794.000    3.610    0.460    0.203   89.428  213.433
  794.250    3.498    0.484    0.193   89.509  212.327
  794.500    3.524    0.510    0.186   90.638  210.915
  794.750    3.686    0.528    0.198   92.078  209.086
  795.000    3.929    0.474    0.207   88.570  207.462
  795.250    4.219    0.441    0.211   83.638  205.739
  795.500    4.515    0.420    0.210   82.110  204.019
  795.750    4.575    0.413    0.210   81.445  202.603
  796.000    4.430    0.416    0.207   81.401  201.700
  796.250    4.291    0.425    0.202   87.727  200.906
  796.500    4.274    0.439    0.194   90.837  200.525
  796.750    4.531    0.457    0.185   86.525  200.451
  797.000    5.297    0.472    0.170   77.821  199.862
  797.250    6.260    0.476    0.154   68.931  199.580
  797.500    7.742    0.243    0.071   58.803  199.502
  797.750    8.441    0.198    0.015   55.542  199.426
  798.000    8.267    0.278    0.031   59.270  199.766
  798.250    7.402    0.324    0.103   67.577  200.000
  798.500    6.439    0.416    0.184   72.418  200.133
  798.750    5.336    0.474    0.221   74.415  200.162
  799.000    4.521    0.479    0.270   71.093  199.988
  799.250    3.803    0.478    0.249   71.666  200.012
  799.500    3.528    0.478    0.226   80.837  199.941
  799.750    3.359    0.481    0.216   82.216  200.067
  800.000    3.278    0.487    0.213   80.624  200.306
  800.250    3.271    0.499    0.211   80.890  200.538
  800.500    3.272    0.513    0.208   82.205  200.462
  800.750    3.321    0.516    0.206   81.665  200.594
  801.000    3.409    0.502    0.209   80.263  200.942
  801.250    3.514    0.476    0.218   78.297  200.971
  801.500    3.594    0.451    0.230   74.541  201.102
  801.750    3.621    0.457    0.238   72.703  201.131
  802.000    3.696    0.462    0.247   75.132  201.049
  802.250    3.890    0.459    0.251   80.965  201.075
  802.500    4.138    0.458    0.240   80.982  201.110
  802.750    4.648    0.482    0.249   77.287  201.342
  803.000    5.957    0.507    0.232   73.533  201.470
  803.250    6.833    0.252    0.104   68.290  201.607
  803.500    7.229    0.181    0.004   55.008  202.046
  803.750    6.950    0.157   -0.012   47.171  202.591
  804.000    6.495    0.192    0.064   61.044  202.926
  804.250    5.715    0.368    0.123   66.812  204.298
  804.500    4.926    0.425    0.180   72.520  205.460
  804.750    4.191    0.460    0.236   76.186  206.516
  805.000    3.851    0.462    0.224   80.286  207.678
  805.250    3.779    0.453    0.224   81.169  208.430
  805.500    3.743    0.447    0.223   78.650  208.868
  805.750    3.730    0.430    0.219   77.804  209.521
  806.000    3.729    0.470    0.210   77.881  209.859
  806.250    3.702    0.478    0.221   79.568  210.088
  806.500    3.674    0.461    0.223   81.813  210.433
  806.750    3.632    0.448    0.218   85.540  210.665
  807.000    3.591    0.463    0.207   89.146  210.901
  807.250    3.571    0.448    0.198   89.287  211.032
