~VERSION INFORMATION
 VERS.                 2.0:   CWLS LOG ASCII STANDARD -VERSION 2.0
 WRAP.                  NO:   ONE LINE PER DEPTH STEP
~WELL INFORMATION BLOCK
#MNEM.UNIT           DATA                    DESCRIPTION OF MNEMONIC
#---------    -------------------            -------------------------------
# Generated from Intellog Unique Number	CS_77_79/WELL/3302
WELL.         MEGA ENGINEERING LTD.          : Well_name    - WELL
LOC .         00/11-15-077-11W4/0            : Location     - LOCATION
UWI .         00/11-15-077-11W4/0            : Uwi          - UNIQUE WELL ID
ENTR.         JOETTE                         : Entered      - ENTERED BY
SRVC.         SCHLUMBERGER                   : Scn          - SERVICE COMPANY
DATE.         08-26-92                       : Date         - LOG DATE
STRT.M        275                            : top_depth    - START DEPTH
STOP.M        510                            : bot_depth    - STOP DEPTH
STEP.M        0.25                           : increment    - STEP LENGTH
 NULL. -999.2500:NULL Value
~CURVE INFORMATION BLOCK
#MNEM UNIT       ERCB CURVE CODE    CURVE DESCRIPTION
#-----------   ------------------   ----------------------------------
DEPT.M        00 001 00 00         : DEPTH        - DEPTH
GR  .API      00 310 00 00         : GR           - GAMMA RAY
NPHI.V/V      00 330 00 00         : PHIN         - NEUTRON POROSITY (SANDSTONE)
DPHI.V/V      00 890 00 00         : PHID         - DENSITY POROSITY (SANDSTONE)
ILD .OHMM     00 120 00 00         : RESD         - DEEP RESISTIVITY (DIL)
~PARAMETER INFORMATION
#MNEM.UNIT           DATA             DESCRIPTION OF MNEMONIC
#---------         -----------     ------------------------------
GL  .M        679.49               : gl           - GROUND LEVEL ELEVATION
EREF.M        688.29               : kb           - ELEVATION OF DEPTH REFERENCE
DATM.M        688.29               : datum        - DATUM ELEVATION
TDD .M        521.4                : tdd          - TOTAL DEPTH DRILLER
RUN .         ONE                  : Run          - RUN NUMBER
ENG .         BILL                 : Engineer     - RECORDING ENGINEER
WIT .         JIM                  : Witness      - WITNESSED BY
MUD .         GEL                  : Mud_type     - MUD TYPE
MATR.         SANDSTONE            : Logunit      - NEUTRON MATRIX
TMAX.C        27                   : BHT          - MAXIMUM RECORDED TEMPERATURE
BHTD.M        521.4                : BHTDEP       - MAXIMUM RECORDED TEMPERATURE
MATR.         1                    : LOGUNIT      - NEUTRON MATRIX
RMT .C        12                   : MDTP         - TEMPERATURE OF MUD
NEUT.         1                    : NEUTRON      - NEUTRON TYPE
RESI.         0                    : RESIST       - RESISTIVITY TYPE
RMC .OHMM     2.4                  : RMC          - RESISTIVITY OF MUD CAKE
RMF .OHMM     3.5                  : RMF          - RESISTIVITY OF MUD FILTRATE
SUFT.C        5                    : SUFT         - SURFACE TEMPERATURE
~A  DEPTH       GR     PHIN     PHID     RESD
  275.000   94.647    0.468    0.228    3.130
  275.250  101.726    0.442    0.234    3.189
  275.500  107.056    0.437    0.240    3.248
  275.750  102.373    0.427    0.241    3.308
  276.000  110.041    0.425    0.244    3.247
  276.250  111.249    0.434    0.250    3.187
  276.500  105.979    0.444    0.246    3.071
  276.750   96.006    0.450    0.248    3.071
  277.000   97.796    0.421    0.252    3.128
  277.250  109.003    0.403    0.240    3.186
  277.500  113.725    0.400    0.230    3.367
  277.750  114.927    0.404    0.236    3.493
  278.000  107.900    0.434    0.235    3.492
  278.250  105.575    0.443    0.231    3.557
  278.500  105.013    0.440    0.231    3.557
  278.750   95.047    0.445    0.236    3.556
  279.000   96.837    0.446    0.242    3.622
  279.250   93.924    0.429    0.250    3.828
  279.500  108.064    0.423    0.253    3.899
  279.750  112.786    0.429    0.248    4.197
  280.000  113.400    0.435    0.238    4.775
  280.250   99.326    0.431    0.230    6.657
  280.500  102.291    0.389    0.222    7.166
  280.750   95.257    0.384    0.214    7.858
  281.000   82.933    0.362    0.226    9.107
  281.250   61.799    0.359    0.248   10.173
  281.500   54.772    0.355    0.378   11.575
  281.750   67.148    0.386    0.443   12.233
  282.000   66.580    0.431    0.611   12.692
  282.250   40.744    0.497    0.592   13.662
  282.500   33.129    0.579    0.521   13.916
  282.750   44.323    0.418    0.455   14.437
  283.000   45.525    0.363    0.374   14.978
  283.250   44.963    0.375    0.348   15.540
  283.500   50.280    0.396    0.333   15.538
  283.750   60.305    0.395    0.343   15.536
  284.000   48.569    0.369    0.334   15.535
  284.250   56.236    0.370    0.327   15.821
  284.500   65.086    0.376    0.330   15.819
  284.750   62.755    0.379    0.334   15.529
  285.000   65.138    0.377    0.335   15.527
  285.250   66.334    0.370    0.335   15.524
  285.500   62.833    0.365    0.336   15.524
  285.750   64.035    0.365    0.345   15.521
  286.000   60.535    0.372    0.345   15.520
  286.250   64.088    0.375    0.340   15.517
  286.500   64.708    0.369    0.313   15.805
  286.750   61.789    0.365    0.278   15.802
  287.000   60.052    0.377    0.272   15.801
  287.250   77.718    0.372    0.313   15.227
  287.500   88.331    0.370    0.278   13.628
  287.750   85.412    0.377    0.262   12.893
  288.000   88.377    0.385    0.256   11.755
  288.250   93.106    0.374    0.242   11.120
  288.500   98.422    0.364    0.277   11.536
  288.750  106.677    0.372    0.287   11.969
  289.000   86.719    0.402    0.306   13.369
  289.250   67.936    0.414    0.314   14.129
  289.500   63.848    0.388    0.320   14.659
  289.750   69.164    0.395    0.323   15.208
  290.000   63.900    0.398    0.338   15.489
  290.250   66.291    0.374    0.357   15.488
  290.500   67.486    0.374    0.350   15.486
  290.750   73.971    0.381    0.339   15.200
  291.000   83.990    0.388    0.332   15.199
  291.250   87.543    0.387    0.332   14.919
  291.500   89.927    0.376    0.332   14.644
  291.750   85.244    0.370    0.332   14.375
  292.000   81.156    0.374    0.329   14.111
  292.250   82.364    0.380    0.324   13.851
  292.500   87.086    0.397    0.315   13.595
  292.750   98.875    0.404    0.308   13.345
  293.000  100.665    0.393    0.307   13.100
  293.250  105.393    0.390    0.302   12.858
  293.500  123.647    0.389    0.288   12.857
  293.750  114.262    0.378    0.275   12.856
  294.000   96.655    0.364    0.277   13.094
  294.250   97.857    0.367    0.283   13.584
  294.500   87.303    0.366    0.299   13.583
  294.750   75.567    0.366    0.319   13.834
  295.000   49.730    0.355    0.321   13.580
  295.250   61.513    0.353    0.290   12.154
  295.500   89.759    0.364    0.259   11.498
  295.750  105.656    0.380    0.196   10.291
  296.000  120.376    0.382    0.166    9.383
  296.250  105.120    0.388    0.207    8.244
  296.500  118.078    0.414    0.202    7.657
  296.750  120.455    0.425    0.179    6.980
  297.000  124.596    0.442    0.187    6.727
  297.250  113.454    0.425    0.160    6.363
  297.500  126.412    0.411    0.150    6.246
  297.750  136.437    0.392    0.178    6.019
  298.000  129.410    0.390    0.218    5.800
  298.250  120.613    0.419    0.209    5.487
  298.500  122.402    0.427    0.201    5.191
  298.750  122.429    0.437    0.205    4.732
  299.000  127.752    0.453    0.211    4.395
  299.250  120.130    0.472    0.205    4.082
  299.500  121.332    0.462    0.206    3.791
  299.750  126.073    0.470    0.212    3.520
  300.000  120.215    0.493    0.224    3.456
  300.250  112.006    0.463    0.237    3.720
  300.500   96.162    0.446    0.270    4.557
  300.750   86.196    0.419    0.301    6.714
  301.000  105.619    0.366    0.310    7.500
  301.250  102.119    0.373    0.303    9.188
  301.500   99.206    0.363    0.296   10.649
  301.750  105.110    0.358    0.289   11.048
  302.000   95.732    0.405    0.295   11.252
  302.250   87.529    0.379    0.311   11.251
  302.500   84.623    0.378    0.325   11.891
  302.750   89.345    0.388    0.342   13.039
  303.000   83.493    0.388    0.339   13.037
  303.250  101.741    0.368    0.325   12.563
  303.500  117.644    0.375    0.267   11.454
  303.750  128.838    0.403    0.234   10.443
  304.000  122.986    0.436    0.225    8.843
  304.250  127.127    0.425    0.204    7.628
  304.500  129.505    0.396    0.205    7.216
  304.750  129.531    0.396    0.215    7.215
  305.000  136.611    0.402    0.227    7.767
  305.250  125.469    0.409    0.242    8.059
  305.500  123.144    0.386    0.248    9.002
  305.750  130.224    0.384    0.252    9.871
  306.000  123.784    0.393    0.254   10.626
  306.250  126.749    0.405    0.263   10.823
  306.500   96.204    0.399    0.272   11.228
  306.750   82.124    0.397    0.298   11.436
  307.000   92.149    0.392    0.308   11.865
  307.250   92.756    0.380    0.294   11.864
  307.500  109.835    0.380    0.272   11.223
  307.750  113.388    0.394    0.256   10.423
  308.000  114.002    0.399    0.249   10.616
  308.250  119.318    0.384    0.262   11.014
  308.500  125.810    0.366    0.259   11.857
  308.750  105.852    0.356    0.253   12.075
  309.000   87.062    0.370    0.260   12.075
  309.250   72.394    0.376    0.332   12.073
  309.500   60.664    0.362    0.329   12.297
  309.750   69.507    0.341    0.319   12.757
  310.000   71.885    0.341    0.309   13.236
  310.250   68.979    0.345    0.297   12.992
  310.500   76.052    0.351    0.291   12.753
  310.750   84.320    0.356    0.283   12.289
  311.000   81.989    0.357    0.274   11.842
  311.250   76.130    0.355    0.258   11.411
  311.500   76.157    0.357    0.258   11.410
  311.750   73.838    0.361    0.261   11.408
  312.000   78.567    0.356    0.264   11.408
  312.250   85.059    0.357    0.258   11.405
  312.500   88.024    0.357    0.245   11.405
  312.750   93.928    0.355    0.248   11.403
  313.000  100.420    0.362    0.268   10.787
  313.250   95.156    0.375    0.260   10.589
  313.500   95.777    0.399    0.263   10.394
  313.750   93.452    0.418    0.269   10.393
  314.000   98.762    0.393    0.243   10.585
  314.250   98.207    0.388    0.247   10.781
  314.500   94.118    0.393    0.234   10.980
  314.750   90.612    0.394    0.217   10.979
  315.000   97.698    0.399    0.247   10.978
  315.250   94.191    0.407    0.254   10.776
  315.500   95.392    0.422    0.249   10.384
  315.750   98.945    0.430    0.245    9.824
  316.000   94.857    0.420    0.265    9.823
  316.250   99.586    0.407    0.255    9.465
  316.500  102.551    0.399    0.254    9.291
  316.750   84.944    0.418    0.256    9.120
  317.000   93.199    0.429    0.256    9.119
  317.250   94.407    0.437    0.255    8.951
  317.500   99.717    0.436    0.251    8.950
  317.750  105.621    0.417    0.248    8.949
  318.000   98.594    0.413    0.257    9.284
  318.250   90.979    0.409    0.296    9.812
