~VERSION INFORMATION
 VERS.                 2.0:   CWLS LOG ASCII STANDARD -VERSION 2.0
 WRAP.                  NO:   ONE LINE PER DEPTH STEP
~WELL INFORMATION BLOCK
#MNEM.UNIT           DATA                    DESCRIPTION OF MNEMONIC
#---------    -------------------            -------------------------------
# Generated from Intellog Unique Number	CN_94_101/WELL/2580
WELL.         PARAMOUNT RESOURCES LTD.       : Well_name    - WELL
LOC .         00/11-16-094-19W4/0            : Location     - LOCATION
UWI .         00/11-16-094-19W4/0            : Uwi          - UNIQUE WELL ID
ENTR.         JOETTE                         : Entered      - ENTERED BY
SRVC.         COMPUTALOG                     : Scn          - SERVICE COMPANY
DATE.         06/12/92                       : Date         - LOG DATE
STRT.M        125                            : top_depth    - START DEPTH
STOP.M        340                            : bot_depth    - STOP DEPTH
STEP.M        0.25                           : increment    - STEP LENGTH
 NULL. -999.2500:NULL Value
~CURVE INFORMATION BLOCK
#MNEM UNIT       ERCB CURVE CODE    CURVE DESCRIPTION
#-----------   ------------------   ----------------------------------
DEPT.M        00 001 00 00         : DEPTH        - DEPTH
GR  .API      00 310 00 00         : GR           - GAMMA RAY
NPHI.V/V      00 330 00 00         : PHIN         - NEUTRON POROSITY (SANDSTONE)
ILD .OHMM     00 120 00 00         : RESD         - DEEP RESISTIVITY (DIL)
~PARAMETER INFORMATION
#MNEM.UNIT           DATA             DESCRIPTION OF MNEMONIC
#---------         -----------     ------------------------------
GL  .M        609                  : gl           - GROUND LEVEL ELEVATION
EREF.M        612.45               : kb           - ELEVATION OF DEPTH REFERENCE
DATM.M        612.45               : datum        - DATUM ELEVATION
TDD .M        336.2                : tdd          - TOTAL DEPTH DRILLER
RUN .         ONE                  : Run          - RUN NUMBER
ENG .         BILL                 : Engineer     - RECORDING ENGINEER
WIT .         JIM                  : Witness      - WITNESSED BY
MUD .         GEL                  : Mud_type     - MUD TYPE
MATR.         SANDSTONE            : Logunit      - NEUTRON MATRIX
TMAX.C        34                   : BHT          - MAXIMUM RECORDED TEMPERATURE
BHTD.M        336.2                : BHTDEP       - MAXIMUM RECORDED TEMPERATURE
RMT .C        23.3                 : MDTP         - TEMPERATURE OF MUD
MUDD.KG/M     1130                 : MWT          - MUD DENSITY
NEUT.         1                    : NEUTRON      - NEUTRON TYPE
RESI.         0                    : RESIST       - RESISTIVITY TYPE
RM  .OHMM     4.4                  : RM           - RESISTIVITY OF MUD
RMC .OHMM     4.4                  : RMC          - RESISTIVITY OF MUD CAKE
RMF .OHMM     4.4                  : RMF          - RESISTIVITY OF MUD FILTRATE
SUFT.C        4                    : SUFT         - SURFACE TEMPERATURE
~A  DEPTH       GR     PHIN     RESD
# ...
  287.750   76.868    0.488    6.353
  288.000   82.521    0.497    6.476
  288.250   80.670    0.504    6.477
  288.500   73.200    0.508    6.478
  288.750   70.099    0.513    6.239
  289.000   73.241    0.510    5.467
  289.250   78.888    0.501    4.612
  289.500   86.415    0.501    4.197
  289.750   82.064    0.500    3.677
  290.000   77.713    0.505    3.410
  290.250   74.612    0.509    3.543
  290.500   75.885    0.501    3.680
  290.750   76.532    0.497    4.123
  291.000   77.180    0.486    4.364
  291.250   72.835    0.479    4.708
  291.500   70.359    0.483    5.176
  291.750   70.382    0.496    5.584
  292.000   72.280    0.501    5.911
  292.250   76.677    0.508    6.140
  292.500   80.449    0.511    6.141
  292.750   83.603    0.507    6.142
  293.000   78.002    0.503    5.915
  293.250   76.156    0.501    5.806
  293.500   78.048    0.494    5.807
  293.750   80.576    0.493    6.032
  294.000   79.975    0.491    6.385
  294.250   76.868    0.498    6.888
  294.500   80.021    0.503    7.291
  294.750   83.174    0.510    8.016
  295.000   82.572    0.507    8.486
  295.250   75.716    0.508    8.815
  295.500   66.991    0.503    8.985
  295.750   67.014    0.494    8.987
  296.000   73.286    0.483    8.988
  296.250   73.315    0.473    8.991
  296.500   72.725    0.474    8.992
  296.750   73.361    0.472    8.993
  297.000   74.015    0.472    8.996
  297.250   72.783    0.476    8.997
  297.500   77.180    0.486    8.999
  297.750   82.213    0.484    8.832
  298.000   83.480    0.484    8.835
  298.250   77.261    0.488    8.835
  298.500   71.654    0.486    8.838
  298.750   67.303    0.476    8.840
  299.000   67.326    0.476    8.841
  299.250   69.849    0.473    8.843
  299.500   70.497    0.462    8.845
  299.750   68.026    0.457    8.847
  300.000   62.426    0.454    8.848
  300.250   59.331    0.454    8.850
  300.500   61.847    0.456    8.852
  300.750   67.500    0.459    8.854
  301.000   68.148    0.488    8.855
  301.250   65.671    0.492    8.691
  301.500   63.826    0.487    8.694
  301.750   64.480    0.483    8.694
  302.000   65.116    0.475    8.697
  302.250   67.014    0.468    8.698
  302.500   69.536    0.483    8.700
  302.750   71.434    0.474    8.700
  303.000   66.464    0.446    9.212
  303.250   56.489    0.385    9.041
  303.500   58.387    0.325    8.873
  303.750   65.284    0.400    8.875
  304.000   70.306    0.441    8.710
  304.250   75.953    0.467    8.712
  304.500   72.232    0.486    8.715
  304.750   70.386    0.494    8.716
  305.000   69.160    0.497    8.554
  305.250   66.684    0.496    8.556
  305.500   67.956    0.493    8.558
  305.750   69.854    0.490    8.399
  306.000   70.502    0.495    8.401
  306.250   69.275    0.498    8.564
  306.500   68.049    0.504    8.895
  306.750   68.697    0.512    9.596
  307.000   71.225    0.508   11.164
  307.250   73.123    0.506   13.491
  307.500   74.396    0.503   12.749
  307.750   75.049    0.500   11.171
  308.000   74.448    0.508   10.359
  308.250   71.341    0.507    8.907
  308.500   71.989    0.507    7.515
  308.750   70.768    0.508    6.969
  309.000   70.166    0.512    6.712
  309.250   68.940    0.520    6.587
  309.500   67.713    0.539    6.465
  309.750   75.240    0.538    6.345
  310.000   79.632    0.516    6.347
  310.250   82.160    0.500    6.229
  310.500   80.927    0.492    6.230
  310.750   81.587    0.482    6.232
  311.000   79.105    0.476    6.233
  311.250   85.377    0.472    6.234
  311.500   91.029    0.468    6.354
  311.750   92.302    0.471    6.477
  312.000   96.074    0.475    6.478
  312.250  104.845    0.478    6.479
  312.500  125.489    0.483    6.604
  312.750  139.265    0.481    6.605
  313.000  125.541    0.478    6.362
  313.250  118.691    0.476    6.244
  313.500  109.966    0.473    6.246
  313.750  110.614    0.473    6.129
  314.000  122.509    0.477    6.131
  314.250  130.655    0.478    6.132
  314.500  141.932    0.485    6.133
  314.750  130.707    0.483    6.371
  315.000  120.108    0.477    6.744
  315.250  137.002    0.468    7.005
  315.500  128.277    0.454    7.141
  315.750   95.814    0.451    7.142
  316.000   97.081    0.478    7.144
  316.250   99.603    0.500    7.144
  316.500  105.250    0.494    7.012
  316.750  100.274    0.490    6.627
  317.000   93.436    0.486    6.263
  317.250   95.952    0.469    5.808
  317.500   98.481    0.462    5.809
  317.750   95.374    0.455    5.701
  318.000   70.402    0.452    5.596
  318.250   65.432    0.487    5.597
  318.500   68.574    0.536    5.598
  318.750   74.221    0.522    5.599
  319.000   82.379    0.507    5.600
  319.250   82.396    0.497    5.708
  319.500   77.420    0.486    5.709
  319.750   72.445    0.479    5.603
  320.000   64.969    0.479    5.397
  320.250   53.745    0.484    5.397
  320.500   46.895    0.489    5.607
  320.750   40.050    0.491    5.936
  321.000   42.567    0.482    6.050
  321.250   44.476    0.469    6.051
  321.500   41.375    0.467    6.052
  321.750   40.767    0.469    5.940
  322.000   40.796    0.465    5.941
  322.250   41.444    0.464    5.831
  322.500   43.961    0.466    5.723
  322.750   47.109    0.469    5.512
  323.000   52.761    0.466    5.409
  323.250   54.040    0.459    5.016
  323.500   51.563    0.461    4.313
  323.750   45.332    0.464    4.076
  324.000   42.856    0.459    3.780
  324.250   44.754    0.457    3.781
  324.500   45.402    0.457    3.927
  324.750   46.061    0.466    4.484
  325.000   49.828    0.468    5.844
  325.250   61.098    0.456    8.531
  325.500   66.120    0.450   10.506
  325.750   66.149    0.447   12.457
  326.000   62.423    0.443   14.494
  326.250   54.948    0.439   16.239
  326.500   40.605    0.438   16.868
  326.750   43.127    0.447   18.899
  327.000   46.269    0.453   20.387
  327.250   49.417    0.452   20.780
  327.500   52.564    0.449   20.780
  327.750   51.343    0.448   22.005
  328.000   40.749    0.449   19.278
  328.250   45.766    0.457   21.196
  328.500   51.413    0.465   22.015
  328.750   57.059    0.480   23.306
  329.000   58.332    0.483   24.209
  329.250   58.986    0.483   25.145
  329.500   58.384    0.480   26.120
  329.750   53.408    0.476   27.133
  330.000   48.433    0.472   28.184
  330.250   49.081    0.469   29.275
  330.500   58.477    0.464   32.800
  330.750   69.128    0.464   36.060
  331.000   75.400    0.469   38.171
  331.250   81.047    0.472   39.651
  331.500  109.819    0.447   36.769
  331.750  113.591    0.432   29.311
  332.000  105.491    0.417   18.978
  332.250  109.888    0.392   13.764
  332.500  116.785    0.443   11.614
  332.750  124.937    0.448   11.184
  333.000  130.584    0.441    9.987
  333.250  133.737    0.434    9.262
  333.500  137.504    0.418    8.919
  333.750  126.904    0.412    8.429
  334.000  125.683    0.407    8.118
  334.250  130.711    0.403    7.967
  334.500  135.102    0.414    7.820
  334.750  138.261    0.411    7.675
  335.000  139.523    0.401    7.533
  335.250  134.547    0.375    7.255
  335.500  124.572    0.346    7.256
  335.750   97.726    0.304    7.396
  336.000   98.999    0.379    7.398
  336.250  109.026    0.379    7.540
  336.500  116.553    0.375    7.685
  336.750  121.575    0.410    7.834
  337.000  124.717    0.419    7.985
  337.250  129.739    0.415    7.986
  337.500  122.269    0.407    8.140
  337.750  116.669    0.396    8.142
  338.000  118.572    0.390    8.144
  338.250  121.089    0.387    7.993
  338.500  124.861    0.391    7.845
  338.750  127.390    0.398    7.700
  339.000  129.293    0.417    7.557
  339.250  131.821    0.409    7.558
  339.500  133.707    0.397    6.749
  339.750  138.105    0.385    5.694
  340.000  131.879    0.380    4.714
