~VERSION INFORMATION
 VERS.                 2.0:   CWLS LOG ASCII STANDARD -VERSION 2.0
 WRAP.                  NO:   ONE LINE PER DEPTH STEP
~WELL INFORMATION BLOCK
#MNEM.UNIT           DATA                    DESCRIPTION OF MNEMONIC
#---------    -------------------            -------------------------------
# Generated from Intellog Unique Number	CS_67_68/WELL/834
WELL.         COBRA OIL & GAS  LTD           : Well_name    - WELL
LOC .         00/11-12-068-17W4/0            : Location     - LOCATION
UWI .         00/11-12-068-17W4/0            : Uwi          - UNIQUE WELL ID
ENTR.         SP                             : Entered      - ENTERED BY
SRVC.         SCHLUMBERGER                   : Scn          - SERVICE COMPANY
STRT.M        340                            : top_depth    - START DEPTH
STOP.M        530                            : bot_depth    - STOP DEPTH
STEP.M        0.25                           : increment    - STEP LENGTH
 NULL. -999.2500:NULL Value
~CURVE INFORMATION BLOCK
#MNEM UNIT       ERCB CURVE CODE    CURVE DESCRIPTION
#-----------   ------------------   ----------------------------------
DEPT.M        00 001 00 00         : DEPTH        - DEPTH
ILD .OHMM     00 120 00 00         : RESD         - DEEP RESISTIVITY (DIL)
DPHI.V/V      00 890 00 00         : PHID         - DENSITY POROSITY (LIMESTONE)
NPHI.V/V      00 330 00 00         : PHIN         - NEUTRON POROSITY (LIMESTONE)
GR  .API      00 310 00 00         : GR           - GAMMA RAY
~PARAMETER INFORMATION
#MNEM.UNIT           DATA             DESCRIPTION OF MNEMONIC
#---------         -----------     ------------------------------
GL  .M        595.4                : gl           - GROUND LEVEL ELEVATION
EREF.M        599.2                : kb           - ELEVATION OF DEPTH REFERENCE
DATM.M        595.4                : datum        - DATUM ELEVATION
TDD .M        530                  : tdd          - TOTAL DEPTH DRILLER
RUN .         ONE                  : Run          - RUN NUMBER
ENG .         BILL                 : Engineer     - RECORDING ENGINEER
WIT .         JIM                  : Witness      - WITNESSED BY
MUD .         GEL                  : Mud_type     - MUD TYPE
MATR.         LIMESTONE            : Logunit      - NEUTRON MATRIX
TMAX.C        13                   : BHT          - MAXIMUM RECORDED TEMPERATURE
BHTD.M        530                  : BHTDEP       - MAXIMUM RECORDED TEMPERATURE
MATR.         1                    : LOGUNIT      - NEUTRON MATRIX
RMT .C        25                   : MDTP         - TEMPERATURE OF MUD
NEUT.         1                    : NEUTRON      - NEUTRON TYPE
RESI.         0                    : RESIST       - RESISTIVITY TYPE
RMC .OHMM     0.25                 : RMC          - RESISTIVITY OF MUD CAKE
RMF .OHMM     0.25                 : RMF          - RESISTIVITY OF MUD FILTRATE
SUFT.C        15                   : SUFT         - SURFACE TEMPERATURE
~A  DEPTH     RESD     PHID     PHIN       GR
  340.000    2.404    0.228    0.489  102.600
  340.250    2.406    0.220    0.489  102.575
  340.500    2.434    0.207    0.500  101.102
  340.750    2.522    0.213    0.520  101.740
  341.000    2.613    0.220    0.488  103.224
  341.250    2.738    0.206    0.475  103.563
  341.500    2.822    0.205    0.466  103.417
  341.750    2.897    0.190    0.467  103.936
  342.000    2.964    0.174    0.475  103.066
  342.250    3.038    0.168    0.485  101.652
  342.500    3.090    0.196    0.489  100.482
  342.750    3.120    0.203    0.481   99.669
  343.000    3.116    0.201    0.467   99.044
  343.250    3.050    0.191    0.460   98.414
  343.500    2.908    0.182    0.466   98.324
  343.750    2.753    0.207    0.481   99.031
  344.000    2.544    0.210    0.481  101.541
  344.250    2.444    0.210    0.484  103.690
  344.500    2.309    0.226    0.495  104.627
  344.750    2.235    0.217    0.518  104.968
  345.000    2.278    0.200    0.503  105.301
  345.250    2.352    0.197    0.508  104.436
  345.500    2.460    0.195    0.490  100.549
  345.750    2.526    0.207    0.483   98.654
  346.000    2.522    0.226    0.490  101.100
  346.250    2.491    0.228    0.511  103.004
  346.500    2.465    0.206    0.531  102.137
  346.750    2.453    0.213    0.527  101.269
  347.000    2.441    0.210    0.529  103.356
  347.250    2.429    0.203    0.526  105.083
  347.500    2.434    0.207    0.510  105.542
  347.750    2.472    0.212    0.491  103.887
  348.000    2.524    0.211    0.469   99.692
  348.250    2.553    0.197    0.462   96.051
  348.500    2.555    0.193    0.468   92.706
  348.750    2.537    0.193    0.473   89.786
  349.000    2.539    0.156    0.441   86.382
  349.250    2.573    0.130    0.426   85.091
  349.500    2.681    0.103    0.456   87.660
  349.750    2.748    0.272    0.478   89.629
  350.000    2.744    0.329    0.487   79.525
  350.250    2.532    0.363    0.495   72.920
  350.500    2.374    0.344    0.447   73.923
  350.750    2.260    0.303    0.432   77.338
  351.000    2.212    0.278    0.424   79.423
  351.250    2.201    0.272    0.430   80.607
  351.500    2.298    0.280    0.440   82.090
  351.750    2.412    0.299    0.445   85.387
  352.000    2.589    0.284    0.441   89.344
  352.250    2.672    0.278    0.431   91.733
  352.500    2.810    0.264    0.446   93.763
  352.750    2.786    0.249    0.458   98.740
  353.000    2.737    0.252    0.461   99.629
  353.250    2.629    0.255    0.441   97.731
  353.500    2.498    0.278    0.437   90.466
  353.750    2.418    0.304    0.457   76.258
  354.000    2.263    0.316    0.471   67.361
  354.250    2.065    0.299    0.418   61.059
  354.500    1.962    0.291    0.402   55.358
  354.750    1.867    0.295    0.392   51.354
  355.000    1.824    0.300    0.386   51.570
  355.250    1.792    0.281    0.390   58.604
  355.500    1.712    0.272    0.400   59.428
  355.750    1.624    0.282    0.411   55.359
  356.000    1.601    0.313    0.416   52.496
  356.250    1.613    0.326    0.423   52.655
  356.500    1.681    0.306    0.425   55.950
  356.750    1.765    0.296    0.417   61.959
  357.000    1.919    0.288    0.415   65.796
  357.250    2.082    0.293    0.419   69.570
  357.500    2.285    0.293    0.413   71.722
  357.750    2.545    0.273    0.412   73.869
  358.000    2.701    0.257    0.415   75.053
  358.250    2.931    0.259    0.406   76.594
  358.500    3.181    0.240    0.396   78.022
  358.750    3.458    0.227    0.390   82.704
  359.000    3.677    0.214    0.396   86.725
  359.250    3.804    0.197    0.405   88.933
  359.500    3.813    0.188    0.409   89.510
  359.750    3.717    0.190    0.405   89.544
  360.000    3.467    0.197    0.401   88.859
  360.250    3.412    0.211    0.411   85.756
  360.500    3.458    0.164    0.415   82.775
  360.750    3.479    0.130    0.408   85.286
  361.000    3.369    0.127    0.406   91.778
  361.250    3.326    0.152    0.424   97.366
  361.500    3.096    0.128    0.439  102.831
  361.750    2.846    0.128    0.453  105.646
  362.000    2.684    0.178    0.468  107.795
  362.250    2.646    0.200    0.474  109.215
  362.500    2.717    0.206    0.470  109.615
  362.750    2.847    0.220    0.487  109.229
  363.000    2.944    0.245    0.500  106.550
  363.250    3.023    0.244    0.487  100.488
  363.500    3.025    0.249    0.478   95.997
  363.750    2.999    0.261    0.485   93.198
  364.000    2.989    0.287    0.492   90.756
  364.250    2.963    0.279    0.463   88.562
  364.500    2.959    0.258    0.463   88.173
  364.750    2.967    0.244    0.471   88.271
  365.000    2.974    0.235    0.465   86.314
  365.250    2.943    0.222    0.456   84.358
  365.500    2.906    0.222    0.451   82.762
  365.750    2.834    0.232    0.444   82.439
  366.000    2.804    0.271    0.430   82.898
  366.250    2.927    0.251    0.430   81.423
  366.500    3.477    0.253    0.434   76.270
  366.750    4.658    0.252    0.437   70.632
  367.000    6.014    0.225    0.415   64.810
  367.250    7.144    0.188    0.360   61.107
  367.500    7.970    0.147    0.318   57.640
  367.750    7.448    0.124    0.299   56.773
  368.000    6.195    0.112    0.305   58.076
  368.250    4.726    0.101    0.332   62.093
  368.500    4.041    0.127    0.367   67.199
  368.750    3.514    0.167    0.409   73.389
  369.000    3.212    0.219    0.433   77.832
  369.250    3.143    0.257    0.433   82.030
  369.500    3.233    0.238    0.423   85.387
  369.750    3.350    0.222    0.418   89.949
  370.000    3.446    0.201    0.436   92.882
  370.250    3.486    0.184    0.452   92.858
  370.500    3.521    0.175    0.464   92.170
  370.750    3.509    0.183    0.477   95.949
  371.000    3.460    0.175    0.492   99.845
  371.250    3.386    0.172    0.498  103.500
  371.500    3.400    0.184    0.496  106.193
  371.750    3.478    0.168    0.480  108.583
  372.000    3.631    0.179    0.469  110.611
  372.250    3.798    0.229    0.459  111.488
  372.500    3.892    0.231    0.426  109.295
  372.750    4.026    0.218    0.416  103.837
  373.000    4.149    0.210    0.426   99.462
  373.250    4.205    0.211    0.429   98.296
  373.500    4.262    0.215    0.415   98.454
  373.750    4.320    0.199    0.410  100.419
  374.000    4.340    0.202    0.414  101.602
  374.250    4.309    0.205    0.419   98.979
  374.500    4.263    0.194    0.415   95.517
  374.750    4.149    0.193    0.412   92.832
  375.000    3.986    0.213    0.412   92.208
  375.250    3.829    0.221    0.428   92.545
  375.500    3.632    0.213    0.435   94.091
  375.750    3.432    0.223    0.422   96.844
  376.000    3.309    0.220    0.431  100.197
  376.250    3.214    0.201    0.447  102.709
  376.500    3.282    0.204    0.453  104.374
  376.750    3.395    0.222    0.446  105.978
  377.000    3.466    0.223    0.456  107.162
  377.250    3.546    0.238    0.460  109.667
  377.500    3.607    0.248    0.441  110.792
  377.750    3.676    0.221    0.431  110.165
  378.000    3.761    0.190    0.420  108.330
  378.250    3.890    0.171    0.412  106.676
  378.500    3.943    0.189    0.406  104.899
  378.750    3.760    0.205    0.407  103.725
  379.000    3.367    0.201    0.429  102.856
  379.250    3.021    0.205    0.450  102.654
  379.500    2.808    0.210    0.467  105.225
  379.750    2.455    0.213    0.484  108.399
  380.000    2.084    0.189    0.475  110.608
  380.250    1.822    0.235    0.465  111.248
  380.500    1.703    0.218    0.459  108.502
  380.750    1.582    0.203    0.467  105.221
  381.000    1.795    0.188    0.455   99.284
  381.250    2.105    0.157    0.443   84.292
  381.500    2.289    0.189    0.437   79.499
  381.750    2.526    0.222    0.447   82.492
  382.000    2.746    0.238    0.429   84.639
  382.250    3.019    0.230    0.434   78.633
  382.500    3.157    0.229    0.446   75.233
  382.750    3.200    0.226    0.435   73.763
  383.000    3.255    0.241    0.444   75.668
  383.250    3.373    0.234    0.459   81.190
