~VERSION INFORMATION
 VERS.                 2.0:   CWLS LOG ASCII STANDARD -VERSION 2.0
 WRAP.                  NO:   ONE LINE PER DEPTH STEP
~WELL INFORMATION BLOCK
#MNEM.UNIT           DATA                    DESCRIPTION OF MNEMONIC
#---------    -------------------            -------------------------------
# Generated from Intellog Unique Number	CW_70_72/WELL/2907
NULL.         -999.25                        : NULL_VALUE
WELL.         CHEVRON CALLING WEST           : Well_name    - WELL              
LOC .         11-27-070-21W4                 : Location     - LOCATION          
UWI .         00/11-27-070-21W4/0            : Uwi          - UNIQUE WELL ID    
ENTR.         MAX                            : Entered      - ENTERED BY        
SRVC.         SCHLUMBERGER                   : Scn          - SERVICE COMPANY   
DATE.         30 JAN 74                      : Date         - LOG DATE
STRT.M        405.384                        : top_depth    - START DEPTH       
STOP.M        573.134                        : bot_depth    - STOP DEPTH        
STEP.M        0.25                           : increment    - STEP LENGTH       
~CURVE INFORMATION BLOCK
#MNEM UNIT       ERCB CURVE CODE    CURVE DESCRIPTION
#-----------   ------------------   ----------------------------------
DEPT.M        00 001 00 00         : DEPTH        - DEPTH                       
ILD .OHMM     00 120 00 00         : RESD         - DEEP RESISTIVITY (DIL)      
NPHI.V/V      00 330 00 00         : PHIN         - NEUTRON POROSITY (SANDSTONE)
DPHI.V/V      00 890 00 00         : PHID         - DENSITY POROSITY (SANDSTONE)
CALI.MM       00 280 01 00         : CAL          - CALIPER                     
GR  .API      00 310 00 00         : GR           - GAMMA RAY                   
~PARAMETER INFORMATION       
#MNEM.UNIT           DATA             DESCRIPTION OF MNEMONIC
#---------         -----------     ------------------------------
GL  .M        649.529              : gl           - GROUND LEVEL ELEVATION      
EREF.M        652.882              : kb           - ELEVATION OF DEPTH REFERENCE
DATM.M        649.529              : datum        - DATUM ELEVATION             
TDD .M        573.634              : tdd          - TOTAL DEPTH DRILLER         
RUN .         ONE                  : Run          - RUN NUMBER                  
ENG .         BILL                 : Engineer     - RECORDING ENGINEER          
WIT .         JIM                  : Witness      - WITNESSED BY                
MUD .         GEL                  : Mud_type     - MUD TYPE                    
MATR.         SANDSTONE            : Logunit      - NEUTRON MATRIX              
TMAX.C        72                   : BHT          - MAXIMUM RECORDED TEMPERATURE
BHTD.M        573.634              : BHTDEP       - MAXIMUM RECORDED TEMPERATURE
RMT .C        12.7778              : MDTP         - TEMPERATURE OF MUD          
MUDD.KG/M     9900                 : MWT          - MUD DENSITY                 
NEUT.         1                    : NEUTRON      - NEUTRON TYPE                
RESI.         0                    : RESIST       - RESISTIVITY TYPE            
RM  .OHMM     2.9                  : RM           - RESISTIVITY OF MUD          
RMC .OHMM     0.25                 : RMC          - RESISTIVITY OF MUD CAKE     
RMF .OHMM     3.87                 : RMF          - RESISTIVITY OF MUD FILTRATE 
SUFT.C        -20.5556             : SUFT         - SURFACE TEMPERATURE         
~A  DEPTH     RESD     PHIN     PHID      CAL       GR
  405.384    2.635    0.537    0.208  223.530   98.312
  405.634    2.857    0.564    0.207  222.531   97.720
  405.884    3.043    0.578    0.211  220.545   86.366
  406.134    3.391    0.531    0.220  217.570   83.448
  406.384    3.745    0.490    0.234  217.065   83.147
  406.634    4.327    0.491    0.233  215.569   81.101
  406.884    4.779    0.486    0.242  213.583   76.147
  407.134    5.472    0.466    0.263  211.100   73.520
  407.384    6.439    0.417    0.269  208.624   67.983
  407.634    7.241    0.390    0.279  205.651   64.192
  407.884    8.216    0.389    0.289  203.666   63.601
  408.134    9.156    0.390    0.285  201.680   65.043
  408.384    9.752    0.402    0.281  201.172   69.398
  408.634    9.837    0.406    0.302  199.674   69.970
  408.884    9.570    0.420    0.305  199.165   65.595
  409.134    9.311    0.467    0.302  199.151   65.875
  409.384    8.735    0.469    0.295  199.135   67.323
  409.634    8.271    0.467    0.275  199.606   70.220
  409.884    7.690    0.455    0.264  201.071   72.828
  410.134    6.959    0.453    0.258  202.530   74.272
  410.384    6.471    0.470    0.251  204.977   74.554
  410.634    5.698    0.492    0.237  206.931   77.161
  410.884    5.064    0.500    0.224  206.420   79.187
  411.134    4.500    0.495    0.211  204.923   80.341
  411.384    4.109    0.498    0.241  203.433   82.369
  411.634    3.855    0.494    0.260  203.417   87.013
  411.884    3.820    0.493    0.261  204.386   87.584
  412.134    3.853    0.484    0.241  209.293   89.608
  412.384    3.922    0.498    0.219  214.695   91.635
  412.634    4.139    0.483    0.237  215.662   93.082
  412.884    4.449    0.456    0.242  210.722   96.561
  413.134    4.653    0.427    0.227  205.286   97.131
  413.384    4.610    0.444    0.213  209.211   95.086
  413.634    4.364    0.461    0.210  215.595   92.169
  413.884    3.985    0.446    0.247  214.596   85.179
  414.134    3.739    0.413    0.269  203.741   77.897
  414.384    3.605    0.412    0.275  201.756   78.468
  414.634    3.604    0.429    0.297  201.246   78.750
  414.884    3.669    0.428    0.292  201.720   77.868
  415.134    3.837    0.420    0.287  201.704   74.656
  415.384    4.394    0.423    0.281  201.688   72.612
  415.634    4.852    0.419    0.277  201.672   71.729
  415.884    4.939    0.413    0.274  201.656   72.012
  416.134    4.719    0.401    0.254  202.130   74.327
  416.384    4.348    0.400    0.247  202.114   78.680
  416.634    3.899    0.408    0.223  202.098   79.544
  416.884    3.726    0.415    0.222  201.587   81.571
  417.134    3.624    0.421    0.226  201.571   87.085
  417.384    3.623    0.446    0.245  201.555   90.858
  417.634    3.688    0.467    0.242  202.032   91.721
  417.884    3.720    0.473    0.239  202.504   93.457
  418.134    3.652    0.471    0.249  202.488   97.227
  418.384    3.458    0.461    0.270  202.472   95.764
  418.634    3.215    0.458    0.273  202.458   95.171
  418.884    3.017    0.473    0.268  205.393  103.887
  419.134    2.780    0.515    0.245  209.809  107.949
  419.384    2.608    0.583    0.226  219.646  107.356
  419.634    2.447    0.621    0.218  230.463  105.603
  419.884    2.296    0.630    0.220  232.910  105.303
  420.134    2.296    0.616    0.235  240.776  105.872
  420.384    2.253    0.608    0.223  237.801  107.028
  420.634    2.336    0.612    0.209  232.857  107.600
  420.884    2.533    0.606    0.219  233.826  107.007
  421.134    2.650    0.582    0.248  235.288  104.672
  421.384    3.034    0.534    0.251  231.334  100.300
  421.634    3.570    0.478    0.258  226.883   95.634
  421.884    3.978    0.450    0.241  222.434   90.390
  422.134    4.597    0.468    0.232  216.013   87.763
  422.384    5.122    0.476    0.215  213.042   84.552
  422.634    5.813    0.472    0.187  213.028   81.924
  422.884    6.537    0.467    0.210  213.010   79.588
  423.134    7.485    0.421    0.331  203.632   73.179
  423.384    9.214    0.393    0.341  202.633   71.425
  423.634   11.140    0.411    0.339  202.124   71.414
  423.884   11.036    0.440    0.324  202.106   71.114
  424.134   10.544    0.467    0.309  202.090   66.160
  424.384    9.803    0.492    0.305  202.070   63.533
  424.634    9.282    0.515    0.290  202.058   63.231
  424.884    8.868    0.523    0.282  202.039   62.930
  425.134    8.785    0.508    0.286  202.025   61.173
  425.384    8.943    0.482    0.282  203.483   59.419
  425.634    9.439    0.470    0.256  204.454   58.538
  425.884   10.237    0.431    0.226  206.900   61.146
  426.134   11.511    0.402    0.212  209.833   66.663
  426.384   12.371    0.436    0.252  211.295   68.689
  426.634   12.037    0.482    0.284  212.268   67.514
  426.884   11.396    0.499    0.270  213.727   65.469
  427.134   10.406    0.520    0.285  214.204   67.495
  427.384    8.999    0.537    0.291  214.680   67.776
  427.634    8.368    0.534    0.285  214.664   69.803
  427.884    7.995    0.545    0.286  215.138   73.575
  428.134    7.570    0.539    0.288  215.120   77.346
  428.384    7.431    0.515    0.284  215.104   77.626
  428.634    7.565    0.493    0.278  215.583   75.000
  428.884    8.354    0.507    0.277  216.057   69.173
  429.134   12.438    0.487    0.306  216.531   63.636
  429.384   14.634    0.495    0.334  217.006   61.881
  429.634   16.456    0.512    0.329  216.992   61.578
  429.884   16.752    0.499    0.325  216.479   63.606
  430.134   16.149    0.492    0.315  215.973   64.759
  430.384   15.017    0.501    0.318  214.481   66.205
  430.634   11.863    0.521    0.318  212.983   69.686
  430.884    8.181    0.528    0.305  212.969   73.456
  431.134    6.702    0.523    0.304  213.446   77.519
  431.384    4.969    0.490    0.310  213.922   82.745
  431.634    3.890    0.486    0.296  213.904   86.805
  431.884    3.584    0.538    0.282  215.363   89.704
  432.134    3.425    0.543    0.255  221.752   93.768
  432.384    3.392    0.511    0.256  222.717  103.356
  432.634    3.422    0.484    0.245  219.748  104.509
  432.884    3.547    0.474    0.223  218.747  105.664
  433.134    3.744    0.479    0.225  219.716  110.598
  433.384    3.881    0.476    0.211  219.693  111.460
  433.634    3.810    0.496    0.211  219.185  108.833
  433.884    3.575    0.502    0.209  218.676  103.006
  434.134    3.294    0.486    0.207  218.662   96.015
  434.384    3.035    0.471    0.223  216.183   93.971
  434.634    2.797    0.498    0.232  214.195   97.741
  434.884    2.745    0.575    0.242  215.166  106.748
  435.134    2.820    0.602    0.242  220.073  108.774
  435.384    3.031    0.577    0.261  217.102  107.020
  435.634    3.631    0.452    0.284  212.653   93.048
  435.884    4.552    0.448    0.260  205.245   83.730
  436.134    5.554    0.447    0.230  201.782   85.467
  436.384    5.862    0.477    0.244  201.766   91.564
  436.634    5.859    0.507    0.258  201.747   92.135
  436.884    5.858    0.491    0.246  201.733   88.927
  437.134    6.127    0.456    0.213  201.717   84.554
  437.384    6.705    0.364    0.178  202.194   79.309
  437.634    7.540    0.301    0.108  206.114   65.920
  437.884    8.327    0.273    0.038  209.053   64.746
  438.134    9.279    0.353    0.055  209.529   72.299
  438.384    9.027    0.434    0.115  210.006   84.214
  438.634    8.394    0.521    0.267  210.480   89.440
  438.884    6.938    0.547    0.282  208.988   91.175
  439.134    6.055    0.544    0.280  204.538   93.492
  439.384    5.284    0.533    0.260  204.520   95.228
  439.634    4.869    0.521    0.242  204.505   95.217
  439.884    4.694    0.516    0.239  204.980   94.044
  440.134    4.694    0.510    0.253  204.964   91.997
  440.384    4.524    0.508    0.261  204.946   89.660
  440.634    4.131    0.510    0.266  205.420   88.486
  440.884    3.912    0.524    0.262  205.406   88.188
  441.134    3.737    0.540    0.265  204.895   88.760
  441.384    3.636    0.539    0.269  204.389   87.585
  441.634    3.602    0.535    0.263  204.371   87.283
