~VERSION INFORMATION
 VERS.                 2.0:   CWLS LOG ASCII STANDARD -VERSION 2.0
 WRAP.                  NO:   ONE LINE PER DEPTH STEP
~WELL INFORMATION BLOCK
#MNEM.UNIT           DATA                    DESCRIPTION OF MNEMONIC
#---------    -------------------            -------------------------------
# Generated from Intellog Unique Number	CS_73_76/WELL/855
WELL.         MAYNARD ENERGY                 : Well_name    - WELL
LOC .         00/13-22-073-13W4/0            : Location     - LOCATION
UWI .         00/13-22-073-13W4/0            : Uwi          - UNIQUE WELL ID
ENTR.         SP                             : Entered      - ENTERED BY
SRVC.         SCHLUMBERGER                   : Scn          - SERVICE COMPANY
STRT.M        320                            : top_depth    - START DEPTH
STOP.M        531                            : bot_depth    - STOP DEPTH
STEP.M        0.25                           : increment    - STEP LENGTH
 NULL. -999.2500:NULL Value
~CURVE INFORMATION BLOCK
#MNEM UNIT       ERCB CURVE CODE    CURVE DESCRIPTION
#-----------   ------------------   ----------------------------------
DEPT.M        00 001 00 00         : DEPTH        - DEPTH
ILD .OHMM     00 120 00 00         : RESD         - DEEP RESISTIVITY (DIL)
DPHI.V/V      00 890 00 00         : PHID         - DENSITY POROSITY (LIMESTONE)
NPHI.V/V      00 330 00 00         : PHIN         - NEUTRON POROSITY (LIMESTONE)
GR  .API      00 310 00 00         : GR           - GAMMA RAY
~PARAMETER INFORMATION
#MNEM.UNIT           DATA             DESCRIPTION OF MNEMONIC
#---------         -----------     ------------------------------
GL  .M        674.31               : gl           - GROUND LEVEL ELEVATION
EREF.M        677.76               : kb           - ELEVATION OF DEPTH REFERENCE
DATM.M        674.31               : datum        - DATUM ELEVATION
TDD .M        541                  : tdd          - TOTAL DEPTH DRILLER
RUN .         ONE                  : Run          - RUN NUMBER
ENG .         BILL                 : Engineer     - RECORDING ENGINEER
WIT .         JIM                  : Witness      - WITNESSED BY
MUD .         GEL                  : Mud_type     - MUD TYPE
MATR.         LIMESTONE            : Logunit      - NEUTRON MATRIX
TMAX.C        22                   : BHT          - MAXIMUM RECORDED TEMPERATURE
BHTD.M        541                  : BHTDEP       - MAXIMUM RECORDED TEMPERATURE
MATR.         1                    : LOGUNIT      - NEUTRON MATRIX
RMT .C        25                   : MDTP         - TEMPERATURE OF MUD
NEUT.         1                    : NEUTRON      - NEUTRON TYPE
RESI.         0                    : RESIST       - RESISTIVITY TYPE
RMC .OHMM     0.25                 : RMC          - RESISTIVITY OF MUD CAKE
RMF .OHMM     0.25                 : RMF          - RESISTIVITY OF MUD FILTRATE
SUFT.C        15                   : SUFT         - SURFACE TEMPERATURE
~A  DEPTH     RESD     PHID     PHIN       GR
  320.000    2.439    0.240    0.489  101.419
  320.250    2.525    0.237    0.493  102.031
  320.500    2.527    0.237    0.494  103.248
  320.750    2.613    0.240    0.496  107.503
  321.000    2.616    0.247    0.491  106.899
  321.250    2.619    0.249    0.487  108.725
  321.500    2.543    0.250    0.486  110.550
  321.750    2.546    0.256    0.486  109.338
  322.000    2.468    0.262    0.489  107.520
  322.250    2.391    0.263    0.492  108.738
  322.500    2.475    0.274    0.497  109.349
  322.750    2.562    0.276    0.503  106.924
  323.000    2.646    0.278    0.504  106.320
  323.250    2.730    0.266    0.488  109.360
  323.500    2.897    0.249    0.483  108.150
  323.750    2.981    0.234    0.472  107.546
  324.000    3.147    0.210    0.467  106.942
  324.250    3.232    0.197    0.465  106.339
  324.500    3.316    0.205    0.459  105.735
  324.750    3.483    0.217    0.458  105.132
  325.000    3.487    0.226    0.453  105.134
  325.250    3.409    0.239    0.452  105.138
  325.500    3.330    0.246    0.455  103.928
  325.750    3.171    0.233    0.461  105.754
  326.000    3.013    0.226    0.467  107.579
  326.250    2.854    0.210    0.476  108.797
  326.500    2.776    0.209    0.484  107.585
  326.750    2.861    0.217    0.492  111.233
  327.000    2.947    0.227    0.493  111.236
  327.250    3.031    0.237    0.486  113.063
  327.500    3.199    0.235    0.482  114.887
  327.750    3.283    0.232    0.479  110.641
  328.000    3.286    0.222    0.481  110.038
  328.250    3.208    0.205    0.478  110.647
  328.500    3.211    0.194    0.472  110.652
  328.750    3.135    0.189    0.468  110.654
  329.000    3.138    0.201    0.465  112.479
  329.250    3.141    0.216    0.461  109.446
  329.500    3.144    0.224    0.461  105.807
  329.750    3.148    0.235    0.464  100.952
  330.000    3.070    0.252    0.466   99.133
  330.250    2.911    0.263    0.467  102.174
  330.500    2.995    0.258    0.465  108.858
  330.750    3.162    0.247    0.464  109.468
  331.000    3.735    0.240    0.460   99.755
  331.250    4.552    0.223    0.445   90.043
  331.500    5.286    0.213    0.438   87.009
  331.750    5.940    0.221    0.433   82.155
  332.000    6.675    0.245    0.432   80.943
  332.250    7.168    0.259    0.431   85.805
  332.500    7.252    0.259    0.429   84.595
  332.750    7.255    0.259    0.438   84.598
  333.000    7.258    0.344    0.443   76.706
  333.250    7.344    0.375    0.444   68.816
  333.500    7.348    0.398    0.433   62.746
  333.750    7.350    0.412    0.416   59.105
  334.000    7.273    0.369    0.409   57.288
  334.250    7.276    0.333    0.401   61.542
  334.500    7.443    0.324    0.401   66.404
  334.750    7.772    0.312    0.401   69.444
  335.000    8.100    0.286    0.406   70.662
  335.250    8.347    0.274    0.411   70.665
  335.500    8.595    0.248    0.412   71.277
  335.750    8.681    0.219    0.416   72.496
  336.000    8.684    0.233    0.420   73.714
  336.250    8.606    0.265    0.421   74.931
  336.500    8.446    0.299    0.418   78.580
  336.750    8.045    0.297    0.406   80.404
  337.000    7.804    0.292    0.399   87.088
  337.250    7.564    0.284    0.395   92.557
  337.500    7.323    0.269    0.400   96.204
  337.750    7.164    0.259    0.401   99.852
  338.000    6.925    0.249    0.409   99.249
  338.250    6.846    0.249    0.417  104.719
  338.500    6.606    0.235    0.422  106.543
  338.750    6.447    0.232    0.423  109.583
  339.000    6.288    0.235    0.427  110.801
  339.250    6.129    0.228    0.428  110.198
  339.500    5.970    0.223    0.427  110.201
  339.750    5.972    0.217    0.422  111.419
  340.000    6.058    0.213    0.418  109.601
  340.250    6.225    0.232    0.416  104.746
  340.500    6.391    0.254    0.412   99.891
  340.750    6.556    0.270    0.408   94.429
  341.000    6.803    0.297    0.407   90.182
  341.250    7.133    0.317    0.407   93.829
  341.500    7.299    0.304    0.407  100.514
  341.750    7.546    0.288    0.406  104.769
  342.000    7.713    0.280    0.399  105.986
  342.250    7.879    0.269    0.390  104.775
  342.500    8.045    0.263    0.382   98.706
  342.750    8.211    0.257    0.374   92.029
  343.000    8.132    0.259    0.371   87.174
  343.250    7.893    0.258    0.367   84.141
  343.500    7.570    0.247    0.366   79.288
  343.750    7.249    0.242    0.371   79.897
  344.000    7.090    0.230    0.378   82.330
  344.250    6.932    0.229    0.383   80.512
  344.500    6.854    0.236    0.386   78.087
  344.750    6.939    0.239    0.388   76.268
  345.000    7.024    0.264    0.388   75.057
  345.250    7.108    0.271    0.388   74.453
  345.500    7.275    0.273    0.388   76.279
  345.750    7.359    0.282    0.388   73.853
  346.000    7.526    0.283    0.388   73.249
  346.250    7.529    0.293    0.388   76.290
  346.500    7.533    0.282    0.389   75.078
  346.750    7.455    0.269    0.385   79.941
  347.000    7.376    0.261    0.383   80.551
  347.250    7.137    0.266    0.385   78.733
  347.500    6.815    0.278    0.396   76.308
  347.750    6.169    0.294    0.407   78.740
  348.000    5.684    0.273    0.418   89.676
  348.250    5.281    0.216    0.430   98.182
  348.500    4.634    0.191    0.440  104.258
  348.750    4.069    0.180    0.460  115.800
  349.000    3.665    0.194    0.469  125.520
  349.250    3.181    0.204    0.486  132.204
  349.500    2.860    0.226    0.497  132.815
  349.750    2.781    0.244    0.498  130.390
  350.000    3.111    0.228    0.499  128.571
  350.250    3.276    0.210    0.489  123.716
  350.500    3.769    0.231    0.476  122.505
  350.750    4.179    0.255    0.464  120.687
  351.000    4.588    0.277    0.441  115.834
  351.250    5.242    0.287    0.425  112.800
  351.500    5.814    0.290    0.420  109.159
  351.750    6.876    0.287    0.415  100.660
  352.000    7.529    0.282    0.414   94.591
  352.250    8.265    0.310    0.414   89.129
  352.500    8.675    0.305    0.419   84.276
  352.750    8.678    0.301    0.421   83.064
  353.000    8.439    0.294    0.424   83.674
  353.250    8.279    0.280    0.425   87.322
  353.500    7.875    0.265    0.430   89.147
  353.750    7.229    0.242    0.435   95.223
  354.000    6.501    0.214    0.437  103.122
  354.250    5.936    0.195    0.442  112.843
  354.500    5.370    0.192    0.447  118.312
  354.750    4.967    0.198    0.447  123.780
  355.000    4.401    0.215    0.446  129.251
  355.250    4.242    0.239    0.446  129.254
  355.500    4.490    0.254    0.448  129.258
  355.750    4.818    0.233    0.448  128.653
  356.000    5.473    0.214    0.441  123.800
  356.250    6.127    0.210    0.437  121.373
  356.500    6.781    0.221    0.435  122.591
  356.750    7.191    0.251    0.432  124.416
  357.000    7.600    0.268    0.431  119.563
  357.250    8.173    0.263    0.419  116.529
  357.500    8.665    0.252    0.415  112.889
  357.750    8.993    0.250    0.409  110.463
  358.000    9.078    0.250    0.407  108.645
  358.250    9.000    0.267    0.405  104.398
  358.500    8.760    0.288    0.405  100.758
  358.750    8.276    0.303    0.408   96.510
  359.000    7.791    0.313    0.409   94.691
  359.250    7.307    0.290    0.411  102.590
  359.500    7.148    0.261    0.420  110.489
  359.750    7.071    0.241    0.421  116.565
  360.000    7.074    0.218    0.421  119.605
  360.250    7.077    0.216    0.423  121.431
  360.500    7.081    0.222    0.425  122.042
  360.750    7.249    0.234    0.427  121.437
  361.000    7.332    0.242    0.426  115.368
  361.250    7.581    0.251    0.421  107.477
  361.500    7.747    0.258    0.415  100.194
  361.750    7.994    0.257    0.414   94.731
  362.000    8.160    0.268    0.411   88.661
  362.250    8.408    0.270    0.410   86.236
  362.500    8.574    0.274    0.404   87.454
  362.750    8.658    0.268    0.400   93.532
  363.000    8.662    0.261    0.393   96.571
  363.250    8.666    0.253    0.393  100.825
