~VERSION INFORMATION
 VERS.                 2.0:   CWLS LOG ASCII STANDARD -VERSION 2.0
 WRAP.                  NO:   ONE LINE PER DEPTH STEP
~WELL INFORMATION BLOCK
#MNEM.UNIT           DATA                    DESCRIPTION OF MNEMONIC
#---------    -------------------            -------------------------------
# Generated from Intellog Unique Number	CC_80_83/WELL/2346
NULL.         -999.25                        : NULL_VALUE
WELL.         PEX PCEJ ALGAR                 : Well_name    - WELL              
LOC .         10-11-080-09W4                 : Location     - LOCATION          
UWI .         00/10-11-080-09W400            : Uwi          - UNIQUE WELL ID    
ENTR.         DW                             : Entered      - ENTERED BY        
SRVC.         SCHLUMBERGER                   : Scn          - SERVICE COMPANY   
DATE.         15 JAN 81                      : Date         - LOG DATE
STRT.M        265                            : top_depth    - START DEPTH       
STOP.M        480.091                        : bot_depth    - STOP DEPTH        
STEP.M        0.3                            : increment    - STEP LENGTH       
~CURVE INFORMATION BLOCK
#MNEM UNIT       ERCB CURVE CODE    CURVE DESCRIPTION
#-----------   ------------------   ----------------------------------
DEPT.M        00 001 00 00         : DEPTH        - DEPTH                       
DPHI.V/V      00 890 00 00         : PHID         - DENSITY POROSITY (LIMESTONE)
NPHI.V/V      00 330 00 00         : PHIN         - NEUTRON POROSITY (LIMESTONE)
GR  .API      00 310 00 00         : GR           - GAMMA RAY                   
ILD .OHMM     00 120 00 00         : RESD         - DEEP RESISTIVITY (DIL)      
~PARAMETER INFORMATION       
#MNEM.UNIT           DATA             DESCRIPTION OF MNEMONIC
#---------         -----------     ------------------------------
GL  .M        712                  : gl           - GROUND LEVEL ELEVATION      
EREF.M        715.4                : kb           - ELEVATION OF DEPTH REFERENCE
DATM.M        715.4                : datum        - DATUM ELEVATION             
TDD .M        489                  : tdd          - TOTAL DEPTH DRILLER         
RUN .         ONE                  : Run          - RUN NUMBER                  
ENG .         BILL                 : Engineer     - RECORDING ENGINEER          
WIT .         JIM                  : Witness      - WITNESSED BY                
MUD .         GEL                  : Mud_type     - MUD TYPE                    
MATR.         LIMESTONE            : Logunit      - NEUTRON MATRIX              
TMAX.C        27                   : BHT          - MAXIMUM RECORDED TEMPERATURE
BHTD.M        490                  : BHTDEP       - MAXIMUM RECORDED TEMPERATURE
MATR.         1                    : LOGUNIT      - NEUTRON MATRIX              
RMT .C        25                   : MDTP         - TEMPERATURE OF MUD          
NEUT.         1                    : NEUTRON      - NEUTRON TYPE                
RESI.         0                    : RESIST       - RESISTIVITY TYPE            
RMC .OHMM     0.25                 : RMC          - RESISTIVITY OF MUD CAKE     
RMF .OHMM     0.25                 : RMF          - RESISTIVITY OF MUD FILTRATE 
SUFT.C        15                   : SUFT         - SURFACE TEMPERATURE         
~A  DEPTH     PHID     PHIN       GR     RESD
# ...
  317.198    0.320    0.406   76.111   22.248
  317.498    0.311    0.399   69.499   22.370
  317.798    0.286    0.380   71.030   21.703
  318.098    0.285    0.396   77.103   21.371
  318.398    0.306    0.420   77.889   21.329
  318.698    0.327    0.434   69.228   20.810
  318.998    0.325    0.411   73.680   20.266
  319.298    0.329    0.400   73.601   19.514
  319.598    0.328    0.394   73.518   18.544
  319.898    0.322    0.400   80.150   18.403
  320.198    0.309    0.391   78.635   17.655
  320.498    0.305    0.385   79.922   16.560
  320.798    0.298    0.409   73.432   15.445
  321.098    0.292    0.426   71.734   14.568
  321.398    0.290    0.423   79.173   13.665
  321.698    0.292    0.414   79.524   12.674
  321.998    0.302    0.417   84.231   11.321
  322.298    0.339    0.396   93.972    9.795
  322.598    0.339    0.412   89.100    8.782
  322.898    0.301    0.428  103.631    7.979
  323.198    0.308    0.449  108.956    7.181
  323.498    0.305    0.477  106.015    7.399
  323.798    0.303    0.443  100.398    8.451
  324.098    0.318    0.447   97.143    8.906
  324.398    0.319    0.443   93.950    9.227
  324.698    0.306    0.426   92.623    9.613
  324.998    0.286    0.422   85.513   10.757
  325.298    0.289    0.404   91.396   12.241
  325.598    0.295    0.402   91.876   13.518
  325.898    0.301    0.424   84.204   13.824
  326.198    0.302    0.422   85.303   13.361
  326.497    0.365    0.416   81.985   11.302
  326.797    0.381    0.437   83.646   10.078
  327.097    0.318    0.471   84.371    9.542
  327.397    0.306    0.479   88.575    9.171
  327.697    0.339    0.436   91.851    9.083
  327.997    0.367    0.440   87.354    9.607
  328.297    0.351    0.422   84.969   12.398
  328.597    0.285    0.392   78.854   15.039
  328.897    0.298    0.397   61.298   18.311
  329.197    0.313    0.386   50.206   20.721
  329.497    0.360    0.389   49.439   22.501
  329.797    0.414    0.424   42.206   23.799
  330.097    0.467    0.475   45.791   25.457
  330.397    0.301    0.367   34.142   26.625
  330.697    0.299    0.382   38.971   23.649
  330.997    0.303    0.371   52.439   21.648
  331.297    0.307    0.375   57.831   21.003
  331.597    0.311    0.388   63.283   20.838
  331.897    0.323    0.404   60.340   21.032
  332.197    0.325    0.385   54.844   21.749
  332.497    0.326    0.390   54.389   23.047
  332.797    0.328    0.403   53.310   24.883
  333.097    0.341    0.390   61.499   25.304
  333.397    0.330    0.397   59.735   26.564
  333.697    0.323    0.387   54.803   26.909
  333.997    0.325    0.374   58.448   26.350
  334.297    0.372    0.420   56.937   25.659
  334.597    0.477    0.445   49.268   25.084
  334.897    0.505    0.501   49.184   23.662
  335.197    0.495    0.431   37.721   22.742
  335.497    0.344    0.372   29.119   22.145
  335.797    0.347    0.382   40.477   22.224
  336.097    0.346    0.393   47.295   22.429
  336.397    0.336    0.381   43.420   22.718
  336.697    0.337    0.386   39.791   22.759
  336.997    0.338    0.401   47.048   22.926
  337.297    0.328    0.398   51.812   23.136
  337.597    0.317    0.395   53.904   23.523
  337.897    0.322    0.389   57.556   23.740
  338.197    0.335    0.375   60.207   23.824
  338.497    0.342    0.390   62.422   23.909
  338.797    0.349    0.385   64.209   24.175
  339.097    0.354    0.384   59.088   24.079
  339.397    0.355    0.398   64.228   24.028
  339.697    0.351    0.408   61.904   23.887
  339.997    0.348    0.398   63.561   23.881
  340.297    0.347    0.384   62.983   23.965
  340.597    0.351    0.400   69.367   24.052
  340.897    0.353    0.409   61.572   24.181
  341.197    0.354    0.406   58.995   24.266
  341.497    0.356    0.396   60.907   24.124
  341.797    0.351    0.381   59.391   23.894
  342.097    0.342    0.394   54.773   23.664
  342.397    0.336    0.414   54.625   23.749
  342.697    0.335    0.406   50.999   23.041
  342.997    0.331    0.413   56.451   21.329
  343.297    0.323    0.417   62.583   20.654
  343.597    0.321    0.396   65.984   22.340
  343.897    0.351    0.397   63.974   22.760
  344.197    0.358    0.396   64.138   22.843
  344.497    0.361    0.395   56.529   21.304
  344.797    0.359    0.395   58.934   20.169
  345.097    0.358    0.421   64.822   19.904
  345.397    0.356    0.412   56.714   19.603
  345.697    0.353    0.415   51.782   18.911
  345.997    0.353    0.422   56.177   18.175
  346.297    0.357    0.422   59.947   17.969
  346.597    0.362    0.397   58.745   17.368
  346.897    0.363    0.410   53.937   17.169
  347.197    0.362    0.404   52.673   17.068
  347.497    0.357    0.397   50.657   17.000
  347.797    0.351    0.422   57.913   16.964
  348.097    0.348    0.432   62.619   16.800
  348.397    0.348    0.422   63.346   16.704
  348.697    0.350    0.424   61.210   16.514
  348.997    0.347    0.428   53.476   16.264
  349.297    0.334    0.406   54.639   16.108
  349.597    0.331    0.391   58.225   15.804
  349.897    0.333    0.404   55.901   15.275
  350.197    0.333    0.422   58.432   14.933
  350.497    0.338    0.442   57.911   13.979
  350.797    0.341    0.422   55.654   13.486
  351.096    0.334    0.415   62.038   13.184
  351.396    0.328    0.406   63.882   12.742
  351.696    0.325    0.427   63.112   12.269
  351.996    0.325    0.445   67.072   12.153
  352.296    0.329    0.420   64.813   11.992
  352.596    0.333    0.414   64.295   11.787
  352.896    0.324    0.431   56.498   11.674
  353.196    0.318    0.416   55.047   11.651
  353.496    0.308    0.400   65.659   11.869
  353.796    0.302    0.389   67.631   12.863
  354.096    0.333    0.399   64.186   14.151
  354.396    0.344    0.415   59.317   14.150
  354.696    0.352    0.433   56.872   10.516
  354.996    0.344    0.450   65.928    8.191
  355.296    0.316    0.439   71.630    7.180
  355.596    0.299    0.441   79.504    6.597
  355.896    0.288    0.438   85.700    6.317
  356.196    0.275    0.411   92.522    6.375
  356.496    0.257    0.409   86.407    6.507
  356.796    0.253    0.401   98.077    6.704
  357.096    0.269    0.424   93.206    6.945
  357.396    0.305    0.449  103.505    7.195
  357.696    0.301    0.461   96.583    7.454
  357.996    0.277    0.455   98.490    7.581
  358.296    0.264    0.438   94.240    7.839
  358.596    0.262    0.421   94.028    8.107
  358.896    0.268    0.419   90.714    8.383
  359.196    0.274    0.402   94.674    8.899
  359.496    0.302    0.395   92.975    9.016
  359.796    0.309    0.417   90.898    9.151
  360.096    0.296    0.432   86.279    8.648
  360.396    0.296    0.437   85.138    7.812
  360.696    0.323    0.458   93.198    6.696
  360.996    0.331    0.474   96.904    6.049
  361.296    0.332    0.489   95.334    5.424
  361.596    0.338    0.495   98.735    4.845
  361.896    0.348    0.493  100.517    4.288
  362.196    0.345    0.490  100.434    3.859
  362.496    0.322    0.495  100.222    3.801
  362.796    0.310    0.483   95.352    4.005
  363.096    0.303    0.474   89.052    4.448
  363.396    0.294    0.462   81.942    5.740
  363.696    0.294    0.441   89.632    6.495
  363.996    0.300    0.431   88.365    7.213
  364.296    0.307    0.441   83.371    8.208
  364.596    0.321    0.470   83.909    8.490
  364.896    0.354    0.456   90.228    9.030
  365.196    0.386    0.453   90.396    8.502
  365.496    0.380    0.489   89.130    6.940
  365.796    0.371    0.529   85.500    5.708
  366.096    0.385    0.523   86.165    4.607
  366.396    0.382    0.497   91.992    3.797
  366.696    0.372    0.494   95.077    3.488
  366.996    0.363    0.495   98.354    3.302
  367.296    0.360    0.512   96.529    3.277
  367.596    0.374    0.521   92.654    3.395
  367.896    0.385    0.490   99.037    3.700
  368.196    0.379    0.497   98.022    3.820
  368.496    0.332    0.469   83.820    4.202
  368.796    0.353    0.477   80.069    4.436
  369.096    0.363    0.479   83.219    4.461
