~VERSION INFORMATION
 VERS.                 2.0:   CWLS LOG ASCII STANDARD -VERSION 2.0
 WRAP.                  NO:   ONE LINE PER DEPTH STEP
~WELL INFORMATION BLOCK
#MNEM.UNIT           DATA                    DESCRIPTION OF MNEMONIC
#---------    -------------------            -------------------------------
# Generated from Intellog Unique Number	CC_80_83/WELL/2326
WELL.         NOVALTA NEWBY                  : Well_name    - WELL
LOC .         00/12-07-083-04W4/0            : Location     - LOCATION
UWI .         00/12-07-083-04W4/0            : Uwi          - UNIQUE WELL ID
ENTR.         DW                             : Entered      - ENTERED BY
SRVC.         SCHLUMBERGER                   : Scn          - SERVICE COMPANY
STRT.M        70                             : top_depth    - START DEPTH
STOP.M        279.75                         : bot_depth    - STOP DEPTH
STEP.M        0.25                           : increment    - STEP LENGTH
 NULL. -999.2500:NULL Value
~CURVE INFORMATION BLOCK
#MNEM UNIT       ERCB CURVE CODE    CURVE DESCRIPTION
#-----------   ------------------   ----------------------------------
DEPT.M        00 001 00 00         : DEPTH        - DEPTH
GR  .API      00 310 00 00         : GR           - GAMMA RAY
DPHI.V/V      00 890 00 00         : PHID         - DENSITY POROSITY (SANDSTONE)
NPHI.V/V      00 330 00 00         : PHIN         - NEUTRON POROSITY (SANDSTONE)
ILD .OHMM     00 120 00 00         : RESD         - DEEP RESISTIVITY (DIL)
~PARAMETER INFORMATION
#MNEM.UNIT           DATA             DESCRIPTION OF MNEMONIC
#---------         -----------     ------------------------------
GL  .M        462.29               : gl           - GROUND LEVEL ELEVATION
EREF.M        465.29               : kb           - ELEVATION OF DEPTH REFERENCE
DATM.M        465.29               : datum        - DATUM ELEVATION
TDD .M        288.9                : tdd          - TOTAL DEPTH DRILLER
RUN .         ONE                  : Run          - RUN NUMBER
ENG .         BILL                 : Engineer     - RECORDING ENGINEER
WIT .         JIM                  : Witness      - WITNESSED BY
MUD .         GEL                  : Mud_type     - MUD TYPE
MATR.         SANDSTONE            : Logunit      - NEUTRON MATRIX
TMAX.C        19                   : BHT          - MAXIMUM RECORDED TEMPERATURE
BHTD.M        288.9                : BHTDEP       - MAXIMUM RECORDED TEMPERATURE
MATR.         1                    : LOGUNIT      - NEUTRON MATRIX
RMT .C        25                   : MDTP         - TEMPERATURE OF MUD
NEUT.         1                    : NEUTRON      - NEUTRON TYPE
RESI.         0                    : RESIST       - RESISTIVITY TYPE
RMC .OHMM     0.25                 : RMC          - RESISTIVITY OF MUD CAKE
RMF .OHMM     0.25                 : RMF          - RESISTIVITY OF MUD FILTRATE
SUFT.C        15                   : SUFT         - SURFACE TEMPERATURE
~A  DEPTH       GR     PHID     PHIN     RESD
   70.000   78.673    0.310    0.369   15.609
   70.250   82.262    0.310    0.379   15.102
   70.500   85.760    0.310    0.387   14.819
   70.750   87.517    0.310    0.392   14.678
   71.000   88.352    0.311    0.396   14.904
   71.250   87.395    0.312    0.393   15.385
   71.500   83.656    0.315    0.380   15.893
   71.750   84.641    0.318    0.367   17.178
   72.000   90.245    0.319    0.372   18.413
   72.250   93.960    0.306    0.382   19.386
   72.500   93.956    0.292    0.375   20.230
   72.750   92.669    0.282    0.357   20.712
   73.000   89.877    0.275    0.358   20.666
   73.250   84.788    0.302    0.380   20.652
   73.500   85.911    0.311    0.397   20.701
   73.750   91.375    0.300    0.404   20.480
   74.000   92.432    0.289    0.408   20.173
   74.250   95.678    0.287    0.408   19.759
   74.500  109.727    0.292    0.403   18.796
   74.750  111.064    0.298    0.391   17.865
   75.000  107.575    0.287    0.376   17.694
   75.250  102.784    0.270    0.366   17.851
   75.500   90.546    0.269    0.351   18.412
   75.750   78.222    0.280    0.335   19.273
   76.000   81.256    0.276    0.344   19.871
   76.250   87.902    0.265    0.369   20.876
   76.500   89.170    0.273    0.384   21.137
   76.750   88.618    0.282    0.388   20.791
   77.000   93.315    0.282    0.373   20.596
   77.250   95.049    0.276    0.351   20.613
   77.500   81.910    0.266    0.351   20.617
   77.750   69.731    0.269    0.351   20.957
   78.000   61.831    0.288    0.354   20.892
   78.250   70.688    0.316    0.366   19.908
   78.500   86.732    0.323    0.372   18.671
   78.750   96.013    0.308    0.364   17.960
   79.000  101.756    0.297    0.362   17.720
   79.250   98.921    0.288    0.369   17.734
   79.500   95.738    0.298    0.376   17.515
   79.750   93.738    0.313    0.377   17.221
   80.000   91.678    0.320    0.384   16.928
   80.250   90.561    0.320    0.392   16.729
   80.500   90.633    0.312    0.388   16.735
   80.750   87.490    0.304    0.389   16.456
   81.000   74.167    0.319    0.398   16.436
   81.250   60.001    0.348    0.397   16.277
   81.500   55.739    0.348    0.387   16.868
   81.750   59.159    0.331    0.381   18.226
   82.000   62.164    0.346    0.373   18.371
   82.250   65.776    0.361    0.351   17.762
   82.500   69.105    0.367    0.342   17.715
   82.750   71.837    0.356    0.348   17.319
   83.000   75.998    0.343    0.358   16.291
   83.250   84.946    0.324    0.387   15.322
   83.500   98.115    0.285    0.433   14.646
   83.750  107.196    0.269    0.418   14.397
   84.000  107.855    0.263    0.382   14.225
   84.250  102.941    0.267    0.372   13.834
   84.500  102.120    0.292    0.394   13.466
   84.750  108.055    0.316    0.421   13.280
   85.000  113.011    0.303    0.430   12.828
   85.250  115.747    0.268    0.430   11.854
   85.500  117.543    0.258    0.418   11.188
   85.750  120.864    0.260    0.406   10.822
   86.000  123.693    0.251    0.411   10.487
   86.250  125.288    0.242    0.429   10.168
   86.500  128.525    0.243    0.445    9.849
   86.750  130.707    0.241    0.462    9.504
   87.000  131.970    0.242    0.474    9.658
   87.250  132.395    0.243    0.450   10.178
   87.500  132.076    0.242    0.419   10.982
   87.750  131.546    0.243    0.410   12.125
   88.000  128.560    0.247    0.391   13.297
   88.250  117.263    0.260    0.378   14.001
   88.500  102.129    0.274    0.365   14.114
   88.750   90.260    0.278    0.351   13.970
   89.000  104.444    0.275    0.365   13.618
   89.250  131.559    0.258    0.405   12.854
   89.500  131.681    0.226    0.417   11.869
   89.750  133.529    0.225    0.415   11.280
   90.000  134.569    0.243    0.411   11.127
   90.250  127.917    0.253    0.413   11.509
   90.500  118.195    0.249    0.414   12.059
   90.750  110.297    0.264    0.423   12.738
   91.000  101.361    0.314    0.442   13.786
   91.250   94.113    0.334    0.404   14.260
   91.500  103.591    0.327    0.390   14.515
   91.750  109.477    0.310    0.405   14.642
   92.000   98.590    0.313    0.421   15.186
   92.250   86.531    0.334    0.433   16.189
   92.500   88.368    0.337    0.430   16.627
   92.750   93.169    0.319    0.387   16.393
   93.000   95.088    0.307    0.370   16.065
   93.250   87.154    0.313    0.382   16.055
   93.500   77.563    0.315    0.386   16.605
   93.750   77.173    0.298    0.375   17.378
   94.000   84.054    0.279    0.364   17.913
   94.250   95.285    0.267    0.355   18.571
   94.500   99.670    0.264    0.350   18.080
   94.750   90.977    0.281    0.350   16.729
   95.000   81.744    0.298    0.358   15.658
   95.250   80.014    0.300    0.366   14.943
   95.500   77.279    0.300    0.376   14.015
   95.750   74.417    0.301    0.407   13.535
   96.000   68.795    0.322    0.416   13.447
   96.250   62.715    0.332    0.413   13.619
   96.500   60.095    0.331    0.414   13.797
   96.750   60.778    0.336    0.416   14.118
   97.000   61.197    0.337    0.415   14.815
   97.250   59.760    0.322    0.414   15.082
   97.500   57.675    0.322    0.408   15.115
   97.750   56.030    0.339    0.408   15.038
   98.000   58.938    0.344    0.410   15.249
   98.250   65.360    0.325    0.404   15.743
   98.500   67.419    0.300    0.403   15.962
   98.750   64.702    0.298    0.415   16.204
   99.000   59.240    0.317    0.407   16.487
   99.250   56.848    0.325    0.406   16.618
   99.500   63.086    0.319    0.413   16.477
   99.750   73.433    0.306    0.405   16.205
  100.000   76.737    0.287    0.403   15.652
  100.250   74.038    0.286    0.436   14.216
  100.500   74.552    0.288    0.454   13.540
  100.750   79.133    0.296    0.427   13.304
  101.000   82.656    0.306    0.396   13.243
  101.250   84.864    0.309    0.385   13.508
  101.500   89.153    0.306    0.368   13.709
  101.750   91.444    0.281    0.367   13.749
  102.000   91.475    0.257    0.399   13.364
  102.250   87.346    0.269    0.413   13.066
  102.500   82.992    0.290    0.406   12.807
  102.750   81.408    0.283    0.403   12.404
  103.000   81.128    0.269    0.399   12.235
  103.250   84.803    0.271    0.413   12.225
  103.500   81.296    0.299    0.411   12.257
  103.750   81.549    0.310    0.393   12.118
  104.000   91.230    0.294    0.395   11.959
  104.250  102.268    0.276    0.414   11.667
  104.500  109.031    0.265    0.422   10.920
  104.750  112.001    0.250    0.439   10.396
  105.000  111.436    0.248    0.415   10.045
  105.250  110.351    0.254    0.388    9.815
  105.500  107.257    0.248    0.397    9.737
  105.750  103.973    0.238    0.430    9.749
  106.000  105.962    0.246    0.462    9.746
  106.250  106.583    0.247    0.462    9.741
  106.500  106.342    0.234    0.422    9.761
  106.750  102.252    0.242    0.393    9.659
  107.000   98.235    0.258    0.402    9.511
  107.250   99.853    0.259    0.421    9.322
  107.500  103.513    0.257    0.425    9.031
  107.750  104.138    0.251    0.420    9.037
  108.000  104.546    0.238    0.400    8.900
  108.250  104.502    0.232    0.384    8.925
  108.500   99.285    0.239    0.397    9.050
  108.750   94.144    0.250    0.415    9.021
  109.000   98.582    0.257    0.395    9.025
  109.250  101.124    0.261    0.384    9.022
  109.500   99.318    0.269    0.403    9.086
  109.750   95.358    0.275    0.422    9.493
  110.000   82.204    0.278    0.452   10.223
  110.250   66.458    0.289    0.485   11.056
  110.500   65.158    0.315    0.465   11.735
  110.750   62.720    0.337    0.419   11.927
  111.000   59.991    0.352    0.398   12.140
  111.250   57.130    0.359    0.392   12.094
  111.500   54.278    0.361    0.385   11.909
  111.750   54.495    0.365    0.390   11.980
  112.000   56.512    0.375    0.416   12.177
  112.250   51.267    0.400    0.426   12.378
  112.500   43.849    0.438    0.395   12.510
  112.750   39.716    0.422    0.364   12.999
  113.000   37.769    0.367    0.345   13.519
  113.250   36.735    0.338    0.330   13.632
