~VERSION INFORMATION
 VERS.                 2.0:   CWLS LOG ASCII STANDARD -VERSION 2.0
 WRAP.                  NO:   ONE LINE PER DEPTH STEP
~WELL INFORMATION BLOCK
#MNEM.UNIT           DATA                    DESCRIPTION OF MNEMONIC
#---------    -------------------            -------------------------------
# Generated from Intellog Unique Number	CN_91_93/WELL/3062
WELL.         10-14-092-21W4                 : Well_name    - WELL
LOC .         00/10-14-092-21W4/0            : Location     - LOCATION
UWI .         00/10-14-092-21W4/0            : Uwi          - UNIQUE WELL ID
ENTR.         JOETTE                         : Entered      - ENTERED BY
SRVC.         SCHLUMBERGER                   : Scn          - SERVICE COMPANY
DATE.         04/09/92                       : Date         - LOG DATE
STRT.M        225                            : top_depth    - START DEPTH
STOP.M        367                            : bot_depth    - STOP DEPTH
STEP.M        0.25                           : increment    - STEP LENGTH
 NULL. -999.2500:NULL Value
~CURVE INFORMATION BLOCK
#MNEM UNIT       ERCB CURVE CODE    CURVE DESCRIPTION
#-----------   ------------------   ----------------------------------
DEPT.M        00 001 00 00         : DEPTH        - DEPTH
GR  .API      00 310 00 00         : GR           - GAMMA RAY
NPHI.V/V      00 330 00 00         : PHIN         - NEUTRON POROSITY (SANDSTONE)
DPHI.V/V      00 890 00 00         : PHID         - DENSITY POROSITY (SANDSTONE)
ILD .OHMM     00 120 00 00         : RESD         - DEEP RESISTIVITY (DIL)
~PARAMETER INFORMATION
#MNEM.UNIT           DATA             DESCRIPTION OF MNEMONIC
#---------         -----------     ------------------------------
GL  .M        540.3                : gl           - GROUND LEVEL ELEVATION
EREF.M        544                  : kb           - ELEVATION OF DEPTH REFERENCE
DATM.M        544                  : datum        - DATUM ELEVATION
TDD .M        379.69               : tdd          - TOTAL DEPTH DRILLER
RUN .         ONE                  : Run          - RUN NUMBER
ENG .         BILL                 : Engineer     - RECORDING ENGINEER
WIT .         JIM                  : Witness      - WITNESSED BY
MUD .         GEL                  : Mud_type     - MUD TYPE
MATR.         SANDSTONE            : Logunit      - NEUTRON MATRIX
TMAX.C        14                   : BHT          - MAXIMUM RECORDED TEMPERATURE
BHTD.M        379.69               : BHTDEP       - MAXIMUM RECORDED TEMPERATURE
RMT .C        14                   : MDTP         - TEMPERATURE OF MUD
MUDD.KG/M     9666.66              : MWT          - MUD DENSITY
NEUT.         1                    : NEUTRON      - NEUTRON TYPE
RESI.         0                    : RESIST       - RESISTIVITY TYPE
RM  .OHMM     8.5                  : RM           - RESISTIVITY OF MUD
RMC .OHMM     8.5                  : RMC          - RESISTIVITY OF MUD CAKE
RMF .OHMM     8.5                  : RMF          - RESISTIVITY OF MUD FILTRATE
SUFT.C        4                    : SUFT         - SURFACE TEMPERATURE
~A  DEPTH       GR     PHIN     PHID     RESD
# ...
  312.000   32.498    0.144    0.031   12.152
  312.250   42.470    0.179    0.042   11.148
  312.500   49.954    0.195    0.046   10.406
  312.750   57.437    0.191    0.042   10.407
  313.000   62.432    0.184    0.048   10.774
  313.250   63.070    0.179    0.054   10.775
  313.500   58.112    0.180    0.055   10.592
  313.750   55.640    0.185    0.047    9.886
  314.000   55.038    0.190    0.052    8.915
  314.250   55.050    0.197    0.054    8.466
  314.500   55.689    0.201    0.059    8.039
  314.750   56.958    0.206    0.061    7.903
  315.000   57.592    0.206    0.068    8.324
  315.250   57.612    0.200    0.075    9.075
  315.500   56.998    0.187    0.077   10.242
  315.750   55.770    0.158    0.069   11.965
  316.000   50.186    0.151    0.065   12.822
  316.250   46.469    0.142    0.066   13.046
  316.500   39.640    0.132    0.061   13.048
  316.750   35.301    0.129    0.067   12.607
  317.000   37.188    0.133    0.065   11.565
  317.250   41.556    0.146    0.067   10.611
  317.500   47.795    0.160    0.061    9.734
  317.750   54.656    0.181    0.059    8.931
  318.000   61.517    0.191    0.076    8.481
  318.250   67.756    0.202    0.065    8.194
  318.500   76.484    0.214    0.068    8.054
  318.750   81.478    0.221    0.067    7.782
  319.000   78.388    0.224    0.066    7.649
  319.250   79.026    0.214    0.076    7.651
  319.500   79.665    0.213    0.083    7.520
  319.750   80.311    0.215    0.079    7.521
  320.000   80.946    0.216    0.068    7.522
  320.250   80.958    0.216    0.071    7.394
  320.500   81.597    0.215    0.076    7.395
  320.750   82.858    0.220    0.066    7.270
  321.000   85.989    0.227    0.068    7.270
  321.250   89.121    0.236    0.077    7.147
  321.500   90.374    0.236    0.084    7.147
  321.750   93.501    0.236    0.078    7.026
  322.000   90.406    0.233    0.073    7.149
  322.250   84.822    0.218    0.065    7.661
  322.500   81.731    0.203    0.060    8.353
  322.750   80.503    0.182    0.063    8.647
  323.000   78.653    0.178    0.062    9.267
  323.250   77.424    0.180    0.062    9.268
  323.500   79.308    0.202    0.062    8.954
  323.750   82.435    0.221    0.061    8.215
  324.000   84.936    0.232    0.069    7.407
  324.250   88.072    0.241    0.072    6.914
  324.500   88.711    0.247    0.062    6.566
  324.750   89.972    0.252    0.068    6.454
  325.000   92.477    0.250    0.069    6.455
  325.250   94.364    0.247    0.075    6.455
  325.500   94.372    0.243    0.083    6.456
  325.750   92.522    0.237    0.078    6.457
  326.000   89.431    0.229    0.067    6.458
  326.250   87.580    0.229    0.076    6.348
  326.500   86.978    0.238    0.078    6.349
  326.750   87.613    0.240    0.083    6.350
  327.000   88.248    0.243    0.094    6.350
  327.250   90.753    0.243    0.092    6.242
  327.500   88.902    0.243    0.080    6.243
  327.750   87.678    0.240    0.065    6.244
  328.000   86.454    0.234    0.067    6.245
  328.250   86.466    0.231    0.078    6.245
  328.500   86.478    0.233    0.080    6.246
  328.750   87.121    0.237    0.085    6.140
  329.000   89.000    0.238    0.079    6.035
  329.250   92.750    0.235    0.073    6.036
  329.500   94.633    0.239    0.081    5.933
  329.750   92.783    0.244    0.080    5.934
  330.000   89.065    0.246    0.087    5.935
  330.250   84.112    0.250    0.086    5.936
  330.500   84.746    0.251    0.079    5.936
  330.750   87.874    0.250    0.076    5.937
  331.000   91.001    0.252    0.076    6.041
  331.250   89.773    0.258    0.077    6.147
  331.500   89.167    0.269    0.081    6.255
  331.750   91.050    0.272    0.082    6.255
  332.000   93.556    0.265    0.075    6.365
  332.250   96.688    0.256    0.065    6.477
  332.500   96.700    0.247    0.059    6.591
  332.750   93.605    0.244    0.072    6.591
  333.000   88.647    0.250    0.087    6.592
  333.250   88.663    0.257    0.091    6.593
  333.500   89.920    0.264    0.092    6.593
  333.750   92.430    0.269    0.094    6.594
  334.000   92.446    0.269    0.093    6.595
  334.250   91.213    0.269    0.088    6.596
  334.500   88.741    0.267    0.084    6.711
  334.750   86.268    0.262    0.077    6.712
  335.000   84.418    0.257    0.070    6.830
  335.250   81.327    0.251    0.076    6.950
  335.500   80.094    0.243    0.075    6.950
  335.750   79.493    0.243    0.067    7.072
  336.000   80.131    0.248    0.062    7.073
  336.250   81.388    0.243    0.068    7.074
  336.500   83.901    0.245    0.073    7.075
  336.750   84.540    0.245    0.079    6.954
  337.000   83.930    0.242    0.082    6.491
  337.250   83.950    0.253    0.081    6.164
  337.500   83.967    0.265    0.079    6.059
  337.750   84.601    0.271    0.082    5.956
  338.000   85.244    0.271    0.082    5.957
  338.250   85.256    0.268    0.078    6.167
  338.500   84.028    0.253    0.073    6.841
  338.750   74.710    0.229    0.068    7.331
  339.000   60.415    0.192    0.076    8.564
  339.250   46.123    0.172    0.076    9.665
  339.500   47.388    0.154    0.071    9.338
  339.750   49.263    0.155    0.075    8.276
  340.000   52.395    0.178    0.083    7.335
  340.250   54.273    0.182    0.086    6.614
  340.500   58.028    0.190    0.084    5.862
  340.750   60.529    0.197    0.083    5.471
  341.000   64.279    0.206    0.085    5.107
  341.250   68.028    0.220    0.094    4.767
  341.500   72.401    0.231    0.102    4.606
  341.750   79.884    0.245    0.091    4.225
  342.000   86.749    0.272    0.101    4.013
  342.250   91.125    0.286    0.117    3.810
  342.500   93.631    0.300    0.138    3.618
  342.750   97.999    0.314    0.136    3.377
  343.000  104.238    0.336    0.135    3.207
  343.250  106.121    0.364    0.168    3.046
  343.500   99.292    0.386    0.215    2.994
  343.750   99.931    0.404    0.262    3.100
  344.000  101.818    0.408    0.286    3.438
  344.250  101.834    0.375    0.286    3.749
  344.500   95.624    0.349    0.254    3.815
  344.750   89.422    0.339    0.224    3.949
  345.000   93.168    0.359    0.208    4.457
  345.250   91.317    0.380    0.150    5.483
  345.500   72.666    0.358    0.168    7.104
  345.750   52.147    0.304    0.188    9.694
  346.000   40.963    0.227    0.183   10.211
  346.250   36.628    0.191    0.090   10.390
  346.500   41.000    0.174    0.101   11.525
  346.750   43.501    0.210    0.118   13.233
  347.000   47.877    0.222    0.134   15.728
  347.250   47.267    0.233    0.126   18.061
  347.500   41.061    0.196    0.076   19.022
  347.750   29.258    0.139    0.069   21.101
  348.000   24.915    0.090    0.053   21.470
  348.250   18.709    0.077    0.020   22.227
  348.500   16.236    0.081    0.025   22.617
  348.750   16.252    0.083    0.031   22.233
  349.000   16.273    0.077    0.025   22.234
  349.250   16.911    0.072   -0.001   21.857
  349.500   17.550    0.080   -0.001   21.860
  349.750   19.433    0.092    0.007   21.862
  350.000   21.312    0.087    0.002   21.122
  350.250   23.817    0.083   -0.009   18.400
  350.500   26.949    0.093   -0.017   11.349
  350.750   30.699    0.103   -0.012    9.551
  351.000   35.693    0.119    0.017    7.632
  351.250   54.377    0.128    0.148    6.422
  351.500   67.461    0.277    0.099    5.692
  351.750   77.433    0.313    0.119    5.222
  352.000   97.984    0.311    0.117    4.874
  352.250  107.961    0.305    0.111    4.792
  352.500  111.092    0.301    0.116    4.792
  352.750  112.979    0.303    0.117    4.793
  353.000  114.232    0.308    0.116    4.711
  353.250  117.364    0.309    0.116    4.712
  353.500  118.625    0.309    0.118    4.632
  353.750  121.130    0.316    0.145    4.553
  354.000  123.631    0.327    0.150    4.399
  354.250  124.270    0.334    0.115    4.250
  354.500  125.531    0.326    0.117    4.036
  354.750  131.774    0.322    0.140    3.967
  355.000  134.897    0.325    0.170    3.900
  355.250  136.158    0.334    0.175    3.900
