~VERSION INFORMATION
 VERS.                 2.0:   CWLS LOG ASCII STANDARD -VERSION 2.0
 WRAP.                  NO:   ONE LINE PER DEPTH STEP
~WELL INFORMATION BLOCK
#MNEM.UNIT           DATA                    DESCRIPTION OF MNEMONIC
#---------    -------------------            -------------------------------
# Generated from Intellog Unique Number	CW_76_78/WELL/2585
NULL.         -999.25                        : NULL_VALUE
WELL.         SOBC ET AL SANDY LAKE          : Well_name    - WELL              
LOC .         11-36-078-22W4                 : Location     - LOCATION          
UWI .         00/11-36-078-22W4/0            : Uwi          - UNIQUE WELL ID    
ENTR.         MAX                            : Entered      - ENTERED BY        
SRVC.         SCHLUMBERGER                   : Scn          - SERVICE COMPANY   
DATE.         02 MAR 74                      : Date         - LOG DATE
STRT.M        213.36                         : top_depth    - START DEPTH       
STOP.M        429.86                         : bot_depth    - STOP DEPTH        
STEP.M        0.25                           : increment    - STEP LENGTH       
~CURVE INFORMATION BLOCK
#MNEM UNIT       ERCB CURVE CODE    CURVE DESCRIPTION
#-----------   ------------------   ----------------------------------
DEPT.M        00 001 00 00         : DEPTH        - DEPTH                       
ILD .OHMM     00 120 00 00         : RESD         - DEEP RESISTIVITY (DIL)      
NPHI.V/V      00 330 00 00         : PHIN         - NEUTRON POROSITY (SANDSTONE)
DPHI.V/V      00 890 00 00         : PHID         - DENSITY POROSITY (SANDSTONE)
CALI.MM       00 280 01 00         : CAL          - CALIPER                     
GR  .API      00 310 00 00         : GR           - GAMMA RAY                   
~PARAMETER INFORMATION       
#MNEM.UNIT           DATA             DESCRIPTION OF MNEMONIC
#---------         -----------     ------------------------------
GL  .M        562.966              : gl           - GROUND LEVEL ELEVATION      
EREF.M        565.404              : kb           - ELEVATION OF DEPTH REFERENCE
DATM.M        562.966              : datum        - DATUM ELEVATION             
TDD .M        434.34               : tdd          - TOTAL DEPTH DRILLER         
RUN .         ONE                  : Run          - RUN NUMBER                  
ENG .         BILL                 : Engineer     - RECORDING ENGINEER          
WIT .         JIM                  : Witness      - WITNESSED BY                
MUD .         GEL                  : Mud_type     - MUD TYPE                    
MATR.         SANDSTONE            : Logunit      - NEUTRON MATRIX              
TMAX.C        75                   : BHT          - MAXIMUM RECORDED TEMPERATURE
BHTD.M        434.34               : BHTDEP       - MAXIMUM RECORDED TEMPERATURE
RMT .C        14.4444              : MDTP         - TEMPERATURE OF MUD          
MUDD.KG/M     9200                 : MWT          - MUD DENSITY                 
NEUT.         1                    : NEUTRON      - NEUTRON TYPE                
RESI.         0                    : RESIST       - RESISTIVITY TYPE            
RM  .OHMM     7                    : RM           - RESISTIVITY OF MUD          
RMC .OHMM     0                    : RMC          - RESISTIVITY OF MUD CAKE     
RMF .OHMM     8.51                 : RMF          - RESISTIVITY OF MUD FILTRATE 
SUFT.C        -20.5556             : SUFT         - SURFACE TEMPERATURE         
~A  DEPTH     RESD     PHIN     PHID      CAL       GR
# ...
  249.860    7.390    0.476    0.251  210.306   98.177
  250.110    7.390    0.482    0.233  209.733  103.443
  250.360    7.116    0.489    0.230  206.145  104.568
  250.610    6.498    0.482    0.243  206.072  105.999
  250.860    6.375    0.506    0.243  206.516  105.371
  251.110    6.604    0.526    0.247  205.434  100.609
  251.360    7.091    0.521    0.248  203.862   94.661
  251.610    7.614    0.491    0.259  202.290   86.644
  251.860    8.629    0.472    0.273  200.201   81.297
  252.110   11.094    0.497    0.286  199.628   80.063
  252.360   12.019    0.541    0.298  199.563   79.730
  252.610   11.794    0.515    0.337  198.981   74.072
  252.860   11.794    0.512    0.338  198.889   70.484
  253.110   11.458    0.536    0.330  198.824   69.271
  253.360   11.458    0.573    0.332  198.760   67.453
  253.610   11.232    0.569    0.341  198.668   65.640
  253.860   11.326    0.571    0.354  198.585   61.462
  254.110   11.943    0.574    0.358  198.585   57.873
  254.360   12.595    0.559    0.352  198.456   55.766
  254.610   13.164    0.537    0.344  198.364   55.427
  254.860   13.633    0.552    0.339  198.290   55.673
  255.110   13.994    0.576    0.335  198.226   55.045
  255.360   14.235    0.584    0.325  198.143   54.701
  255.610   14.478    0.592    0.331  198.051   55.537
  255.860   14.457    0.557    0.347  198.477   57.263
  256.110   14.585    0.521    0.345  198.403   56.930
  256.360   14.585    0.512    0.346  198.847   55.696
  256.610   14.685    0.509    0.344  198.755   55.953
  256.860   14.941    0.495    0.343  198.626   55.309
  257.110   15.066    0.513    0.342  198.608   55.260
  257.360   15.187    0.516    0.344  199.034   55.517
  257.610   15.587    0.514    0.345  199.034   55.178
  257.860   15.856    0.500    0.343  198.877   54.255
  258.110   15.987    0.488    0.345  198.813   53.027
  258.360   15.962    0.474    0.346  199.729   52.688
  258.610   15.955    0.498    0.344  200.155   52.934
  258.860   15.943    0.545    0.337  200.072   52.006
  259.110   16.069    0.519    0.322  200.507   51.362
  259.360   16.069    0.480    0.317  200.415   51.034
  259.610   16.184    0.440    0.323  200.841   50.401
  259.860   16.764    0.433    0.296  201.757   47.982
  260.110   17.999    0.400    0.243  201.692   46.764
  260.360   18.645    0.348    0.206  201.692   46.431
  260.610   19.308    0.351    0.197  201.536   47.851
  260.860   19.465    0.385    0.289  200.972   50.757
  261.110   19.275    0.412    0.313  200.389   51.298
  261.360   18.742    0.439    0.344  199.807   50.970
  261.610   18.742    0.460    0.349  199.734   50.632
  261.860   18.373    0.441    0.352  199.660   50.873
  262.110   18.026    0.429    0.356  200.086   50.829
  262.360   18.026    0.434    0.357  200.012   50.485
  262.610   17.992    0.466    0.350  199.938   50.158
  262.860   18.145    0.462    0.352  200.355   52.168
  263.110   18.960    0.470    0.355  200.281   51.829
  263.360   20.545    0.463    0.356  200.208   50.612
  263.610   26.410    0.491    0.351  199.625   50.852
  263.860   29.405    0.518    0.343  199.552   52.283
  264.110   36.143    0.497    0.327  199.487   52.540
  264.360   46.892    0.457    0.293  199.895   50.722
  264.610   55.584    0.312    0.231  200.820   48.614
  264.860   51.221    0.201    0.180  201.236   45.621
  265.110   41.220    0.176    0.079  201.671   44.092
  265.360   33.476    0.176    0.064  202.097   45.233
  265.610   24.396    0.277    0.098  202.014   46.665
  265.860   22.884    0.370    0.182  200.942   49.276
  266.110   21.467    0.497    0.340  197.862   51.291
  266.360   20.317    0.529    0.352  197.798   51.253
  266.610   19.936    0.538    0.354  197.216   50.904
  266.860   19.737    0.540    0.358  197.142   50.270
  267.110   19.737    0.505    0.358  197.068   50.221
  267.360   19.700    0.482    0.353  197.494   50.184
  267.610   20.226    0.455    0.348  198.401   50.135
  267.860   20.389    0.442    0.339  199.345   48.622
  268.110   20.552    0.442    0.321  199.743   47.393
  268.360   20.722    0.517    0.336  200.169   48.524
  268.610   20.511    0.582    0.365  200.104   48.486
  268.860   20.131    0.562    0.355  200.040   49.322
  269.110   19.577    0.528    0.329  199.957   50.453
  269.360   19.208    0.493    0.320  199.883   50.420
  269.610   19.017    0.477    0.333  200.309   51.540
  269.860   19.172    0.455    0.336  200.235   52.682
  270.110   19.328    0.478    0.342  200.134   53.523
  270.360   19.483    0.493    0.345  200.060   52.595
  270.610   19.455    0.491    0.347  200.005   50.782
  270.860   19.448    0.469    0.351  199.931   48.673
  271.110   19.433    0.449    0.350  199.349   48.630
  271.360   19.401    0.473    0.355  198.776   50.646
  271.610   19.394    0.487    0.356  198.684   50.591
  271.860   19.394    0.482    0.353  199.110   50.548
  272.110   19.353    0.461    0.346  199.045   50.220
  272.360   19.517    0.447    0.335  198.953   49.576
  272.610   19.854    0.446    0.335  198.889   48.642
  272.860   20.378    0.441    0.337  199.315   47.719
  273.110   20.546    0.466    0.337  199.241   45.895
  273.360   20.341    0.485    0.339  199.648   43.787
  273.610   20.139    0.486    0.339  199.584   43.449
  273.860   19.764    0.458    0.335  199.510   44.301
  274.110   19.391    0.455    0.334  199.437   46.606
  274.360   18.855    0.474    0.339  200.362   49.512
  274.610   18.336    0.486    0.348  200.778   49.179
  274.860   18.336    0.497    0.345  201.204   45.886
  275.110   18.137    0.496    0.337  201.121   43.183
  275.360   17.960    0.453    0.312  201.048   43.724
  275.610   18.267    0.475    0.307  200.965   44.275
  275.860   18.582    0.470    0.323  200.900   44.521
  276.110   18.582    0.458    0.352  200.818   44.767
  276.360   18.715    0.451    0.352  200.744   45.325
  276.610   18.871    0.443    0.348  200.670   46.461
  276.860   18.681    0.455    0.346  201.586   47.291
  277.110   18.662    0.441    0.340  201.522   47.253
  277.360   18.662    0.427    0.347  201.439   45.145
  277.610   18.625    0.410    0.356  201.855   44.807
  277.860   18.779    0.450    0.351  209.292   45.047
  278.110   18.779    0.469    0.352  210.707   47.664
  278.360   18.919    0.496    0.355  215.128   49.679
  278.610   19.069    0.529    0.353  222.037   50.821
  278.860   19.226    0.562    0.350  229.954   51.957
  279.110   19.735    0.540    0.360  232.868   50.723
  279.360   19.896    0.507    0.359  230.316   49.205
  279.610   19.876    0.483    0.348  215.749   47.392
  279.860   19.504    0.507    0.341  201.183   47.048
  280.110   18.795    0.493    0.335  198.113   47.594
  280.360   18.115    0.463    0.331  197.032   48.441
  280.610   17.456    0.442    0.328  197.457   50.156
  280.860   17.273    0.530    0.343  197.384   53.068
  281.110   16.959    0.579    0.355  197.301   53.029
  281.360   16.490    0.587    0.362  197.236   51.200
  281.610   15.607    0.555    0.356  197.135   50.873
  281.860   15.316    0.543    0.356  197.135   50.829
  282.110   15.302    0.534    0.357  197.478   50.190
  282.360   15.850    0.520    0.338  197.423   48.372
  282.610   17.328    0.515    0.333  197.340   47.733
  282.860   19.114    0.514    0.347  197.276   49.465
  283.110   19.270    0.483    0.352  197.701   50.306
  283.360   19.253    0.459    0.338  198.127   48.192
  283.610   19.223    0.422    0.310  198.044   45.789
  283.860   19.046    0.445    0.312  197.971   46.041
  284.110   18.024    0.441    0.330  198.396   47.472
  284.360   17.214    0.450    0.345  199.812   47.723
  284.610   16.443    0.448    0.336  203.724   47.380
  284.860   15.845    0.527    0.346  209.153   47.620
  285.110   15.409    0.516    0.349  223.572   47.293
  285.360   14.985    0.501    0.337  228.974   46.659
  285.610   14.703    0.499    0.332  234.385   45.709
  285.860   14.168    0.533    0.324  235.828   45.682
  286.110   14.806    0.532    0.332  231.259   45.639
