~VERSION INFORMATION
 VERS.                 2.0:   CWLS LOG ASCII STANDARD -VERSION 2.0
 WRAP.                  NO:   ONE LINE PER DEPTH STEP
~WELL INFORMATION BLOCK
#MNEM.UNIT           DATA                    DESCRIPTION OF MNEMONIC
#---------    -------------------            -------------------------------
# Generated from Intellog Unique Number	CC_80_83/WELL/2368
NULL.         -999.25                        : NULL_VALUE
WELL.         GULF RESDELN                   : Well_name    - WELL              
LOC .         10-23-083-07W4                 : Location     - LOCATION          
UWI .         00/10-23-083-07W4/0            : Uwi          - UNIQUE WELL ID    
ENTR.         DW                             : Entered      - ENTERED BY        
SRVC.         SCHLUMBERGER                   : Scn          - SERVICE COMPANY   
DATE.         14 JAN 79                      : Date         - LOG DATE
STRT.M        150                            : top_depth    - START DEPTH       
STOP.M        414.895                        : bot_depth    - STOP DEPTH        
STEP.M        0.3                            : increment    - STEP LENGTH       
~CURVE INFORMATION BLOCK
#MNEM UNIT       ERCB CURVE CODE    CURVE DESCRIPTION
#-----------   ------------------   ----------------------------------
DEPT.M        00 001 00 00         : DEPTH        - DEPTH                       
DPHI.V/V      00 890 00 00         : PHID         - DENSITY POROSITY (LIMESTONE)
NPHI.V/V      00 330 00 00         : PHIN         - NEUTRON POROSITY (LIMESTONE)
GR  .API      00 310 00 00         : GR           - GAMMA RAY                   
ILD .OHMM     00 120 00 00         : RESD         - DEEP RESISTIVITY (DIL)      
~PARAMETER INFORMATION       
#MNEM.UNIT           DATA             DESCRIPTION OF MNEMONIC
#---------         -----------     ------------------------------
GL  .M        611.12               : gl           - GROUND LEVEL ELEVATION      
EREF.M        614.5                : kb           - ELEVATION OF DEPTH REFERENCE
DATM.M        614.5                : datum        - DATUM ELEVATION             
TDD .M        418                  : tdd          - TOTAL DEPTH DRILLER         
RUN .         ONE                  : Run          - RUN NUMBER                  
ENG .         BILL                 : Engineer     - RECORDING ENGINEER          
WIT .         JIM                  : Witness      - WITNESSED BY                
MUD .         GEL                  : Mud_type     - MUD TYPE                    
MATR.         LIMESTONE            : Logunit      - NEUTRON MATRIX              
TMAX.C        23                   : BHT          - MAXIMUM RECORDED TEMPERATURE
BHTD.M        418                  : BHTDEP       - MAXIMUM RECORDED TEMPERATURE
MATR.         1                    : LOGUNIT      - NEUTRON MATRIX              
RMT .C        25                   : MDTP         - TEMPERATURE OF MUD          
NEUT.         1                    : NEUTRON      - NEUTRON TYPE                
RESI.         0                    : RESIST       - RESISTIVITY TYPE            
RMC .OHMM     0.25                 : RMC          - RESISTIVITY OF MUD CAKE     
RMF .OHMM     0.25                 : RMF          - RESISTIVITY OF MUD FILTRATE 
SUFT.C        4                    : SUFT         - SURFACE TEMPERATURE         
~A  DEPTH     PHID     PHIN       GR     RESD
# ...
  202.201    0.253    0.436  103.055   12.606
  202.501    0.262    0.452  106.794   11.656
  202.801    0.257    0.451  114.874   10.575
  203.101    0.245    0.458  122.334    9.416
  203.401    0.234    0.466  130.416    8.227
  203.701    0.233    0.483  129.202    7.055
  204.001    0.228    0.496  135.419    6.280
  204.301    0.246    0.505  135.443    6.144
  204.601    0.242    0.484  131.128    6.614
  204.901    0.248    0.438  122.471    7.975
  205.201    0.237    0.416  112.575    9.614
  205.501    0.248    0.409  114.462   10.748
  205.801    0.250    0.413  114.479   11.351
  206.101    0.250    0.438  112.642   11.111
  206.401    0.243    0.433  108.323   10.879
  206.701    0.236    0.418  115.166   10.058
  207.001    0.240    0.437  118.290    9.661
  207.301    0.262    0.508  120.786    9.452
  207.601    0.270    0.520  122.053    9.607
  207.901    0.287    0.498  120.838    9.957
  208.201    0.315    0.514  116.514   10.916
  208.501    0.302    0.514  106.619   11.538
  208.801    0.298    0.471  105.401   12.887
  209.101    0.280    0.478  115.341   13.110
  209.401    0.274    0.459  114.129   12.822
  209.701    0.274    0.404  106.089   12.323
  210.001    0.270    0.407  106.731   12.060
  210.301    0.271    0.415   99.935   12.260
  210.601    0.290    0.431   93.760   13.193
  210.901    0.293    0.448   81.382   15.313
  211.201    0.302    0.445   64.668   17.124
  211.501    0.315    0.431   54.776   18.788
  211.801    0.321    0.431   55.415   20.210
  212.101    0.307    0.415   57.920   20.161
  212.401    0.303    0.432   57.320   20.480
  212.701    0.308    0.433   57.961   20.445
  213.001    0.327    0.426   59.224   20.763
  213.301    0.331    0.437   57.388   21.133
  213.601    0.335    0.433   57.410   22.292
  213.901    0.343    0.443   59.914   22.684
  214.201    0.346    0.416   61.794   23.042
  214.501    0.342    0.423   60.579   23.008
  214.801    0.346    0.426   57.499   22.504
  215.101    0.343    0.416   55.040   22.042
  215.401    0.338    0.411   54.445   21.591
  215.701    0.334    0.459   60.665   21.516
  216.001    0.333    0.428   61.305   21.078
  216.301    0.334    0.412   65.048   21.417
  216.601    0.337    0.438   65.690   21.762
  216.901    0.337    0.433   59.517   21.726
  217.201    0.335    0.417   56.438   21.672
  217.501    0.334    0.417   60.182   21.215
  217.801    0.348    0.438   60.819   20.372
  218.101    0.351    0.439   60.845   19.193
  218.401    0.350    0.423   61.489   18.433
  218.701    0.345    0.424   60.885   19.101
  219.001    0.335    0.453   60.294   20.177
  219.301    0.324    0.442   58.451   21.725
  219.601    0.324    0.461   54.140   24.747
  219.901    0.334    0.444   54.160   23.758
  220.201    0.342    0.429   52.319   21.566
  220.501    0.329    0.413   50.483   15.008
  220.801    0.318    0.408   58.565    9.144
  221.101    0.319    0.441   80.281    9.650
  221.401    0.346    0.481   70.388   10.585
  221.701    0.339    0.464   68.546   12.771
  222.001    0.337    0.444   72.288   18.614
  222.301    0.331    0.441   69.211   18.918
  222.601    0.324    0.433   64.899   15.912
  222.901    0.325    0.427   62.438   12.648
  223.201    0.328    0.425   66.799   11.916
  223.501    0.330    0.485   74.259   12.578
  223.801    0.330    0.489   69.323   12.556
  224.101    0.327    0.452   63.146   11.166
  224.401    0.304    0.444   63.170   11.148
  224.701    0.296    0.455   70.631   11.773
  225.001    0.313    0.485   68.796   12.914
  225.301    0.339    0.480   63.237   15.863
  225.601    0.344    0.465   58.921   18.074
  225.901    0.343    0.448   57.084   17.697
  226.201    0.344    0.427   58.345   14.599
  226.501    0.330    0.440   67.666    9.965
  226.801    0.300    0.488   78.844    7.343
  227.101    0.302    0.539   88.784    5.943
  227.401    0.311    0.531   83.230    5.601
  227.701    0.325    0.500   73.952    5.699
  228.001    0.318    0.469   72.115    7.001
  228.301    0.335    0.500   72.137   10.401
  228.601    0.350    0.505   64.724   12.784
  228.901    0.350    0.508   64.124   14.555
  229.201    0.352    0.469   69.730   16.273
  229.501    0.352    0.470   67.272   17.845
  229.801    0.347    0.432   65.428   18.485
  230.101    0.346    0.435   66.070   18.433
  230.401    0.345    0.443   61.757   18.050
  230.701    0.340    0.454   60.540   17.657
  231.001    0.326    0.455   65.520   17.626
  231.301    0.336    0.454   66.782   17.929
  231.601    0.340    0.454   69.901   17.870
  231.901    0.335    0.463   73.646   18.178
  232.201    0.337    0.459   72.436   18.831
  232.501    0.327    0.468   71.208   18.776
  232.801    0.309    0.432   68.754   18.750
  233.101    0.290    0.405   65.059   18.702
  233.401    0.285    0.386   57.637   19.744
  233.701    0.288    0.390   54.562   20.848
  234.001    0.290    0.401   57.686   22.425
  234.301    0.286    0.387   55.226   23.239
  234.601    0.306    0.400   51.528   23.176
  234.901    0.318    0.393   55.891   22.258
  235.201    0.308    0.419   57.152   21.805
  235.501    0.293    0.419   54.075   20.160
  235.801    0.295    0.393   49.137   17.285
  236.101    0.293    0.371   46.064   15.676
  236.401    0.277    0.391   47.943   15.628
  236.701    0.262    0.383   39.289   16.206
  237.001    0.251    0.352   44.269   17.447
  237.301    0.245    0.361   48.629   19.872
  237.601    0.302    0.347   46.794   21.379
  237.901    0.318    0.397   54.254   21.317
  238.201    0.325    0.405   61.715   20.884
  238.501    0.335    0.401   64.836   20.038
  238.801    0.342    0.416   54.325   19.627
  239.101    0.345    0.426   58.683   18.832
  239.401    0.356    0.394   58.086   18.805
  239.701    0.357    0.398   54.388   18.761
  240.001    0.348    0.431   51.931   19.078
  240.301    0.341    0.446   51.331   18.674
  240.601    0.335    0.450   55.073   18.632
  240.901    0.327    0.449   56.956   19.664
  241.201    0.323    0.438   55.119   20.767
  241.501    0.325    0.416   53.904   21.526
  241.801    0.333    0.399   53.922   21.475
  242.101    0.331    0.398   55.183   19.846
  242.401    0.339    0.437   61.407   18.700
  242.701    0.334    0.445   67.008   18.291
  243.001    0.338    0.450   63.928   18.253
  243.301    0.345    0.444   57.753   18.571
  243.601    0.348    0.446   67.073   18.513
  243.901    0.339    0.418   63.995   19.195
  244.201    0.344    0.419   51.621   20.656
  244.501    0.350    0.436   45.447   21.812
  244.801    0.354    0.446   51.671   21.749
  245.101    0.356    0.425   54.790   20.877
  245.401    0.357    0.413   54.192   20.451
  245.701    0.350    0.430   54.831   19.647
  246.001    0.350    0.436   57.958   18.523
  246.301    0.349    0.442   57.359   17.130
  246.601    0.347    0.451   57.379   16.446
  246.901    0.334    0.452   62.360   16.724
  247.201    0.344    0.461   61.148   16.988
  247.501    0.351    0.404   56.205   16.950
  247.801    0.355    0.399   48.794   16.598
  248.101    0.366    0.380   50.672   14.500
  248.401    0.369    0.382   56.895   10.683
  248.701    0.353    0.422   61.873    5.919
  249.001    0.342    0.505   70.572    5.270
  249.301    0.333    0.529   82.993    5.257
  249.601    0.298    0.500   90.457    5.243
  249.901    0.274    0.469   87.996    4.941
  250.201    0.252    0.463   87.400    4.156
  250.501    0.248    0.596   94.243    3.241
  250.801    0.318    0.582   96.122    2.624
  251.101    0.315    0.535  100.483    2.569
  251.401    0.318    0.538   98.025    2.712
  251.701    0.327    0.556   91.852    2.974
  252.001    0.321    0.550   87.534    3.202
  252.301    0.313    0.571   94.373    3.648
  252.601    0.321    0.583   99.973    4.315
  252.901    0.337    0.584   96.898    5.204
  253.201    0.325    0.580   88.862    6.770
  253.501    0.313    0.486   72.766    9.685
  253.801    0.330    0.466   68.450   16.741
  254.101    0.329    0.463   70.332   17.679
