~VERSION INFORMATION
 VERS.                 2.0:   CWLS LOG ASCII STANDARD -VERSION 2.0
 WRAP.                  NO:   ONE LINE PER DEPTH STEP
~WELL INFORMATION BLOCK
#MNEM.UNIT           DATA                    DESCRIPTION OF MNEMONIC
#---------    -------------------            -------------------------------
# Generated from Intellog Unique Number	CS_73_76/WELL/4865
WELL.         ANDERSON EXPLORATION LTD.      : Well_name    - WELL
LOC .         00/14-33-076-03W4/0            : Location     - LOCATION
UWI .         00/14-33-076-03W4/0            : Uwi          - UNIQUE WELL ID
ENTR.         JO                             : Entered      - ENTERED BY
SRVC.         COMPUTALOG                     : Scn          - SERVICE COMPANY
DATE.         05/25/92                       : Date         - LOG DATE
STRT.M        200                            : top_depth    - START DEPTH
STOP.M        465                            : bot_depth    - STOP DEPTH
STEP.M        0.25                           : increment    - STEP LENGTH
 NULL. -999.2500:NULL Value
~CURVE INFORMATION BLOCK
#MNEM UNIT       ERCB CURVE CODE    CURVE DESCRIPTION
#-----------   ------------------   ----------------------------------
DEPT.M        00 001 00 00         : DEPTH        - DEPTH
ILD .OHMM     00 120 00 00         : RESD         - DEEP RESISTIVITY (DIL)
DPHI.V/V      00 890 00 00         : PHID         - DENSITY POROSITY (SANDSTONE)
NPHI.V/V      00 330 00 00         : PHIN         - NEUTRON POROSITY (SANDSTONE)
GR  .API      00 310 00 00         : GR           - GAMMA RAY
~PARAMETER INFORMATION
#MNEM.UNIT           DATA             DESCRIPTION OF MNEMONIC
#---------         -----------     ------------------------------
GL  .M        584.6                : gl           - GROUND LEVEL ELEVATION
EREF.M        588.2                : kb           - ELEVATION OF DEPTH REFERENCE
DATM.M        588.2                : datum        - DATUM ELEVATION
TDD .M        471.2                : tdd          - TOTAL DEPTH DRILLER
RUN .         ONE                  : Run          - RUN NUMBER
ENG .         BILL                 : Engineer     - RECORDING ENGINEER
WIT .         JIM                  : Witness      - WITNESSED BY
MUD .         GEL                  : Mud_type     - MUD TYPE
MATR.         SANDSTONE            : Logunit      - NEUTRON MATRIX
TMAX.C        20                   : BHT          - MAXIMUM RECORDED TEMPERATURE
BHTD.M        471.2                : BHTDEP       - MAXIMUM RECORDED TEMPERATURE
MATR.         1                    : LOGUNIT      - NEUTRON MATRIX
RMT .C        16                   : MDTP         - TEMPERATURE OF MUD
NEUT.         1                    : NEUTRON      - NEUTRON TYPE
RESI.         0                    : RESIST       - RESISTIVITY TYPE
RMC .OHMM     2.7                  : RMC          - RESISTIVITY OF MUD CAKE
RMF .OHMM     3.4                  : RMF          - RESISTIVITY OF MUD FILTRATE
SUFT.C        15                   : SUFT         - SURFACE TEMPERATURE
~A  DEPTH     RESD     PHID     PHIN       GR
# ...
  243.500   18.040    0.302    0.384   83.564
  243.750   17.704    0.277    0.367   77.673
  244.000   19.084    0.265    0.374   91.832
  244.250   21.357    0.260    0.403   95.377
  244.500   23.457    0.297    0.390   72.382
  244.750   25.285    0.327    0.364   55.876
  245.000   26.749    0.337    0.353   48.215
  245.250   26.749    0.337    0.352   45.275
  245.500   26.749    0.342    0.358   42.919
  245.750   26.749    0.349    0.368   35.850
  246.000   26.749    0.356    0.369   37.035
  246.250   26.749    0.362    0.372   38.809
  246.500   27.255    0.359    0.369   42.354
  246.750   27.771    0.353    0.365   44.717
  247.000   28.297    0.339    0.362   48.851
  247.250   28.297    0.334    0.364   51.806
  247.500   28.833    0.328    0.380   49.455
  247.750   28.833    0.328    0.380   50.050
  248.000   28.833    0.331    0.368   53.003
  248.250   29.379    0.333    0.375   54.778
  248.500   29.379    0.326    0.393   53.014
  248.750   29.935    0.314    0.395   48.302
  249.000   30.502    0.321    0.384   41.822
  249.250   30.502    0.329    0.390   39.468
  249.500   31.080    0.321    0.384   41.243
  249.750   31.668    0.282    0.359   49.505
  250.000   31.668    0.256    0.348   61.304
  250.250   30.502    0.230    0.379   59.541
  250.500   28.297    0.216    0.396   56.598
  250.750   26.749    0.330    0.389   58.373
  251.000   25.285    0.332    0.401   64.276
  251.250   23.901    0.330    0.402   68.411
  251.500   22.593    0.322    0.397   67.826
  251.750   21.762    0.311    0.389   65.474
  252.000   20.960    0.308    0.379   64.300
  252.250   20.571    0.307    0.376   72.562
  252.500   20.571    0.306    0.386   82.593
  252.750   20.571    0.299    0.396   86.137
  253.000   20.571    0.282    0.402   87.912
  253.250   20.189    0.271    0.406   82.613
  253.500   18.729    0.282    0.415   80.258
  253.750   17.375    0.291    0.427   83.211
  254.000   16.735    0.289    0.426   89.704
  254.250   15.526    0.250    0.430   96.786
  254.500   13.873    0.227    0.446  105.637
  254.750   12.631    0.217    0.452  112.130
  255.000   11.940    0.225    0.421  113.905
  255.250   11.500    0.228    0.411  113.912
  255.500   11.286    0.222    0.446  116.276
  255.750   11.286    0.235    0.463  121.588
  256.000   11.077    0.248    0.480  119.825
  256.250   11.940    0.240    0.467  113.934
  256.500   12.870    0.240    0.439  110.990
  256.750   13.873    0.252    0.433  106.869
  257.000   14.954    0.267    0.424  107.465
  257.250   16.424    0.288    0.423  110.420
  257.500   17.375    0.294    0.423  108.656
  257.750   17.704    0.289    0.424   99.226
  258.000   18.040    0.290    0.419   95.105
  258.250   18.040    0.295    0.407   99.237
  258.500   17.704    0.300    0.397   97.474
  258.750   17.375    0.299    0.403   95.710
  259.000   17.375    0.278    0.417   98.665
  259.250   17.375    0.242    0.428  102.209
  259.500   17.704    0.226    0.443  105.755
  259.750   19.084    0.224    0.452  107.529
  260.000   20.960    0.254    0.418   82.175
  260.250   22.174    0.287    0.390   67.438
  260.500   21.357    0.318    0.382   50.932
  260.750   20.571    0.306    0.368   48.580
  261.000   18.729    0.273    0.381   52.712
  261.250   17.052    0.253    0.404   65.102
  261.500   16.735    0.245    0.413   77.492
  261.750   18.381    0.285    0.409   95.189
  262.000   19.813    0.315    0.394   87.528
  262.250   21.357    0.332    0.402   81.637
  262.500   23.457    0.342    0.409   93.438
  262.750   24.815    0.340    0.414   99.343
  263.000   25.764    0.338    0.423   99.938
  263.250   26.252    0.343    0.425   98.763
  263.500   26.252    0.356    0.413   94.051
  263.750   25.764    0.360    0.398   86.980
  264.000   24.815    0.350    0.382   82.858
  264.250   24.354    0.350    0.386   85.813
  264.500   23.457    0.343    0.398   84.639
  264.750   22.174    0.331    0.408   81.107
  265.000   21.357    0.320    0.417   78.754
  265.250   20.571    0.311    0.422   82.296
  265.500   20.960    0.322    0.424   87.020
  265.750   21.762    0.330    0.424   89.384
  266.000   22.174    0.313    0.423   86.441
  266.250   23.457    0.285    0.416   84.679
  266.500   24.815    0.269    0.409   88.222
  266.750   24.815    0.254    0.415   92.356
  267.000   24.815    0.246    0.449   92.953
  267.250   25.285    0.259    0.469   90.599
  267.500   25.764    0.277    0.464   84.707
  267.750   26.252    0.284    0.450   77.636
  268.000   27.255    0.277    0.440   74.104
  268.250   27.255    0.249    0.445   71.162
  268.500   28.297    0.235    0.449   64.680
  268.750   27.771    0.235    0.432   55.251
  269.000   26.749    0.265    0.404   48.769
  269.250   25.764    0.279    0.373   48.185
  269.500   24.354    0.291    0.353   50.550
  269.750   23.457    0.290    0.348   55.273
  270.000   22.174    0.275    0.365   59.997
  270.250   20.960    0.274    0.383   64.720
  270.500   20.571    0.274    0.395   68.266
  270.750   19.445    0.272    0.400   70.039
  271.000   18.729    0.266    0.394   72.404
  271.250   18.381    0.259    0.393   78.306
  271.500   18.040    0.250    0.396   81.852
  271.750   17.704    0.246    0.400   81.268
  272.000   17.052    0.245    0.406   79.504
  272.250   16.735    0.245    0.415   80.098
  272.500   16.735    0.245    0.414   83.054
  272.750   16.735    0.239    0.407   83.060
  273.000   16.735    0.232    0.376   82.476
  273.250   17.052    0.226    0.358   86.020
  273.500   18.381    0.227    0.436   89.564
  273.750   19.084    0.235    0.438   87.800
  274.000   21.357    0.267    0.428   83.678
  274.250   22.593    0.280    0.411   81.915
  274.500   24.815    0.318    0.416   78.972
  274.750   25.764    0.387    0.443   73.670
  275.000   26.749    0.404    0.448   73.086
  275.250   28.297    0.334    0.438   66.605
  275.500   29.379    0.302    0.431   62.484
  275.750   29.935    0.279    0.426   63.669
  276.000   29.935    0.348    0.430   62.494
  276.250   30.502    0.371    0.432   47.757
  276.500   30.502    0.374    0.413   42.456
  276.750   30.502    0.365    0.397   41.282
  277.000   30.502    0.356    0.405   43.647
  277.250   30.502    0.353    0.408   46.601
  277.500   30.502    0.353    0.407   49.556
  277.750   31.080    0.358    0.398   53.098
  278.000   31.080    0.362    0.389   59.001
  278.250   31.080    0.364    0.384   65.494
  278.500   31.080    0.364    0.386   69.038
  278.750   31.080    0.361    0.387   64.915
  279.000   31.080    0.360    0.384   56.665
  279.250   31.080    0.369    0.388   44.876
  279.500   30.502    0.390    0.405   36.626
  279.750   29.935    0.388    0.411   39.582
  280.000   29.935    0.375    0.431   41.946
  280.250   29.935    0.371    0.432   43.721
  280.500   29.935    0.364    0.423   41.959
  280.750   28.833    0.360    0.416   42.554
  281.000   25.285    0.354    0.408   43.738
  281.250   19.084    0.346    0.423   44.334
  281.500   14.136    0.331    0.438   43.160
  281.750   10.871    0.310    0.449   56.139
  282.000    8.680    0.283    0.447   82.682
  282.250    8.360    0.249    0.437   96.843
  282.500    8.844    0.238    0.437   99.206
  282.750    9.356    0.239    0.458   98.622
  283.000    9.356    0.241    0.462   93.323
  283.250    9.012    0.242    0.447   90.967
  283.500    8.844    0.238    0.439   88.615
  283.750    8.680    0.237    0.432   90.388
  284.000    8.680    0.233    0.434   95.704
  284.250    8.518    0.227    0.432   97.481
  284.500    8.518    0.219    0.424   97.484
  284.750    8.518    0.228    0.427   95.130
  285.000    8.360    0.242    0.448   92.777
  285.250    7.756    0.244    0.459   92.193
  285.500    7.470    0.240    0.454   94.558
  285.750    7.195    0.239    0.468   91.616
  286.000    7.612    0.248    0.468   86.903
  286.250    9.356    0.263    0.451   81.604
  286.500   10.471    0.288    0.439   79.249
  286.750   11.718    0.325    0.425   74.536
