~VERSION INFORMATION
 VERS.                 2.0:   CWLS LOG ASCII STANDARD -VERSION 2.0
 WRAP.                  NO:   ONE LINE PER DEPTH STEP
~WELL INFORMATION BLOCK
#MNEM.UNIT           DATA                    DESCRIPTION OF MNEMONIC
#---------    -------------------            -------------------------------
# Generated from Intellog Unique Number	CW_73_75/WELL/2997
WELL.         11-35-073-26W4                 : Well_name    - WELL
LOC .         00/11-35-073-26W4/0            : Location     - LOCATION
UWI .         00/11-35-073-26W4/0            : Uwi          - UNIQUE WELL ID
ENTR.         CAMPBELL                       : Entered      - ENTERED BY
SRVC.         SCHLUMBERGER                   : Scn          - SERVICE COMPANY
DATE.         29 FEB 1968                    : Date         - LOG DATE
STRT.M        454.152                        : top_depth    - START DEPTH
STOP.M        600.402                        : bot_depth    - STOP DEPTH
STEP.M        0.25                           : increment    - STEP LENGTH
 NULL. -999.2500:NULL Value
~CURVE INFORMATION BLOCK
#MNEM UNIT       ERCB CURVE CODE    CURVE DESCRIPTION
#-----------   ------------------   ----------------------------------
DEPT.M        00 001 00 00         : DEPTH        - DEPTH
ILD .OHMM     00 120 00 00         : RESD         - DEEP RESISTIVITY (DIL)
DELT.US/F     00 520 00 00         : DELT         - SONIC TRAVEL TIME
GR  .API      00 310 00 00         : GR           - GAMMA RAY
CALI.MM       00 280 01 00         : CAL          - CALIPER
~PARAMETER INFORMATION
#MNEM.UNIT           DATA             DESCRIPTION OF MNEMONIC
#---------         -----------     ------------------------------
GL  .M        655.198              : gl           - GROUND LEVEL ELEVATION
EREF.M        658.703              : kb           - ELEVATION OF DEPTH REFERENCE
DATM.M        658.703              : datum        - DATUM ELEVATION
TDD .M        600.456              : tdd          - TOTAL DEPTH DRILLER
RUN .         ONE                  : Run          - RUN NUMBER
ENG .         TRUMAN               : Engineer     - RECORDING ENGINEER
WIT .         CONNELLY             : Witness      - WITNESSED BY
MUD .         GEL                  : Mud_type     - MUD TYPE
MATR.         SANDSTONE            : Logunit      - NEUTRON MATRIX
TMAX.C        34.4444              : BHT          - MAXIMUM RECORDED TEMPERATURE
BHTD.M        600.456              : BHTDEP       - MAXIMUM RECORDED TEMPERATURE
RMT .C        13.3333              : MDTP         - TEMPERATURE OF MUD
MUDD.KG/M     9600                 : MWT          - MUD DENSITY
NEUT.         1                    : NEUTRON      - NEUTRON TYPE
RESI.         0                    : RESIST       - RESISTIVITY TYPE
RM  .OHMM     3.58                 : RM           - RESISTIVITY OF MUD
RMC .OHMM     2.97                 : RMC          - RESISTIVITY OF MUD CAKE
RMF .OHMM     2.04                 : RMF          - RESISTIVITY OF MUD FILTRATE
SUFT.C        -10                  : SUFT         - SURFACE TEMPERATURE
~A  DEPTH     RESD     DELT       GR      CAL
# ...
  497.652   15.580  259.300   38.632  190.964
  497.902   13.783  245.493   38.365  191.418
  498.152    9.890  254.098   44.354  191.857
  498.402    6.097  316.774   48.656  189.766
  498.652    4.799  357.361   53.439  188.191
  498.902    4.200  384.429   55.817  187.619
  499.152    4.000  385.788   54.348  187.564
  499.402    3.800  384.171   60.814  187.501
  499.652    3.699  385.526   56.941  187.962
  499.902    3.699  378.310   56.674  188.415
  500.152    3.598  374.725   59.052  189.887
  500.402    3.498  377.402   61.190  191.351
  500.652    3.498  375.126   64.771  192.314
  500.902    3.497  378.788   62.574  192.258
  501.152    3.497  385.086   65.918  192.203
  501.402    3.596  386.441   63.968  193.152
  501.652    3.595  375.933   61.053  192.594
  501.902    3.695  376.954   61.751  191.528
  502.152    3.794  382.268   63.402  188.920
  502.402    3.893  381.974   63.619  188.356
  502.652    3.993  378.059   62.631  190.845
  502.902    4.591  374.794   61.399  188.754
  503.152    5.189  370.216   60.655  187.674
  503.402    6.785  361.352   60.626  186.600
  503.652    9.380  348.529   62.279  186.552
  503.902   12.373  324.828   61.291  186.998
  504.152   14.069  244.755   62.708  187.445
  504.402   10.476  282.705   61.483  189.432
  504.652    7.282  308.785   56.888  189.370
  504.902    6.882  312.117   53.248  187.279
  505.152    7.281  319.079   54.668  186.721
  505.402    8.179  302.959   52.478  186.659
  505.652   10.274  281.571   46.918  188.130
  505.902   13.467  277.656   43.044  190.620
  506.152   16.760  281.642   40.373  191.582
  506.402   16.061  247.394   39.866  189.993
  506.652   12.567  226.990   42.482  188.926
  506.902    9.772  271.202   45.344  187.846
  507.152    6.478  316.404   48.925  187.791
  507.402    5.679  367.539   48.655  187.735
  507.652    5.080  379.445   50.312  187.680
  507.902    4.680  381.463   54.130  187.604
  508.152    4.580  381.833   56.030  188.064
  508.402    4.580  381.205   58.409  188.517
  508.652    4.380  378.938   61.508  188.469
  508.902    4.179  376.987   64.845  188.916
  509.152    4.378  375.709   67.224  188.867
  509.402    4.877  372.779   63.594  190.847
  509.652    6.074  362.922   55.389  189.258
  509.902    7.770  344.499   54.879  188.192
  510.152    8.069  326.732   57.741  188.129
  510.402    5.973  338.313   54.586  188.074
  510.652    5.274  345.926   59.612  188.018
  510.902    4.475  370.357   63.667  187.963
  511.152    4.175  380.620   64.843  188.410
  511.402    4.174  377.360   66.263  188.361
  511.652    4.174  377.061   67.202  189.833
  511.902    4.173  376.772   65.249  191.290
  512.152    4.173  376.804   66.903  191.242
  512.402    4.172  377.499   69.278  191.695
  512.652    4.271  377.869   71.422  191.640
  512.902    4.271  375.268   74.278  191.577
  513.152    4.270  372.342   74.255  189.995
  513.402    4.170  373.032   71.344  189.430
  513.652    4.070  373.732   65.059  189.361
  513.902    4.169  371.790   67.441  188.811
  514.152    4.268  369.844   70.537  188.748
  514.402    4.268  372.516   67.145  188.700
  514.652    4.367  373.550   68.324  188.637
  514.902    4.766  373.916   70.943  188.066
  515.152    5.065  372.299   69.955  188.017
  515.402    6.062  367.391   63.914  188.464
  515.652    7.160  352.590   60.518  189.427
  515.902    8.756  332.519   59.049  189.364
  516.152    8.855  277.826   58.542  192.376
  516.402    7.158  282.811   58.275  193.841
  516.652    6.259  306.253   59.211  192.259
  516.902    5.860  338.596   63.991  188.124
  517.152    5.560  351.821   66.372  187.058
  517.402    5.260  361.429   67.545  186.996
  517.652    4.960  358.493   68.962  187.965
  517.902    4.760  356.877   70.138  188.914
  518.152    4.659  359.879   71.077  187.331
  518.402    4.659  366.187   71.287  189.312
  518.652    4.658  370.173   71.983  191.299
  518.902    4.758  372.187   73.636  191.746
  519.152    4.857  372.552   70.488  191.697
  519.402    4.857  373.252   74.783  191.621
  519.652    4.856  372.963   73.802  191.070
  519.902    4.855  372.330   73.291  189.990
  520.152    4.855  372.041   70.860  188.910
  520.402    4.954  382.625   65.785  188.868
  520.652    5.253  405.408   62.148  188.297
  520.902    5.652  414.018   60.195  188.241
  521.152    6.051  404.161   63.298  188.179
  521.402    6.649  371.232   60.383  189.148
  521.652    7.047  350.502   59.158  191.631
  521.902    7.546  277.681   63.701  191.575
  522.152    7.246  314.637   66.797  191.004
  522.402    6.247  338.080   65.572  189.938
  522.652    6.047  342.735   67.463  189.366
  522.902    5.947  358.926   63.349  189.311
  523.152    5.847  361.278   60.921  189.311
  523.402    5.647  356.691   57.763  189.172
  523.652    5.646  355.083   60.625  189.144
  523.902    5.646  368.967   65.892  189.082
  524.152    5.645  370.317   68.267  189.033
  524.402    5.545  370.682   71.851  188.462
  524.652    5.445  367.097   66.772  188.407
  524.902    5.444  363.173   69.151  188.358
  525.152    5.443  359.913   68.400  189.816
  525.402    5.443  367.530   68.377  190.785
  525.652    5.443  365.922   66.424  191.748
  525.902    5.442  360.680   65.676  192.194
  526.152    5.442  354.453   63.245  193.157
  526.402    5.441  360.426   68.025  193.108
  526.652    5.540  364.747   68.243  193.053
  526.902    5.540  349.951   69.419  193.506
  527.152    5.539  365.158   69.149  193.946
  527.402    5.638  362.557   68.157  193.890
  527.652    5.738  361.270   69.577  193.835
  527.902    5.837  376.468   67.143  193.773
  528.152    5.837  393.318   72.651  193.731
  528.402    5.936  362.366   72.625  194.185
  528.652    6.035  362.077   68.988  194.122
  528.902    6.434  360.465   69.921  194.067
  529.152    6.833  356.870   67.493  194.011
  529.402    7.032  337.125   63.857  193.956
  529.652    7.031  302.877   63.109  193.900
  529.902    6.831  314.783   65.972  193.845
  530.152    6.531  348.114   67.148  193.776
  530.402    6.331  356.725   67.840  194.222
  530.652    6.231  361.384   71.661  194.683
  530.902    6.130  361.740   76.684  195.143
  531.152    6.030  362.110   74.975  195.590
  531.402    5.930  362.151   76.151  195.534
  531.652    5.929  361.523   76.365  195.486
  531.902    6.029  360.570   71.049  195.925
  532.152    6.028  357.969   68.134  196.379
  532.402    5.928  358.664   68.348  196.825
  532.652    5.927  357.711   69.043  196.777
  532.902    5.927  355.774   69.017  196.728
  533.152    6.026  354.157   67.545  197.182
  533.402    6.325  355.512   70.408  199.148
  533.652    7.522  364.122   75.191  201.645
  533.902    9.717  372.728   75.164  205.654
  534.152   12.311  374.746   75.132  199.498
  534.402   14.007  366.207   70.059  194.848
  534.652   15.404  355.366   61.133  190.721
  534.902   17.499  376.172   50.283  189.654
  535.152   19.695  379.504   47.131  190.108
  535.402   21.490  333.060   44.700  191.572
  535.652   19.993  240.457   47.075  190.506
  535.902   19.394  262.581   48.008  189.426
  536.152   18.994  304.157   48.469  189.363
  536.402   18.794  324.634   42.425  188.792
  536.652   18.693  345.439   40.238  188.750
  536.902   18.593  353.716   49.830  189.713
  537.152   18.493  361.996   46.678  191.184
  537.402   17.694  374.566   42.079  190.620
  537.652   16.795  373.943   44.214  188.006
  537.902   16.096  374.638   43.229  190.495
  538.152   15.696  375.658   41.760  191.967
  538.402   15.197  378.665   41.494  190.384
  538.652   14.997  387.930   43.151  189.311
  538.902   14.996  395.547   41.675  188.746
  539.152   15.594  399.547   41.649  188.691
  539.402   16.293  394.634   42.344  188.636
  539.652   16.392  388.733   43.043  187.555
  539.902   15.892  380.858   43.257  186.998
  540.152   16.091  380.239   43.952  186.942
  540.402   16.590  376.649   46.330  186.887
  540.652   16.290  364.815   47.019  186.309
  540.902   15.890  357.270   48.198  186.769
