~VERSION INFORMATION
 VERS.                 2.0:   CWLS LOG ASCII STANDARD -VERSION 2.0
 WRAP.                  NO:   ONE LINE PER DEPTH STEP
~WELL INFORMATION BLOCK
#MNEM.UNIT           DATA                    DESCRIPTION OF MNEMONIC
#---------    -------------------            -------------------------------
# Generated from Intellog Unique Number	CS_71_72/WELL/842
WELL.         AEE IPIATIK                    : Well_name    - WELL
LOC .         00/10-14-071-05W4/0            : Location     - LOCATION
UWI .         00/10-14-071-05W4/0            : Uwi          - UNIQUE WELL ID
ENTR.         SP                             : Entered      - ENTERED BY
SRVC.         SCHLUMBERGER                   : Scn          - SERVICE COMPANY
STRT.M        290                            : top_depth    - START DEPTH
STOP.M        510                            : bot_depth    - STOP DEPTH
STEP.M        0.25                           : increment    - STEP LENGTH
 NULL. -999.2500:NULL Value
~CURVE INFORMATION BLOCK
#MNEM UNIT       ERCB CURVE CODE    CURVE DESCRIPTION
#-----------   ------------------   ----------------------------------
DEPT.M        00 001 00 00         : DEPTH        - DEPTH
GR  .API      00 310 00 00         : GR           - GAMMA RAY
NPHI.V/V      00 330 00 00         : PHIN         - NEUTRON POROSITY (LIMESTONE)
DPHI.V/V      00 890 00 00         : PHID         - DENSITY POROSITY (LIMESTONE)
ILD .OHMM     00 120 00 00         : RESD         - DEEP RESISTIVITY (DIL)
~PARAMETER INFORMATION
#MNEM.UNIT           DATA             DESCRIPTION OF MNEMONIC
#---------         -----------     ------------------------------
GL  .M        661.74               : gl           - GROUND LEVEL ELEVATION
EREF.M        665.55               : kb           - ELEVATION OF DEPTH REFERENCE
DATM.M        661.74               : datum        - DATUM ELEVATION
TDD .M        520                  : tdd          - TOTAL DEPTH DRILLER
RUN .         ONE                  : Run          - RUN NUMBER
ENG .         BILL                 : Engineer     - RECORDING ENGINEER
WIT .         JIM                  : Witness      - WITNESSED BY
MUD .         GEL                  : Mud_type     - MUD TYPE
MATR.         LIMESTONE            : Logunit      - NEUTRON MATRIX
TMAX.C        16                   : BHT          - MAXIMUM RECORDED TEMPERATURE
BHTD.M        520                  : BHTDEP       - MAXIMUM RECORDED TEMPERATURE
MATR.         1                    : LOGUNIT      - NEUTRON MATRIX
RMT .C        25                   : MDTP         - TEMPERATURE OF MUD
NEUT.         1                    : NEUTRON      - NEUTRON TYPE
RESI.         0                    : RESIST       - RESISTIVITY TYPE
RMC .OHMM     0.25                 : RMC          - RESISTIVITY OF MUD CAKE
RMF .OHMM     0.25                 : RMF          - RESISTIVITY OF MUD FILTRATE
SUFT.C        15                   : SUFT         - SURFACE TEMPERATURE
~A  DEPTH       GR     PHIN     PHID     RESD
# ...
  464.000   84.178    0.412    0.221   12.697
  464.250   86.019    0.406    0.208   12.188
  464.500   87.919    0.397    0.199   11.832
  464.750   88.908    0.393    0.197   11.529
  465.000   86.861    0.397    0.203   11.466
  465.250   78.315    0.402    0.207   11.490
  465.500   76.327    0.406    0.212   11.730
  465.750   74.946    0.400    0.216   12.156
  466.000   70.652    0.398    0.220   12.714
  466.250   66.235    0.408    0.224   13.448
  466.500   62.608    0.413    0.230   14.601
  466.750   60.620    0.405    0.239   15.559
  467.000   64.526    0.398    0.251   17.244
  467.250   70.742    0.397    0.246   19.182
  467.500   73.065    0.388    0.213   20.595
  467.750   73.207    0.369    0.170   20.907
  468.000   71.644    0.357    0.139   19.120
  468.250   70.688    0.377    0.120   17.748
  468.500   66.150    0.397    0.236   17.229
  468.750   60.155    0.416    0.249   17.040
  469.000   54.951    0.421    0.255   17.170
  469.250   51.017    0.428    0.250   17.530
  469.500   50.062    0.426    0.266   17.996
  469.750   49.170    0.421    0.247   18.718
  470.000   48.215    0.422    0.245   19.253
  470.250   47.626    0.411    0.248   20.063
  470.500   46.671    0.408    0.263   20.751
  470.750   46.202    0.419    0.259   21.868
  471.000   45.248    0.413    0.258   23.217
  471.250   45.267    0.400    0.278   25.491
  471.500   45.587    0.399    0.276   29.988
  471.750   39.167    0.409    0.263   34.176
  472.000   36.450    0.417    0.287   40.281
  472.250   37.257    0.427    0.312   44.641
  472.500   44.747    0.435    0.340   39.995
  472.750   52.237    0.444    0.328   31.800
  473.000   57.902    0.453    0.306   27.293
  473.250   60.288    0.447    0.288   23.911
  473.500   67.899    0.442    0.256   21.106
  473.750   70.226    0.450    0.228   19.849
  474.000   70.303    0.442    0.239   19.197
  474.250   69.227    0.434    0.223   19.488
  474.500   63.900    0.444    0.220   21.080
  474.750   58.147    0.454    0.231   22.549
  475.000   54.703    0.465    0.262   23.807
  475.250   55.693    0.453    0.292   24.258
  475.500   61.117    0.435    0.306   23.948
  475.750   68.000    0.425    0.266   23.247
  476.000   70.991    0.430    0.248   22.736
  476.250   71.434    0.438    0.246   23.169
  476.500   64.709    0.448    0.274   24.415
  476.750   62.297    0.440    0.267   25.728
  477.000   64.140    0.437    0.247   26.661
  477.250   64.763    0.450    0.261   26.467
  477.500   64.174    0.459    0.257   24.206
  477.750   62.065    0.452    0.262   23.584
  478.000   55.342    0.438    0.254   23.456
  478.250   49.950    0.447    0.264   25.706
  478.500   42.375    0.456    0.283   31.099
  478.750   35.771    0.450    0.307   38.981
  479.000   29.534    0.416    0.311   65.000
  479.250   26.331    0.387    0.301   91.124
  479.500   26.652    0.385    0.297  104.631
  479.750   27.461    0.394    0.299  105.236
  480.000   27.296    0.405    0.304   96.600
  480.250   27.679    0.392    0.298   88.175
  480.500   27.695    0.385    0.282   79.145
  480.750   28.383    0.373    0.277   70.776
  481.000   29.737    0.360    0.279   65.209
  481.250   32.248    0.353    0.277   60.643
  481.500   33.721    0.361    0.270   57.890
  481.750   34.404    0.384    0.267   55.158
  482.000   33.449    0.409    0.277   52.654
  482.250   33.954    0.410    0.289   49.334
  482.500   35.915    0.403    0.288   45.538
  482.750   38.364    0.402    0.276   40.421
  483.000   40.992    0.408    0.286   36.078
  483.250   45.079    0.420    0.292   30.794
  483.500   49.408    0.416    0.274   26.479
  483.750   54.350    0.410    0.271   21.691
  484.000   58.983    0.417    0.264   18.444
  484.250   63.008    0.418    0.237   15.684
  484.500   66.548    0.420    0.227   13.740
  484.750   68.996    0.425    0.222   12.219
  485.000   70.837    0.429    0.213   10.907
  485.250   72.555    0.430    0.204   10.181
  485.500   73.850    0.423    0.199    9.938
  485.750   74.842    0.420    0.202    9.738
  486.000   75.221    0.421    0.209    9.560
  486.250   73.840    0.415    0.225    9.194
  486.500   70.698    0.421    0.248    8.826
  486.750   67.376    0.417    0.262    8.086
  487.000   64.054    0.415    0.254    7.409
  487.250   62.673    0.423    0.244    6.700
  487.500   61.415    0.423    0.237    6.150
  487.750   56.876    0.426    0.250    5.709
  488.000   51.489    0.430    0.275    5.230
  488.250   45.188    0.430    0.295    4.748
  488.500   35.912    0.416    0.306    4.261
  488.750   29.490    0.405    0.324    3.617
  489.000   27.018    0.404    0.327    3.093
  489.250   29.893    0.414    0.315    2.610
  489.500   30.090    0.405    0.310    2.321
  489.750   28.103    0.404    0.305    2.167
  490.000   27.333    0.409    0.311    2.068
  490.250   27.535    0.398    0.316    2.042
  490.500   28.036    0.396    0.313    2.031
  490.750   28.664    0.396    0.308    2.020
  491.000   29.103    0.395    0.315    2.002
  491.250   29.012    0.393    0.319    1.991
  491.500   28.835    0.400    0.316    1.976
  491.750   28.431    0.408    0.314    1.976
  492.000   28.445    0.414    0.314    1.977
  492.250   30.108    0.417    0.315    1.974
  492.500   32.003    0.393    0.314    1.966
  492.750   35.058    0.378    0.315    1.963
  493.000   36.413    0.389    0.322    1.956
  493.250   35.397    0.408    0.326    1.945
  493.500   32.622    0.424    0.327    1.928
  493.750   32.455    0.435    0.327    1.924
  494.000   32.292    0.432    0.328    1.925
  494.250   31.033    0.425    0.330    1.915
  494.500   29.898    0.419    0.335    1.915
  494.750   30.036    0.410    0.337    1.908
  495.000   33.029    0.406    0.333    1.898
  495.250   35.962    0.417    0.327    1.891
  495.500   38.166    0.433    0.331    1.891
  495.750   40.493    0.447    0.334    1.888
  496.000   45.916    0.444    0.324    1.864
  496.250   52.858    0.436    0.313    1.850
  496.500   54.819    0.443    0.308    1.840
  496.750   55.445    0.454    0.305    1.834
  497.000   55.523    0.463    0.309    1.831
  497.250   54.508    0.453    0.318    1.831
  497.500   53.918    0.440    0.330    1.831
  497.750   52.539    0.430    0.345    1.821
  498.000   50.311    0.431    0.345    1.815
  498.250   47.413    0.423    0.333    1.818
  498.500   45.302    0.407    0.327    1.836
  498.750   44.169    0.405    0.323    1.847
  499.000   43.819    0.410    0.323    1.847
  499.250   43.960    0.407    0.328    1.857
  499.500   44.826    0.416    0.333    1.868
  499.750   46.484    0.422    0.332    1.893
  500.000   50.390    0.411    0.320    1.933
  500.250   55.024    0.388    0.303    1.977
  500.500   58.443    0.368    0.285    2.095
  500.750   59.492    0.358    0.274    2.245
  501.000   47.848    0.366    0.274    2.292
  501.250   41.367    0.378    0.285    2.292
  501.500   37.618    0.405    0.305    2.250
  501.750   36.420    0.424    0.318    2.164
  502.000   35.772    0.418    0.317    2.043
  502.250   35.301    0.419    0.315    2.002
  502.500   34.651    0.424    0.311    2.006
  502.750   34.004    0.413    0.301    2.028
  503.000   33.897    0.407    0.305    2.122
  503.250   33.914    0.409    0.311    2.178
  503.500   34.297    0.396    0.316    2.107
  503.750   35.044    0.387    0.318    2.155
  504.000   36.581    0.378    0.300    2.200
  504.250   38.423    0.366   -0.000    2.411
  504.500   39.955    0.350   -0.010    3.119
  504.750   42.465    0.261   -0.004    4.676
  505.000   45.703    0.235   -0.000    7.050
  505.250   47.114    0.217    0.004   10.973
  505.500   47.317    0.212    0.004   17.660
  505.750   46.179    0.213   -0.002   23.984
  506.000   44.980    0.214   -0.009   24.993
  506.250   44.275    0.216   -0.010   23.593
  506.500   45.081    0.216   -0.009   23.032
  506.750   46.372    0.222   -0.007   22.695
  507.000   47.910    0.223   -0.002   22.488
  507.250   48.537    0.222    0.002   22.533
