~VERSION INFORMATION
 VERS.                 2.0:   CWLS LOG ASCII STANDARD -VERSION 2.0
 WRAP.                  NO:   ONE LINE PER DEPTH STEP
~WELL INFORMATION BLOCK
#MNEM.UNIT           DATA                    DESCRIPTION OF MNEMONIC
#---------    -------------------            -------------------------------
# Generated from Intellog Unique Number	CX_WELLS/WELL/3977
WELL.         BOW VALLEY INDUSTRIES          : Well_name    - WELL
LOC .         00/11-02-071-15W4/0            : Location     - LOCATION
UWI .         00/11-02-071-15W4/0            : Uwi          - UNIQUE WELL ID
ENTR.         SP                             : Entered      - ENTERED BY
SRVC.         SCHLUMBERGER                   : Scn          - SERVICE COMPANY
STRT.M        265                            : top_depth    - START DEPTH
STOP.M        485                            : bot_depth    - STOP DEPTH
STEP.M        0.25                           : increment    - STEP LENGTH
 NULL. -999.2500:NULL Value
~CURVE INFORMATION BLOCK
#MNEM UNIT       ERCB CURVE CODE    CURVE DESCRIPTION
#-----------   ------------------   ----------------------------------
DEPT.M        00 001 00 00         : DEPTH        - DEPTH
NPHI.V/V      00 330 00 00         : PHIN         - NEUTRON POROSITY (LIMESTONE)
ILD .OHMM     00 120 00 00         : RESD         - DEEP RESISTIVITY (DIL)
GR  .API      00 310 00 00         : GR           - GAMMA RAY
DPHI.V/V      00 890 00 00         : PHID         - DENSITY POROSITY (LIMESTONE)
~PARAMETER INFORMATION
#MNEM.UNIT           DATA             DESCRIPTION OF MNEMONIC
#---------         -----------     ------------------------------
GL  .M        569.5                : gl           - GROUND LEVEL ELEVATION
EREF.M        572.7                : kb           - ELEVATION OF DEPTH REFERENCE
DATM.M        569.5                : datum        - DATUM ELEVATION
TDD .M        484                  : tdd          - TOTAL DEPTH DRILLER
RUN .         ONE                  : Run          - RUN NUMBER
ENG .         BILL                 : Engineer     - RECORDING ENGINEER
WIT .         JIM                  : Witness      - WITNESSED BY
MUD .         GEL                  : Mud_type     - MUD TYPE
MATR.         LIMESTONE            : Logunit      - NEUTRON MATRIX
TMAX.C        26                   : BHT          - MAXIMUM RECORDED TEMPERATURE
BHTD.M        484                  : BHTDEP       - MAXIMUM RECORDED TEMPERATURE
MATR.         1                    : LOGUNIT      - NEUTRON MATRIX
RMT .C        25                   : MDTP         - TEMPERATURE OF MUD
NEUT.         1                    : NEUTRON      - NEUTRON TYPE
RESI.         0                    : RESIST       - RESISTIVITY TYPE
RMC .OHMM     0.25                 : RMC          - RESISTIVITY OF MUD CAKE
RMF .OHMM     0.25                 : RMF          - RESISTIVITY OF MUD FILTRATE
SUFT.C        15                   : SUFT         - SURFACE TEMPERATURE
~A  DEPTH     PHIN     RESD       GR     PHID
# ...
  308.500    0.292    6.808   76.115    0.213
  308.750    0.277    6.954   72.519    0.243
  309.000    0.307    6.591   83.227    0.275
  309.250    0.352    6.175   89.719    0.279
  309.500    0.375    5.818   93.948    0.273
  309.750    0.392    5.493   97.505    0.265
  310.000    0.412    5.324  101.244    0.253
  310.250    0.430    5.339  105.474    0.239
  310.500    0.427    5.404  107.441    0.224
  310.750    0.415    5.418  108.068    0.211
  311.000    0.408    5.421  106.852    0.215
  311.250    0.407    5.384  100.811    0.231
  311.500    0.410    5.248  105.042    0.240
  311.750    0.429    4.993  108.231    0.235
  312.000    0.434    4.969  106.041    0.231
  312.250    0.421    5.019  101.410    0.235
  312.500    0.414    5.089   99.830    0.248
  312.750    0.407    5.151   99.231    0.256
  313.000    0.429    5.195  101.503    0.264
  313.250    0.441    5.218  104.695    0.266
  313.500    0.427    5.212  106.171    0.266
  313.750    0.411    5.176  106.732    0.265
  314.000    0.399    5.093  105.276    0.260
  314.250    0.404    5.087  104.921    0.251
  314.500    0.419    5.082  106.584    0.238
  314.750    0.415    5.059  108.550    0.223
  315.000    0.405    5.051  109.967    0.212
  315.250    0.396    5.045  110.223    0.230
  315.500    0.396    5.058  108.400    0.242
  315.750    0.402    5.120  104.805    0.249
  316.000    0.407    5.211  100.048    0.250
  316.250    0.412    5.304   94.925    0.254
  316.500    0.410    5.452   91.331    0.258
  316.750    0.402    5.475   89.935    0.253
  317.000    0.396    5.408   89.885    0.246
  317.250    0.413    5.270   93.627    0.241
  317.500    0.411    5.061  101.400    0.237
  317.750    0.408    4.779  109.052    0.234
  318.000    0.413    4.553  113.220    0.242
  318.250    0.414    4.339  113.170    0.247
  318.500    0.417    4.350  107.865    0.250
  318.750    0.423    4.512  106.164    0.243
  319.000    0.427    4.914  108.437    0.236
  319.250    0.418    5.332  108.142    0.228
  319.500    0.411    5.941  106.077    0.225
  319.750    0.406    6.278  105.109    0.228
  320.000    0.399    6.585  107.748    0.233
  320.250    0.387    6.819  110.265    0.230
  320.500    0.369    6.873  110.154    0.224
  320.750    0.355    7.066  109.554    0.216
  321.000    0.348    7.082  112.316    0.209
  321.250    0.355    7.061  113.307    0.205
  321.500    0.364    7.042  110.934    0.209
  321.750    0.371    7.017  106.054    0.215
  322.000    0.369    6.767  104.782    0.220
  322.250    0.358    6.558  101.249    0.232
  322.500    0.351    6.202   91.907    0.253
  322.750    0.364    5.877   79.448    0.272
  323.000    0.365    5.621   77.077    0.289
  323.250    0.356    5.479   83.138    0.283
  323.500    0.349    5.535   89.140    0.274
  323.750    0.345    5.762   91.780    0.267
  324.000    0.363    6.208   89.775    0.261
  324.250    0.374    6.292   93.821    0.256
  324.500    0.382    6.453   97.254    0.252
  324.750    0.376    6.593  100.018    0.245
  325.000    0.360    6.647  101.801    0.234
  325.250    0.343    6.615  103.950    0.221
  325.500    0.336    6.436  101.273    0.217
  325.750    0.341    6.226   92.848    0.222
  326.000    0.353    5.901   80.513    0.257
  326.250    0.358    5.550   73.066    0.282
  326.500    0.365    5.289   70.632    0.306
  326.750    0.382    5.068   69.176    0.318
  327.000    0.380    4.840   67.234    0.322
  327.250    0.366    4.797   66.449    0.323
  327.500    0.361    4.758   68.415    0.325
  327.750    0.376    4.742   72.953    0.328
  328.000    0.395    4.719   74.552    0.331
  328.250    0.410    4.653   75.051    0.331
  328.500    0.418    4.536   74.636    0.332
  328.750    0.418    4.430   73.852    0.332
  329.000    0.416    4.374   69.645    0.329
  329.250    0.412    4.344   65.683    0.328
  329.500    0.405    4.372   62.886    0.325
  329.750    0.398    4.433   66.379    0.325
  330.000    0.402    4.538   70.791    0.326
  330.250    0.403    4.646   75.936    0.328
  330.500    0.392    4.731   79.615    0.331
  330.750    0.377    5.063   81.644    0.334
  331.000    0.368    5.125   76.276    0.335
  331.250    0.393    5.099   69.258    0.336
  331.500    0.393    5.027   65.663    0.337
  331.750    0.394    4.883   66.223    0.337
  332.000    0.410    4.723   68.374    0.337
  332.250    0.421    4.561   67.531    0.337
  332.500    0.409    4.470   65.341    0.335
  332.750    0.404    4.366   66.208    0.332
  333.000    0.407    4.249   68.542    0.330
  333.250    0.401    4.211   72.284    0.328
  333.500    0.398    4.144   74.678    0.330
  333.750    0.400    4.264   76.828    0.332
  334.000    0.397    4.244   79.531    0.333
  334.250    0.389    4.231   79.785    0.334
  334.500    0.388    4.291   76.804    0.334
  334.750    0.396    4.368   74.979    0.335
  335.000    0.392    4.420   77.558    0.335
  335.250    0.386    4.482   78.424    0.334
  335.500    0.382    4.553   75.929    0.331
  335.750    0.385    4.662   72.212    0.326
  336.000    0.389    4.719   71.490    0.324
  336.250    0.395    4.738   74.070    0.323
  336.500    0.401    4.880   75.302    0.322
  336.750    0.405    4.958   74.946    0.316
  337.000    0.386    5.028   66.094    0.310
  337.250    0.363    5.049   59.872    0.307
  337.500    0.349    5.042   56.521    0.305
  337.750    0.337    4.991   54.027    0.307
  338.000    0.330    4.891   53.119    0.310
  338.250    0.323    4.767   54.049    0.306
  338.500    0.325    4.647   56.690    0.302
  338.750    0.330    4.539   57.495    0.299
  339.000    0.340    4.501   55.793    0.301
  339.250    0.351    4.493   52.077    0.307
  339.500    0.359    4.488   51.537    0.304
  339.750    0.365    4.478   54.727    0.298
  340.000    0.368    4.498   61.645    0.293
  340.250    0.363    4.515   69.849    0.290
  340.500    0.362    4.527   71.448    0.289
  340.750    0.371    4.559   68.404    0.293
  341.000    0.380    4.571   65.298    0.297
  341.250    0.380    4.592   62.619    0.296
  341.500    0.374    4.593   61.346    0.293
  341.750    0.366    4.605   64.781    0.289
  342.000    0.357    4.582   67.788    0.288
  342.250    0.359    4.562   69.450    0.287
  342.500    0.363    4.530   69.095    0.286
  342.750    0.361    4.507   69.838    0.288
  343.000    0.360    4.485   72.113    0.291
  343.250    0.364    4.446   74.079    0.295
  343.500    0.373    4.441   73.848    0.299
  343.750    0.388    4.412   71.656    0.302
  344.000    0.392    4.416   66.289    0.305
  344.250    0.373    4.454   63.121    0.307
  344.500    0.357    4.456   62.460    0.305
  344.750    0.353    4.484   65.226    0.301
  345.000    0.360    4.495   68.045    0.300
  345.250    0.365    4.498   73.685    0.306
  345.500    0.361    4.548   75.895    0.309
  345.750    0.371    4.541   76.821    0.310
  346.000    0.400    4.543   77.261    0.305
  346.250    0.415    4.478   78.313    0.301
  346.500    0.406    4.457   79.545    0.298
  346.750    0.394    4.461   77.232    0.296
  347.000    0.389    4.463   78.039    0.295
  347.250    0.385    4.526   80.128    0.292
  347.500    0.391    4.633   83.443    0.286
  347.750    0.408    4.734   85.896    0.282
  348.000    0.415    4.738   91.236    0.271
  348.250    0.402    4.653   91.974    0.264
  348.500    0.393    4.484   93.755    0.268
  348.750    0.388    4.234   97.437    0.276
  349.000    0.389    4.141  102.030    0.282
  349.250    0.414    3.984  109.499    0.278
  349.500    0.437    3.869  112.322    0.272
  349.750    0.442    3.723  113.188    0.269
  350.000    0.437    3.636  111.061    0.269
  350.250    0.429    3.619  108.320    0.275
  350.500    0.420    3.669  107.109    0.287
  350.750    0.405    3.740  104.676    0.303
  351.000    0.398    4.021  101.142    0.294
  351.250    0.391    4.100   96.447    0.282
  351.500    0.387    4.165   97.252    0.278
  351.750    0.382    4.176   98.490    0.281
