~VERSION INFORMATION
 VERS.                 2.0:   CWLS LOG ASCII STANDARD -VERSION 2.0
 WRAP.                  NO:   ONE LINE PER DEPTH STEP
~WELL INFORMATION BLOCK
#MNEM.UNIT           DATA                    DESCRIPTION OF MNEMONIC
#---------    -------------------            -------------------------------
# Generated from Intellog Unique Number	CW_73_75/WELL/1053
LOC .         00/15-13-075-02W5/0            : Location     - LOCATION
UWI .         00/15-13-075-02W5/0            : Uwi          - UNIQUE WELL ID
ENTR.         JAYE                           : Entered      - ENTERED BY
SRVC.         SCHLUMBERGER                   : Scn          - SERVICE COMPANY
DATE.         19 DEC 75                      : Date         - LOG DATE
STRT.M        533.4                          : top_depth    - START DEPTH
STOP.M        722.4                          : bot_depth    - STOP DEPTH
STEP.M        0.25                           : increment    - STEP LENGTH
 NULL. -999.2500:NULL Value
~CURVE INFORMATION BLOCK
#MNEM UNIT       ERCB CURVE CODE    CURVE DESCRIPTION
#-----------   ------------------   ----------------------------------
DEPT.M        00 001 00 00         : DEPTH        - DEPTH
ILD .OHMM     00 120 00 00         : RESD         - DEEP RESISTIVITY (DIL)
NPHI.V/V      00 330 00 00         : PHIN         - NEUTRON POROSITY (SANDSTONE)
DPHI.V/V      00 890 00 00         : PHID         - DENSITY POROSITY (SANDSTONE)
GR  .API      00 310 00 00         : GR           - GAMMA RAY
CALI.MM       00 280 01 00         : CAL          - CALIPER
~PARAMETER INFORMATION
#MNEM.UNIT           DATA             DESCRIPTION OF MNEMONIC
#---------         -----------     ------------------------------
GL  .M        814.426              : gl           - GROUND LEVEL ELEVATION
EREF.M        818.54               : kb           - ELEVATION OF DEPTH REFERENCE
DATM.M        814.426              : datum        - DATUM ELEVATION
TDD .M        727.253              : tdd          - TOTAL DEPTH DRILLER
RUN .         ONE                  : Run          - RUN NUMBER
ENG .         MACDONALD            : Engineer     - RECORDING ENGINEER
BASE.         EDM                  : Branch       - HOME BASE OF LOGGING UNIT
MUD .         GEL CHEM             : Mud_type     - MUD TYPE
MATR.         SANDSTONE            : Logunit      - NEUTRON MATRIX
TMAX.C        31.1111              : BHT          - MAXIMUM RECORDED TEMPERATURE
BHTD.M        726.643              : BHTDEP       - MAXIMUM RECORDED TEMPERATURE
RMT .C        20                   : MDTP         - TEMPERATURE OF MUD
MUDD.KG/M     1056                 : MWT          - MUD DENSITY
NEUT.         1                    : NEUTRON      - NEUTRON TYPE
RESI.         0                    : RESIST       - RESISTIVITY TYPE
RM  .OHMM     2.8                  : RM           - RESISTIVITY OF MUD
RMC .OHMM     0                    : RMC          - RESISTIVITY OF MUD CAKE
RMF .OHMM     3.77                 : RMF          - RESISTIVITY OF MUD FILTRATE
SUFT.C        -17.7778             : SUFT         - SURFACE TEMPERATURE
~A  DEPTH     RESD     PHIN     PHID       GR      CAL
# ...
  679.400   15.780    0.389    0.195   59.692  231.385
  679.650   14.773    0.404    0.221   60.996  231.220
  679.900   13.908    0.421    0.225   63.336  230.533
  680.150   13.382    0.409    0.210   65.495  229.741
  680.400   12.804    0.381    0.201   62.541  229.163
  680.650   11.902    0.373    0.195   62.732  228.891
  680.900   11.005    0.385    0.220   63.486  228.724
  681.150   10.512    0.409    0.251   64.793  228.343
  681.400   10.602    0.425    0.241   65.729  227.453
  681.650   10.887    0.428    0.226   66.300  226.561
  681.900   11.346    0.423    0.209   66.141  225.055
  682.150   11.693    0.425    0.193   65.063  223.641
  682.400   12.183    0.418    0.164   64.414  220.684
  682.650   12.857    0.403    0.154   66.087  218.141
  682.900   13.566    0.406    0.163   67.634  219.111
  683.150   14.766    0.408    0.171   68.264  222.556
  683.400   15.639    0.389    0.169   66.701  226.317
  683.650   16.001    0.362    0.137   63.434  227.795
  683.900   15.878    0.358    0.126   62.170  228.866
  684.150   15.249    0.375    0.138   61.402  229.630
  684.400   15.101    0.391    0.155   61.179  229.774
  684.650   15.735    0.403    0.173   61.204  229.291
  684.900   17.001    0.411    0.160   61.346  228.713
  685.150   19.359    0.374    0.140   61.676  227.921
  685.400   21.033    0.319    0.136   61.883  227.656
  685.650   21.679    0.332    0.087   62.209  227.799
  685.900   19.608    0.348    0.105   62.598  227.934
  686.150   16.860    0.355    0.113   62.617  228.182
  686.400   14.925    0.351    0.117   62.886  228.636
  686.650   13.748    0.344    0.120   63.333  228.984
  686.900   13.348    0.348    0.124   63.723  229.014
  687.150   13.511    0.370    0.135   64.355  228.124
  687.400   13.701    0.383    0.149   66.208  226.924
  687.650   13.692    0.403    0.162   69.218  224.585
  687.900   12.819    0.439    0.185   74.306  219.562
  688.150   11.410    0.419    0.215   75.912  213.710
  688.400   10.921    0.393    0.197   72.519  214.059
  688.650   11.131    0.379    0.183   69.247  222.051
  688.900   11.664    0.386    0.170   66.159  227.976
  689.150   12.222    0.403    0.153   63.558  229.361
  689.400   12.640    0.430    0.163   63.155  229.498
  689.650   12.979    0.403    0.172   62.932  229.439
  689.900   13.066    0.390    0.157   62.651  229.480
  690.150   13.035    0.408    0.137   61.940  229.099
  690.400   12.958    0.411    0.137   63.491  228.618
  690.650   12.719    0.381    0.140   64.977  227.934
  690.900   12.105    0.376    0.138   66.706  226.529
  691.150   11.416    0.395    0.140   68.257  227.495
  691.400   10.669    0.417    0.147   69.069  227.327
  691.650    9.937    0.415    0.166   70.494  225.505
  691.900    9.489    0.389    0.150   71.798  223.992
  692.150    8.968    0.382    0.127   71.637  223.309
  692.400    8.833    0.393    0.109   68.364  224.896
  692.650    8.860    0.412    0.129   68.816  226.999
  692.900    8.985    0.423    0.162   71.278  228.073
  693.150    9.260    0.418    0.178   73.011  227.802
  693.400    9.969    0.421    0.189   72.970  226.701
  693.650   10.771    0.423    0.160   71.469  223.536
  693.900   11.082    0.358    0.106   69.600  220.893
  694.150   10.451    0.317    0.076   68.097  222.380
  694.400    9.370    0.337    0.043   69.890  224.374
  694.650    8.475    0.364    0.064   75.583  226.995
  694.900    7.341    0.393    0.108   85.609  227.342
  695.150    6.885    0.410    0.130   94.354  226.864
  695.400    6.710    0.425    0.146   99.198  226.694
  695.650    6.791    0.437    0.129   98.672  226.114
  695.900    6.925    0.436    0.129   98.206  222.227
  696.150    7.009    0.416    0.152   97.496  222.678
  696.400    7.107    0.397    0.145   96.667  225.092
  696.650    7.180    0.392    0.109   96.443  227.198
  696.900    7.241    0.409    0.073   97.076  227.750
  697.150    7.265    0.392    0.099   98.011  227.379
  697.400    7.246    0.390    0.118  100.230  225.969
  697.650    7.308    0.402    0.113  105.010  224.767
  697.900    7.519    0.398    0.096  104.606  224.911
  698.150    7.965    0.389    0.109  103.714  226.598
  698.400    8.418    0.402    0.102  104.410  228.291
  698.650    9.673    0.419    0.094  105.223  230.812
  698.900   11.258    0.410    0.107   99.696  232.295
  699.150   12.843    0.399    0.127   91.909  231.606
  699.400   13.726    0.391    0.113   93.335  228.957
  699.650   13.327    0.388    0.146   93.665  228.689
  699.900   12.845    0.384    0.171   93.747  228.418
  700.150   12.314    0.385    0.175   95.233  228.039
  700.400   12.021    0.389    0.144   97.333  220.020
  700.650   11.926    0.398    0.112   98.327  222.643
  700.900   12.030    0.399    0.128   96.947  224.332
  701.150   12.241    0.393    0.136   91.418  220.653
  701.400   12.663    0.385    0.130   88.452  220.899
  701.650   13.170    0.371    0.122   89.879  223.930
  701.900   14.334    0.371    0.125   91.731  228.410
  702.150   16.234    0.381    0.147   90.411  232.065
  702.400   19.168    0.380    0.144   87.932  233.342
  702.650   24.825    0.296    0.124   83.564  232.965
  702.900   25.961    0.248    0.099   78.461  231.558
  703.150   23.020    0.216   -0.008   71.895  227.467
  703.400   17.789    0.329    0.070   76.737  226.786
  703.650   15.020    0.359    0.109   84.628  226.411
  703.900   13.440    0.379    0.142   91.360  225.620
  704.150   12.562    0.381    0.158   97.544  224.932
  704.400   11.869    0.370    0.143   97.570  225.081
  704.650   10.953    0.355    0.127   95.638  225.319
  704.900    9.748    0.360    0.127   87.364  225.561
  705.150    9.260    0.360    0.147   89.338  226.120
  705.400    9.339    0.373    0.147   91.376  227.087
  705.650    9.910    0.401    0.123   93.227  228.262
  705.900   10.648    0.406    0.091   95.689  228.606
  706.150   11.780    0.295    0.055   87.964  227.307
  706.400   12.890    0.289    0.016   68.893  227.133
  706.650   13.827    0.350   -0.013   69.404  227.074
  706.900   14.589    0.378    0.100   77.174  226.288
  707.150   14.931    0.404    0.132   79.272  225.701
  707.400   14.654    0.394    0.146   79.542  224.814
  707.650   13.231    0.328    0.109   80.779  224.125
  707.900   11.587    0.303    0.052   78.302  223.341
  708.150   10.596    0.342    0.052   81.252  223.376
  708.400    9.759    0.393    0.095   85.789  223.827
  708.650    9.073    0.414    0.124   88.739  224.590
  708.900    8.842    0.406    0.132   89.251  225.142
  709.150    8.786    0.399    0.116   85.918  225.693
  709.400    8.687    0.377    0.068   80.144  226.147
  709.650    8.496    0.409    0.045   82.546  226.607
  709.900    8.338    0.399    0.081   85.068  226.948
  710.150    8.273    0.396    0.128   87.107  227.088
  710.400    8.268    0.390    0.134   91.153  227.129
  710.650    8.370    0.375    0.129   90.078  227.068
  710.900    8.488    0.368    0.104   87.052  226.992
  711.150    8.497    0.364    0.095   86.645  227.137
  711.400    8.402    0.372    0.089   87.401  227.493
  711.650    8.245    0.398    0.111   87.606  227.625
  711.900    8.121    0.413    0.107   88.178  227.458
  712.150    7.929    0.421    0.101   88.016  226.886
  712.400    7.810    0.417    0.092   86.757  226.399
  712.650    7.609    0.405    0.075   86.963  226.130
  712.900    7.389    0.399    0.091   88.942  225.657
  713.150    7.226    0.401    0.114   90.488  225.272
  713.400    7.066    0.398    0.115   91.424  224.690
  713.650    6.922    0.383    0.101   91.510  224.113
  713.900    6.709    0.368    0.125   92.262  223.530
  714.150    6.525    0.358    0.093   92.466  223.157
  714.400    6.267    0.360    0.100   91.025  223.301
  714.650    5.720    0.381    0.116   90.866  223.435
  714.900    4.726    0.400    0.116   91.500  223.473
  715.150    3.465    0.420    0.121   93.289  223.414
  715.400    2.663    0.459    0.142   97.032  223.133
  715.650    2.323    0.523    0.174  102.484  223.282
