~VERSION INFORMATION
 VERS.                 2.0:   CWLS LOG ASCII STANDARD -VERSION 2.0
 WRAP.                  NO:   ONE LINE PER DEPTH STEP
~WELL INFORMATION BLOCK
#MNEM.UNIT           DATA                    DESCRIPTION OF MNEMONIC
#---------    -------------------            -------------------------------
# Generated from Intellog Unique Number	CS_69_70/WELL/894
WELL.         UNIVERSAL EXPLORATIONS         : Well_name    - WELL
LOC .         00/11-23-069-10W4/0            : Location     - LOCATION
UWI .         00/11-23-069-10W4/0            : Uwi          - UNIQUE WELL ID
ENTR.         SP                             : Entered      - ENTERED BY
SRVC.         SCHLUMBERGER                   : Scn          - SERVICE COMPANY
STRT.M        390                            : top_depth    - START DEPTH
STOP.M        610                            : bot_depth    - STOP DEPTH
STEP.M        0.25                           : increment    - STEP LENGTH
 NULL. -999.2500:NULL Value
~CURVE INFORMATION BLOCK
#MNEM UNIT       ERCB CURVE CODE    CURVE DESCRIPTION
#-----------   ------------------   ----------------------------------
DEPT.M        00 001 00 00         : DEPTH        - DEPTH
ILD .OHMM     00 120 00 00         : RESD         - DEEP RESISTIVITY (DIL)
DPHI.V/V      00 890 00 00         : PHID         - DENSITY POROSITY (LIMESTONE)
NPHI.V/V      00 330 00 00         : PHIN         - NEUTRON POROSITY (LIMESTONE)
GR  .API      00 310 00 00         : GR           - GAMMA RAY
~PARAMETER INFORMATION
#MNEM.UNIT           DATA             DESCRIPTION OF MNEMONIC
#---------         -----------     ------------------------------
GL  .M        716.4                : gl           - GROUND LEVEL ELEVATION
EREF.M        719.75               : kb           - ELEVATION OF DEPTH REFERENCE
DATM.M        716.4                : datum        - DATUM ELEVATION
TDD .M        625                  : tdd          - TOTAL DEPTH DRILLER
RUN .         ONE                  : Run          - RUN NUMBER
ENG .         BILL                 : Engineer     - RECORDING ENGINEER
WIT .         JIM                  : Witness      - WITNESSED BY
MUD .         GEL                  : Mud_type     - MUD TYPE
MATR.         LIMESTONE            : Logunit      - NEUTRON MATRIX
TMAX.C        27                   : BHT          - MAXIMUM RECORDED TEMPERATURE
BHTD.M        625                  : BHTDEP       - MAXIMUM RECORDED TEMPERATURE
MATR.         1                    : LOGUNIT      - NEUTRON MATRIX
RMT .C        25                   : MDTP         - TEMPERATURE OF MUD
NEUT.         1                    : NEUTRON      - NEUTRON TYPE
RESI.         0                    : RESIST       - RESISTIVITY TYPE
RMC .OHMM     0.25                 : RMC          - RESISTIVITY OF MUD CAKE
RMF .OHMM     0.25                 : RMF          - RESISTIVITY OF MUD FILTRATE
SUFT.C        15                   : SUFT         - SURFACE TEMPERATURE
~A  DEPTH     RESD     PHID     PHIN       GR
  390.000    2.351    0.176    0.499   98.450
  390.250    2.414    0.173    0.479   96.919
  390.500    2.447    0.187    0.488   99.240
  390.750    2.442    0.199    0.495  100.584
  391.000    2.361    0.201    0.480  102.477
  391.250    2.327    0.199    0.476  103.209
  391.500    2.358    0.200    0.493  101.922
  391.750    2.254    0.198    0.513   99.535
  392.000    2.289    0.210    0.536   98.493
  392.250    2.298    0.216    0.555   98.246
  392.500    2.311    0.218    0.523   95.492
  392.750    2.369    0.205    0.529   93.717
  393.000    2.401    0.186    0.540   94.876
  393.250    2.438    0.155    0.555   81.482
  393.500    2.485    0.121    0.572   77.444
  393.750    2.537    0.087    0.480   85.024
  394.000    2.552    0.177    0.470   91.687
  394.250    2.562    0.203    0.481   96.210
  394.500    2.543    0.203    0.492   97.309
  394.750    2.554    0.204    0.502   95.532
  395.000    2.569    0.214    0.517   94.797
  395.250    2.579    0.229    0.532   95.284
  395.500    2.594    0.221    0.542   96.627
  395.750    2.594    0.200    0.554   97.909
  396.000    2.610    0.186    0.532   98.762
  396.250    2.605    0.180    0.525   98.882
  396.500    2.625    0.186    0.521   96.862
  396.750    2.676    0.189    0.519   98.694
  397.000    2.732    0.184    0.506  102.300
  397.250    2.859    0.180    0.494   97.711
  397.500    2.914    0.146    0.472   91.166
  397.750    3.044    0.104    0.477   93.243
  398.000    3.131    0.149    0.494  100.579
  398.250    3.203    0.177    0.516  102.472
  398.500    3.247    0.182    0.505  101.858
  398.750    3.259    0.174    0.490  100.877
  399.000    3.266    0.167    0.484   96.350
  399.250    3.292    0.164    0.496   94.146
  399.500    3.317    0.179    0.515   95.061
  399.750    3.355    0.184    0.530   92.613
  400.000    3.281    0.003    0.471   83.500
  400.250    3.208   -0.008    0.423   78.544
  400.500    3.203    0.164    0.449   86.858
  400.750    3.180    0.192    0.474   93.521
  401.000    3.621    0.199    0.489  100.735
  401.250    4.506    0.224    0.504   80.186
  401.500    5.597    0.288    0.521   64.529
  401.750    7.136    0.339    0.263   54.132
  402.000    7.798    0.338    0.189   44.285
  402.250    7.099    0.317    0.211   37.066
  402.500    6.723    0.295    0.291   36.697
  402.750    6.225    0.273    0.334   42.993
  403.000    5.851    0.246    0.357   45.804
  403.250    5.646    0.247    0.376   39.625
  403.500    5.532    0.253    0.330   35.832
  403.750    5.543    0.239    0.325   71.419
  404.000    5.746    0.211    0.354   88.599
  404.250    5.990    0.190    0.386   97.586
  404.500    6.151    0.180    0.409   96.360
  404.750    6.258    0.174    0.411   96.297
  405.000    6.342    0.166    0.410   97.518
  405.250    6.440    0.160    0.414  100.023
  405.500    6.465    0.182    0.395  103.506
  405.750    6.394    0.196    0.374  106.928
  406.000    6.264    0.179    0.358  110.167
  406.250    6.125    0.178    0.381  110.470
  406.500    6.057    0.189    0.401  108.328
  406.750    6.013    0.185    0.419  106.369
  407.000    6.037    0.180    0.432  103.615
  407.250    6.095    0.178    0.406   94.257
  407.500    6.212    0.206    0.376   83.431
  407.750    6.237    0.235    0.355   74.073
  408.000    6.262    0.261    0.334   65.142
  408.250    6.322    0.278    0.339   58.842
  408.500    6.359    0.299    0.352   67.400
  408.750    6.408    0.291    0.356   77.732
  409.000    6.422    0.265    0.358   84.701
  409.250    6.375    0.245    0.372   85.922
  409.500    6.281    0.236    0.397   82.618
  409.750    6.061    0.228    0.389   78.335
  410.000    5.806    0.217    0.373   75.458
  410.250    5.677    0.185    0.374   85.546
  410.500    5.530    0.162    0.417   97.590
  410.750    5.387    0.114    0.465  102.663
  411.000    4.979    0.061    0.450  101.988
  411.250    4.549    0.051    0.452  103.515
  411.500    4.204    0.176    0.467  109.933
  411.750    3.952    0.191    0.512  113.416
  412.000    3.750    0.197    0.543  116.349
  412.250    3.551    0.200    0.536  118.120
  412.500    3.257    0.195    0.524  119.157
  412.750    3.004    0.204    0.525  119.400
  413.000    2.856    0.226    0.534  114.995
  413.250    2.889    0.244    0.536  103.924
  413.500    3.656    0.264    0.540   97.807
  413.750    4.308    0.276    0.491   88.877
  414.000    5.192    0.276    0.460   81.415
  414.250    5.980    0.278    0.433   78.110
  414.500    6.559    0.264    0.422   80.309
  414.750    6.749    0.236    0.442   87.278
  415.000    6.775    0.220    0.460   89.905
  415.250    6.841    0.217    0.463   87.457
  415.500    6.714    0.196    0.441   81.278
  415.750    6.395    0.182    0.436   78.463
  416.000    6.079    0.219    0.433   74.180
  416.250    5.833    0.264    0.421   64.028
  416.500    5.598    0.284    0.410   55.892
  416.750    5.392    0.293    0.401   49.163
  417.000    5.273    0.295    0.394   45.554
  417.250    5.224    0.297    0.395   44.328
  417.500    5.196    0.298    0.401   44.632
  417.750    5.207    0.296    0.398   44.568
  418.000    5.227    0.291    0.393   44.260
  418.250    5.218    0.292    0.389   43.891
  418.500    5.190    0.300    0.385   42.054
  418.750    5.172    0.305    0.390   43.030
  419.000    5.163    0.297    0.384   46.391
  419.250    5.164    0.296    0.381   48.468
  419.500    5.175    0.303    0.383   50.422
  419.750    5.175    0.309    0.378   51.582
  420.000    5.167    0.301    0.372   49.745
  420.250    5.177    0.298    0.368   46.563
  420.500    5.208    0.304    0.377   43.748
  420.750    5.258    0.306    0.400   42.584
  421.000    5.349    0.304    0.429   53.650
  421.250    5.452    0.291    0.401   69.485
  421.500    5.567    0.283    0.396   74.130
  421.750    5.663    0.273    0.399   79.081
  422.000    5.739    0.263    0.407   84.704
  422.250    5.687    0.268    0.412   78.404
  422.500    5.624    0.283    0.393   75.405
  422.750    5.489    0.296    0.404   74.547
  423.000    5.398    0.298    0.427   73.138
  423.250    5.388    0.288    0.416   70.567
  423.500    5.451    0.276    0.405   79.126
  423.750    5.555    0.271    0.411   83.160
  424.000    5.770    0.271    0.431   85.909
  424.250    5.858    0.266    0.442   85.356
  424.500    5.960    0.254    0.452   84.437
  424.750    6.017    0.247    0.446   87.798
  425.000    5.984    0.241    0.434   87.979
  425.250    5.710    0.237    0.436   88.955
  425.500    5.490    0.252    0.454   94.517
  425.750    5.379    0.266    0.467   98.368
  426.000    5.309    0.281    0.454   94.574
  426.250    5.330    0.293    0.469   89.740
  426.500    5.382    0.294    0.481   88.332
  426.750    5.475    0.290    0.467   87.352
  427.000    5.580    0.288    0.460   84.903
  427.250    5.592    0.294    0.464   85.023
  427.500    5.582    0.294    0.477   84.226
  427.750    5.594    0.288    0.475   78.231
  428.000    5.574    0.280    0.477   76.883
  428.250    5.533    0.275    0.480   79.572
  428.500    5.492    0.274    0.473   86.295
  428.750    5.463    0.278    0.460   89.045
  429.000    5.423    0.271    0.449   90.939
  429.250    5.403    0.258    0.439   91.731
  429.500    5.394    0.252    0.450   91.301
  429.750    5.385    0.263    0.480   90.137
  430.000    5.356    0.273    0.501   86.894
  430.250    5.327    0.287    0.510   85.179
  430.500    5.298    0.284    0.508   84.810
  430.750    5.249    0.277    0.500   85.725
  431.000    5.191    0.270    0.494   87.802
  431.250    5.153    0.264    0.499   90.612
  431.500    5.096    0.257    0.485   93.973
  431.750    5.030    0.252    0.480   88.528
  432.000    4.956    0.247    0.482   85.897
  432.250    4.948    0.252    0.487   95.128
  432.500    4.949    0.254    0.485   97.389
  432.750    4.987    0.250    0.497   94.756
  433.000    5.054    0.245    0.485   92.186
  433.250    5.309    0.236    0.476   88.820
