~VERSION INFORMATION
 VERS.                 2.0:   CWLS LOG ASCII STANDARD -VERSION 2.0
 WRAP.                  NO:   ONE LINE PER DEPTH STEP
~WELL INFORMATION BLOCK
#MNEM.UNIT           DATA                    DESCRIPTION OF MNEMONIC
#---------    -------------------            -------------------------------
# Generated from Intellog Unique Number	CW_79_81/WELL/2476
WELL.         10-32-080-20W4                 : Well_name    - WELL
LOC .         00/10-32-080-20W4/0            : Location     - LOCATION
UWI .         00/10-32-080-20W4/0            : Uwi          - UNIQUE WELL ID
ENTR.         MAX                            : Entered      - ENTERED BY
SRVC.         SCHLUMBERGER                   : Scn          - SERVICE COMPANY
STRT.M        149.602                        : top_depth    - START DEPTH
STOP.M        396.102                        : bot_depth    - STOP DEPTH
STEP.M        0.25                           : increment    - STEP LENGTH
 NULL. -999.2500:NULL Value
~CURVE INFORMATION BLOCK
#MNEM UNIT       ERCB CURVE CODE    CURVE DESCRIPTION
#-----------   ------------------   ----------------------------------
DEPT.M        00 001 00 00         : DEPTH        - DEPTH
ILD .OHMM     00 120 00 00         : RESD         - DEEP RESISTIVITY (DIL)
NPHI.V/V      00 330 00 00         : PHIN         - NEUTRON POROSITY (SANDSTONE)
DPHI.V/V      00 890 00 00         : PHID         - DENSITY POROSITY (SANDSTONE)
GR  .API      00 310 00 00         : GR           - GAMMA RAY
CALI.MM       00 280 01 00         : CAL          - CALIPER
~PARAMETER INFORMATION
#MNEM.UNIT           DATA             DESCRIPTION OF MNEMONIC
#---------         -----------     ------------------------------
GL  .M        578.815              : gl           - GROUND LEVEL ELEVATION
EREF.M        581.254              : kb           - ELEVATION OF DEPTH REFERENCE
DATM.M        578.815              : datum        - DATUM ELEVATION
TDD .M        403.25               : tdd          - TOTAL DEPTH DRILLER
RUN .         ONE                  : Run          - RUN NUMBER
ENG .         BILL                 : Engineer     - RECORDING ENGINEER
WIT .         JIM                  : Witness      - WITNESSED BY
MUD .         GEL                  : Mud_type     - MUD TYPE
MATR.         SANDSTONE            : Logunit      - NEUTRON MATRIX
TMAX.C        21.1111              : BHT          - MAXIMUM RECORDED TEMPERATURE
BHTD.M        403.25               : BHTDEP       - MAXIMUM RECORDED TEMPERATURE
MATR.         1                    : LOGUNIT      - NEUTRON MATRIX
RMT .C        13.3333              : MDTP         - TEMPERATURE OF MUD
NEUT.         1                    : NEUTRON      - NEUTRON TYPE
RESI.         0                    : RESIST       - RESISTIVITY TYPE
RMC .OHMM     8                    : RMC          - RESISTIVITY OF MUD CAKE
RMF .OHMM     4.46                 : RMF          - RESISTIVITY OF MUD FILTRATE
SUFT.C        -20.5556             : SUFT         - SURFACE TEMPERATURE
~A  DEPTH     RESD     PHIN     PHID       GR      CAL
# ...
  332.102   13.020    0.453    0.191   98.786  150.610
  332.352   12.819    0.457    0.192  100.498  153.928
  332.602   12.630    0.471    0.189  101.199  155.512
  332.852   12.579    0.476    0.190  101.723  155.902
  333.102   12.529    0.478    0.192  102.660  157.288
  333.352   12.457    0.482    0.194  103.421  160.271
  333.602   12.452    0.490    0.192  102.430  163.520
  333.852   12.446    0.476    0.182  103.406  161.843
  334.102   12.442    0.469    0.180  102.927  154.646
  334.352   12.369    0.467    0.183  103.333  156.729
  334.602   12.275    0.467    0.184  103.562  158.514
  334.852   12.181    0.466    0.180  103.790  157.702
  335.102   12.070    0.465    0.175  105.237  159.286
  335.352   11.975    0.471    0.188  104.247  159.276
  335.602   11.883    0.480    0.177  103.296  155.273
  335.852   11.793    0.484    0.169  103.762  153.065
  336.102   11.704    0.484    0.167  105.523  152.853
  336.352   11.614    0.481    0.175  108.169  154.938
  336.602   11.524    0.471    0.188  111.238  159.466
  336.852   11.521    0.452    0.186  112.459  158.207
  337.102   11.516    0.445    0.181  112.453  160.190
  337.352   11.574    0.437    0.180  111.385  159.181
  337.602   11.527    0.439    0.177  111.731  159.968
  337.852   11.357    0.450    0.177  114.612  162.353
  338.102   11.206    0.461    0.183  119.056  160.643
  338.352   11.287    0.439    0.174  115.366  158.137
  338.602   11.529    0.432    0.159  111.349  155.730
  338.852   11.652    0.446    0.146  109.986  154.221
  339.102   11.435    0.465    0.150  110.569  156.005
  339.352   10.923    0.477    0.172  112.153  159.788
  339.602   10.425    0.476    0.193  113.562  160.573
  339.852   10.664    0.467    0.187  113.554  160.561
  340.102   10.815    0.478    0.178  113.311  168.933
  340.352   11.266    0.466    0.188  112.185  167.427
  340.602   12.135    0.443    0.189  107.935  160.828
  340.852   13.413    0.422    0.185  102.562  154.824
  341.102   15.108    0.420    0.208  102.613  155.843
  341.352   17.198    0.430    0.226  104.079  154.999
  341.602   19.003    0.442    0.225   99.593  154.986
  341.852   21.012    0.446    0.231   93.692  155.573
  342.102   23.091    0.441    0.225   90.029  155.164
  342.352   25.107    0.425    0.202   88.902  153.457
  342.602   27.473    0.384    0.165   86.457  152.609
  342.852   30.090    0.327    0.122   82.522  158.420
  343.102   30.961    0.318    0.089   77.798  156.414
  343.352   30.672    0.323    0.095   76.965  155.603
  343.602   29.557    0.326    0.110   78.136  156.590
  343.852   27.872    0.335    0.121   80.075  158.177
  344.102   25.259    0.376    0.130   82.927  156.699
  344.352   23.080    0.376    0.118   86.604  153.359
  344.602   22.412    0.400    0.170   90.841  155.741
  344.852   22.485    0.415    0.185   91.012  156.031
  345.102   22.886    0.425    0.195   90.416  154.824
  345.352   23.129    0.428    0.209   90.114  153.315
  345.602   22.449    0.420    0.210   89.025  153.800
  345.852   21.611    0.413    0.197   89.511  156.283
  346.102   20.526    0.408    0.201   92.569  158.667
  346.352   19.392    0.414    0.197   96.336  156.260
  346.602   18.224    0.422    0.191   99.158  156.648
  346.852   17.234    0.428    0.183   99.977  159.532
  347.102   16.908    0.427    0.160   98.023  156.390
  347.352   17.823    0.421    0.140   96.543  154.712
  347.602   19.007    0.427    0.164   97.243  157.897
  347.852   20.276    0.409    0.168   96.175  158.984
  348.102   21.108    0.390    0.158   91.335  156.977
  348.352   21.215    0.382    0.141   85.197  153.671
  348.602   20.625    0.390    0.140   85.601  154.157
  348.852   20.004    0.410    0.163   90.016  156.640
  349.102   19.281    0.413    0.186   92.838  154.631
  349.352   18.896    0.399    0.177   88.765  155.318
  349.602   19.092    0.368    0.153   81.685  156.905
  349.852   20.027    0.325    0.127   74.132  156.795
  350.102   22.361    0.285    0.101   66.400  151.257
  350.352   25.257    0.283    0.071   61.972  149.580
  350.602   26.745    0.306    0.116   72.811  156.755
  350.852   26.988    0.341    0.143   81.530  158.243
  351.102   25.700    0.380    0.169   86.711  157.433
  351.352   23.326    0.411    0.195   88.060  156.622
  351.602   20.395    0.418    0.198   86.254  157.424
  351.852   19.199    0.412    0.185   85.510  159.493
  352.102   18.914    0.420    0.178   87.626  156.686
  352.352   18.942    0.426    0.170   87.266  153.877
  352.602   19.070    0.426    0.159   85.608  153.266
  352.852   19.234    0.421    0.145   84.363  155.153
  353.102   19.482    0.419    0.139   86.458  158.183
  353.352   19.329    0.418    0.149   89.889  159.420
  353.602   17.564    0.422    0.181   92.711  161.805
  353.852   16.518    0.430    0.175   95.180  158.800
  354.102   15.695    0.441    0.175   97.060  155.793
  354.352   14.915    0.448    0.191   98.351  155.083
  354.602   14.023    0.439    0.194   99.533  156.534
  354.852   13.299    0.440    0.175  100.755  159.848
  355.102   12.632    0.446    0.179  103.342  160.238
  355.352   12.134    0.445    0.179  105.928  162.121
  355.602   11.741    0.445    0.183  108.043  165.104
  355.852   11.465    0.449    0.184  109.098  167.092
  356.102   11.342    0.459    0.161  107.989  163.201
  356.352   11.168    0.440    0.134  106.017  157.781
  356.602   11.003    0.452    0.122  106.482  159.766
  356.852   10.781    0.465    0.153  109.599  166.543
  357.102   10.506    0.470    0.179  114.191  172.722
  357.352   10.240    0.469    0.185  118.253  175.605
  357.602   10.104    0.467    0.182  118.756  174.694
  357.852   10.175    0.457    0.154  117.767  172.185
  358.102   10.321    0.464    0.156  118.232  172.574
  358.352   10.580    0.470    0.166  118.165  170.866
  358.602   11.003    0.463    0.169  117.216  165.864
  358.852   11.786    0.444    0.159  114.204  159.762
  359.102   13.868    0.421    0.132  106.187  158.233
  359.352   16.411    0.387    0.101  101.513  158.638
  359.602   17.753    0.376    0.103   95.847  160.222
  359.852   19.011    0.384    0.142  100.259  160.010
  360.102   20.003    0.397    0.175  104.380  158.004
  360.352   20.662    0.406    0.184  104.550  155.100
  360.602   21.141    0.411    0.175  103.687  153.255
  360.852   21.294    0.417    0.179  102.943  154.075
  361.102   21.909    0.421    0.194  102.702  158.055
  361.352   22.664    0.419    0.194  101.751  159.941
  361.602   23.657    0.416    0.185  100.565  161.527
  361.852   24.883    0.410    0.170   98.968  162.813
  362.102   26.293    0.392    0.152   95.295  161.502
  362.352   26.885    0.372    0.127   91.112  158.995
  362.602   25.725    0.366    0.073   90.869  158.584
  362.852   24.073    0.378    0.103   94.517  159.968
  363.102   22.295    0.392    0.147   98.165  161.355
  363.352   20.258    0.404    0.168  100.044  162.942
  363.602   17.059    0.419    0.173  100.852  168.334
  363.852   14.484    0.420    0.199  102.564  175.395
  364.102   13.656    0.415    0.189  103.265  168.197
  364.352   13.241    0.437    0.162  100.607  161.297
  364.602   13.979    0.453    0.159   93.291  157.890
  364.852   16.373    0.449    0.186   82.084  157.380
  365.102   21.442    0.430    0.224   66.916  154.872
  365.352   25.573    0.425    0.251   52.416  152.363
  365.602   35.843    0.422    0.242   48.164  154.346
  365.852   46.474    0.425    0.258   43.912  155.134
  366.102   55.428    0.423    0.277   41.075  152.529
  366.352   61.488    0.414    0.287   40.183  147.726
  366.602   63.644    0.408    0.283   41.030  146.563
  366.852   63.141    0.404    0.272   41.759  152.792
  367.102   61.304    0.403    0.266   41.282  153.979
  367.352   59.855    0.408    0.260   41.334  153.369
  367.602   58.761    0.416    0.264   42.034  153.556
  367.852   57.894    0.420    0.276   43.383  154.642
  368.102   56.772    0.418    0.282   45.850  153.481
  368.352   55.481    0.417    0.279   48.791  149.726
