~VERSION INFORMATION
 VERS.                 2.0:   CWLS LOG ASCII STANDARD -VERSION 2.0
 WRAP.                  NO:   ONE LINE PER DEPTH STEP
~WELL INFORMATION BLOCK
#MNEM.UNIT           DATA                    DESCRIPTION OF MNEMONIC
#---------    -------------------            -------------------------------
# Generated from Intellog Unique Number	CC_84_87/WELL/1184
NULL.         -999.25                        : NULL_VALUE
WELL.         PCI PCEJ HANGST                : Well_name    - WELL              
LOC .         10-08-084-09W4                 : Location     - LOCATION          
UWI .         00/10-08-084-09W400            : Uwi          - UNIQUE WELL ID    
ENTR.         RJA                            : Entered      - ENTERED BY        
SRVC.         SCHLUMBERGER                   : Scn          - SERVICE COMPANY   
DATE.         17 MAR 85                      : Date         - LOG DATE
STRT.M        175                            : top_depth    - START DEPTH       
STOP.M        475.892                        : bot_depth    - STOP DEPTH        
STEP.M        0.3                            : increment    - STEP LENGTH       
~CURVE INFORMATION BLOCK
#MNEM UNIT       ERCB CURVE CODE    CURVE DESCRIPTION
#-----------   ------------------   ----------------------------------
DEPT.M        00 001 00 00         : DEPTH        - DEPTH                       
DPHI.V/V      00 890 00 00         : PHID         - DENSITY POROSITY (LIMESTONE)
NPHI.V/V      00 330 00 00         : PHIN         - NEUTRON POROSITY (LIMESTONE)
GR  .API      00 310 00 00         : GR           - GAMMA RAY                   
ILD .OHMM     00 120 00 00         : RESD         - DEEP RESISTIVITY (DIL)      
~PARAMETER INFORMATION       
#MNEM.UNIT           DATA             DESCRIPTION OF MNEMONIC
#---------         -----------     ------------------------------
GL  .M        716.37               : gl           - GROUND LEVEL ELEVATION      
EREF.M        719.37               : kb           - ELEVATION OF DEPTH REFERENCE
DATM.M        719.37               : datum        - DATUM ELEVATION             
TDD .M        488                  : tdd          - TOTAL DEPTH DRILLER         
RUN .         ONE                  : Run          - RUN NUMBER                  
ENG .         BILL                 : Engineer     - RECORDING ENGINEER          
WIT .         JIM                  : Witness      - WITNESSED BY                
MUD .         GEL                  : Mud_type     - MUD TYPE                    
MATR.         LIMESTONE            : Logunit      - NEUTRON MATRIX              
TMAX.C        19                   : BHT          - MAXIMUM RECORDED TEMPERATURE
BHTD.M        488                  : BHTDEP       - MAXIMUM RECORDED TEMPERATURE
MATR.         1                    : LOGUNIT      - NEUTRON MATRIX              
RMT .C        25                   : MDTP         - TEMPERATURE OF MUD          
NEUT.         1                    : NEUTRON      - NEUTRON TYPE                
RESI.         0                    : RESIST       - RESISTIVITY TYPE            
RMC .OHMM     0.25                 : RMC          - RESISTIVITY OF MUD CAKE     
RMF .OHMM     0.25                 : RMF          - RESISTIVITY OF MUD FILTRATE 
SUFT.C        4                    : SUFT         - SURFACE TEMPERATURE         
~A  DEPTH     PHID     PHIN       GR     RESD
# ...
  331.598    0.310    0.423   61.951   21.042
  331.898    0.317    0.407   60.706   20.270
  332.198    0.327    0.437   61.894   19.526
  332.498    0.314    0.445   64.902   19.525
  332.798    0.306    0.442   65.471   19.525
  333.098    0.315    0.444   63.012   19.524
  333.398    0.327    0.456   62.382   19.524
  333.698    0.332    0.459   62.960   19.162
  333.998    0.327    0.457   65.359   18.806
  334.298    0.327    0.460   64.116   17.452
  334.598    0.329    0.445   62.268   15.312
  334.898    0.319    0.422   69.523   13.186
  335.198    0.320    0.432   67.667   11.569
  335.498    0.328    0.446   59.753   10.151
  335.798    0.329    0.450   76.716    9.597
  336.098    0.322    0.449   82.751    7.962
  336.398    0.289    0.475   83.343    6.729
  336.698    0.262    0.479   76.630    6.016
  336.998    0.256    0.476   82.067    5.688
  337.298    0.267    0.460   81.435    6.244
  337.598    0.299    0.521   72.296    7.527
  337.897    0.316    0.514   66.201    8.740
  338.197    0.306    0.425   72.243    9.595
  338.497    0.275    0.418   78.884    9.417
  338.797    0.268    0.446   77.031    8.110
  339.097    0.266    0.480   74.583    8.577
  339.397    0.273    0.452   74.547    8.903
  339.697    0.284    0.470   72.702    9.594
  339.997    0.269    0.544   60.533   10.934
  340.297    0.253    0.480   69.000   11.564
  340.597    0.279    0.452   75.042   10.146
  340.897    0.272    0.428   76.839    9.415
  341.197    0.269    0.439   79.237    8.261
  341.497    0.273    0.450   83.459    7.666
  341.797    0.268    0.447   88.894    7.114
  342.097    0.266    0.448   87.646    6.982
  342.397    0.262    0.479   83.974    6.726
  342.697    0.260    0.492   86.376    6.852
  342.997    0.253    0.476   90.600    6.601
  343.297    0.256    0.469   94.214    5.684
  343.597    0.246    0.476   97.213    5.374
  343.897    0.237    0.477   88.692    5.374
  344.197    0.248    0.486   73.480    6.011
  344.497    0.287    0.497   77.093    5.475
  344.797    0.282    0.470   87.385    4.060
  345.097    0.256    0.440   94.034    3.068
  345.397    0.248    0.465   97.653    2.642
  345.697    0.230    0.518   97.016    2.498
  345.997    0.224    0.555   98.810    2.847
  346.297    0.235    0.535   96.951    3.068
  346.597    0.263    0.519   91.465    3.306
  346.897    0.273    0.513   90.815    3.368
  347.197    0.266    0.522   92.622    3.305
  347.497    0.266    0.525   97.448    3.010
  347.797    0.268    0.526   93.168    2.742
  348.097    0.259    0.523   94.343    2.406
  348.397    0.244    0.533   96.756    2.361
  348.697    0.242    0.528   93.078    2.451
  348.997    0.253    0.511   91.234    2.900
  349.297    0.272    0.538   92.403    3.244
  349.597    0.278    0.535   91.779    4.059
  349.897    0.283    0.543   81.428    4.892
  350.197    0.266    0.493   63.191    6.474
  350.497    0.220    0.409   52.836   10.328
  350.797    0.075    0.371   52.802   22.634
  351.097    0.099    0.196   58.849   23.938
  351.397    0.211    0.308   63.676   21.003
  351.697    0.316    0.356   67.896   17.424
  351.997    0.351    0.349   68.480   15.576
  352.297    0.354    0.335   65.413   15.575
  352.597    0.356    0.328   61.742   17.100
  352.897    0.375    0.317   61.711   20.612
  353.197    0.400    0.291   59.252   22.629
  353.497    0.388    0.293   54.978   25.313
  353.797    0.370    0.306   55.554   24.384
  354.097    0.365    0.324   56.728   20.998
  354.397    0.342    0.345   56.101   18.083
  354.697    0.334    0.396   51.825   14.723
  354.997    0.324    0.464   53.006   13.662
  355.297    0.322    0.446   54.194   13.409
  355.597    0.326    0.430   52.949   12.917
  355.897    0.329    0.449   55.347   12.917
  356.197    0.329    0.454   59.570   12.916
  356.497    0.325    0.445   60.151   12.916
  356.797    0.323    0.441   54.654   12.677
  357.097    0.326    0.445   57.049   12.676
  357.397    0.330    0.447   60.056   12.915
  357.697    0.328    0.438   58.205   14.179
  357.997    0.327    0.456   50.278   15.567
  358.297    0.284    0.466   47.833   16.464
  358.597    0.210    0.273   50.843   18.075
  358.897    0.266    0.325   58.090   19.117
  359.197    0.302    0.429   58.058   18.763
  359.497    0.082    0.419   56.218   20.218
  359.797    0.130    0.210   55.576   20.987
  360.097    0.219    0.260   58.584   20.986
  360.397    0.314    0.318   59.162   19.114
  360.697    0.327    0.352   55.487   15.563
  360.997    0.328    0.379   56.069   13.402
  361.297    0.328    0.412   57.867   12.437
  361.597    0.330    0.421   61.477   12.206
  361.897    0.317    0.424   59.019   11.980
  362.197    0.316    0.438   57.779   11.980
  362.496    0.322    0.439   59.565   11.979
  362.796    0.329    0.453   58.930   11.757
  363.096    0.336    0.450   56.468   11.757
  363.396    0.328    0.439   56.440   11.757
  363.696    0.309    0.422   58.241   11.978
  363.996    0.318    0.419   56.994   11.978
  364.296    0.321    0.426   61.216   11.977
  364.596    0.318    0.439   58.752   11.977
  364.896    0.315    0.447   60.545   11.755
  365.196    0.304    0.451   62.948   11.755
  365.496    0.323    0.448   59.269   11.754
  365.796    0.323    0.449   58.642   11.754
  366.096    0.316    0.436   59.821   11.754
  366.396    0.320    0.424   61.011   11.753
  366.696    0.325    0.436   61.592   11.536
  366.996    0.312    0.439   63.386   11.535
  367.296    0.301    0.433   62.129   11.321
  367.596    0.305    0.444   62.709   11.321
  367.896    0.318    0.448   63.903   11.111
  368.196    0.335    0.438   68.721   11.111
  368.496    0.332    0.426   69.914   11.111
  368.796    0.320    0.434   69.885   10.905
  369.096    0.320    0.440   68.035   10.904
  369.396    0.325    0.439   64.367   10.904
  369.696    0.324    0.428   64.934   11.109
  369.996    0.322    0.423   65.522   10.903
  370.296    0.318    0.436   63.663   10.903
  370.596    0.310    0.432   62.417   10.903
  370.896    0.292    0.427   63.009   11.108
  371.196    0.303    0.443   63.579   11.108
  371.496    0.312    0.435   63.554   11.107
  371.796    0.309    0.429   65.342   11.107
  372.096    0.307    0.425   66.533   11.107
  372.396    0.322    0.434   64.683   10.901
  372.696    0.319    0.448   61.009   10.901
  372.996    0.312    0.450   62.188   10.699
  373.296    0.293    0.441   60.950   10.698
  373.596    0.281    0.440   59.712   10.500
  373.896    0.276    0.437   65.141   10.114
  374.196    0.286    0.426   69.353    9.927
  374.496    0.294    0.415   70.553    9.743
  374.796    0.300    0.413   72.329    9.563
  375.096    0.312    0.414   77.372    9.480
  375.396    0.320    0.424   73.700    8.314
  375.696    0.285    0.427   74.263    7.430
  375.996    0.276    0.439   82.674    6.162
  376.296    0.269    0.466   83.234    5.506
  376.596    0.259    0.483   81.378    5.107
  376.896    0.255    0.445   81.314    5.602
  377.196    0.218    0.450   80.062    6.498
  377.496    0.194    0.447   78.202    7.398
  377.796    0.227    0.449   79.378    7.122
  378.096    0.247    0.462   84.164    6.606
  378.396    0.255    0.470   85.320    6.359
  378.696    0.261    0.452   85.883    6.009
  378.996    0.246    0.484   87.654    4.983
  379.296    0.250    0.513   87.596    4.453
  379.596    0.266    0.503   88.772    4.130
  379.896    0.289    0.477   89.307    4.205
  380.196    0.294    0.449   86.865    4.788
  380.496    0.259    0.442   81.980    5.554
  380.796    0.273    0.443   80.731    6.686
  381.096    0.284    0.452   84.916    7.067
  381.396    0.277    0.465   90.290    6.803
  381.696    0.288    0.488   89.660    6.926
  381.996    0.268    0.474   82.956    7.184
  382.296    0.251    0.421   82.911    7.313
  382.596    0.215    0.443   89.523    7.041
  382.896    0.190    0.443   81.612    6.653
  383.196    0.207    0.424   83.372    6.525
  383.496    0.228    0.447   87.558    6.522
