~VERSION INFORMATION
 VERS.                 2.0:   CWLS LOG ASCII STANDARD -VERSION 2.0
 WRAP.                  NO:   ONE LINE PER DEPTH STEP
~WELL INFORMATION BLOCK
#MNEM.UNIT           DATA                    DESCRIPTION OF MNEMONIC
#---------    -------------------            -------------------------------
# Generated from Intellog Unique Number	CS_67_68/WELL/2402
WELL.         MERLAND TWEEDIE                : Well_name    - WELL
LOC .         00/11-27-068-11W4/0            : Location     - LOCATION
UWI .         00/11-27-068-11W4/0            : Uwi          - UNIQUE WELL ID
ENTR.         TIM                            : Entered      - ENTERED BY
SRVC.         SCHLUMBERGER                   : Scn          - SERVICE COMPANY
STRT.M        300                            : top_depth    - START DEPTH
STOP.M        505                            : bot_depth    - STOP DEPTH
STEP.M        0.25                           : increment    - STEP LENGTH
 NULL. -999.2500:NULL Value
~CURVE INFORMATION BLOCK
#MNEM UNIT       ERCB CURVE CODE    CURVE DESCRIPTION
#-----------   ------------------   ----------------------------------
DEPT.M        00 001 00 00         : DEPTH        - DEPTH
DPHI.V/V      00 890 00 00         : PHID         - DENSITY POROSITY (SANDSTONE)
NPHI.V/V      00 330 00 00         : PHIN         - NEUTRON POROSITY (SANDSTONE)
CALI.MM       00 280 01 00         : CAL          - CALIPER
GR  .API      00 310 00 00         : GR           - GAMMA RAY
ILD .OHMM     00 120 00 00         : RESD         - DEEP RESISTIVITY (DIL)
~PARAMETER INFORMATION
#MNEM.UNIT           DATA             DESCRIPTION OF MNEMONIC
#---------         -----------     ------------------------------
GL  .M        615.5                : gl           - GROUND LEVEL ELEVATION
EREF.M        619                  : kb           - ELEVATION OF DEPTH REFERENCE
DATM.M        619                  : datum        - DATUM ELEVATION
TDD .M        516                  : tdd          - TOTAL DEPTH DRILLER
RUN .         ONE                  : Run          - RUN NUMBER
ENG .         BILL                 : Engineer     - RECORDING ENGINEER
WIT .         JIM                  : Witness      - WITNESSED BY
MUD .         GEL                  : Mud_type     - MUD TYPE
MATR.         SANDSTONE            : Logunit      - NEUTRON MATRIX
TMAX.C        22                   : BHT          - MAXIMUM RECORDED TEMPERATURE
BHTD.M        516                  : BHTDEP       - MAXIMUM RECORDED TEMPERATURE
MATR.         1                    : LOGUNIT      - NEUTRON MATRIX
RMT .C        22                   : MDTP         - TEMPERATURE OF MUD
NEUT.         1                    : NEUTRON      - NEUTRON TYPE
RESI.         0                    : RESIST       - RESISTIVITY TYPE
RMC .OHMM     4                    : RMC          - RESISTIVITY OF MUD CAKE
RMF .OHMM     4                    : RMF          - RESISTIVITY OF MUD FILTRATE
SUFT.C        5                    : SUFT         - SURFACE TEMPERATURE
~A  DEPTH     PHID     PHIN      CAL       GR     RESD
# ...
  373.000    0.250    0.405  167.577   86.244    5.072
  373.250    0.261    0.414  167.732   82.820    4.975
  373.500    0.280    0.429  166.853   79.997    4.881
  373.750    0.292    0.448  165.094   81.820    4.524
  374.000    0.301    0.451  164.184   86.559    4.116
  374.250    0.298    0.457  163.429   93.630    3.674
  374.500    0.285    0.468  163.460   96.037    3.406
  374.750    0.275    0.480  163.583   96.111    3.218
  375.000    0.284    0.491  163.707   95.019    2.927
  375.250    0.287    0.513  163.831   93.344    2.765
  375.500    0.288    0.532  163.954   85.838    2.764
  375.750    0.295    0.522  164.109   78.897    2.816
  376.000    0.330    0.501  164.232   72.557    3.034
  376.250    0.347    0.474  164.325   68.549    3.210
  376.500    0.356    0.441  164.480   66.874    3.460
  376.750    0.354    0.415  164.634   66.948    4.021
  377.000    0.352    0.415  164.727   68.189    4.762
  377.250    0.348    0.417  164.881   69.447    5.330
  377.500    0.344    0.419  164.974   70.086    5.636
  377.750    0.340    0.424  165.129   70.179    5.743
  378.000    0.339    0.429  165.221   69.670    5.740
  378.250    0.336    0.435  166.317   69.744    5.737
  378.500    0.337    0.439  166.440   69.818    5.735
  378.750    0.341    0.431  166.595   69.911    5.733
  379.000    0.345    0.423  166.688   68.800    5.729
  379.250    0.347    0.416  166.842   68.893    5.727
  379.500    0.349    0.411  165.994   69.550    5.618
  379.750    0.350    0.419  164.174   69.625    5.616
  380.000    0.351    0.435  163.326   69.116    5.509
  380.250    0.347    0.435  162.447   68.024    5.403
  380.500    0.346    0.430  161.598   66.950    5.301
  380.750    0.348    0.427  161.784   67.006    5.299
  381.000    0.356    0.432  160.967   67.061    5.197
  381.250    0.357    0.441  161.028   68.320    5.098
  381.500    0.357    0.447  161.214   69.579    5.097
  381.750    0.356    0.446  160.304   70.200    5.094
  382.000    0.348    0.439  160.489   72.643    5.189
  382.250    0.341    0.427  159.610   74.467    5.387
  382.500    0.331    0.422  159.703   75.124    5.487
  382.750    0.326    0.428  159.888   77.530    5.695
  383.000    0.318    0.432  159.981   81.085    5.911
  383.250    0.310    0.438  159.102   87.027    6.136
  383.500    0.300    0.440  159.256   86.518    6.490
  383.750    0.290    0.440  159.380   81.909    6.737
  384.000    0.295    0.430  159.473   77.318    6.992
  384.250    0.298    0.418  159.596   75.643    7.257
  384.500    0.297    0.408  159.751   73.968    7.534
  384.750    0.294    0.410  159.844   72.293    7.673
  385.000    0.296    0.411  160.060   72.348    7.671
  385.250    0.298    0.416  160.153   71.256    7.667
  385.500    0.298    0.418  160.245   70.766    7.664
  385.750    0.295    0.414  160.400   69.674    7.376
  386.000    0.295    0.407  161.495   67.999    7.237
  386.250    0.300    0.399  161.619   68.073    6.965
  386.500    0.305    0.390  161.743   68.730    6.834
  386.750    0.308    0.390  161.835   69.406    6.829
  387.000    0.308    0.396  161.959   70.063    6.957
  387.250    0.304    0.404  162.113   70.138    7.221
  387.500    0.303    0.411  162.206   70.212    7.783
  387.750    0.300    0.409  163.302   69.703    8.080
  388.000    0.297    0.387  164.397   68.592    8.874
  388.250    0.287    0.315  164.551   67.519   10.120
  388.500    0.275    0.242  164.737   67.028   11.327
  388.750    0.238    0.212  165.801   66.482   12.679
  389.000    0.196    0.191  165.894   66.011   14.461
  389.250    0.144    0.163  166.018   64.881   16.185
  389.500    0.069    0.148  167.113   62.642   17.443
  389.750    0.036    0.144  167.237   61.531   17.436
  390.000    0.022    0.153  167.391   60.439   15.863
  390.250    0.020    0.192  168.487   62.300   13.638
  390.500    0.033    0.219  168.610   64.086   11.948
  390.750    0.072    0.254  168.734   66.511   10.271
  391.000    0.127    0.292  168.889   68.936    8.998
  391.250    0.205    0.328  168.981   70.741    7.883
  391.500    0.295    0.364  169.136   72.565    6.405
  391.750    0.294    0.390  168.288   73.222    5.506
  392.000    0.269    0.384  168.380   72.148    5.823
  392.250    0.226    0.360  168.535   68.724    6.397
  392.500    0.054    0.307  167.687   65.281    7.295
  392.750    0.002    0.160  167.779   60.691    7.863
  393.000   -0.000    0.182  166.962   57.849    8.162
  393.250    0.016    0.223  167.055   62.005    7.710
  393.500    0.044    0.254  166.268   69.076    7.014
  393.750    0.093    0.312  166.330   75.000    6.261
  394.000    0.306    0.358  166.485   73.908    5.915
  394.250    0.318    0.392  166.577   71.104    5.280
  394.500    0.327    0.408  166.763   71.724    4.625
  394.750    0.333    0.419  166.856   74.131    4.453
  395.000    0.334    0.419  166.038   77.139    4.286
  395.250    0.333    0.417  166.162   78.962    4.205
  395.500    0.331    0.413  166.224   80.203    4.125
  395.750    0.329    0.406  166.378   81.462    4.201
  396.000    0.327    0.408  166.502   80.953    4.443
  396.250    0.327    0.411  162.769   80.425    4.613
  396.500    0.326    0.418  161.921   79.333    4.879
  396.750    0.322    0.421  161.042   78.843    5.359
  397.000    0.311    0.427  160.224   77.751    5.998
  397.250    0.293    0.432  160.317   76.640    6.588
  397.500    0.256    0.437  160.441   73.799    7.372
  397.750    0.201    0.437  159.593   70.393    7.510
  398.000    0.089    0.236  159.716   69.301    7.650
  398.250    0.091    0.289  157.896   69.958    7.364
  398.500    0.119    0.338  156.107   70.597    6.827
  398.750    0.157    0.408  155.290   73.004    6.210
  399.000    0.285    0.447  154.411   77.196    5.543
  399.250    0.318    0.457  154.534   77.817    4.949
  399.500    0.315    0.461  154.658   78.474    4.588
  399.750    0.316    0.459  155.753   80.334    4.762
  400.000    0.316    0.451  155.877   80.973    4.850
  400.250    0.310    0.444  156.972   82.797    4.940
  400.500    0.302    0.444  158.037   85.203    5.032
  400.750    0.291    0.443  159.194   88.193    5.030
  401.000    0.268    0.436  159.318   90.599    5.124
  401.250    0.249    0.424  159.411   93.025    5.318
  401.500    0.240    0.422  160.506   97.782    5.417
  401.750    0.233    0.424  160.691   99.022    5.415
  402.000    0.224    0.432  161.756   93.830    5.515
  402.250    0.215    0.440  161.849   95.089    5.514
  402.500    0.205    0.447  162.975   96.311    5.408
  402.750    0.205    0.447  163.099   98.717    5.407
  403.000    0.220    0.446  164.225   98.829    5.203
  403.250    0.236    0.442  164.318   98.283    5.105
  403.500    0.244    0.439  164.410   97.191    5.008
  403.750    0.248    0.433  163.593   96.719    4.912
  404.000    0.246    0.422  162.807   96.774    4.910
  404.250    0.234    0.408  162.869   96.849    4.908
  404.500    0.230    0.397  163.023   97.543    4.906
  404.750    0.224    0.393  163.116   98.163    4.904
  405.000    0.219    0.407  163.301   99.987    4.995
  405.250    0.219    0.422  163.394   98.330    4.993
  405.500    0.218    0.431  163.487   98.386    4.991
  405.750    0.218    0.436  163.610  100.792    5.084
  406.000    0.217    0.433  162.793  102.616    5.178
  406.250    0.213    0.435  162.886  101.524    5.177
  406.500    0.213    0.441  163.040  100.469    5.175
  406.750    0.219    0.441  163.195  102.857    5.172
  407.000    0.229    0.437  163.287  105.282    5.170
  407.250    0.222    0.432  163.411  105.939    5.168
  407.500    0.215    0.436  163.535  105.412    5.166
  407.750    0.216    0.448  164.630  103.737    4.971
  408.000    0.218    0.461  166.728   99.729    4.878
  408.250    0.220    0.457  168.765   94.555    4.354
  408.500    0.226    0.454  171.835   94.046    3.538
  408.750    0.232    0.447  174.843   95.888    2.874
  409.000    0.254    0.451  179.887   97.693    2.335
  409.250    0.269    0.474  182.896   99.535    2.165
