~VERSION INFORMATION
 VERS.                 2.0:   CWLS LOG ASCII STANDARD -VERSION 2.0
 WRAP.                  NO:   ONE LINE PER DEPTH STEP
~WELL INFORMATION BLOCK
#MNEM.UNIT           DATA                    DESCRIPTION OF MNEMONIC
#---------    -------------------            -------------------------------
# Generated from Intellog Unique Number	CC_84_87/WELL/2343
WELL.         HB GORDON LAKE                 : Well_name    - WELL
LOC .         00/15-21-084-03W4/0            : Location     - LOCATION
UWI .         00/15-21-084-03W400            : Uwi          - UNIQUE WELL ID
ENTR.         DW                             : Entered      - ENTERED BY
SRVC.         SCHLUMBERGER                   : Scn          - SERVICE COMPANY
STRT.M        60.96                          : top_depth    - START DEPTH
STOP.M        289.21                         : bot_depth    - STOP DEPTH
STEP.M        0.25                           : increment    - STEP LENGTH
 NULL. -999.2500:NULL Value
~CURVE INFORMATION BLOCK
#MNEM UNIT       ERCB CURVE CODE    CURVE DESCRIPTION
#-----------   ------------------   ----------------------------------
DEPT.M        00 001 00 00         : DEPTH        - DEPTH
GR  .API      00 310 00 00         : GR           - GAMMA RAY
DPHI.V/V      00 890 00 00         : PHID         - DENSITY POROSITY (SANDSTONE)
NPHI.V/V      00 330 00 00         : PHIN         - NEUTRON POROSITY (SANDSTONE)
ILD .OHMM     00 120 00 00         : RESD         - DEEP RESISTIVITY (DIL)
~PARAMETER INFORMATION
#MNEM.UNIT           DATA             DESCRIPTION OF MNEMONIC
#---------         -----------     ------------------------------
GL  .M        456.59               : gl           - GROUND LEVEL ELEVATION
EREF.M        458.419              : kb           - ELEVATION OF DEPTH REFERENCE
DATM.M        458.419              : datum        - DATUM ELEVATION
TDD .M        291.389              : tdd          - TOTAL DEPTH DRILLER
RUN .         ONE                  : Run          - RUN NUMBER
ENG .         BILL                 : Engineer     - RECORDING ENGINEER
WIT .         JIM                  : Witness      - WITNESSED BY
MUD .         GEL                  : Mud_type     - MUD TYPE
MATR.         SANDSTONE            : Logunit      - NEUTRON MATRIX
TMAX.C        18.8889              : BHT          - MAXIMUM RECORDED TEMPERATURE
BHTD.M        291.389              : BHTDEP       - MAXIMUM RECORDED TEMPERATURE
MATR.         1                    : LOGUNIT      - NEUTRON MATRIX
RMT .C        25                   : MDTP         - TEMPERATURE OF MUD
NEUT.         1                    : NEUTRON      - NEUTRON TYPE
RESI.         0                    : RESIST       - RESISTIVITY TYPE
RMC .OHMM     0.25                 : RMC          - RESISTIVITY OF MUD CAKE
RMF .OHMM     0.25                 : RMF          - RESISTIVITY OF MUD FILTRATE
SUFT.C        15                   : SUFT         - SURFACE TEMPERATURE
~A  DEPTH       GR     PHID     PHIN     RESD
# ...
  147.960   96.599    0.252    0.457    8.330
  148.210   93.873    0.243    0.480    8.288
  148.460   93.137    0.254    0.498    8.171
  148.710   91.079    0.266    0.509    8.187
  148.960   90.002    0.279    0.508    8.075
  149.210   88.966    0.288    0.500    8.004
  149.460   93.456    0.287    0.494    7.689
  149.710  102.728    0.276    0.506    7.098
  149.960  108.233    0.258    0.543    6.706
  150.210  111.658    0.235    0.577    6.395
  150.460  105.861    0.232    0.527    6.309
  150.710   99.782    0.242    0.496    6.457
  150.960   99.623    0.255    0.515    6.646
  151.210  100.433    0.264    0.517    6.721
  151.460   98.840    0.264    0.510    6.630
  151.710   98.374    0.265    0.502    6.198
  151.960  100.227    0.268    0.537    5.679
  152.210  106.381    0.271    0.577    5.154
  152.460  112.880    0.273    0.575    4.644
  152.710  113.697    0.272    0.544    4.256
  152.960  112.217    0.264    0.521    3.987
  153.210  105.562    0.249    0.554    4.001
  153.460  101.374    0.258    0.584    4.068
  153.710  102.154    0.275    0.584    4.187
  153.960   99.490    0.273    0.570    4.364
  154.210   90.698    0.271    0.539    4.486
  154.460   91.209    0.261    0.523    5.089
  154.710   96.334    0.269    0.525    5.241
  154.960   98.738    0.279    0.546    4.498
  155.210   99.918    0.270    0.573    3.702
  155.460  102.373    0.265    0.583    3.565
  155.710  101.459    0.289    0.574    3.458
  155.960   99.561    0.279    0.558    3.421
  156.210   97.253    0.248    0.551    3.521
  156.460   96.380    0.227    0.548    3.739
  156.710   97.809    0.230    0.531    4.163
  156.960   99.269    0.248    0.504    4.931
  157.210   99.285    0.239    0.490    5.922
  157.460   91.863    0.242    0.483    6.920
  157.710   84.096    0.252    0.490    7.618
  157.960   81.489    0.277    0.508    7.940
  158.210   80.677    0.315    0.515    8.023
  158.460   79.679    0.302    0.499    7.914
  158.710   79.189    0.287    0.492    7.673
  158.960   81.051    0.312    0.499    7.574
  159.210   83.193    0.327    0.503    7.654
  159.460   83.872    0.308    0.497    7.780
  159.710   83.782    0.305    0.495    7.899
  159.960   81.045    0.314    0.501    7.931
  160.210   77.822    0.305    0.506    7.735
  160.460   79.516    0.319    0.503    7.551
  160.710   80.882    0.336    0.498    7.456
  160.960   76.817    0.317    0.497    7.355
  161.210   75.419    0.310    0.497    7.360
  161.460   75.144    0.308    0.499    7.444
  161.710   76.540    0.307    0.493    7.670
  161.960   78.606    0.306    0.491    7.828
  162.210   80.801    0.300    0.486    7.767
  162.460   84.413    0.286    0.459    7.656
  162.710   88.449    0.274    0.459    7.574
  162.960   91.137    0.189    0.495    7.175
  163.210   91.513    0.178    0.521    6.881
  163.460   90.756    0.239    0.527    6.885
  163.710   90.361    0.251    0.532    6.858
  163.960   90.363    0.240    0.524    6.652
  164.210   90.939    0.240    0.497    6.447
  164.460   90.578    0.246    0.482    6.312
  164.710   89.063    0.251    0.484    6.288
  164.960   92.210    0.258    0.493    6.267
  165.210   99.506    0.258    0.506    6.176
  165.460   95.863    0.226    0.522    6.263
  165.710   89.862    0.240    0.512    6.454
  165.960   86.029    0.257    0.490    6.622
  166.210   86.463    0.256    0.478    6.637
  166.460   89.537    0.262    0.477    6.523
  166.710   88.295    0.266    0.474    6.233
  166.960   83.624    0.257    0.474    5.272
  167.210   89.140    0.252    0.474    4.353
  167.460   91.210    0.252    0.557    3.658
  167.710   84.686    0.286    0.646    3.057
  167.960   81.925    0.335    0.635    2.658
  168.210   81.267    0.303    0.651    2.506
  168.460   83.497    0.317    0.623    2.360
  168.710   85.268    0.327    0.585    2.282
  168.960   85.945    0.294    0.585    2.371
  169.210   86.159    0.273    0.601    2.579
  169.460   85.635    0.294    0.576    2.777
  169.710   87.376    0.296    0.529    2.991
  169.960   90.023    0.260    0.538    3.650
  170.210   91.865    0.259    0.527    4.327
  170.460   92.176    0.270    0.517    4.630
  170.710   90.897    0.243    0.547    4.862
  170.960   88.868    0.255    0.491    5.340
  171.210   88.026    0.268    0.460    5.583
  171.460   88.593    0.264    0.466    5.568
  171.710   91.528    0.256    0.500    5.419
  171.960   96.258    0.255    0.538    4.975
  172.210  100.647    0.262    0.540    4.265
  172.460  103.862    0.290    0.524    3.991
  172.710   99.386    0.303    0.511    3.872
  172.960   89.942    0.299    0.488    4.041
  173.210   86.619    0.289    0.469    4.344
  173.460   92.416    0.271    0.500    4.328
  173.710   96.844    0.249    0.580    4.010
  173.960   97.579    0.240    0.608    3.651
  174.210   95.462    0.244    0.590    3.424
  174.460   95.109    0.252    0.560    3.359
  174.710   96.713    0.253    0.540    3.379
  174.960   96.501    0.245    0.540    3.440
  175.210   96.467    0.238    0.556    3.605
  175.460   96.811    0.219    0.571    3.697
  175.710   97.860    0.237    0.550    3.701
  175.960  100.960    0.267    0.540    3.721
  176.210  102.964    0.256    0.570    3.685
  176.460   98.700    0.239    0.583    3.461
  176.710   95.386    0.252    0.577    3.384
  176.960   96.904    0.260    0.563    3.408
  177.210   98.834    0.256    0.547    3.528
  177.460   95.647    0.255    0.529    3.804
  177.710   89.755    0.255    0.513    4.165
  177.960   89.537    0.244    0.500    4.489
  178.210   92.181    0.256    0.493    4.860
  178.460   93.218    0.262    0.491    5.122
  178.710   92.787    0.248    0.507    5.178
  178.960   92.168    0.234    0.539    5.193
  179.210   90.630    0.226    0.556    5.453
  179.460   88.464    0.214    0.544    5.996
  179.710   84.341    0.177    0.475    6.250
  179.960   82.580    0.120    0.463    6.157
  180.210   88.377    0.098    0.501    5.939
  180.460   97.643    0.156    0.484    5.669
  180.710  100.896    0.240    0.461    5.342
  180.960  106.312    0.251    0.488    5.009
  181.210  114.207    0.253    0.549    4.854
  181.460  117.000    0.255    0.569    4.823
  181.710  114.954    0.236    0.543    4.859
  181.960  108.909    0.233    0.542    5.019
  182.210   85.284    0.236    0.533    5.103
  182.460   73.415    0.249    0.467    5.147
  182.710   69.436    0.270    0.424    5.016
  182.960   67.543    0.290    0.416    4.788
  183.210   72.569    0.291    0.392    4.779
  183.460   79.284    0.265    0.384    5.082
  183.710   90.659    0.242    0.393    5.495
  183.960   98.073    0.219    0.405    5.848
  184.210   93.609    0.214    0.414    6.243
  184.460   85.245    0.225    0.402    6.347
  184.710   85.822    0.209    0.398    5.839
  184.960   90.484    0.169    0.481    5.620
  185.210   97.315    0.185    0.495    5.830
  185.460  103.201    0.214    0.480    6.076
  185.710  105.141    0.196    0.495    6.248
  185.960  103.533    0.170    0.507    6.437
  186.210  102.032    0.194    0.501    6.536
  186.460  103.428    0.203    0.495    6.546
  186.710  107.185    0.200    0.502    6.561
  186.960  110.386    0.196    0.493    6.860
  187.210  105.362    0.193    0.467    7.238
  187.460   92.045    0.190    0.454    7.317
  187.710   86.353    0.179    0.436    7.435
  187.960   83.767    0.183    0.428    7.479
  188.210   84.097    0.198    0.420    7.394
  188.460   84.047    0.199    0.417    7.302
  188.710   80.391    0.184    0.426    7.154
  188.960   77.502    0.185    0.421    6.831
  189.210   78.045    0.223    0.413    6.729
  189.460   80.670    0.243    0.439    6.511
  189.710   85.745    0.229    0.455    6.190
  189.960   90.176    0.207    0.461    5.949
  190.210   89.957    0.198    0.488    5.786
  190.460   86.808    0.211    0.491    5.697
  190.710   79.724    0.237    0.466    5.738
  190.960   81.744    0.223    0.446    5.964
  191.210   93.128    0.191    0.455    6.223
