~Version Information Block
VERS .                 2.00:  CWLS LOG ASCII STANDARD - VERSION 2.00
WRAP.                  NO:
~Well Information Block
#MNEM.UNIT        Data Type   Information
#---------- ----------------  -----------
STRT.M           130.2000:
STOP.M           354.0000:
STEP.M             0.3000:
NULL.           -999.2500:
COMP.  :COMPANY
WELL.  :WELL
FLD.   :FIELD
LOC.   :LOCATION
CTRY.  :COUNTRY
PROV.  :PROVINCE
SRVC.  :SERVICE COMPANY
DATE.  :LOG DATE
UWI.   00/10-08-083-05W4/0:UNIQUE WELL ID
~Parameter Information Block
#MNEM.UNIT            Value   Description
#---------- ----------------  -----------
PROJECT.             SURMOUNT:  
SET  .                  RAW:  
~Curve Information Block
#MNEM.UNIT          API CODE    Curve Description
#-----------    ------------    -------------------------------------
DEPT.M                      :   DEPTH
DPHI .V/V                   :   DPHI
DT   .us/m                  :   DT
GR   .API                   :   GR
ILD  .Ohmm                  :   ILD
NPHI .V/V                   :   NPHI
PHID .                      :   Created by graphical digitiser entry.
RHOB .gm/c3                 :   RHOB
~A  Depth           DPHI          DT          GR         ILD        NPHI        PHID        RHOB
# ...
254.7000       -999.2500   -999.2500     94.2723      7.3956      0.4033      0.2205   2286.1938
255.0000       -999.2500   -999.2500     89.4372      7.3682      0.4170      0.2365   2259.7739
255.3000       -999.2500   -999.2500     88.9136      7.3408      0.4125      0.2505   2236.7490
255.6000       -999.2500   -999.2500     91.3846      7.2844      0.4130      0.2509   2236.0776
255.9000       -999.2500   -999.2500     93.9334      7.2068      0.4184      0.2372   2258.6775
256.2000       -999.2500   -999.2500     97.2003      7.1258      0.4275      0.2340   2263.9390
256.5000       -999.2500   -999.2500     94.9804      7.0447      0.4213      0.2365   2259.7571
256.8000       -999.2500   -999.2500     95.5568      6.9602      0.4285      0.2385   2256.4138
257.1000       -999.2500   -999.2500     98.9887      6.8740      0.4223      0.2418   2251.0559
257.4000       -999.2500   -999.2500     96.7160      6.7877      0.4144      0.2364   2259.9731
257.7000       -999.2500   -999.2500     93.9763      6.7014      0.4079      0.2358   2260.9956
258.0000       -999.2500   -999.2500     90.5759      6.6048      0.4144      0.2409   2252.5452
258.3000       -999.2500   -999.2500     89.7809      6.4889      0.4278      0.2430   2249.0303
258.6000       -999.2500   -999.2500     96.1901      6.3660      0.4227      0.2418   2251.0466
258.9000       -999.2500   -999.2500     95.6663      6.2430      0.4125      0.2380   2257.2544
259.2000       -999.2500   -999.2500     91.1809      6.1200      0.4219      0.2288   2272.4016
259.5000       -999.2500   -999.2500     92.6467      5.9970      0.4203      0.2239   2280.5750
259.8000       -999.2500   -999.2500     97.3166      5.8824      0.4132      0.2314   2268.1970
260.1000       -999.2500   -999.2500    101.2052      5.7891      0.4164      0.2337   2264.4219
260.4000       -999.2500   -999.2500    101.2637      5.7043      0.4276      0.2360   2260.5759
260.7000       -999.2500   -999.2500     98.6152      5.6195      0.4243      0.2422   2250.3162
261.0000       -999.2500   -999.2500     97.3724      5.5348      0.4098      0.2533   2232.0327
261.3000       -999.2500   -999.2500     98.6650      5.4500      0.3961      0.2600   2220.9832
261.6000       -999.2500   -999.2500    102.6219      5.3652      0.3982      0.2540   2230.9731
261.9000       -999.2500   -999.2500    101.7541      5.2805      0.4056      0.2400   2254.0083
262.2000       -999.2500   -999.2500     96.6790      5.1957      0.4291      0.2353   2261.7637
262.5000       -999.2500   -999.2500     95.1390      5.1227      0.4356      0.2411   2252.1433
262.8000       -999.2500   -999.2500     97.2258      5.0575      0.4047      0.2472   2242.1111
263.1000       -999.2500   -999.2500    100.7400      4.9934      0.4154      0.2529   2232.6570
263.4000       -999.2500   -999.2500    100.2976      4.9292      0.4192      0.2534   2231.9258
263.7000       -999.2500   -999.2500     96.6064      4.8651      0.4324      0.2497   2238.0620
264.0000       -999.2500   -999.2500     94.0459      4.8009      0.4576      0.2556   2228.3333
264.3000       -999.2500   -999.2500     96.3342      4.7368      0.4606      0.2605   2220.1753
264.6000       -999.2500   -999.2500    101.1377      4.6710      0.4427      0.2542   2230.5479
264.9000       -999.2500   -999.2500    101.0074      4.5928      0.4456      0.2544   2230.1775
265.2000       -999.2500   -999.2500     92.3640      4.5088      0.4551      0.2662   2210.8030
265.5000       -999.2500   -999.2500     88.4244      4.4247      0.4455      0.2651   2212.5583
265.8000       -999.2500   -999.2500     88.3947      4.3433      0.4367      0.2664   2210.4285
266.1000       -999.2500   -999.2500     87.1242      4.3174      0.4423      0.2722   2200.8362
266.4000       -999.2500   -999.2500     87.3410      4.3186      0.4463      0.2790   2189.6357
266.7000       -999.2500   -999.2500     91.3316      4.2951      0.4388      0.2755   2195.4316
267.0000       -999.2500   -999.2500     94.3693      4.2526      0.4446      0.2662   2210.7310
267.3000       -999.2500   -999.2500     94.9391      4.2027      0.4447      0.2658   2211.4727
267.6000       -999.2500   -999.2500     94.5495      4.1456      0.4407      0.2648   2213.0044
267.9000       -999.2500   -999.2500     94.5452      4.0860      0.4440      0.2630   2216.0195
268.2000       -999.2500   -999.2500     95.1856      4.0053      0.4423      0.2623   2217.2639
268.5000       -999.2500   -999.2500     96.0141      3.8876      0.4286      0.2599   2221.1023
268.8000       -999.2500   -999.2500     96.8819      3.7524      0.4513      0.2548   2229.5872
269.1000       -999.2500   -999.2500     97.5489      3.6123      0.4688      0.2440   2247.3574
269.4000       -999.2500   -999.2500     99.9641      3.4869      0.4855      0.2292   2271.8101
269.7000       -999.2500   -999.2500    104.4322      3.3989      0.5096      0.2282   2273.5237
270.0000       -999.2500   -999.2500    107.8747      3.4657      0.5016      0.2358   2260.9048
270.3000       -999.2500   -999.2500    106.8231      3.6025      0.4897      0.2315   2268.1023
270.6000       -999.2500   -999.2500    102.3638      3.7469      0.4822      0.2382   2256.9180
270.9000       -999.2500   -999.2500     99.0804      3.9055      0.4729      0.2444   2246.7983
271.2000       -999.2500   -999.2500     94.6412      4.0693      0.4489      0.2372   2258.5530
271.5000       -999.2500   -999.2500     94.5831      4.2331      0.4207      0.2363   2260.1794
271.8000       -999.2500   -999.2500     96.4045      4.3265      0.4071      0.2345   2263.0986
272.1000       -999.2500   -999.2500     98.2419      4.3750      0.4230      0.2368   2259.2556
272.4000       -999.2500   -999.2500    104.0859      4.4185      0.4398      0.2336   2264.5723
272.7000       -999.2500   -999.2500    106.7151      4.4457      0.4624      0.2326   2266.2156
273.0000       -999.2500   -999.2500    104.5204      4.4436      0.4785      0.2335   2264.7402
273.3000       -999.2500   -999.2500    101.3368      4.4308      0.4534      0.2285   2272.9993
273.6000       -999.2500   -999.2500     98.5934      4.4181      0.4181      0.2229   2282.1838
273.9000       -999.2500   -999.2500     96.3140      4.4054      0.4129      0.2209   2285.4727
274.2000       -999.2500   -999.2500     94.3988      4.3882      0.4073      0.2222   2283.4160
274.5000       -999.2500   -999.2500     94.4531      4.3674      0.3995      0.2140   2296.8354
274.8000       -999.2500   -999.2500     97.3758      4.3458      0.4162      0.2157   2294.1624
275.1000       -999.2500   -999.2500    102.8914      4.3243      0.4436      0.2262   2276.6963
275.4000       -999.2500   -999.2500    107.8814      4.3020      0.4482      0.2338   2264.2532
275.7000       -999.2500   -999.2500    106.7472      4.2788      0.4278      0.2336   2264.4875
276.0000       -999.2500   -999.2500    105.9342      4.2552      0.4102      0.2259   2277.3162
276.3000       -999.2500   -999.2500    109.6594      4.2282      0.3983      0.2321   2266.9668
276.6000       -999.2500   -999.2500    110.3180      4.1994      0.4135      0.2430   2249.0322
276.9000       -999.2500   -999.2500    106.5521      4.1469      0.4164      0.2475   2241.5432
277.2000       -999.2500   -999.2500    103.1042      4.0448      0.4211      0.2515   2235.0791
277.5000       -999.2500   -999.2500    101.6777      3.9239      0.4343      0.2423   2250.2837
277.8000       -999.2500   -999.2500     99.1538      3.6633      0.4484      0.2506   2236.4548
278.1000       -999.2500   -999.2500     90.5616      3.2297      0.4749      0.2491   2239.0046
278.4000       -999.2500   -999.2500     70.9014      2.7122      0.3954      0.2720   2201.1489
278.7000       -999.2500   -999.2500     49.2622      2.2833      0.3793      0.3196   2122.5886
279.0000       -999.2500   -999.2500     40.8328      1.9730      0.3796      0.3453   2080.2046
279.3000       -999.2500   -999.2500     37.6886      1.7625      0.3826      0.3605   2055.1440
