~VERSION INFORMATION
 VERS.                 2.0:   CWLS LOG ASCII STANDARD -VERSION 2.0
 WRAP.                  NO:   ONE LINE PER DEPTH STEP
~WELL INFORMATION BLOCK
#MNEM.UNIT           DATA                    DESCRIPTION OF MNEMONIC
#---------    -------------------            -------------------------------
# Generated from Intellog Unique Number	CS_73_76/WELL/806
WELL.         PACIFIC PHILLIPS AEC WIAU      : Well_name    - WELL
LOC .         00/10-03-073-07W4/0            : Location     - LOCATION
UWI .         00/10-03-073-07W4/0            : Uwi          - UNIQUE WELL ID
ENTR.         SP                             : Entered      - ENTERED BY
SRVC.         SCHLUMBERGER                   : Scn          - SERVICE COMPANY
STRT.M        340                            : top_depth    - START DEPTH
STOP.M        560                            : bot_depth    - STOP DEPTH
STEP.M        0.25                           : increment    - STEP LENGTH
 NULL. -999.2500:NULL Value
~CURVE INFORMATION BLOCK
#MNEM UNIT       ERCB CURVE CODE    CURVE DESCRIPTION
#-----------   ------------------   ----------------------------------
DEPT.M        00 001 00 00         : DEPTH        - DEPTH
ILD .OHMM     00 120 00 00         : RESD         - DEEP RESISTIVITY (DIL)
DPHI.V/V      00 890 00 00         : PHID         - DENSITY POROSITY (LIMESTONE)
NPHI.V/V      00 330 00 00         : PHIN         - NEUTRON POROSITY (LIMESTONE)
GR  .API      00 310 00 00         : GR           - GAMMA RAY
~PARAMETER INFORMATION
#MNEM.UNIT           DATA             DESCRIPTION OF MNEMONIC
#---------         -----------     ------------------------------
GL  .M        720.71               : gl           - GROUND LEVEL ELEVATION
EREF.M        723.71               : kb           - ELEVATION OF DEPTH REFERENCE
DATM.M        720.71               : datum        - DATUM ELEVATION
TDD .M        573                  : tdd          - TOTAL DEPTH DRILLER
RUN .         ONE                  : Run          - RUN NUMBER
ENG .         BILL                 : Engineer     - RECORDING ENGINEER
WIT .         JIM                  : Witness      - WITNESSED BY
MUD .         GEL                  : Mud_type     - MUD TYPE
MATR.         LIMESTONE            : Logunit      - NEUTRON MATRIX
TMAX.C        16                   : BHT          - MAXIMUM RECORDED TEMPERATURE
BHTD.M        573                  : BHTDEP       - MAXIMUM RECORDED TEMPERATURE
MATR.         1                    : LOGUNIT      - NEUTRON MATRIX
RMT .C        25                   : MDTP         - TEMPERATURE OF MUD
NEUT.         1                    : NEUTRON      - NEUTRON TYPE
RESI.         0                    : RESIST       - RESISTIVITY TYPE
RMC .OHMM     0.25                 : RMC          - RESISTIVITY OF MUD CAKE
RMF .OHMM     0.25                 : RMF          - RESISTIVITY OF MUD FILTRATE
SUFT.C        15                   : SUFT         - SURFACE TEMPERATURE
~A  DEPTH     RESD     PHID     PHIN       GR
# ...
  514.000    7.821    0.204    0.427   74.027
  514.250    7.819    0.183    0.418   74.035
  514.500    7.818    0.175    0.407   69.184
  514.750    7.961    0.180    0.396   66.760
  515.000    8.257    0.178    0.402   66.161
  515.250    8.409    0.186    0.398   63.738
  515.500    9.050    0.199    0.373   60.100
  515.750    9.216    0.184    0.370   62.537
  516.000    9.559    0.187    0.373   65.580
  516.250    9.556    0.176    0.372   67.409
  516.500    9.554    0.154    0.380   69.846
  516.750    9.551    0.155    0.390   68.638
  517.000    9.546    0.161    0.394   65.609
  517.250    9.369    0.166    0.390   66.222
  517.500    9.365    0.187    0.408   69.873
  517.750    9.362    0.186    0.407   70.489
  518.000    9.359    0.189    0.405   71.103
  518.250    9.357    0.184    0.398   72.323
  518.500    9.526    0.175    0.393   72.939
  518.750    9.702    0.176    0.394   69.300
  519.000    9.880    0.184    0.405   60.198
  519.250   10.439    0.207    0.421   50.487
  519.500   11.876    0.235    0.403   35.312
  519.750   16.863    0.275    0.385   28.030
  520.000   23.943    0.272    0.373   23.179
  520.250   27.238    0.264    0.364   28.045
  520.500   27.735    0.259    0.358   38.985
  520.750   24.365    0.254    0.357   47.494
  521.000   19.514    0.210    0.370   53.572
  521.250   17.140    0.223    0.403   60.260
  521.500   15.056    0.236    0.387   64.517
  521.750   13.725    0.224    0.382   69.382
  522.000   12.743    0.188    0.395   74.248
  522.250   12.052    0.191    0.420   75.469
  522.500   11.610    0.195    0.412   65.154
  522.750   11.186    0.226    0.418   62.122
  523.000   11.183    0.237    0.394   62.738
  523.250   11.180    0.230    0.393   64.565
  523.500   11.811    0.223    0.415   67.002
  523.750   12.252    0.228    0.436   60.936
  524.000   12.947    0.243    0.458   51.226
  524.250   13.678    0.260    0.418   45.159
  524.500   13.930    0.253    0.397   53.062
  524.750   13.925    0.237    0.406   58.534
  525.000   13.665    0.215    0.411   61.577
  525.250   13.661    0.217    0.415   57.941
  525.500   14.434    0.221    0.407   54.305
  525.750   15.537    0.227    0.428   51.274
  526.000   19.382    0.256    0.436   42.173
  526.250   21.649    0.262    0.430   36.713
  526.500   27.513    0.270    0.427   31.255
  526.750   30.728    0.291    0.427   28.831
  527.000   33.073    0.301    0.422   32.482
  527.250   36.257    0.306    0.421   34.919
  527.500   36.922    0.300    0.422   34.924
  527.750   36.911    0.294    0.423   30.074
  528.000   36.222    0.295    0.419   31.902
  528.250   34.256    0.289    0.412   37.985
  528.500   30.093    0.272    0.411   41.026
  528.750   25.009    0.247    0.427   44.676
  529.000   22.380    0.244    0.439   47.721
  529.250   18.598    0.276    0.433   51.978
  529.500   16.954    0.241    0.428   60.488
  529.750   14.621    0.233    0.424   66.566
  530.000   12.844    0.212    0.420   75.077
  530.250   11.492    0.210    0.418   76.297
  530.500   10.474    0.222    0.431   72.054
  530.750   10.092    0.238    0.432   71.453
  531.000   10.089    0.227    0.420   50.204
  531.250   12.587    0.265    0.431   38.672
  531.500   17.544    0.291    0.412   31.392
  531.750   25.376    0.312    0.393   28.362
  532.000   38.083    0.330    0.377   27.762
  532.250   44.954    0.290    0.368   28.985
  532.500   45.777    0.277    0.390   31.419
  532.750   42.499    0.263    0.407   30.819
  533.000   35.320    0.263    0.400   30.827
  533.250   30.461    0.269    0.394   35.691
  533.500   25.314    0.273    0.390   42.985
  533.750   22.238    0.256    0.388   49.066
  534.000   20.648    0.251    0.413   44.214
  534.250   19.894    0.304    0.433   39.363
  534.500   22.629    0.321    0.450   38.762
  534.750   25.743    0.315    0.462   39.984
  535.000   26.703    0.297    0.425   43.027
  535.250   25.256    0.278    0.420   44.855
  535.500   23.020    0.266    0.420   43.648
  535.750   21.772    0.244    0.425   39.403
  536.000   21.367    0.280    0.430   38.196
  536.250   22.164    0.280    0.436   31.524
  536.500   25.214    0.278    0.427   30.923
  536.750   26.642    0.290    0.420   35.183
  537.000   26.634    0.296    0.414   38.225
  537.250   22.548    0.279    0.406   41.266
  537.500   18.395    0.250    0.401   44.919
  537.750   16.461    0.228    0.416   46.140
  538.000   15.283    0.249    0.432   45.538
  538.250   14.997    0.262    0.424   36.436
  538.500   14.995    0.208    0.393   38.265
  538.750   14.988    0.185    0.377   42.525
  539.000   14.709    0.175    0.386   44.958
  539.250   13.909    0.242    0.399   49.217
  539.500   13.651    0.268    0.413   48.009
  539.750   13.398    0.299    0.407   38.906
  540.000   13.392    0.311    0.395   46.808
  540.250   13.144    0.282    0.385   57.748
  540.500   12.430    0.235    0.395   64.433
  540.750   11.757    0.187    0.409   77.195
  541.000   10.717    0.157    0.421   86.310
  541.250    9.590    0.157    0.409   83.888
  541.500    8.269    0.142    0.369   88.753
  541.750    7.679    0.136    0.397   90.582
  542.000    6.871    0.126    0.410   91.196
  542.250    6.498    0.129    0.419   91.204
  542.500    6.145    0.123    0.433   89.999
  542.750    6.031    0.118    0.427   88.180
  543.000    6.030    0.128    0.421   81.509
  543.250    5.917    0.146    0.421   77.263
  543.500    5.807    0.159    0.425   69.981
  543.750    5.391    0.214    0.415   59.664
  544.000    5.100    0.241    0.396   43.274
  544.250    4.735    0.239    0.392   47.533
  544.500    4.315    0.229    0.393   53.006
  544.750    4.235    0.253    0.423   56.048
  545.000    3.932    0.237    0.449   53.019
  545.250    3.859    0.229    0.417   45.131
  545.500    3.718    0.225    0.421   37.851
  545.750    3.582    0.274    0.426   30.570
  546.000    3.387    0.324    0.429   26.933
  546.250    3.204    0.338    0.404   26.335
  546.500    3.087    0.351    0.405   26.339
  546.750    3.029    0.342    0.421   26.345
  547.000    2.918    0.324    0.394   29.998
  547.250    2.760    0.282    0.357   35.471
  547.500    3.083    0.243    0.347   42.156
  547.750    3.706    0.211    0.336   63.419
  548.000    4.064    0.178    0.342   76.786
  548.250    4.539    0.153    0.356   75.580
  548.500    5.457    0.145    0.366   69.513
  548.750    6.208    0.141    0.362   64.662
  549.000    6.560    0.159    0.351   64.668
  549.250    6.932    0.180    0.346   71.357
  549.500    6.929    0.167    0.349   73.791
  549.750    6.800    0.170    0.359   75.620
  550.000    6.798    0.145    0.380   75.627
  550.250    6.796    0.144    0.388   73.204
  550.500    6.547    0.162    0.377   69.569
  550.750    6.307    0.182    0.355   64.109
  551.000    6.190    0.183    0.346   55.006
  551.250    5.964    0.189    0.358   45.296
  551.500    5.435    0.214    0.421   41.054
  551.750    5.046    0.266    0.425   38.630
  552.000    4.686    0.300    0.423   36.815
  552.250    3.684    0.295    0.419   35.001
  552.500    3.358    0.297    0.421   33.795
  552.750    3.061    0.300    0.421   33.799
  553.000    2.842    0.302    0.416   34.413
  553.250    2.688    0.309    0.414   35.634
  553.500    2.542    0.320    0.417   35.035
  553.750    2.495    0.331    0.447   34.434
  554.000    2.449    0.337    0.454   34.440
  554.250    2.403    0.327    0.441   35.663
  554.500    2.447    0.331    0.420   39.313
  554.750    2.634    0.326    0.407   42.965
  555.000    2.682    0.329    0.413   43.580
  555.250    2.632    0.336    0.463   43.586
  555.500    2.631    0.333    0.466   42.378
  555.750    2.630    0.314    0.446   35.703
  556.000    2.629    0.319    0.440   27.815
  556.250    2.580    0.317    0.412   23.571
  556.500    2.396    0.303    0.406   29.045
  556.750    2.351    0.296    0.401   36.948
  557.000    2.265    0.259    0.393   42.419
  557.250    2.625    0.234    0.364   44.854
