~VERSION INFORMATION
 VERS.                 2.0:   CWLS LOG ASCII STANDARD -VERSION 2.0
 WRAP.                  NO:   ONE LINE PER DEPTH STEP
~WELL INFORMATION BLOCK
#MNEM.UNIT           DATA                    DESCRIPTION OF MNEMONIC
#---------    -------------------            -------------------------------
# Generated from Intellog Unique Number	CW_76_78/WELL/994
WELL.         11-06-076-22W4                 : Well_name    - WELL
LOC .         00/11-06-076-22W4/0            : Location     - LOCATION
UWI .         00/11-06-076-22W4/0            : Uwi          - UNIQUE WELL ID
ENTR.         JAYE                           : Entered      - ENTERED BY
SRVC.         SCHLUMBERGER                   : Scn          - SERVICE COMPANY
DATE.         19 DEC 72                      : Date         - LOG DATE
STRT.M        405.384                        : top_depth    - START DEPTH
STOP.M        643.134                        : bot_depth    - STOP DEPTH
STEP.M        0.25                           : increment    - STEP LENGTH
 NULL. -999.2500:NULL Value
~CURVE INFORMATION BLOCK
#MNEM UNIT       ERCB CURVE CODE    CURVE DESCRIPTION
#-----------   ------------------   ----------------------------------
DEPT.M        00 001 00 00         : DEPTH        - DEPTH
ILD .OHMM     00 120 00 00         : RESD         - DEEP RESISTIVITY (DIL)
NPHI.V/V      00 330 00 00         : PHIN         - NEUTRON POROSITY (SANDSTONE)
DPHI.V/V      00 890 00 00         : PHID         - DENSITY POROSITY (SANDSTONE)
GR  .API      00 310 00 00         : GR           - GAMMA RAY
CALI.MM       00 280 01 00         : CAL          - CALIPER
~PARAMETER INFORMATION
#MNEM.UNIT           DATA             DESCRIPTION OF MNEMONIC
#---------         -----------     ------------------------------
GL  .M        697.809              : gl           - GROUND LEVEL ELEVATION
EREF.M        701.04               : kb           - ELEVATION OF DEPTH REFERENCE
DATM.M        697.809              : datum        - DATUM ELEVATION
TDD .M        644.957              : tdd          - TOTAL DEPTH DRILLER
RUN .         ONE                  : Run          - RUN NUMBER
MATR.         SANDSTONE            : Logunit      - NEUTRON MATRIX
TMAX.C        30                   : BHT          - MAXIMUM RECORDED TEMPERATURE
BHTD.M        644.957              : BHTDEP       - MAXIMUM RECORDED TEMPERATURE
RMT .C        17.7778              : MDTP         - TEMPERATURE OF MUD
MUDD.KG/M     0                    : MWT          - MUD DENSITY
NEUT.         1                    : NEUTRON      - NEUTRON TYPE
RESI.         0                    : RESIST       - RESISTIVITY TYPE
RM  .OHMM     2.33                 : RM           - RESISTIVITY OF MUD
RMC .OHMM     0                    : RMC          - RESISTIVITY OF MUD CAKE
RMF .OHMM     2.71                 : RMF          - RESISTIVITY OF MUD FILTRATE
SUFT.C        -17.7778             : SUFT         - SURFACE TEMPERATURE
~A  DEPTH     RESD     PHIN     PHID       GR      CAL
# ...
  441.884    2.698    0.591    0.218  116.248  232.361
  442.134    3.105    0.562    0.229  113.180  234.372
  442.384    3.586    0.529    0.222  106.109  237.106
  442.634    4.134    0.518    0.203  101.885  241.481
  442.884    5.007    0.528    0.180   96.269  244.525
  443.134    5.836    0.486    0.185   93.569  241.494
  443.384    6.322    0.504    0.196   92.388  236.202
  443.634    6.874    0.450    0.190   90.722  228.960
  443.884    7.541    0.421    0.207   87.290  225.515
  444.134    7.963    0.453    0.279   80.882  222.999
  444.384    8.547    0.475    0.312   68.820  220.286
  444.634    8.957    0.442    0.339   58.220  218.483
  444.884    8.869    0.428    0.319   48.956  216.690
  445.134    8.656    0.443    0.322   48.201  215.924
  445.384    8.247    0.442    0.318   48.480  217.834
  445.634    8.004    0.467    0.308   49.909  219.133
  445.884    7.599    0.481    0.302   53.895  219.911
  446.134    7.057    0.449    0.309   57.575  220.584
  446.384    6.518    0.475    0.293   61.015  221.258
  446.634    6.212    0.511    0.274   64.818  222.244
  446.884    5.865    0.545    0.235   72.204  223.330
  447.134    5.446    0.510    0.302   73.213  224.315
  447.384    5.068    0.463    0.263   69.598  225.720
  447.634    4.366    0.448    0.232   74.799  226.697
  447.884    3.680    0.532    0.210   83.040  228.408
  448.134    3.096    0.585    0.201   86.414  229.693
  448.384    2.787    0.594    0.223   86.696  231.093
  448.634    2.889    0.579    0.220   85.940  230.532
  448.884    3.455    0.598    0.221   91.320  226.792
  449.134    4.620    0.618    0.227   87.467  224.266
  449.384    5.934    0.587    0.239   77.896  222.164
  449.634    6.440    0.566    0.302   70.152  221.203
  449.884    6.507    0.492    0.311   60.582  221.254
  450.134    6.467    0.489    0.320   51.868  221.621
  450.384    6.162    0.508    0.300   57.189  222.091
  450.634    5.744    0.461    0.281   62.146  223.085
  450.884    5.276    0.435    0.261   65.524  224.074
  451.134    4.927    0.421    0.244   68.231  224.731
  451.384    4.576    0.461    0.235   71.609  225.925
  451.634    4.258    0.476    0.238   75.840  227.217
  451.884    4.035    0.484    0.239   79.152  228.615
  452.134    3.880    0.492    0.235   82.590  229.396
  452.384    3.800    0.505    0.228   86.514  230.586
  452.634    3.784    0.526    0.225   84.543  232.500
  452.884    3.816    0.543    0.233   80.566  233.792
  453.134    3.849    0.519    0.228   81.452  234.460
  453.384    3.939    0.527    0.214   83.797  234.522
  453.634    4.113    0.552    0.203   86.325  232.630
  453.884    4.431    0.566    0.213   87.147  229.804
  454.134    4.635    0.578    0.223   84.568  227.599
  454.384    4.770    0.524    0.230   81.440  226.114
  454.634    4.838    0.500    0.243   75.340  225.240
  454.884    4.915    0.489    0.238   73.245  224.491
  455.134    5.012    0.514    0.256   73.951  224.229
  455.384    5.064    0.532    0.236   75.745  224.287
  455.634    5.079    0.536    0.227   79.610  224.358
  455.884    5.085    0.538    0.245   79.582  224.404
  456.134    5.082    0.500    0.256   75.363  224.770
  456.384    5.032    0.482    0.258   74.611  225.238
  456.634    4.946    0.511    0.236   74.520  226.128
  456.884    4.783    0.519    0.230   74.796  226.587
  457.134    4.600    0.510    0.248   76.169  227.269
  457.384    4.358    0.487    0.222   80.032  228.057
  457.634    4.161    0.500    0.206   85.537  228.619
  457.884    4.023    0.499    0.208   88.911  229.296
  458.134    3.969    0.501    0.217   84.510  230.176
  458.384    3.945    0.536    0.238   80.594  230.647
  458.634    3.950    0.526    0.250   75.949  230.502
  458.884    4.027    0.545    0.228   75.864  229.743
  459.134    4.114    0.528    0.219   77.720  229.176
  459.384    4.250    0.511    0.240   77.388  228.509
  459.634    4.405    0.510    0.254   75.359  227.438
  459.884    4.592    0.586    0.271   72.597  226.676
  460.134    4.830    0.621    0.302   68.743  225.808
  460.384    5.166    0.490    0.294   61.056  225.455
  460.634    5.306    0.452    0.295   57.505  224.794
  460.884    5.225    0.432    0.290   56.263  224.329
  461.134    5.089    0.418    0.308   57.392  224.181
  461.384    4.921    0.411    0.284   58.644  225.888
  461.634    4.759    0.475    0.241   60.321  227.284
  461.884    4.704    0.492    0.208   63.998  228.063
  462.134    4.761    0.480    0.234   68.590  228.434
  462.384    4.972    0.482    0.246   66.315  228.797
  462.634    5.268    0.494    0.254   61.855  229.272
  462.884    5.583    0.513    0.257   63.590  229.331
  463.134    5.916    0.549    0.271   67.269  229.797
  463.384    6.043    0.594    0.286   69.978  229.337
  463.634    5.985    0.537    0.295   69.831  228.573
  463.884    5.661    0.480    0.297   70.229  228.121
  464.134    5.200    0.453    0.282   74.700  228.483
  464.384    4.785    0.488    0.238   80.994  230.497
  464.634    4.502    0.510    0.198   85.103  234.269
  464.884    4.235    0.505    0.208   88.237  236.488
  465.134    4.057    0.495    0.185   90.032  238.292
  465.384    4.025    0.497    0.190   90.067  240.197
  465.634    4.097    0.554    0.189   91.020  240.158
  465.884    4.239    0.557    0.195   92.688  239.286
  466.134    4.427    0.571    0.226   93.695  241.512
  466.384    4.761    0.544    0.238   89.174  246.711
  466.634    5.262    0.544    0.212   86.230  247.502
  466.884    6.385    0.553    0.229   84.014  241.578
  467.134    7.664    0.522    0.250   76.146  235.461
  467.384    9.386    0.449    0.282   61.717  226.773
  467.634   10.683    0.315    0.228   56.038  223.433
  467.884   10.813    0.261    0.152   49.570  221.742
  468.134    9.988    0.231    0.113   46.929  221.802
  468.384    8.699    0.290    0.067   49.395  222.477
  468.634    7.746    0.412    0.182   56.604  223.567
  468.884    6.834    0.494    0.235   61.500  225.270
  469.134    6.119    0.511    0.280   65.301  226.364
  469.384    5.359    0.511    0.262   67.829  227.349
  469.634    4.755    0.535    0.216   69.808  229.163
  469.884    4.320    0.535    0.212   71.361  230.758
  470.134    4.005    0.516    0.221   73.279  232.562
  470.384    3.658    0.564    0.228   75.502  233.649
  470.634    3.361    0.628    0.254   75.960  234.223
  470.884    3.037    0.593    0.250   74.597  236.441
  471.134    2.805    0.571    0.252   75.423  241.956
  471.384    2.788    0.617    0.246   80.258  247.668
  471.634    2.986    0.598    0.258   85.642  242.485
  471.884    3.481    0.606    0.270   87.072  236.363
  472.134    4.117    0.620    0.270   83.886  231.791
  472.384    4.870    0.608    0.258   82.582  228.457
  472.634    5.422    0.574    0.239   81.037  226.154
  472.884    5.399    0.486    0.254   76.456  225.075
  473.134    5.192    0.463    0.324   69.863  225.134
  473.384    5.039    0.452    0.327   59.260  225.497
  473.634    4.863    0.463    0.314   55.224  225.863
  473.884    4.789    0.499    0.307   54.590  226.033
  474.134    4.682    0.479    0.317   54.624  225.674
  474.384    4.594    0.483    0.327   54.726  224.299
  474.634    4.523    0.471    0.318   54.937  223.325
  474.884    4.472    0.515    0.312   55.338  222.362
  475.134    4.404    0.497    0.316   55.307  221.793
  475.384    4.329    0.477    0.330   54.861  221.336
  475.634    4.302    0.539    0.314   54.587  221.189
  475.884    4.299    0.543    0.323   54.382  221.451
  476.134    4.344    0.514    0.341   54.599  221.607
  476.384    4.381    0.487    0.328   54.628  222.595
  476.634    4.435    0.458    0.336   54.545  223.384
  476.884    4.481    0.471    0.340   54.644  224.049
  477.134    4.519    0.473    0.323   55.279  224.928
  477.384    4.558    0.471    0.314   57.865  225.712
  477.634    4.622    0.494    0.318   61.428  226.182
  477.884    4.800    0.507    0.326   63.102  225.825
  478.134    5.059    0.438    0.323   64.291  225.066
