~VERSION INFORMATION
 VERS.                 2.0:   CWLS LOG ASCII STANDARD -VERSION 2.0
 WRAP.                  NO:   ONE LINE PER DEPTH STEP
~WELL INFORMATION BLOCK
#MNEM.UNIT           DATA                    DESCRIPTION OF MNEMONIC
#---------    -------------------            -------------------------------
# Generated from Intellog Unique Number	CC_84_87/WELL/1184
NULL.         -999.25                        : NULL_VALUE
WELL.         PCI PCEJ HANGST                : Well_name    - WELL              
LOC .         10-08-084-09W4                 : Location     - LOCATION          
UWI .         00/10-08-084-09W400            : Uwi          - UNIQUE WELL ID    
ENTR.         RJA                            : Entered      - ENTERED BY        
SRVC.         SCHLUMBERGER                   : Scn          - SERVICE COMPANY   
DATE.         17 MAR 85                      : Date         - LOG DATE
STRT.M        175                            : top_depth    - START DEPTH       
STOP.M        475.892                        : bot_depth    - STOP DEPTH        
STEP.M        0.3                            : increment    - STEP LENGTH       
~CURVE INFORMATION BLOCK
#MNEM UNIT       ERCB CURVE CODE    CURVE DESCRIPTION
#-----------   ------------------   ----------------------------------
DEPT.M        00 001 00 00         : DEPTH        - DEPTH                       
DPHI.V/V      00 890 00 00         : PHID         - DENSITY POROSITY (LIMESTONE)
NPHI.V/V      00 330 00 00         : PHIN         - NEUTRON POROSITY (LIMESTONE)
GR  .API      00 310 00 00         : GR           - GAMMA RAY                   
ILD .OHMM     00 120 00 00         : RESD         - DEEP RESISTIVITY (DIL)      
~PARAMETER INFORMATION       
#MNEM.UNIT           DATA             DESCRIPTION OF MNEMONIC
#---------         -----------     ------------------------------
GL  .M        716.37               : gl           - GROUND LEVEL ELEVATION      
EREF.M        719.37               : kb           - ELEVATION OF DEPTH REFERENCE
DATM.M        719.37               : datum        - DATUM ELEVATION             
TDD .M        488                  : tdd          - TOTAL DEPTH DRILLER         
RUN .         ONE                  : Run          - RUN NUMBER                  
ENG .         BILL                 : Engineer     - RECORDING ENGINEER          
WIT .         JIM                  : Witness      - WITNESSED BY                
MUD .         GEL                  : Mud_type     - MUD TYPE                    
MATR.         LIMESTONE            : Logunit      - NEUTRON MATRIX              
TMAX.C        19                   : BHT          - MAXIMUM RECORDED TEMPERATURE
BHTD.M        488                  : BHTDEP       - MAXIMUM RECORDED TEMPERATURE
MATR.         1                    : LOGUNIT      - NEUTRON MATRIX              
RMT .C        25                   : MDTP         - TEMPERATURE OF MUD          
NEUT.         1                    : NEUTRON      - NEUTRON TYPE                
RESI.         0                    : RESIST       - RESISTIVITY TYPE            
RMC .OHMM     0.25                 : RMC          - RESISTIVITY OF MUD CAKE     
RMF .OHMM     0.25                 : RMF          - RESISTIVITY OF MUD FILTRATE 
SUFT.C        4                    : SUFT         - SURFACE TEMPERATURE         
~A  DEPTH     PHID     PHIN       GR     RESD
# ...
  435.993    0.316    0.353   74.023   15.463
  436.293    0.290    0.360   75.797   14.609
  436.593    0.285    0.400   67.287   14.065
  436.893    0.301    0.419   59.378   13.290
  437.193    0.340    0.395   53.291   11.873
  437.493    0.331    0.339   65.335   11.431
  437.793    0.279    0.346   75.565   10.803
  438.093    0.283    0.398   68.860   10.020
  438.393    0.300    0.381   63.370    9.466
  438.693    0.294    0.351   66.962    9.285
  438.993    0.273    0.367   73.561    9.110
  439.293    0.274    0.390   75.939    9.447
  439.593    0.268    0.360   84.958    9.801
  439.893    0.256    0.374   84.306    9.972
  440.193    0.256    0.395   83.048    9.969
  440.493    0.211    0.349   86.632    9.779
  440.793    0.180    0.351   92.630    8.738
  441.093    0.186    0.362   98.030    7.807
  441.393    0.212    0.370  102.812    7.107
  441.693    0.172    0.426   97.308    6.349
  441.993    0.147    0.488   99.094    6.113
  442.293    0.189    0.496  106.906    6.111
  442.593    0.218    0.454  106.262    7.495
  442.893    0.235    0.460   90.488   10.284
  443.193    0.273    0.463   81.381   14.374
  443.493    0.316    0.441   68.641   18.646
  443.793    0.267    0.381   67.380   19.339
  444.093    0.256    0.376   77.615   17.936
  444.393    0.245    0.375   83.609   15.726
  444.693    0.213    0.369   76.316   14.865
  444.993    0.228    0.352   63.556   14.853
  445.293    0.264    0.350   60.504   15.121
  445.593    0.239    0.353   68.917   14.834
  445.893    0.226    0.347   81.556   13.755
  446.193    0.212    0.347   80.312   13.495
  446.493    0.218    0.357   67.556   14.258
  446.793    0.264    0.352   61.483   15.352
  447.093    0.264    0.333   52.359   17.479
  447.393    0.238    0.318   49.894   18.822
  447.693    0.238    0.332   54.088   21.833
  447.993    0.273    0.376   61.283   25.320
  448.293    0.282    0.415   64.270   25.785
  448.593    0.293    0.419   57.567   23.916
  448.893    0.316    0.421   57.530   20.973
  449.193    0.289    0.397   70.173   18.050
  449.493    0.266    0.382   74.346   16.436
  449.793    0.264    0.373   74.920   14.414
  450.093    0.258    0.353   78.488   12.409
  450.393    0.228    0.338   92.960   10.881
  450.693    0.190    0.340   95.338   10.094
  450.993    0.187    0.350   95.291    9.361
  451.293    0.198    0.362   97.056    8.846
  451.593    0.194    0.371  109.706    8.205
  451.893    0.192    0.371  110.859    7.609
  452.193    0.190    0.433  105.379    7.190
  452.493    0.193    0.457   98.080    7.186
  452.793    0.189    0.398  102.259    7.594
  453.093    0.180    0.352   97.378    7.874
  453.393    0.186    0.356   92.496    8.019
  453.693    0.185    0.388  100.918    7.720
  453.993    0.172    0.393  103.885    7.430
  454.293    0.172    0.403  102.035    7.428
  454.593    0.148    0.420  103.196    7.562
  454.893    0.148    0.430  100.737    7.991
  455.193    0.177    0.391   86.776    8.603
  455.493    0.200    0.390   78.862    9.615
  455.793    0.218    0.399   74.597   10.546
  456.093    0.215    0.404   74.551   11.145
  456.393    0.211    0.381   79.949   11.346
  456.693    0.186    0.378   80.488   10.923
  456.993    0.213    0.382   79.849   10.517
  457.293    0.231    0.399   81.019   10.125
  457.593    0.225    0.413   89.433    9.567
  457.893    0.169    0.376   98.455    9.037
  458.193    0.154    0.369  104.449    8.866
  458.493    0.160    0.374  101.980    9.195
  458.793    0.154    0.395   95.901   10.666
  459.093    0.138    0.406   83.158   11.487
  459.393    0.141    0.401   72.836   13.573
  459.693    0.245    0.341   71.574   14.345
  459.993    0.257    0.352   72.745   14.330
  460.293    0.261    0.372   69.671   13.542
  460.592    0.240    0.382   73.854   12.800
  460.892    0.208    0.357   81.049   12.096
  461.192    0.203    0.352   81.023   11.863
  461.492    0.210    0.362   76.141   12.303
  461.792    0.227    0.364   69.445   13.001
  462.092    0.232    0.351   69.387   13.239
  462.392    0.242    0.348   71.763   13.990
  462.692    0.252    0.377   72.330   14.780
  462.992    0.247    0.395   70.457   14.774
  463.292    0.256    0.389   72.839   15.037
  463.592    0.252    0.383   70.981   15.031
  463.892    0.282    0.394   66.703   15.018
  464.192    0.280    0.392   73.303   15.008
  464.492    0.245    0.342   70.818   14.998
  464.792    0.248    0.351   67.759   13.908
  465.092    0.261    0.374   65.914   12.664
  465.392    0.256    0.354   76.744   11.965
  465.692    0.186    0.353   86.371   11.735
  465.992    0.191    0.366   85.102   11.949
  466.292    0.200    0.381   82.052   12.864
  466.592    0.248    0.373   74.141   13.596
  466.892    0.236    0.359   69.852   15.188
  467.192    0.246    0.354   64.364   16.052
  467.492    0.252    0.374   66.139   16.348
  467.792    0.294    0.450   69.728   16.642
  468.092    0.300    0.475   64.221   16.629
  468.392    0.266    0.435   61.778   16.009
  468.692    0.243    0.395   69.588   15.412
  468.992    0.250    0.393   68.935   15.401
  469.292    0.269    0.404   61.027   15.681
  469.592    0.301    0.419   63.996   16.571
  469.892    0.268    0.410   68.801   15.949
  470.192    0.253    0.378   63.905   15.649
  470.492    0.272    0.394   59.032   16.229
  470.792    0.270    0.372   68.651   17.149
  471.092    0.253    0.382   69.210   17.791
  471.392    0.276    0.402   59.495   18.796
  471.692    0.316    0.417   53.411   19.501
  471.992    0.334    0.412   57.593   19.488
  472.292    0.308    0.387   61.171   15.863
  472.592    0.270    0.364   63.548   12.439
  472.892    0.167    0.358   58.642   10.911
  473.192    0.184    0.363   58.013    9.219
  473.492    0.195    0.381   61.584    9.924
  473.792    0.000    0.363   58.517   10.885
  474.092    0.016    0.273   54.245   12.393
  474.392    0.031    0.262   52.376   14.924
  474.692    0.034    0.282   52.324   16.994
  474.992    0.031    0.297   52.284   18.298
  475.292    0.031    0.299   52.244   19.699
  475.592    0.000    0.291   51.594   20.816
  475.892    0.000    0.280   51.552   21.190
