~VERSION INFORMATION
 VERS.                 2.0:   CWLS LOG ASCII STANDARD -VERSION 2.0
 WRAP.                  NO:   ONE LINE PER DEPTH STEP
~WELL INFORMATION BLOCK
#MNEM.UNIT           DATA                    DESCRIPTION OF MNEMONIC
#---------    -------------------            -------------------------------
# Generated from Intellog Unique Number	CN_91_93/WELL/1168
WELL.         COSEKA RESOURCES LTD.          : Well_name    - WELL
LOC .         00/11-13-091-21W4/0            : Location     - LOCATION
UWI .         00/11-13-091-21W4/0            : Uwi          - UNIQUE WELL ID
ENTR.         JOETTE                         : Entered      - ENTERED BY
SRVC.         SCHLUMBERGER                   : Scn          - SERVICE COMPANY
DATE.         01/31/92                       : Date         - LOG DATE
STRT.F        328.084                        : top_depth    - START DEPTH
STOP.F        721.785                        : bot_depth    - STOP DEPTH
STEP.F        0.82                           : increment    - STEP LENGTH
 NULL. -999.2500:NULL Value
~CURVE INFORMATION BLOCK
#MNEM UNIT       ERCB CURVE CODE    CURVE DESCRIPTION
#-----------   ------------------   ----------------------------------
DEPT.F        00 001 00 00         : DEPTH        - DEPTH
ILD .OHMM     00 120 00 00         : RESD         - DEEP RESISTIVITY (DIL)
DPHI.V/V      00 890 00 00         : PHID         - DENSITY POROSITY (SANDSTONE)
NPHI.V/V      00 330 00 00         : PHIN         - NEUTRON POROSITY (SANDSTONE)
GR  .API      00 310 00 00         : GR           - GAMMA RAY
~PARAMETER INFORMATION
#MNEM.UNIT           DATA             DESCRIPTION OF MNEMONIC
#---------         -----------     ------------------------------
GL  .F        1683.79              : gl           - GROUND LEVEL ELEVATION
EREF.F        1693.64              : kb           - ELEVATION OF DEPTH REFERENCE
DATM.F        1693.64              : datum        - DATUM ELEVATION
TDD .F        739.173              : tdd          - TOTAL DEPTH DRILLER
RUN .         ONE                  : Run          - RUN NUMBER
ENG .         BILL                 : Engineer     - RECORDING ENGINEER
WIT .         JIM                  : Witness      - WITNESSED BY
MUD .         GEL                  : Mud_type     - MUD TYPE
MATR.         SANDSTONE            : Logunit      - NEUTRON MATRIX
TMAX.F        73.4                 : BHT          - MAXIMUM RECORDED TEMPERATURE
BHTD.F        739.173              : BHTDEP       - MAXIMUM RECORDED TEMPERATURE
RMT .F        47                   : MDTP         - TEMPERATURE OF MUD
MUDD.LB/G     8.83333              : MWT          - MUD DENSITY
NEUT.         1                    : NEUTRON      - NEUTRON TYPE
RESI.         0                    : RESIST       - RESISTIVITY TYPE
RM  .OHMM     2.8                  : RM           - RESISTIVITY OF MUD
RMC .OHMM     7.42                 : RMC          - RESISTIVITY OF MUD CAKE
RMF .OHMM     1.8                  : RMF          - RESISTIVITY OF MUD FILTRATE
SUFT.F        39.2                 : SUFT         - SURFACE TEMPERATURE
~A  DEPTH     RESD     PHID     PHIN       GR
# ...
  470.801    0.000    0.544    0.477   75.068
  471.621    0.000    0.545    0.520   83.840
  472.441    0.000    0.523    0.495   88.977
  473.261    0.000    0.273    0.491   87.450
  474.081    0.000    0.243    0.389   82.894
  474.902    0.000    0.246    0.392   72.884
  475.722   23.733    0.248    0.366   67.419
  476.542   23.038    0.221    0.337   67.708
  477.362   35.855    0.223    0.301   71.029
  478.182   37.851    0.236    0.312   76.167
  479.003   37.302    0.252    0.324   81.607
  479.823   34.864    0.257    0.335   86.439
  480.643   29.965    0.256    0.348   90.972
  481.463   28.867    0.241    0.364   96.412
  482.283   24.811    0.243    0.414  102.154
  483.104   22.837    0.253    0.404  100.931
  483.924   21.178    0.262    0.384   99.100
  484.744   23.225    0.251    0.366  102.421
  485.564   23.602    0.227    0.356  112.405
  486.385   22.909    0.223    0.364  117.843
  487.205   22.237    0.208    0.370  115.711
  488.025   20.782    0.201    0.378  105.399
  488.845   19.276    0.201    0.395   97.511
  489.665   19.437    0.206    0.405   89.017
  490.486   23.177    0.218    0.410   79.916
  491.306   28.705    0.220    0.411   75.057
  492.126   33.198    0.213    0.394   70.500
  492.946   38.394    0.220    0.306   71.701
  493.766   41.464    0.212    0.237   78.958
  494.587   41.183    0.149    0.252   84.398
  495.407   39.078    0.115    0.296   88.625
  496.227   37.360    0.113    0.365   85.886
  497.047   40.351    0.180    0.310   82.238
  497.867   41.316    0.212    0.300   82.531
  498.688   40.106    0.208    0.347   88.879
  499.508   36.914    0.158    0.386   93.411
  500.328   30.079    0.148    0.411  100.063
  501.148   20.891    0.164    0.422  104.894
  501.969   18.091    0.204    0.432  104.580
  502.789   14.630    0.231    0.413  100.932
  503.609   14.313    0.243    0.410  102.133
  504.429   15.340    0.240    0.406  109.693
  505.249   16.692    0.222    0.410  115.130
  506.070   19.013    0.171    0.408  115.424
  506.890   21.170    0.169    0.399  107.233
  507.710   22.177    0.173    0.392  104.190
  508.530   22.881    0.166    0.367  102.967
  509.350   24.152    0.163    0.357  102.041
  510.171   24.728    0.168    0.363  100.516
  510.991   24.008    0.160    0.376   98.385
  511.811   23.483    0.162    0.381   92.617
  512.631   23.681    0.180    0.364   88.665
  513.451   28.453    0.188    0.337   89.866
  514.272   29.809    0.181    0.299   97.425
  515.092   30.750    0.173    0.313   99.838
  515.912   32.455    0.161    0.338  103.460
  516.732   31.507    0.156    0.352   99.505
  517.552   30.821    0.178    0.366   97.374
  518.373   30.852    0.176    0.373   94.031
  519.193   32.317    0.175    0.425   90.078
  520.013   34.373    0.160    0.483   87.343
  520.833   35.739    0.164    0.481   85.210
  521.654   36.309    0.170    0.327   92.769
  522.474   35.790    0.172    0.304   97.605
  523.294   34.484    0.149    0.322   98.802
  524.114   33.991    0.137    0.340   93.338
  524.934   34.015    0.141    0.374   87.570
  525.755   33.525    0.190    0.379   86.346
  526.575   32.546    0.225    0.339   95.118
  527.395   30.648    0.240    0.332  101.164
  528.215   29.307    0.220    0.330  103.876
  529.035   29.105    0.182    0.357  103.258
  529.856   28.689    0.184    0.377  102.642
  530.676   27.640    0.190    0.377  101.418
  531.496   26.227    0.216    0.350  116.248
  532.316   24.703    0.222    0.344  123.505
  533.136   23.612    0.197    0.388  124.402
  533.957   21.733    0.183    0.421  117.421
  534.777   18.119    0.188    0.435  113.471
  535.597   17.588    0.198    0.467  102.856
  536.417   15.704    0.207    0.495   91.031
  537.238   14.676    0.205    0.309   74.962
  538.058   15.372    0.181    0.269   73.737
  538.878   19.629    0.185    0.293   74.935
  539.698   25.254    0.253    0.307   78.257
  540.518   33.752    0.262    0.315   85.210
  541.339   37.299    0.288    0.323   87.926
  542.159   36.480    0.284    0.322   90.034
  542.979   34.352    0.257    0.358   93.959
  543.799   30.908    0.217    0.368  105.759
  544.619   27.804    0.178    0.367  104.234
  545.440   25.012    0.178    0.361   99.676
  546.260   22.674    0.180    0.375   97.242
  547.080   20.869    0.175    0.374   89.957
  547.900   21.532    0.158    0.370   86.915
  548.720   24.713    0.172    0.328   82.967
  549.541   32.785    0.187    0.292   73.261
  550.361   35.669    0.193    0.271   69.915
  551.181   41.567    0.136    0.257   67.175
  552.001   48.088    0.087    0.246   66.557
  552.822   49.234    0.083    0.244   76.238
  553.642   52.761    0.085    0.263   84.104
  554.462   53.614    0.072    0.287   92.876
  555.282   50.105    0.068    0.291   91.651
  556.102   47.183    0.082    0.261   89.516
  556.923   47.582    0.108    0.248   87.991
  557.743   44.131    0.117    0.308   90.402
  558.563   41.553    0.114    0.325   90.402
  559.383   37.953    0.126    0.321   95.525
  560.203   32.621    0.162    0.324  100.967
  561.024   30.028    0.170    0.344  104.589
  561.844   30.513    0.167    0.357  105.484
  562.664   31.006    0.161    0.378  101.536
  563.484   30.560    0.181    0.405   97.584
  564.304   29.664    0.204    0.399   97.267
  565.125   28.798    0.234    0.368   93.924
  565.945   28.392    0.261    0.378   81.190
  566.765   27.770    0.258    0.425   70.574
  567.585   26.549    0.235    0.349   66.018
  568.406   29.787    0.218    0.280   75.094
  569.226   33.417    0.203    0.243   95.983
  570.046   35.543    0.134    0.287  102.635
  570.866   34.502    0.138    0.297  107.772
  571.686   31.760    0.171    0.292  108.668
  572.507   29.675    0.188    0.307  108.654
  573.327   27.314    0.194    0.337  106.522
  574.147   26.315    0.188    0.350  105.900
  574.967   25.941    0.181    0.336  105.900
  575.787   25.941    0.173    0.309  106.182
  576.608   26.177    0.153    0.315  108.290
  577.428   27.843    0.165    0.322  108.883
  578.248   31.001    0.180    0.311  104.023
  579.068   31.985    0.198    0.305  100.375
  579.888   32.011    0.215    0.311   97.031
  580.709   31.550    0.214    0.285   94.898
  581.529   32.555    0.195    0.273  102.459
  582.349   34.367    0.188    0.289  109.715
  583.169   34.388    0.141    0.321  113.339
  583.990   33.391    0.133    0.396  116.961
  584.810   32.164    0.165    0.415  113.313
  585.630   29.607    0.190    0.405  109.665
  586.450   28.088    0.179    0.355  108.443
  587.270   25.853    0.150    0.358  109.642
  588.091   30.594    0.152    0.363  110.236
  588.911   31.085    0.171    0.351  108.709
  589.731   29.951    0.189    0.334  108.087
  590.551   28.202    0.169    0.317  108.682
  591.371   27.588    0.149    0.343  110.488
  592.192   26.989    0.147    0.366  113.201
  593.012   26.401    0.150    0.385  115.611
  593.832   25.821    0.174    0.394  117.417
  594.652   25.452    0.186    0.369  114.982
  595.472   25.284    0.188    0.327  107.700
  596.293   25.299    0.185    0.311  100.717
  597.113   26.302    0.179    0.274   96.163
  597.933   29.061    0.140    0.279   92.213
  598.753   33.867    0.155    0.312   90.989
  599.573   38.580    0.168    0.294   94.005
  600.394   42.303    0.182    0.282  102.777
  601.214   45.681    0.244    0.303  113.064
  602.034   47.859    0.238    0.310  112.446
  602.854   45.073    0.230    0.330  111.828
  603.675   41.799    0.187    0.347  112.723
  604.495   38.178    0.192    0.332  115.133
  605.315   36.226    0.196    0.321  118.455
  606.135   35.165    0.193    0.323  119.351
  606.955   33.886    0.185    0.343  116.914
  607.776   33.394    0.180    0.348  114.172
  608.596   32.419    0.176    0.315  112.647
  609.416   31.713    0.170    0.317  111.727
  610.236   31.025    0.163    0.355  114.743
  611.056   30.116    0.167    0.366  117.759
  611.877   33.275    0.177    0.360  118.050
  612.697   32.554    0.186    0.378  119.552
