~VERSION INFORMATION
 VERS.                 2.0:   CWLS LOG ASCII STANDARD -VERSION 2.0
 WRAP.                  NO:   ONE LINE PER DEPTH STEP
~WELL INFORMATION BLOCK
#MNEM.UNIT           DATA                    DESCRIPTION OF MNEMONIC
#---------    -------------------            -------------------------------
# Generated from Intellog Unique Number	CS_77_79/WELL/961
WELL.         PCI PCEJ CHARD                 : Well_name    - WELL
LOC .         00/10-25-079-07W4/0            : Location     - LOCATION
UWI .         00/10-25-079-07W4/0            : Uwi          - UNIQUE WELL ID
ENTR.         JHS                            : Entered      - ENTERED BY
SRVC.         SCHLUMBERGER                   : Scn          - SERVICE COMPANY
STRT.M        125                            : top_depth    - START DEPTH
STOP.M        365                            : bot_depth    - STOP DEPTH
STEP.M        0.25                           : increment    - STEP LENGTH
 NULL. -999.2500:NULL Value
~CURVE INFORMATION BLOCK
#MNEM UNIT       ERCB CURVE CODE    CURVE DESCRIPTION
#-----------   ------------------   ----------------------------------
DEPT.M        00 001 00 00         : DEPTH        - DEPTH
DPHI.V/V      00 890 00 00         : PHID         - DENSITY POROSITY (LIMESTONE)
NPHI.V/V      00 330 00 00         : PHIN         - NEUTRON POROSITY (LIMESTONE)
GR  .API      00 310 00 00         : GR           - GAMMA RAY
ILD .OHMM     00 120 00 00         : RESD         - DEEP RESISTIVITY (DIL)
RHOB.KG/M3    00 350 00 00         : DENS         - BULK DENSITY
~PARAMETER INFORMATION
#MNEM.UNIT           DATA             DESCRIPTION OF MNEMONIC
#---------         -----------     ------------------------------
GL  .M        565.7                : gl           - GROUND LEVEL ELEVATION
EREF.M        569.4                : kb           - ELEVATION OF DEPTH REFERENCE
DATM.M        569.4                : datum        - DATUM ELEVATION
TDD .M        391                  : tdd          - TOTAL DEPTH DRILLER
RUN .         ONE                  : Run          - RUN NUMBER
ENG .         BILL                 : Engineer     - RECORDING ENGINEER
WIT .         JIM                  : Witness      - WITNESSED BY
MUD .         GEL                  : Mud_type     - MUD TYPE
MATR.         LIMESTONE            : Logunit      - NEUTRON MATRIX
TMAX.C        19                   : BHT          - MAXIMUM RECORDED TEMPERATURE
BHTD.M        391                  : BHTDEP       - MAXIMUM RECORDED TEMPERATURE
MATR.         1                    : LOGUNIT      - NEUTRON MATRIX
RMT .C        25                   : MDTP         - TEMPERATURE OF MUD
NEUT.         1                    : NEUTRON      - NEUTRON TYPE
RESI.         0                    : RESIST       - RESISTIVITY TYPE
RMC .OHMM     0.25                 : RMC          - RESISTIVITY OF MUD CAKE
RMF .OHMM     0.25                 : RMF          - RESISTIVITY OF MUD FILTRATE
SUFT.C        15                   : SUFT         - SURFACE TEMPERATURE
~A  DEPTH     PHID     PHIN       GR     RESD     DENS
# ...
  198.000    0.330    0.410   53.730   26.137    0.000
  198.250    0.340    0.419   53.732   26.663    0.000
  198.500    0.357    0.400   48.693   26.680    0.000
  198.750    0.372    0.385   50.586   27.217    0.000
  199.000    0.386    0.390   48.698   27.772    0.000
  199.250    0.395    0.454   49.961   28.876    0.000
  199.500    0.364    0.449   51.854   30.021    0.000
  199.750    0.356    0.412   48.706   30.041    0.000
  200.000    0.356    0.390   46.188   30.646    0.000
  200.250    0.350    0.382   46.821   31.268    0.000
  200.500    0.340    0.381   49.974   31.897    0.000
  200.750    0.346    0.389   56.280   33.158    0.000
  201.000    0.366    0.399   59.434   33.828    0.000
  201.250    0.359    0.419   60.066   33.862    0.000
  201.500    0.345    0.406   59.439   33.883    0.000
  201.750    0.349    0.400   55.031   32.658    0.000
  202.000    0.352    0.394   53.142   31.485    0.000
  202.250    0.356    0.396   55.666   30.929    0.000
  202.500    0.357    0.410   54.408   30.948    0.000
  202.750    0.362    0.420   52.520   30.984    0.000
  203.000    0.362    0.424   50.002   31.019    0.000
  203.250    0.351    0.411   48.744   30.473    0.000
  203.500    0.347    0.400   50.638   29.928    0.000
  203.750    0.358    0.401   52.531   28.308    0.000
  204.000    0.357    0.391   50.642   27.806    0.000
  204.250    0.356    0.380   46.864   27.309    0.000
  204.500    0.361    0.381   48.758   27.327    0.000
  204.750    0.366    0.409   52.542   27.369    0.000
  205.000    0.366    0.444   54.435   26.869    0.000
  205.250    0.358    0.435   56.328   26.396    0.000
  205.500    0.352    0.410   56.331   26.417    0.000
  205.750    0.352    0.395   51.291   26.450    0.000
  206.000    0.365    0.386   51.295   26.979    0.000
  206.250    0.366    0.419   58.860   28.045    0.000
  206.500    0.367    0.437   58.862   28.072    0.000
  206.750    0.366    0.427   57.605   27.582    0.000
  207.000    0.365    0.422   58.868   26.579    0.000
  207.250    0.366    0.474   56.350   26.108    0.000
  207.500    0.365    0.470   52.571   25.652    0.000
  207.750    0.362    0.449   55.095   25.666    0.000
  208.000    0.352    0.441   53.206   25.219    0.000
  208.250    0.353    0.434   55.730   25.249    0.000
  208.500    0.368    0.424   55.103   25.263    0.000
  208.750    0.371    0.406   53.845   25.301    0.000
  209.000    0.368    0.415   56.369   25.314    0.000
  209.250    0.366    0.452   55.742   25.342    0.000
  209.500    0.365    0.459   53.853   25.850    0.000
  209.750    0.367    0.433   51.966   25.883    0.000
  210.000    0.370    0.417   50.708   26.398    0.000
  210.250    0.370    0.413   50.710   26.425    0.000
  210.500    0.368    0.452   51.343   26.959    0.000
  210.750    0.365    0.436   55.127   26.982    0.000
  211.000    0.362    0.421   55.130   26.502    0.000
  211.250    0.366    0.413   52.611   27.041    0.000
  211.500    0.356    0.438   54.505   27.069    0.000
  211.750    0.355    0.430   55.138   27.088    0.000
  212.000    0.367    0.415   54.510   27.120    0.000
  212.250    0.372    0.406   52.622   27.669    0.000
  212.500    0.377    0.422   53.255   27.702    0.000
  212.750    0.371    0.436   51.997   28.243    0.000
  213.000    0.361    0.433   49.479   28.815    0.000
  213.250    0.358    0.426   51.373   29.404    0.000
  213.500    0.367    0.417   53.266   29.426    0.000
  213.750    0.372    0.412   53.899   30.019    0.000
  214.000    0.372    0.416   50.751   30.621    0.000
  214.250    0.373    0.465   50.122   31.239    0.000
  214.500    0.374    0.460   52.017   31.272    0.000
  214.750    0.377    0.442   53.909   30.712    0.000
  215.000    0.384    0.441   51.392   30.177    0.000
  215.250    0.377    0.427   50.764   30.195    0.000
  215.500    0.373    0.431   54.548   29.106    0.000
  215.750    0.373    0.448   57.072   28.592    0.000
  216.000    0.368    0.452   53.924   28.081    0.000
  216.250    0.369    0.440   48.254   27.065    0.000
  216.500    0.372    0.441   48.886   26.590    0.000
  216.750    0.363    0.451   48.259   26.110    0.000
  217.000    0.353    0.427   47.001   26.141    0.000
  217.250    0.354    0.414   48.894   25.680    0.000
  217.500    0.347    0.402   50.788   25.699    0.000
  217.750    0.336    0.397   51.421   25.725    0.000
  218.000    0.331    0.416   53.316   25.760    0.000
  218.250    0.347    0.431   54.578   25.779    0.000
  218.500    0.351    0.439   57.102   25.799    0.000
  218.750    0.349    0.416   61.516   25.825    0.000
  219.000    0.354    0.379   67.191   25.366    0.000
  219.250    0.320    0.422   78.538   21.015    0.000
  219.500    0.290    0.470   86.734   13.107    0.000
  219.750    0.272    0.495   92.409    8.491    0.000
  220.000    0.272    0.505   94.933    5.713    0.000
  220.250    0.269    0.510   92.415    4.305    0.000
  220.500    0.258    0.528   87.376    3.775    0.000
  220.750    0.258    0.556   84.227    3.640    0.000
  221.000    0.282    0.568   74.776    3.782    0.000
  221.250    0.300    0.532   71.627    4.323    0.000
  221.500    0.314    0.508   69.739    5.130    0.000
  221.750    0.303    0.506   67.221    6.205    0.000
  222.000    0.292    0.528   64.072    6.828    0.000
  222.250    0.298    0.474   58.402    7.656    0.000
  222.500    0.260    0.432   59.035    8.917    0.000
  222.750    0.235    0.444   64.710    9.447    0.000
  223.000    0.265    0.493   65.344    9.638    0.000
  223.250    0.327    0.523   62.825    9.831    0.000
  223.500    0.330    0.452   61.567   10.414    0.000
  223.750    0.327    0.423   64.722   11.247    0.000
  224.000    0.332    0.417   66.614   11.913    0.000
  224.250    0.325    0.411   72.290   11.703    0.000
  224.500    0.315    0.419   79.855   11.068    0.000
  224.750    0.312    0.444   89.312   10.270    0.000
  225.000    0.297    0.478   91.835    8.193    0.000
  225.250    0.279    0.498   89.318    6.292    0.000
  225.500    0.254    0.503   87.429    5.020    0.000
  225.750    0.251    0.492   81.759    4.486    0.000
  226.000    0.260    0.487   84.913    4.162    0.000
  226.250    0.274    0.487   91.219    4.090    0.000
  226.500    0.273    0.522   91.852    4.093    0.000
  226.750    0.271    0.499   88.073    4.175    0.000
  227.000    0.273    0.479   92.488    4.259    0.000
  227.250    0.270    0.486   93.121    4.344    0.000
  227.500    0.266    0.511   90.602    4.348    0.000
  227.750    0.264    0.523   88.714    4.272    0.000
  228.000    0.265    0.517   86.826    4.276    0.000
  228.250    0.266    0.548   85.568    4.362    0.000
  228.500    0.270    0.513   89.353    4.710    0.000
  228.750    0.273    0.471   91.246    4.896    0.000
  229.000    0.268    0.453   91.248    5.288    0.000
  229.250    0.263    0.465   89.360    5.291    0.000
  229.500    0.261    0.498   88.103    5.101    0.000
  229.750    0.275    0.526   88.735    4.734    0.000
  230.000    0.269    0.537   86.848    4.563    0.000
  230.250    0.254    0.546   87.480    4.314    0.000
  230.500    0.260    0.553   93.155    4.081    0.000
  230.750    0.268    0.536   90.007    3.860    0.000
  231.000    0.270    0.507   81.816    3.791    0.000
  231.250    0.271    0.501   82.450    3.724    0.000
  231.500    0.266    0.512   83.082    3.658    0.000
  231.750    0.261    0.534   81.194    3.592    0.000
  232.000    0.265    0.561   84.979    3.596    0.000
  232.250    0.283    0.584   84.981    3.670    0.000
  232.500    0.289    0.581   81.202    3.672    0.000
  232.750    0.291    0.544   78.684    4.040    0.000
  233.000    0.309    0.519   78.686    4.617    0.000
  233.250    0.323    0.503   78.059    5.911    0.000
  233.500    0.321    0.482   74.911    6.755    0.000
  233.750    0.286    0.458   75.544    7.294    0.000
  234.000    0.279    0.455   75.546    7.441    0.000
  234.250    0.272    0.458   74.918    7.589    0.000
