~VERSION INFORMATION
 VERS.                 2.0:   CWLS LOG ASCII STANDARD -VERSION 2.0
 WRAP.                  NO:   ONE LINE PER DEPTH STEP
~WELL INFORMATION BLOCK
#MNEM.UNIT           DATA                    DESCRIPTION OF MNEMONIC
#---------    -------------------            -------------------------------
# Generated from Intellog Unique Number	CW_73_75/WELL/1042
WELL.         AMOCO MARTEN HILLS 83 11-19    : Well_name    - WELL
LOC .         00/11-19-075-01W5/0            : Location     - LOCATION
UWI .         00/11-19-075-01W5/0            : Uwi          - UNIQUE WELL ID
ENTR.         JAYE                           : Entered      - ENTERED BY
SRVC.         SCHLUMBERGER                   : Scn          - SERVICE COMPANY
DATE.         13 FEB 77                      : Date         - LOG DATE
STRT.M        560.832                        : top_depth    - START DEPTH
STOP.M        749.832                        : bot_depth    - STOP DEPTH
STEP.M        0.25                           : increment    - STEP LENGTH
 NULL. -999.2500:NULL Value
~CURVE INFORMATION BLOCK
#MNEM UNIT       ERCB CURVE CODE    CURVE DESCRIPTION
#-----------   ------------------   ----------------------------------
DEPT.M        00 001 00 00         : DEPTH        - DEPTH
ILD .OHMM     00 120 00 00         : RESD         - DEEP RESISTIVITY (DIL)
NPHI.V/V      00 330 00 00         : PHIN         - NEUTRON POROSITY (SANDSTONE)
DPHI.V/V      00 890 00 00         : PHID         - DENSITY POROSITY (SANDSTONE)
GR  .API      00 310 00 00         : GR           - GAMMA RAY
CALI.MM       00 280 01 00         : CAL          - CALIPER
~PARAMETER INFORMATION
#MNEM.UNIT           DATA             DESCRIPTION OF MNEMONIC
#---------         -----------     ------------------------------
GL  .M        840.791              : gl           - GROUND LEVEL ELEVATION
EREF.M        845.515              : kb           - ELEVATION OF DEPTH REFERENCE
DATM.M        840.791              : datum        - DATUM ELEVATION
TDD .M        748.223              : tdd          - TOTAL DEPTH DRILLER
RUN .         ONE                  : Run          - RUN NUMBER
ENG .         PIMM                 : Engineer     - RECORDING ENGINEER
WIT .         BRAUN                : Witness      - WITNESSED BY
BASE.         EDM                  : Branch       - HOME BASE OF LOGGING UNIT
MUD .         GEL                  : Mud_type     - MUD TYPE
MATR.         SANDSTONE            : Logunit      - NEUTRON MATRIX
TMAX.C        33.3333              : BHT          - MAXIMUM RECORDED TEMPERATURE
BHTD.M        748.284              : BHTDEP       - MAXIMUM RECORDED TEMPERATURE
RMT .C        22.2222              : MDTP         - TEMPERATURE OF MUD
MUDD.KG/M     1152                 : MWT          - MUD DENSITY
NEUT.         1                    : NEUTRON      - NEUTRON TYPE
RESI.         0                    : RESIST       - RESISTIVITY TYPE
RM  .OHMM     3.83                 : RM           - RESISTIVITY OF MUD
RMC .OHMM     0                    : RMC          - RESISTIVITY OF MUD CAKE
RMF .OHMM     0                    : RMF          - RESISTIVITY OF MUD FILTRATE
SUFT.C        -17.7778             : SUFT         - SURFACE TEMPERATURE
~A  DEPTH     RESD     PHIN     PHID       GR      CAL
# ...
  597.332    5.000    0.458    0.319   59.904  220.566
  597.582    5.043    0.389    0.337   55.871  220.263
  597.832    5.096    0.384    0.301   52.817  219.649
  598.082    5.103    0.386    0.298   50.925  218.309
  598.332    5.054    0.393    0.327   49.338  216.659
  598.582    4.959    0.404    0.354   47.324  216.459
  598.832    4.911    0.423    0.309   45.738  216.569
  599.082    5.206    0.417    0.314   44.886  216.680
  599.332    6.041    0.412    0.339   44.217  217.103
  599.582    7.517    0.414    0.318   44.588  217.109
  599.832    8.579    0.416    0.320   45.021  216.703
  600.082   10.139    0.409    0.298   45.147  216.605
  600.332   11.172    0.393    0.277   45.090  216.302
  600.582   11.459    0.399    0.242   45.157  216.102
  600.832   11.326    0.433    0.282   46.261  216.316
  601.082   10.593    0.452    0.336   50.364  216.323
  601.332   10.038    0.452    0.334   49.329  216.953
  601.582    9.528    0.424    0.332   47.315  217.582
  601.832    9.229    0.424    0.311   46.340  218.107
  602.082    8.776    0.444    0.328   45.427  218.632
  602.332    8.316    0.434    0.331   44.513  219.260
  602.582    7.664    0.431    0.321   46.291  219.889
  602.832    7.182    0.436    0.320   47.581  219.793
  603.082    6.893    0.444    0.334   48.197  218.558
  603.332    6.851    0.427    0.333   47.589  217.528
  603.582    6.937    0.420    0.303   46.125  216.707
  603.832    7.010    0.409    0.313   45.089  216.093
  604.082    7.019    0.393    0.301   46.073  215.790
  604.332    7.002    0.389    0.292   47.117  215.589
  604.582    6.884    0.394    0.300   48.038  215.494
  604.832    6.534    0.407    0.298   48.471  215.191
  605.082    6.271    0.412    0.296   48.353  215.197
  605.332    5.877    0.415    0.296   47.929  214.895
  605.582    5.308    0.422    0.320   47.627  214.797
  605.832    4.820    0.431    0.331   47.204  214.701
  606.082    4.517    0.440    0.321   48.187  214.811
  606.332    4.295    0.433    0.326   49.476  215.440
  606.582    4.246    0.420    0.332   50.642  216.069
  606.832    4.204    0.431    0.330   51.564  215.455
  607.082    4.179    0.416    0.324   52.241  214.944
  607.332    4.154    0.418    0.306   52.001  214.745
  607.582    4.106    0.433    0.300   51.577  214.648
  607.832    4.044    0.436    0.309   51.826  214.760
  608.082    3.874    0.428    0.293   55.624  214.973
  608.332    3.739    0.425    0.296   58.380  215.602
  608.582    3.723    0.430    0.296   62.055  216.438
  608.832    3.790    0.447    0.283   64.751  216.756
  609.082    3.952    0.463    0.268   67.875  217.799
  609.332    4.136    0.480    0.250   65.371  218.842
  609.582    4.450    0.445    0.274   61.277  219.782
  609.832    4.832    0.425    0.266   58.651  220.308
  610.082    5.142    0.407    0.270   57.064  220.936
  610.332    5.263    0.422    0.277   56.396  221.358
  610.582    5.329    0.436    0.272   56.401  221.469
  610.832    5.386    0.437    0.251   57.016  221.684
  611.082    5.533    0.433    0.271   58.366  221.793
  611.332    5.738    0.438    0.290   59.594  221.594
  611.582    5.994    0.420    0.297   59.476  221.602
  611.832    6.262    0.404    0.292   57.278  221.609
  612.082    6.446    0.394    0.283   54.713  221.512
  612.332    6.598    0.383    0.275   52.454  221.623
  612.582    6.681    0.376    0.266   51.173  221.735
  612.832    6.826    0.372    0.244   51.912  221.741
  613.082    6.988    0.375    0.236   53.813  222.059
  613.332    7.220    0.376    0.265   55.897  222.274
  613.582    7.500    0.371    0.272   55.657  222.489
  613.832    7.777    0.371    0.238   54.988  222.184
  614.082    7.846    0.380    0.221   54.686  222.192
  614.332    6.817    0.385    0.221   57.566  222.303
  614.582    5.945    0.382    0.243   60.507  221.999
  614.832    5.016    0.396    0.251   65.160  221.904
  615.082    4.318    0.415    0.263   69.140  221.807
  615.332    4.340    0.411    0.260   70.307  221.814
  615.582    4.618    0.412    0.221   68.904  221.821
  615.832    4.987    0.431    0.226   65.238  221.725
  616.082    5.306    0.475    0.364   59.553  221.629
  616.332    5.452    0.547    0.428   52.645  221.221
  616.582    5.330    0.602    0.495   53.261  220.815
  616.832    5.201    0.490    0.369   56.997  220.303
  617.082    5.113    0.403    0.334   58.408  219.585
  617.332    5.185    0.408    0.327   60.003  218.971
  617.582    5.212    0.423    0.342   62.515  218.357
  617.832    5.209    0.440    0.324   68.331  218.261
  618.082    5.216    0.462    0.307   73.596  218.372
  618.332    5.369    0.480    0.314   77.761  218.794
  618.582    5.527    0.499    0.297   75.746  219.007
  618.832    5.668    0.505    0.298   71.468  219.637
  619.082    5.856    0.441    0.342   65.294  219.955
  619.332    6.441    0.390    0.298   63.402  220.272
  619.582    6.866    0.391    0.315   65.119  220.280
  619.832    7.120    0.394    0.321   63.838  220.494
  620.082    7.249    0.394    0.322   63.231  220.813
  620.332    7.339    0.392    0.336   65.316  221.027
  620.582    7.485    0.389    0.327   65.993  221.034
  620.832    7.481    0.390    0.308   64.651  221.250
  621.082    7.207    0.381    0.298   63.493  221.255
  621.332    6.414    0.413    0.307   65.394  221.574
  621.582    5.846    0.439    0.297   67.172  221.891
  621.832    5.408    0.461    0.270   68.155  222.210
  622.082    5.068    0.450    0.281   65.406  222.528
  622.332    4.945    0.441    0.281   64.738  222.329
  622.582    4.988    0.429    0.271   64.987  222.542
  622.832    5.060    0.410    0.274   65.114  222.447
  623.082    5.160    0.415    0.268   64.995  222.453
  623.332    5.282    0.451    0.256   64.327  222.357
  623.582    5.418    0.446    0.260   62.802  222.262
  623.832    5.711    0.435    0.271   59.992  222.164
  624.082    5.912    0.428    0.271   59.140  221.965
  624.332    6.349    0.439    0.269   59.144  221.661
  624.582    7.299    0.456    0.283   58.904  221.357
  624.832    8.627    0.458    0.264   57.746  221.054
  625.082    9.737    0.427    0.283   55.609  220.750
  625.332   10.476    0.390    0.289   54.084  220.654
  625.582    9.871    0.372    0.272   53.843  220.662
  625.832    8.850    0.398    0.268   55.500  220.462
  626.082    7.690    0.418    0.277   58.318  220.676
  626.332    6.657    0.441    0.286   60.586  221.201
  626.582    5.838    0.462    0.278   62.486  221.622
  626.832    5.582    0.435    0.266   65.121  222.044
  627.082    6.028    0.416    0.292   66.104  222.258
  627.332    6.779    0.406    0.284   65.802  222.369
  627.582    7.836    0.396    0.266   62.871  222.377
  627.832    9.228    0.341    0.223   60.244  222.487
  628.082   11.653    0.215    0.171   56.089  222.702
  628.332   14.263    0.191    0.098   49.975  222.606
  628.582   16.640    0.190    0.076   46.370  222.717
  628.832   17.970    0.213    0.075   44.968  222.724
  629.082   19.052    0.230    0.080   46.501  222.731
  629.332   19.865    0.224    0.088   46.751  222.635
  629.582   20.112    0.183    0.056   44.125  222.539
  629.832   19.954    0.176    0.034   42.109  222.546
  630.082   18.222    0.189    0.060   40.095  222.553
  630.332   15.630    0.203    0.093   41.078  222.560
  630.582   11.549    0.246    0.133   45.426  222.568
  630.832    9.034    0.344    0.171   49.713  222.575
  631.082    7.374    0.372    0.202   54.244  222.582
  631.332    6.221    0.382    0.220   59.325  223.211
  631.582    5.475    0.388    0.219   65.325  223.943
  631.832    5.056    0.400    0.203   67.898  224.572
  632.082    4.888    0.425    0.195   68.820  225.097
  632.332    4.779    0.445    0.197   68.702  225.726
  632.582    4.697    0.425    0.237   68.400  225.940
  632.832    4.644    0.420    0.235   68.650  226.154
  633.082    4.632    0.431    0.226   70.428  225.437
  633.332    4.655    0.440    0.247   72.635  224.512
  633.582    4.722    0.418    0.254   73.067  225.451
