~VERSION INFORMATION
 VERS.                 2.0:   CWLS LOG ASCII STANDARD -VERSION 2.0
 WRAP.                  NO:   ONE LINE PER DEPTH STEP
~WELL INFORMATION BLOCK
#MNEM.UNIT           DATA                    DESCRIPTION OF MNEMONIC
#---------    -------------------            -------------------------------
# Generated from Intellog Unique Number	CW_82_90/WELL/3077
WELL.         TEXEX WABASCA 11-19            : Well_name    - WELL
LOC .         00/11-19-085-22W4/0            : Location     - LOCATION
UWI .         00/11-19-085-22W4/0            : Uwi          - UNIQUE WELL ID
ENTR.         JAYE                           : Entered      - ENTERED BY
SRVC.         WESTERN ATLAS                  : Scn          - SERVICE COMPANY
DATE.         23 FEB 75                      : Date         - LOG DATE
STRT.M        152.4                          : top_depth    - START DEPTH
STOP.M        353.65                         : bot_depth    - STOP DEPTH
STEP.M        0.25                           : increment    - STEP LENGTH
 NULL. -999.2500:NULL Value
~CURVE INFORMATION BLOCK
#MNEM UNIT       ERCB CURVE CODE    CURVE DESCRIPTION
#-----------   ------------------   ----------------------------------
DEPT.M        00 001 00 00         : DEPTH        - DEPTH
CALI.MM       00 280 01 00         : CAL          - CALIPER
GR  .API      00 310 00 00         : GR           - GAMMA RAY
NPHI.V/V      00 330 00 00         : PHIN         - NEUTRON POROSITY (SANDSTONE)
DPHI.V/V      00 890 00 00         : PHID         - DENSITY POROSITY (SANDSTONE)
ILD .OHMM     00 120 00 00         : RESD         - DEEP RESISTIVITY (DIL)
~PARAMETER INFORMATION
#MNEM.UNIT           DATA             DESCRIPTION OF MNEMONIC
#---------         -----------     ------------------------------
GL  .M        559.399              : gl           - GROUND LEVEL ELEVATION
EREF.M        562.356              : kb           - ELEVATION OF DEPTH REFERENCE
DATM.M        559.399              : datum        - DATUM ELEVATION
TDD .M        354.482              : tdd          - TOTAL DEPTH DRILLER
RUN .         ONE                  : Run          - RUN NUMBER
ENG .         FAYE                 : Engineer     - RECORDING ENGINEER
WIT .         McDOUGAL             : Witness      - WITNESSED BY
BASE.         EDMONTON             : Branch       - HOME BASE OF LOGGING UNIT
MUD .         MUD GEL              : Mud_type     - MUD TYPE
MATR.         SANDSTONE            : Logunit      - NEUTRON MATRIX
TMAX.C        25.5556              : BHT          - MAXIMUM RECORDED TEMPERATURE
BHTD.M        354.482              : BHTDEP       - MAXIMUM RECORDED TEMPERATURE
RMT .C        15.5556              : MDTP         - TEMPERATURE OF MUD
MUDD.KG/M     9000                 : MWT          - MUD DENSITY
NEUT.         1                    : NEUTRON      - NEUTRON TYPE
RESI.         0                    : RESIST       - RESISTIVITY TYPE
RM  .OHMM     8.8                  : RM           - RESISTIVITY OF MUD
RMC .OHMM     0                    : RMC          - RESISTIVITY OF MUD CAKE
RMF .OHMM     0                    : RMF          - RESISTIVITY OF MUD FILTRATE
SUFT.C        4                    : SUFT         - SURFACE TEMPERATURE
~A  DEPTH      CAL       GR     PHIN     PHID     RESD
# ...
  334.900  224.297   49.292    0.436    0.273   29.703
  335.150  223.153   46.639    0.437    0.249   27.572
  335.400  221.797   40.094    0.440    0.230   24.389
  335.650  220.861   36.516    0.444    0.237   21.854
  335.900  219.611   43.872    0.450    0.258   19.913
  336.150  218.154   45.050    0.468    0.256   18.657
  336.400  217.216   48.266    0.487    0.245   17.031
  336.650  216.280   51.298    0.499    0.232   15.345
  336.900  214.925   55.009    0.472    0.224   14.592
  337.150  213.465   54.828    0.451    0.232   13.926
  337.400  212.111   51.929    0.430    0.247   13.897
  337.650  211.593   51.563    0.412    0.271   14.579
  337.900  210.447   52.246    0.403    0.262   15.582
  338.150  209.825   47.493    0.398    0.233   16.715
  338.400  209.203   49.413    0.397    0.198   17.277
  338.650  208.684   50.344    0.398    0.200   17.144
  338.900  208.270   52.139    0.400    0.219   16.393
  339.150  208.276   57.456    0.408    0.229   15.559
  339.400  207.864   62.465    0.409    0.231   14.850
  339.650  207.658   63.766    0.401    0.235   13.783
  339.900  206.721   61.423    0.389    0.239   13.229
  340.150  206.413   59.945    0.379    0.252   12.791
  340.400  204.535   47.160    0.362    0.261   12.835
  340.650  200.043   41.913    0.339    0.270   14.052
  340.900  198.166   47.045    0.322    0.273   17.387
  341.150  198.067   53.289    0.322    0.264   22.328
  341.400  197.967   52.304    0.336    0.266   26.036
  341.650  197.971   44.957    0.351    0.257   28.610
  341.900  198.185   58.862    0.352    0.245   28.976
  342.150  198.191   67.021    0.347    0.276   27.808
  342.400  198.613   75.798    0.343    0.292   26.641
  342.650  200.186   73.022    0.356    0.327   24.095
  342.900  201.760   65.489    0.375    0.350   20.843
  343.150  202.287   66.606    0.406    0.387   18.300
  343.400  202.607   58.269    0.401    0.378   17.401
  343.650  202.506   49.192    0.376    0.349   17.428
  343.900  202.407   54.139    0.356    0.288   18.626
  344.150  202.724   53.957    0.320    0.152   20.929
  344.400  202.416   38.146    0.320    0.121   24.315
  344.650  202.630   31.293    0.326    0.068   30.479
  344.900  200.752   27.776    0.316    0.056   36.886
  345.150  201.176   28.707    0.306    0.065   45.983
  345.400  201.913   30.626    0.309    0.072   49.416
  345.650  202.022   30.939    0.313    0.095   49.128
  345.900  202.549   31.314    0.321    0.081   44.266
  346.150  202.764   37.063    0.329    0.079   41.319
  346.400  203.291   38.921    0.337    0.085   38.710
  346.650  204.132   26.940    0.343    0.125   38.917
  346.900  204.242   25.338    0.351    0.145   42.924
  347.150  204.456   28.370    0.352    0.190   44.782
  347.400  204.460   33.377    0.337    0.171   44.770
  347.650  204.779   38.324    0.327    0.131   42.807
  347.900  204.679   43.209    0.330    0.083   40.104
  348.150  204.161   42.966    0.336    0.088   37.994
  348.400  202.703   41.117    0.341    0.083   35.661
  348.650  202.288   40.009    0.346    0.113   34.036
  348.900  201.877   43.349    0.352    0.178   32.909
  349.150  201.671   44.342    0.363    0.175   31.642
  349.400  201.362   43.544    0.381    0.144   31.053
  349.650  200.531   42.931    0.394    0.115   31.332
  349.900  200.326   42.872    0.405    0.178   33.547
  350.150  200.226   44.174    0.413    0.218   35.589
  350.400  200.753   42.016    0.411    0.241   38.605
  350.650  201.387   40.908    0.402    0.268   42.659
  350.900  200.868   42.951    0.405    0.285   46.187
  351.150  197.526   43.387    0.410    0.272   48.814
  351.400  196.591   43.083    0.412    0.262   51.497
  351.650  195.758   43.705    0.413    0.261   53.927
  351.900  194.822   46.305    0.421    0.222   54.717
  352.150  194.617   45.134    0.425    0.262   53.198
  352.400  194.622   43.903    0.427    0.256   52.014
  352.650  193.582   44.957    0.427    0.288   51.327
  352.900  193.273   47.001    0.438    0.302   51.124
  353.150  193.383   46.201    0.449    0.246   50.730
  353.400  193.597   44.167    0.451    0.205   50.621
  353.650  193.601   42.936    0.446    0.139   49.954
