~VERSION INFORMATION
 VERS.                 2.0:   CWLS LOG ASCII STANDARD -VERSION 2.0
 WRAP.                  NO:   ONE LINE PER DEPTH STEP
~WELL INFORMATION BLOCK
#MNEM.UNIT           DATA                    DESCRIPTION OF MNEMONIC
#---------    -------------------            -------------------------------
# Generated from Intellog Unique Number	CC_80_83/WELL/2363
NULL.         -999.25                        : NULL_VALUE
WELL.         SHELL HOUSE CREEK OV           : Well_name    - WELL
LOC .         10-23-080-13W4                 : Location     - LOCATION          
UWI .         00/10-23-080-13W4/0            : Uwi          - UNIQUE WELL ID    
ENTR.         JHS                            : Entered      - ENTERED BY        
SRVC.         SCHLUMBERGER                   : Scn          - SERVICE COMPANY   
DATE.         01 JAN 93                      : Date         - LOG DATE
STRT.M        320.04                         : top_depth    - START DEPTH       
STOP.M        515.118                        : bot_depth    - STOP DEPTH        
STEP.M        0.305                          : increment    - STEP LENGTH       
~CURVE INFORMATION BLOCK
#MNEM UNIT       ERCB CURVE CODE    CURVE DESCRIPTION
#-----------   ------------------   ----------------------------------
DEPT.M        00 001 00 00         : DEPTH        - DEPTH                       
DPHI.V/V      00 890 00 00         : PHID         - DENSITY POROSITY (LIMESTONE)
GR  .API      00 310 00 00         : GR           - GAMMA RAY                   
ILD .OHMM     00 120 00 00         : RESD         - DEEP RESISTIVITY (DIL)      
~PARAMETER INFORMATION       
#MNEM.UNIT           DATA             DESCRIPTION OF MNEMONIC
#---------         -----------     ------------------------------
GL  .M        696.773              : gl           - GROUND LEVEL ELEVATION      
EREF.M        699.821              : kb           - ELEVATION OF DEPTH REFERENCE
DATM.M        699.821              : datum        - DATUM ELEVATION             
TDD .M        525.17               : tdd          - TOTAL DEPTH DRILLER         
RUN .         ONE                  : Run          - RUN NUMBER                  
ENG .         BILL                 : Engineer     - RECORDING ENGINEER          
WIT .         JIM                  : Witness      - WITNESSED BY                
MUD .         GEL                  : Mud_type     - MUD TYPE                    
MATR.         LIMESTONE            : Logunit      - NEUTRON MATRIX              
TMAX.C        20                   : BHT          - MAXIMUM RECORDED TEMPERATURE
BHTD.M        525.17               : BHTDEP       - MAXIMUM RECORDED TEMPERATURE
MATR.         1                    : LOGUNIT      - NEUTRON MATRIX              
RMT .C        25                   : MDTP         - TEMPERATURE OF MUD          
NEUT.         1                    : NEUTRON      - NEUTRON TYPE                
RESI.         0                    : RESIST       - RESISTIVITY TYPE            
RMC .OHMM     0.25                 : RMC          - RESISTIVITY OF MUD CAKE     
RMF .OHMM     0.25                 : RMF          - RESISTIVITY OF MUD FILTRATE 
SUFT.C        15                   : SUFT         - SURFACE TEMPERATURE         
~A  DEPTH     PHID       GR     RESD
# ...
  386.184    0.241   43.219    4.598
  386.488    0.249   47.651    3.549
  386.793    0.261   52.973    2.639
  387.098    0.270   52.071    2.546
  387.403    0.261   46.726    2.595
  387.708    0.257   44.049    2.798
  388.013    0.261   44.035    3.130
  388.317    0.275   46.692    3.702
  388.622    0.280   52.456    3.991
  388.927    0.269   53.779    3.850
  389.232    0.258   55.545    3.644
  389.537    0.263   55.533    3.144
  389.841    0.271   56.854    2.712
  390.146    0.274   59.953    2.254
  390.451    0.277   58.609    1.585
  390.756    0.285   55.929    0.728
  391.061    0.279   56.807    0.449
  391.365    0.258   60.349    0.278
  391.670    0.254   56.784    0.218
  391.975    0.252   54.992    0.227
  392.280    0.253   54.983    0.278
  392.585    0.274   52.304    0.460
  392.889    0.259   48.292    0.985
  393.194    0.256   48.279    2.072
  393.499    0.241   50.490    3.688
  393.804    0.226   48.701    5.452
  394.109    0.223   47.357    5.878
  394.414    0.231   47.788    5.564
  394.718    0.237   46.443    4.981
  395.023    0.245   45.544    3.844
  395.328    0.257   46.865    3.080
  395.633    0.254   49.518    2.916
  395.938    0.268   50.398    2.918
  396.242    0.281   49.941    2.976
  396.547    0.272   49.485    3.033
  396.852    0.260   49.028    3.210
  397.157    0.274   49.905    3.461
  397.462    0.263   50.339    3.730
  397.766    0.249   52.547    4.097
  398.071    0.243   50.315    4.584
  398.376    0.238   45.415    4.588
  398.681    0.261   46.291    4.507
  398.986    0.250   48.500    4.428
  399.290    0.242   49.378    4.116
  399.595    0.242   48.478    3.968
  399.900    0.236   44.910    3.757
  400.205    0.254   45.787    3.556
  400.510    0.265   50.664    3.429
  400.815    0.262   56.431    3.629
  401.119    0.255   57.308    4.060
  401.424    0.265   51.962    4.894
  401.729    0.275   47.062    5.373
  402.034    0.273   44.829    5.793
  402.339    0.263   43.480    6.018
  402.643    0.248   43.025    6.137
  402.948    0.230   42.127    6.142
  403.253    0.216   41.667    5.923
  403.558    0.236   43.880    5.711
  403.863    0.248   45.200    5.508
  404.167    0.226   44.302    5.512
  404.472    0.190   43.399    5.518
  404.777    0.182   45.612    5.522
  405.082    0.205   50.487    5.426
  405.387    0.223   53.587    5.330
  405.691    0.236   57.129    5.140
  405.996    0.239   57.117    4.867
  406.301    0.225   55.328    4.780
  406.606    0.250   51.318    4.784
  406.911    0.250   49.973    4.701
  407.216    0.246   47.295    4.369
  407.520    0.259   47.281    3.984
  407.825    0.273   49.492    3.634
  408.130    0.284   50.369    3.254
  408.435    0.267   51.692    3.080
  408.740    0.284   49.901    3.141
  409.044    0.275   52.557    3.263
  409.349    0.266   53.434    3.583
  409.654    0.257   51.645    3.862
  409.959    0.267   45.855    4.322
  410.264    0.263   46.733    4.659
  410.568    0.266   46.274    4.663
  410.873    0.254   46.710    4.581
  411.178    0.232   51.140    4.337
  411.483    0.231   52.017    4.106
  411.788    0.240   51.117    4.034
  412.092    0.242   50.215    3.962
  412.397    0.240   51.538    4.040
  412.702    0.243   52.861    4.197
  413.007    0.242   52.849    4.609
  413.312    0.219   51.060    5.061
  413.617    0.207   50.602    5.769
  413.921    0.209   51.480    6.337
  414.226    0.213   50.579    6.461
  414.531    0.208   47.010    6.588
  414.836    0.214   47.444    6.472
  415.141    0.225   50.099    6.014
  415.445    0.229   52.306    5.693
  415.750    0.218   51.407    5.290
  416.055    0.220   50.064    5.007
  416.360    0.235   46.497    4.741
  416.665    0.231   42.486    4.572
  416.969    0.220   44.250    4.409
  417.274    0.217   50.461    4.412
  417.579    0.211   51.782    4.584
  417.884    0.209   49.550    4.941
  418.189    0.209   45.093    5.529
  418.493    0.202   35.304    5.960
  418.798    0.181   35.736    6.190
  419.103    0.228   40.614    6.312
  419.408    0.237   46.822    6.087
  419.713    0.271   46.812    5.553
  420.018    0.277   45.465    5.256
  420.322    0.286   43.675    5.069
  420.627    0.280   43.220    5.074
  420.932    0.269   43.654    5.077
  421.237    0.269   44.087    5.177
  421.542    0.257   45.852    5.182
  421.846    0.245   46.285    5.187
  422.151    0.253   41.828    5.192
  422.456    0.261   38.262    5.195
  422.761    0.264   40.916    5.202
  423.066    0.258   47.571    5.205
  423.370    0.257   52.004    5.209
  423.675    0.272   51.548    5.215
  423.980    0.278   45.757    5.317
  424.285    0.274   44.413    5.320
  424.590    0.266   43.067    5.527
  424.895    0.273   39.500    5.741
  425.199    0.287   39.934    5.746
  425.504    0.291   38.589    5.750
  425.809    0.285   39.464    5.864
  426.114    0.252   43.009    6.205
  426.419    0.219   41.219    6.445
  426.723    0.192   36.319    6.696
  427.028    0.195   30.975    6.338
  427.333    0.280   34.518    5.468
  427.638    0.291   37.616    4.895
  427.943    0.271   36.716    4.635
  428.247    0.247   38.036    4.728
  428.552    0.224   42.025    4.819
  428.857    0.186   43.791    5.491
  429.162    0.157   40.669    6.259
  429.467    0.143   37.101    6.747
  429.771    0.178   37.977    6.507
  430.076    0.260   40.634    5.614
  430.381    0.283   45.956    4.934
  430.686    0.289   44.610    4.418
  430.991    0.276   41.931    4.261
  431.296    0.284   41.029    4.265
  431.600    0.290   39.241    4.190
  431.905    0.282   39.229    4.193
  432.210    0.271   38.771    4.197
  432.515    0.278   37.872    4.124
  432.820    0.276   38.749    4.050
  433.124    0.281   41.850    3.835
  433.429    0.296   48.948    3.564
  433.734    0.323   49.824    3.501
  434.039    0.303   52.478    3.504
  434.344    0.306   51.578    3.777
  434.648    0.299   48.900    4.306
  434.953    0.262   43.556    4.472
  435.258    0.235   42.208    4.561
  435.563    0.211   42.641    4.564
  435.868    0.221   43.073    4.567
  436.172    0.239   43.508    4.658
  436.477    0.234   44.386    4.750
  436.782    0.213   44.818    4.933
  437.087    0.209   45.249    5.123
  437.392    0.213   46.128    5.225
  437.697    0.228   45.228    5.229
  438.001    0.217   50.105    5.138
  438.306    0.207   49.203    5.141
  438.611    0.209   47.859    5.051
  438.916    0.214   46.513    4.963
  439.221    0.209   46.057    5.061
  439.525    0.202   53.156    5.065
  439.830    0.217   52.699    5.165
  440.135    0.212   50.467    5.169
  440.440    0.205   49.122    5.270
  440.745    0.198   50.888    5.374
  441.049    0.213   49.541    5.377
  441.354    0.210   50.420    5.382
  441.659    0.211   52.184    5.288
  441.964    0.228   53.507    5.006
  442.269    0.228   55.273    4.567
  442.573    0.232   53.038    4.322
  442.878    0.243   48.139    3.730
  443.183    0.272   50.349    3.218
  443.488    0.292   48.560    2.674
  443.793    0.306   44.992    2.142
  444.098    0.307   43.646    1.716
  444.402    0.279   42.747    1.654
  444.707    0.257   40.068    1.719
  445.012    0.230   39.165    2.110
  445.317    0.223   40.488    2.639
  445.622    0.218   40.922    3.240
  445.926    0.198   38.244    3.977
  446.231    0.209   37.343    4.449
  446.536    0.208   37.331    4.797
  446.841    0.241   38.208    4.627
  447.146    0.250   42.195    4.299
  447.450    0.238   46.184    3.508
  447.755    0.251   48.839    3.199
  448.060    0.241   47.050    3.202
  448.365    0.242   47.037    3.265
  448.670    0.253   44.359    3.456
  448.974    0.265   48.792    3.394
  449.279    0.278   50.112    3.039
  449.584    0.290   49.657    2.671
  449.889    0.280   50.531    2.529
  450.194    0.285   51.853    2.531
  450.499    0.265   52.733    2.580
  450.803    0.242   53.165    2.834
  451.108    0.241   53.154    2.944
  451.413    0.241   53.586    3.001
  451.718    0.211   52.240    3.061
  452.023    0.198   54.007    3.064
