~VERSION INFORMATION
 VERS.                 2.0:   CWLS LOG ASCII STANDARD -VERSION 2.0
 WRAP.                  NO:   ONE LINE PER DEPTH STEP
~WELL INFORMATION BLOCK
#MNEM.UNIT           DATA                    DESCRIPTION OF MNEMONIC
#---------    -------------------            -------------------------------
# Generated from Intellog Unique Number	CS_67_68/WELL/845
WELL.         INTER-CITY MANUFACTURING       : Well_name    - WELL
LOC .         00/11-29-068-12W4/0            : Location     - LOCATION
UWI .         00/11-29-068-12W4/0            : Uwi          - UNIQUE WELL ID
ENTR.         SP                             : Entered      - ENTERED BY
SRVC.         SCHLUMBERGER                   : Scn          - SERVICE COMPANY
STRT.M        304.8                          : top_depth    - START DEPTH
STOP.M        496.550                        : bot_depth    - STOP DEPTH
STEP.M        0.25                           : increment    - STEP LENGTH
 NULL. -999.2500:NULL Value
~CURVE INFORMATION BLOCK
#MNEM UNIT       ERCB CURVE CODE    CURVE DESCRIPTION
#-----------   ------------------   ----------------------------------
DEPT.M        00 001 00 00         : DEPTH        - DEPTH
GR  .API      00 310 00 00         : GR           - GAMMA RAY
DPHI.V/V      00 890 00 00         : PHID         - DENSITY POROSITY (SANDSTONE)
NPHI.V/V      00 330 00 00         : PHIN         - NEUTRON POROSITY (SANDSTONE)
ILD .OHMM     00 120 00 00         : RESD         - DEEP RESISTIVITY (DIL)
~PARAMETER INFORMATION
#MNEM.UNIT           DATA             DESCRIPTION OF MNEMONIC
#---------         -----------     ------------------------------
GL  .M        604.114              : gl           - GROUND LEVEL ELEVATION
EREF.M        576.377              : kb           - ELEVATION OF DEPTH REFERENCE
DATM.M        604.114              : datum        - DATUM ELEVATION
TDD .M        502.006              : tdd          - TOTAL DEPTH DRILLER
RUN .         ONE                  : Run          - RUN NUMBER
ENG .         BILL                 : Engineer     - RECORDING ENGINEER
WIT .         JIM                  : Witness      - WITNESSED BY
MUD .         GEL                  : Mud_type     - MUD TYPE
MATR.         SANDSTONE            : Logunit      - NEUTRON MATRIX
TMAX.C        22.2222              : BHT          - MAXIMUM RECORDED TEMPERATURE
BHTD.M        502.006              : BHTDEP       - MAXIMUM RECORDED TEMPERATURE
MATR.         1                    : LOGUNIT      - NEUTRON MATRIX
RMT .C        25                   : MDTP         - TEMPERATURE OF MUD
NEUT.         1                    : NEUTRON      - NEUTRON TYPE
RESI.         0                    : RESIST       - RESISTIVITY TYPE
RMC .OHMM     0.25                 : RMC          - RESISTIVITY OF MUD CAKE
RMF .OHMM     0.25                 : RMF          - RESISTIVITY OF MUD FILTRATE
SUFT.C        15                   : SUFT         - SURFACE TEMPERATURE
~A  DEPTH       GR     PHID     PHIN     RESD
  304.800  110.513    0.196    0.489    2.888
  305.050  111.279    0.203    0.494    2.722
  305.300  109.370    0.210    0.501    2.646
  305.550  107.396    0.203    0.506    2.618
  305.800  105.230    0.204    0.500    2.615
  306.050  103.701    0.209    0.481    2.645
  306.300  103.769    0.213    0.473    2.724
  306.550  104.987    0.211    0.485    2.788
  306.800  107.481    0.200    0.476    2.874
  307.050  110.328    0.204    0.463    3.011
  307.300  110.304    0.216    0.465    3.183
  307.550  104.626    0.213    0.480    3.353
  307.800  101.952    0.200    0.479    3.612
  308.050   99.029    0.199    0.447    3.821
  308.300  101.871    0.211    0.400    4.009
  308.550  104.760    0.192    0.376    4.118
  308.800  103.395    0.194    0.378    4.143
  309.050  100.892    0.205    0.375    4.113
  309.300  100.745    0.227    0.367    4.011
  309.550  106.428    0.217    0.386    3.930
  309.800  112.734    0.187    0.401    3.890
  310.050  112.485    0.177    0.414    3.991
  310.300  111.323    0.189    0.398    4.099
  310.550  114.154    0.201    0.401    4.175
  310.800  116.456    0.194    0.414    4.198
  311.050  116.661    0.181    0.421    4.200
  311.300  117.183    0.171    0.429    4.066
  311.550  112.371    0.170    0.443    4.094
  311.800  103.715    0.177    0.446    4.125
  312.050   97.168    0.178    0.436    3.652
  312.300   84.797    0.193    0.433    3.319
  312.550   78.335    0.224    0.415    3.045
  312.800   74.934    0.246    0.397    2.762
  313.050   68.199    0.268    0.380    2.404
  313.300   58.710    0.245    0.375    2.239
  313.550   51.021    0.254    0.373    2.130
  313.800   43.747    0.289    0.363    2.070
  314.050   40.743    0.293    0.357    2.013
  314.300   40.604    0.296    0.359    1.976
  314.550   41.170    0.301    0.358    2.035
  314.800   41.598    0.299    0.354    2.115
  315.050   51.797    0.289    0.363    2.207
  315.300   59.098    0.270    0.366    2.442
  315.550   72.526    0.251    0.370    2.662
  315.800   81.546    0.231    0.390    2.873
  316.050   93.787    0.211    0.408    3.047
  316.300   95.093    0.227    0.413    3.003
  316.550   89.641    0.246    0.413    2.904
  316.800   86.110    0.249    0.413    2.904
  317.050   88.242    0.264    0.418    3.044
  317.300   94.009    0.251    0.421    3.292
  317.550   97.706    0.237    0.419    3.535
  317.800  100.969    0.221    0.409    3.821
  318.050  104.949    0.212    0.398    4.078
  318.300  103.012    0.205    0.393    4.230
  318.550  100.946    0.186    0.388    4.224
  318.800  102.468    0.159    0.415    3.961
  319.050  108.458    0.145    0.457    3.310
  319.300  115.297    0.124    0.485    2.879
  319.550  119.900    0.090    0.507    2.599
  319.800  122.379    0.183    0.539    2.338
  320.050  122.644    0.192    0.561    2.163
  320.300  117.392    0.210    0.544    2.335
  320.550  109.634    0.230    0.531    2.586
  320.800  101.535    0.241    0.510    2.797
  321.050   95.513    0.250    0.484    3.093
  321.300   92.261    0.232    0.454    3.309
  321.550   92.838    0.239    0.417    3.572
  321.800   90.412    0.195    0.433    3.849
  322.050   91.509    0.194    0.437    4.060
  322.300   95.363    0.257    0.426    4.089
  322.550   96.684    0.261    0.423    3.867
  322.800   97.067    0.241    0.439    3.552
  323.050   95.229    0.213    0.432    3.336
  323.300   93.962    0.199    0.436    3.213
  323.550   94.137    0.243    0.445    3.104
  323.800   92.147    0.265    0.452    3.050
  324.050   89.715    0.259    0.459    3.223
  324.300   89.576    0.251    0.453    3.399
  324.550   92.500    0.245    0.439    3.523
  324.800   95.853    0.230    0.431    3.635
  325.050   98.642    0.222    0.432    3.691
  325.300  102.260    0.231    0.432    3.737
  325.550  106.108    0.233    0.436    3.784
  325.800  108.545    0.204    0.444    3.816
  326.050  112.117    0.185    0.445    3.802
  326.300  115.406    0.167    0.437    3.644
  326.550  118.166    0.150    0.434    3.458
  326.800  120.437    0.156    0.473    3.305
  327.050  118.351    0.178    0.498    3.232
  327.300  123.457    0.197    0.493    3.407
  327.550  128.759    0.206    0.480    3.649
  327.800  132.968    0.199    0.465    3.821
  328.050  130.427    0.190    0.450    3.947
  328.300  117.455    0.204    0.435    3.531
  328.550  103.596    0.220    0.420    3.132
  328.800   93.368    0.227    0.403    2.818
  329.050   86.521    0.252    0.385    2.531
  329.300   82.243    0.298    0.371    2.307
  329.550   80.000    0.333    0.363    2.222
  329.800   83.984    0.317    0.368    2.290
  330.050   93.743    0.306    0.375    2.462
  330.300   98.315    0.288    0.386    2.703
  330.550  100.890    0.273    0.399    2.878
  330.800  101.788    0.255    0.411    3.060
  331.050  100.208    0.254    0.423    3.162
  331.300   98.673    0.264    0.436    3.285
  331.550   99.723    0.258    0.412    3.398
  331.800  100.950    0.249    0.423    3.461
  332.050  101.412    0.232    0.441    3.447
  332.300  100.544    0.241    0.445    3.331
  332.550   94.497    0.257    0.437    3.074
  332.800   93.736    0.267    0.434    2.949
  333.050   96.617    0.276    0.420    2.879
  333.300   98.268    0.277    0.410    2.869
  333.550   98.379    0.271    0.399    2.897
  333.800   96.770    0.260    0.391    3.044
  334.050   97.823    0.266    0.386    3.270
  334.300   97.918    0.275    0.390    3.535
  334.550   96.681    0.277    0.396    3.796
  334.800   94.583    0.275    0.412    4.049
  335.050   93.429    0.287    0.427    4.224
  335.300   91.205    0.318    0.583    4.285
  335.550   89.499    0.355    0.526    4.076
  335.800   87.192    0.324    0.491    3.883
  336.050   84.174    0.277    0.469    3.830
  336.300   82.948    0.312    0.540    3.971
  336.550   80.763    0.355    0.583    4.141
  336.800   79.062    0.406    0.606    4.342
  337.050   79.946    0.448    0.612    4.510
  337.300   78.422    0.439    0.580    4.188
  337.550   79.851    0.445    0.553    3.456
  337.800   83.826    0.394    0.525    3.191
  338.050   79.177    0.307    0.486    2.789
  338.300   75.022    0.335    0.447    2.524
  338.550   70.654    0.357    0.409    2.222
  338.800   71.162    0.347    0.411    2.172
  339.050   71.132    0.337    0.420    2.087
  339.300   70.503    0.336    0.424    2.033
  339.550   68.560    0.335    0.431    2.018
  339.800   68.233    0.332    0.435    2.040
  340.050   69.121    0.332    0.429    2.072
  340.300   69.856    0.335    0.423    2.113
  340.550   69.966    0.320    0.422    2.125
  340.800   68.444    0.307    0.429    2.101
  341.050   65.707    0.316    0.432    2.041
  341.300   63.147    0.330    0.427    2.011
  341.550   62.358    0.334    0.424    2.003
  341.800   65.740    0.332    0.440    2.008
  342.050   68.249    0.336    0.453    2.009
  342.300   69.225    0.333    0.463    2.036
  342.550   69.854    0.338    0.453    2.062
  342.800   70.520    0.332    0.443    2.104
  343.050   71.519    0.344    0.442    2.120
  343.300   72.154    0.349    0.438    2.113
  343.550   71.149    0.340    0.431    2.119
  343.800   70.159    0.337    0.424    2.126
  344.050   69.663    0.337    0.420    2.128
  344.300   69.493    0.337    0.438    2.118
  344.550   69.528    0.337    0.450    2.109
  344.800   69.544    0.342    0.442    2.118
  345.050   70.296    0.346    0.439    2.143
  345.300   71.965    0.342    0.448    2.251
  345.550   73.766    0.335    0.456    2.442
  345.800   75.218    0.331    0.451    2.610
  346.050   75.479    0.322    0.443    2.823
  346.300   72.634    0.316    0.428    3.187
  346.550   69.625    0.327    0.394    3.789
  346.800   68.813    0.306    0.347    4.068
  347.050   69.917    0.312    0.297    4.473
  347.300   71.172    0.279    0.387    4.003
  347.550   77.019    0.244    0.425    3.451
  347.800   79.404    0.299    0.455    2.847
  348.050   70.185    0.323    0.464    2.504
