~VERSION INFORMATION
 VERS.                 2.0:   CWLS LOG ASCII STANDARD -VERSION 2.0
 WRAP.                  NO:   ONE LINE PER DEPTH STEP
~WELL INFORMATION BLOCK
#MNEM.UNIT           DATA                    DESCRIPTION OF MNEMONIC
#---------    -------------------            -------------------------------
# Generated from Intellog Unique Number	CS_71_72/WELL/857
WELL.         AEC IPIATIK GRIST              : Well_name    - WELL
LOC .         00/10-17-071-06W4/0            : Location     - LOCATION
UWI .         00/10-17-071-06W4/0            : Uwi          - UNIQUE WELL ID
ENTR.         SP                             : Entered      - ENTERED BY
SRVC.         SCHLUMBERGER                   : Scn          - SERVICE COMPANY
STRT.M        300                            : top_depth    - START DEPTH
STOP.M        515                            : bot_depth    - STOP DEPTH
STEP.M        0.25                           : increment    - STEP LENGTH
 NULL. -999.2500:NULL Value
~CURVE INFORMATION BLOCK
#MNEM UNIT       ERCB CURVE CODE    CURVE DESCRIPTION
#-----------   ------------------   ----------------------------------
DEPT.M        00 001 00 00         : DEPTH        - DEPTH
ILD .OHMM     00 120 00 00         : RESD         - DEEP RESISTIVITY (DIL)
DPHI.V/V      00 890 00 00         : PHID         - DENSITY POROSITY (LIMESTONE)
NPHI.V/V      00 330 00 00         : PHIN         - NEUTRON POROSITY (LIMESTONE)
GR  .API      00 310 00 00         : GR           - GAMMA RAY
~PARAMETER INFORMATION
#MNEM.UNIT           DATA             DESCRIPTION OF MNEMONIC
#---------         -----------     ------------------------------
GL  .M        653                  : gl           - GROUND LEVEL ELEVATION
EREF.M        657.2                : kb           - ELEVATION OF DEPTH REFERENCE
DATM.M        653                  : datum        - DATUM ELEVATION
TDD .M        615                  : tdd          - TOTAL DEPTH DRILLER
RUN .         ONE                  : Run          - RUN NUMBER
ENG .         BILL                 : Engineer     - RECORDING ENGINEER
WIT .         JIM                  : Witness      - WITNESSED BY
MUD .         GEL                  : Mud_type     - MUD TYPE
MATR.         LIMESTONE            : Logunit      - NEUTRON MATRIX
TMAX.C        16                   : BHT          - MAXIMUM RECORDED TEMPERATURE
BHTD.M        615                  : BHTDEP       - MAXIMUM RECORDED TEMPERATURE
MATR.         1                    : LOGUNIT      - NEUTRON MATRIX
RMT .C        25                   : MDTP         - TEMPERATURE OF MUD
NEUT.         1                    : NEUTRON      - NEUTRON TYPE
RESI.         0                    : RESIST       - RESISTIVITY TYPE
RMC .OHMM     0.25                 : RMC          - RESISTIVITY OF MUD CAKE
RMF .OHMM     0.25                 : RMF          - RESISTIVITY OF MUD FILTRATE
SUFT.C        15                   : SUFT         - SURFACE TEMPERATURE
~A  DEPTH     RESD     PHID     PHIN       GR
  300.000    3.690    0.212    0.521   97.550
  300.250    3.538    0.204    0.512   96.104
  300.500    3.349    0.200    0.502   95.572
  300.750    3.229    0.206    0.522   98.391
  301.000    3.137    0.193    0.531   93.962
  301.250    3.145    0.191    0.517   90.139
  301.500    3.404    0.139    0.519   89.851
  301.750    3.651    0.100    0.507   91.208
  302.000    3.930    0.155    0.495   89.945
  302.250    4.159    0.186    0.495   98.737
  302.500    4.411    0.182    0.507  104.176
  302.750    4.617    0.176    0.517  107.482
  303.000    4.788    0.177    0.514  103.173
  303.250    4.864    0.203    0.491   99.595
  303.500    4.895    0.207    0.480   98.941
  303.750    4.927    0.198    0.477  102.252
  304.000    4.894    0.199    0.472  103.666
  304.250    4.835    0.209    0.474  104.596
  304.500    4.767    0.199    0.495  104.308
  304.750    4.701    0.190    0.514  104.997
  305.000    4.670    0.195    0.508  102.759
  305.250    4.692    0.178    0.485   99.790
  305.500    4.731    0.163    0.465   96.334
  305.750    4.797    0.168    0.453   93.730
  306.000    4.801    0.185    0.477   95.635
  306.250    4.823    0.193    0.505   96.387
  306.500    4.900    0.197    0.524   96.277
  306.750    5.015    0.190    0.503   94.345
  307.000    5.057    0.204    0.497   95.396
  307.250    5.070    0.212    0.505  102.360
  307.500    4.953    0.185    0.485  109.139
  307.750    4.679    0.169    0.505  114.031
  308.000    4.379    0.147    0.520  117.583
  308.250    4.121    0.144    0.536  121.863
  308.500    3.857    0.173    0.545  123.708
  308.750    3.719    0.191    0.547  121.777
  309.000    3.681    0.208    0.550  118.866
  309.250    3.903    0.214    0.559  114.314
  309.500    4.361    0.216    0.572  110.492
  309.750    5.076    0.233    0.534  106.001
  310.000    5.822    0.246    0.494  101.081
  310.250    6.372    0.257    0.466   95.066
  310.500    6.859    0.254    0.444   91.609
  310.750    7.193    0.268    0.436   96.440
  311.000    7.348    0.255    0.430  101.638
  311.250    7.382    0.249    0.422  104.822
  311.500    7.252    0.240    0.432  106.665
  311.750    7.110    0.239    0.444  102.051
  312.000    6.843    0.210    0.455   96.830
  312.250    6.513    0.185    0.469   94.347
  312.500    6.176    0.147    0.451   98.872
  312.750    5.835    0.131    0.461  105.103
  313.000    5.573    0.110    0.467  107.010
  313.250    5.158    0.092    0.472  109.037
  313.500    4.899    0.126    0.493  116.001
  313.750    4.525    0.176    0.515  121.560
  314.000    4.188    0.193    0.511  120.360
  314.250    3.868    0.201    0.497  118.181
  314.500    3.620    0.199    0.486  116.857
  314.750    3.369    0.194    0.491  117.727
  315.000    3.165    0.192    0.506  117.683
  315.250    2.962    0.196    0.520  117.213
  315.500    2.883    0.204    0.533  115.888
  315.750    3.040    0.224    0.551  113.712
  316.000    3.377    0.240    0.567  110.257
  316.250    3.968    0.241    0.564  105.642
  316.500    4.672    0.249    0.546   99.991
  316.750    5.288    0.259    0.514   93.062
  317.000    5.974    0.273    0.481   86.802
  317.250    6.503    0.290    0.477   80.909
  317.500    6.922    0.308    0.508   78.307
  317.750    7.273    0.316    0.555   76.251
  318.000    7.457    0.330    0.557   73.648
  318.250    7.633    0.292    0.522   72.813
  318.500    7.711    0.285    0.492   72.160
  318.750    7.703    0.292    0.475   70.407
  319.000    7.667    0.295    0.465   70.671
  319.250    7.588    0.287    0.462   73.005
  319.500    7.501    0.293    0.457   73.992
  319.750    7.502    0.294    0.460   74.801
  320.000    7.582    0.289    0.483   72.259
  320.250    7.614    0.276    0.494   71.118
  320.500    7.663    0.275    0.491   71.988
  320.750    7.698    0.275    0.491   73.953
  321.000    7.821    0.274    0.491   75.738
  321.250    7.828    0.275    0.500   77.278
  321.500    7.819    0.276    0.488   78.391
  321.750    7.711    0.283    0.461   79.078
  322.000    7.602    0.289    0.451   78.852
  322.250    7.372    0.290    0.449   77.770
  322.500    7.269    0.287    0.461   73.888
  322.750    7.248    0.282    0.472   69.518
  323.000    7.308    0.277    0.479   65.574
  323.250    7.467    0.284    0.475   62.848
  323.500    7.600    0.292    0.455   62.317
  323.750    7.749    0.299    0.457   64.832
  324.000    7.799    0.294    0.461   65.640
  324.250    7.647    0.290    0.462   64.134
  324.500    7.336    0.287    0.474   68.660
  324.750    7.341    0.277    0.456   76.596
  325.000    7.430    0.267    0.468   86.424
  325.250    7.618    0.264    0.452   90.218
  325.500    7.783    0.267    0.458   89.991
  325.750    7.920    0.281    0.468   84.767
  326.000    7.956    0.291    0.462   80.276
  326.250    7.890    0.285    0.449   77.489
  326.500    7.926    0.277    0.450   79.700
  326.750    8.284    0.269    0.459   83.981
  327.000    8.538    0.256    0.467   87.230
  327.250    9.791    0.237    0.476   87.489
  327.500   11.658    0.198    0.480   82.264
  327.750   12.665    0.106    0.369   73.936
  328.000   12.794    0.057    0.305   68.040
  328.250   10.587    0.083    0.270   62.269
  328.500    9.076    0.140    0.381   61.309
  328.750    7.987    0.206    0.460   68.517
  329.000    7.461    0.274    0.490   74.260
  329.250    7.248    0.280    0.502   80.188
  329.500    7.215    0.267    0.474   84.653
  329.750    7.222    0.266    0.462   86.923
  330.000    7.267    0.267    0.456   89.378
  330.250    7.368    0.274    0.462   91.224
  330.500    7.485    0.285    0.470   92.032
  330.750    7.648    0.285    0.462   90.098
  331.000    7.741    0.273    0.454   88.958
  331.250    7.761    0.268    0.446   89.706
  331.500    7.638    0.272    0.442   91.427
  331.750    7.365    0.285    0.441   92.540
  332.000    6.983    0.268    0.446   91.522
  332.250    6.621    0.258    0.445   91.050
  332.500    6.232    0.252    0.430   92.041
  332.750    6.008    0.243    0.427   98.521
  333.000    5.782    0.222    0.447  102.742
  333.250    5.638    0.197    0.464  106.229
  333.500    5.519    0.209    0.456  109.901
  333.750    5.482    0.217    0.451  110.953
  334.000    5.467    0.220    0.458  108.291
  334.250    5.471    0.220    0.467  104.650
  334.500    5.476    0.218    0.476  101.621
  334.750    5.511    0.204    0.485  100.479
  335.000    5.599    0.186    0.494   99.947
  335.250    5.806    0.189    0.489   99.478
  335.500    6.157    0.206    0.475   99.614
  335.750    6.715    0.207    0.464  101.278
  336.000    7.133    0.206    0.470  102.452
  336.250    7.480    0.234    0.473  101.736
  336.500    7.756    0.241    0.462   98.829
  336.750    7.909    0.242    0.457   96.164
  337.000    7.960    0.246    0.451   94.537
  337.250    7.968    0.251    0.437   94.736
  337.500    7.976    0.254    0.428   95.547
  337.750    7.952    0.244    0.420   95.865
  338.000    7.928    0.228    0.428   94.725
  338.250    7.833    0.236    0.435   92.915
  338.500    7.815    0.228    0.449   92.444
  338.750    8.469    0.213    0.456   92.522
  339.000    8.122    0.201    0.459   92.599
  339.250    7.758    0.203    0.472   92.314
  339.500    7.398    0.215    0.474   91.356
  339.750    6.378    0.225    0.472   90.274
  340.000    6.928    0.233    0.493   89.192
  340.250    7.402    0.219    0.515   88.965
  340.500    7.820    0.224    0.530   89.591
  340.750    8.276    0.236    0.547   91.069
  341.000    8.696    0.248    0.525   89.016
  341.250    8.866    0.268    0.502   89.702
  341.500    8.792    0.283    0.490   89.109
  341.750    8.750    0.271    0.482   86.020
  342.000    8.759    0.262    0.491   82.623
  342.250    8.814    0.256    0.501   80.751
  342.500    8.855    0.247    0.492   81.683
  342.750    8.913    0.241    0.494   81.941
  343.000    8.971    0.247    0.489   77.388
  343.250    9.012    0.259    0.469   73.324
