~VERSION INFORMATION
 VERS.                 2.0:   CWLS LOG ASCII STANDARD -VERSION 2.0
 WRAP.                  NO:   ONE LINE PER DEPTH STEP
~WELL INFORMATION BLOCK
#MNEM.UNIT           DATA                    DESCRIPTION OF MNEMONIC
#---------    -------------------            -------------------------------
# Generated from Intellog Unique Number	CW_73_75/WELL/3024
WELL.         HOME ALMX KCL MARTEN H 11-15   : Well_name    - WELL
LOC .         00/11-15-073-24W4/0            : Location     - LOCATION
UWI .         00/11-15-073-24W4/0            : Uwi          - UNIQUE WELL ID
ENTR.         JJ                             : Entered      - ENTERED BY
SRVC.         SCHLUMBERGER                   : Scn          - SERVICE COMPANY
DATE.         6 FEB 69                       : Date         - LOG DATE
STRT.M        457.2                          : top_depth    - START DEPTH
STOP.M        585.2                          : bot_depth    - STOP DEPTH
STEP.M        0.25                           : increment    - STEP LENGTH
 NULL. -999.2500:NULL Value
~CURVE INFORMATION BLOCK
#MNEM UNIT       ERCB CURVE CODE    CURVE DESCRIPTION
#-----------   ------------------   ----------------------------------
DEPT.M        00 001 00 00         : DEPTH        - DEPTH
DELT.US/F     00 520 00 00         : DELT         - SONIC TRAVEL TIME
GR  .API      00 310 00 00         : GR           - GAMMA RAY
CALI.MM       00 280 01 00         : CAL          - CALIPER
ILD .OHMM     00 120 00 00         : RESD         - DEEP RESISTIVITY (DIL)
~PARAMETER INFORMATION
#MNEM.UNIT           DATA             DESCRIPTION OF MNEMONIC
#---------         -----------     ------------------------------
GL  .M        629.107              : gl           - GROUND LEVEL ELEVATION
EREF.M        632.521              : kb           - ELEVATION OF DEPTH REFERENCE
DATM.M        629.168              : datum        - DATUM ELEVATION
TDD .M        1179.58              : tdd          - TOTAL DEPTH DRILLER
RUN .         ONE                  : Run          - RUN NUMBER
ENG .         JOHNSON              : Engineer     - RECORDING ENGINEER
WIT .         DAWSON               : Witness      - WITNESSED BY
BASE.         EDMONTON             : Branch       - HOME BASE OF LOGGING UNIT
MUD .         GEL                  : Mud_type     - MUD TYPE
MATR.         SANDSTONE            : Logunit      - NEUTRON MATRIX
TMAX.C        35.5556              : BHT          - MAXIMUM RECORDED TEMPERATURE
BHTD.M        1179.88              : BHTDEP       - MAXIMUM RECORDED TEMPERATURE
RMT .C        16.6667              : MDTP         - TEMPERATURE OF MUD
MUDD.KG/M     1188                 : MWT          - MUD DENSITY
NEUT.         1                    : NEUTRON      - NEUTRON TYPE
RESI.         0                    : RESIST       - RESISTIVITY TYPE
RM  .OHMM     2.08                 : RM           - RESISTIVITY OF MUD
RMC .OHMM     1.32                 : RMC          - RESISTIVITY OF MUD CAKE
RMF .OHMM     1.5                  : RMF          - RESISTIVITY OF MUD FILTRATE
SUFT.C        5                    : SUFT         - SURFACE TEMPERATURE
~A  DEPTH     DELT       GR      CAL     RESD
# ...
  544.200  314.957   69.826  193.917    8.696
  544.450  312.324   71.923  194.783    8.495
  544.700  328.872   73.276  195.651    8.334
  544.950  336.060   75.026  195.361    8.253
  545.200  330.676   77.125  194.647    8.172
  545.450  318.156   71.721  195.302    8.091
  545.700  315.589   68.503  196.585    7.970
  545.950  319.699   70.452  197.559    8.090
  546.200  330.943   74.190  198.214    8.129
  546.450  334.988   79.519  197.816    8.449
  546.700  328.492   76.151  197.840    8.849
  546.950  318.264   72.783  197.556    9.129
  547.200  313.207   70.359  197.682    9.449
  547.450  309.526   65.454  197.706    9.609
  547.700  297.400   62.681  197.728    9.648
  547.950  294.306   57.426  198.278    9.567
  548.200  317.993   59.525  199.669    9.406
  548.450  327.997   68.082  200.850    9.285
  548.700  310.696   76.241  201.719    9.084
  548.950  308.128   71.483  202.689    8.763
  549.200  316.952   69.855  203.028    8.040
  549.450  326.300   68.077  203.577    7.599
  549.700  305.005   66.151  204.235    6.555
  549.950  362.867   66.957  205.415    5.512
  550.200  385.245   66.721  207.124    4.669
  550.450  437.084   64.696  208.615    3.827
  550.700  407.737   60.483  213.586    3.104
  550.950  337.471   51.849  219.812    2.382
  551.200  318.928   49.227  227.725    2.261
  551.450  302.349   52.417  231.956    2.621
  551.700  296.965   53.425  229.458    3.021
  551.950  318.557   54.330  219.175    3.702
  552.200  301.845   56.428  190.069    4.303
  552.450  291.290   58.924  185.147    5.184
  552.700  402.838   63.059  186.647    5.825
  552.950  400.206   63.269  190.454    6.226
  553.200  329.155   52.547  202.151    6.265
  553.450  331.102   53.852  216.691    6.224
  553.700  346.671   60.670  221.341    6.103
  553.950  366.363   58.595  210.746    6.102
  554.200  378.395   60.197  198.674    6.101
  554.450  357.167   64.134  189.335    6.101
  554.700  352.111   64.442  189.675    6.100
  554.950  335.073   65.646  194.328    5.979
  555.200  301.341   60.640  198.877    5.818
  555.450  339.693   57.025  203.636    5.737
  555.700  358.337   55.946  205.657    5.616
  555.950  337.174   56.402  203.050    5.696
  556.200  312.216   58.501  198.445    6.056
  556.450  318.354   61.443  196.475    7.258
  556.700  357.033   63.143  190.291   10.104
  556.950  364.286   56.000  178.018   12.950
  557.200  337.166   52.881  177.299   17.200
  557.450  319.082   46.482  177.531   22.171
  557.700  314.417   41.872  177.349   25.859
  557.950  318.523   38.903  176.744   22.691
  558.200  320.475   34.145  176.243   19.162
  558.450  321.834   31.024  175.531   14.590
  558.700  323.196   28.603  175.129   12.424
  558.950  326.650   27.868  174.946   10.459
  559.200  328.798   30.066  174.868    9.536
  559.450  327.601   28.984  174.677    8.452
  559.700  327.129   26.859  174.494    7.610
  559.950  327.640   27.717  174.520    6.927
  560.200  329.132   28.323  174.328    6.405
  560.450  330.099   26.297  174.253    6.004
  560.700  329.361   26.410  174.273    5.763
  560.950  329.807   26.966  174.301    5.481
  561.200  331.688   28.023  174.332    5.280
  561.450  331.279   27.884  174.143    5.159
  561.700  329.694   26.255  173.954    5.078
  561.950  326.212   27.707  173.870    5.077
  562.200  322.335   27.470  173.577    5.157
  562.450  321.534   29.072  173.287    5.317
  562.700  324.331   28.785  172.893    5.476
  562.950  326.217   27.653  172.913    5.676
  563.200  326.399   29.553  173.150    5.916
  563.450  324.878   32.200  173.276    6.236
  563.700  323.619   30.075  172.361    6.997
  563.950  322.095   29.488  170.814    7.798
  564.200  321.103   29.899  171.248    8.880
  564.450  318.665   30.903  171.064    9.441
  564.700  315.048   37.026  171.296    9.520
  564.950  310.386   35.449  172.059    9.359
  565.200  258.453   32.528  173.344    9.118
  565.450  229.696   30.402  174.737    8.676
  565.700  261.304   28.774  174.966    7.914
  565.950  286.299   29.182  173.203    7.271
  566.200  302.782   31.628  172.811    6.388
  566.450  312.851   35.368  172.936    6.067
  566.700  317.092   37.564  173.173    5.906
  566.950  315.959   42.396  172.564    5.825
  567.200  314.638   45.091  171.851    5.905
  567.450  312.855   43.859  171.982    5.984
  567.700  311.264   40.989  171.483    6.064
  567.950  310.335   44.231  171.399    6.183
  568.200  309.404   45.533  172.057    6.303
  568.450  308.607   41.074  173.343    6.422
  568.700  307.872   41.035  174.311    6.742
  568.950  307.266   43.880  175.287    7.022
  569.200  306.924   47.567  175.937    7.302
  569.450  306.715   49.219  177.441    7.542
  569.700  307.023   50.075  178.301    7.902
  569.950  307.337   50.832  178.850    8.343
  570.200  306.800   49.353  179.615    8.622
  570.450  303.902   45.288  180.583    8.742
  570.700  300.748   47.735  181.867    8.862
  570.950  293.794   48.841  183.472    8.941
  571.200  294.037   50.144  185.284    9.061
  571.450  300.437   52.988  187.622    9.100
  571.700  302.586   50.316  190.067    9.260
  571.950  302.900   60.066  193.033    9.098
  572.200  299.347   59.482  196.007    9.058
  572.450  293.376   55.268  199.076    9.017
  572.700  290.088   53.243  203.308    8.856
  572.950  295.178   57.479  199.439    8.775
  573.200  302.890   61.266  203.986    8.574
  573.450  307.721   56.606  207.901    8.413
  573.700  311.438   61.936  210.030    8.332
  573.950  319.998   69.002  210.691    8.251
  574.200  318.477   72.988  211.139    8.210
  574.450  310.345   68.131  210.951    8.130
  574.700  305.552   69.784  210.658    8.169
  574.950  316.534   71.432  210.572    8.128
  575.200  315.800   59.370  210.183    8.248
  575.450  306.227   61.968  209.997    8.247
  575.700  306.278   64.264  209.917    8.126
  575.950  311.893   66.659  209.521    8.045
  576.200  313.516   68.612  208.704    7.884
  576.450  313.303   69.118  208.196    7.763
  576.700  310.211   69.376  207.480    7.883
  576.950  304.042   68.542  206.561    8.123
  577.200  302.719   69.500  204.902    8.843
  577.450  334.392   72.093  203.978    9.564
  577.700  358.470   75.931  211.154   10.726
  577.950  380.193   81.706  202.766   11.528
  578.200  409.180   58.364  208.993   12.249
  578.450  392.275   47.792  199.236   12.769
  578.700  373.338   41.989  192.427   12.368
  578.950  381.112   59.640  192.031   10.924
  579.200  388.105   69.045  191.420    9.600
  579.450  400.923   75.566  188.926    9.078
  579.700  359.791   81.389  186.215    8.917
  579.950  357.550   85.822  182.347    8.756
  580.200  338.616   75.748  176.900    8.835
  580.450  341.546   59.212  180.607    8.915
  580.700  352.400   76.168  184.526    9.555
  580.950  362.795  102.961  184.862   10.236
  581.200  373.059  123.246  187.513   11.198
  581.450  289.176   97.270  205.523   13.763
  581.700  310.897   74.177  219.115   17.532
  581.950  347.743   59.629  202.626   22.343
  582.200  363.178   61.827  190.766   27.033
  582.450  280.737   61.689  178.589   31.122
  582.700  264.288   28.957  173.039   29.919
  582.950  256.220   19.179  171.803   26.430
  583.200  243.570   19.641  171.826   22.419
  583.450  231.769   20.446  173.430   20.494
  583.700  243.865   19.561  173.349   19.130
  583.950  244.244   15.896  172.746   17.205
  584.200  249.861   13.324  171.510   15.360
  584.450  254.362   13.137  171.635   13.795
  584.700  259.913   14.093  171.974   12.752
  584.950  261.402   14.898  172.002   12.029
  585.200  259.949   16.002  170.758   11.547
