~VERSION INFORMATION
 VERS.                 2.0:   CWLS LOG ASCII STANDARD -VERSION 2.0
 WRAP.                  NO:   ONE LINE PER DEPTH STEP
~WELL INFORMATION BLOCK
#MNEM.UNIT           DATA                    DESCRIPTION OF MNEMONIC
#---------    -------------------            -------------------------------
# Generated from Intellog Unique Number	CW_70_72/WELL/3020
NULL.         -999.25                        : NULL_VALUE
WELL.         SUNDANCE ET AL CALLS 10-08     : Well_name    - WELL              
LOC .         10-08-070-23W4                 : Location     - LOCATION          
UWI .         00/10-08-070-23W4/0            : Uwi          - UNIQUE WELL ID    
ENTR.         jj                             : Entered      - ENTERED BY        
SRVC.         SCHLUMBERGER                   : Scn          - SERVICE COMPANY   
DATE.         17 MAR 76                      : Date         - LOG DATE
STRT.M        396.24                         : top_depth    - START DEPTH       
STOP.M        575.99                         : bot_depth    - STOP DEPTH        
STEP.M        0.25                           : increment    - STEP LENGTH       
~CURVE INFORMATION BLOCK
#MNEM UNIT       ERCB CURVE CODE    CURVE DESCRIPTION
#-----------   ------------------   ----------------------------------
DEPT.M        00 001 00 00         : DEPTH        - DEPTH                       
ILD .OHMM     00 120 00 00         : RESD         - DEEP RESISTIVITY (DIL)      
CALI.MM       00 280 01 00         : CAL          - CALIPER                     
GR  .API      00 310 00 00         : GR           - GAMMA RAY                   
NPHI.V/V      00 330 00 00         : PHIN         - NEUTRON POROSITY (SANDSTONE)
DPHI.V/V      00 890 00 00         : PHID         - DENSITY POROSITY (SANDSTONE)
~PARAMETER INFORMATION       
#MNEM.UNIT           DATA             DESCRIPTION OF MNEMONIC
#---------         -----------     ------------------------------
GL  .M        615.391              : gl           - GROUND LEVEL ELEVATION      
EREF.M        618.744              : kb           - ELEVATION OF DEPTH REFERENCE
DATM.M        615.391              : datum        - DATUM ELEVATION             
TDD .M        586.74               : tdd          - TOTAL DEPTH DRILLER         
RUN .         ONE                  : Run          - RUN NUMBER                  
BASE.         EDM                  : Branch       - HOME BASE OF LOGGING UNIT   
MUD .         GEL CHEM             : Mud_type     - MUD TYPE                    
MATR.         SANDSTONE            : Logunit      - NEUTRON MATRIX              
TMAX.C        26.1111              : BHT          - MAXIMUM RECORDED TEMPERATURE
BHTD.M        586.74               : BHTDEP       - MAXIMUM RECORDED TEMPERATURE
RMT .C        -17.7778             : MDTP         - TEMPERATURE OF MUD          
MUDD.KG/M     1068                 : MWT          - MUD DENSITY                 
NEUT.         1                    : NEUTRON      - NEUTRON TYPE                
RESI.         0                    : RESIST       - RESISTIVITY TYPE            
RM  .OHMM     2.65                 : RM           - RESISTIVITY OF MUD          
RMC .OHMM     0.25                 : RMC          - RESISTIVITY OF MUD CAKE     
RMF .OHMM     2.72                 : RMF          - RESISTIVITY OF MUD FILTRATE 
SUFT.C        -17.7778             : SUFT         - SURFACE TEMPERATURE         
~A  DEPTH     RESD      CAL       GR     PHIN     PHID
# ...
  542.240    6.118  143.832  108.375    0.362    0.103
  542.490    6.055  144.006  116.755    0.354    0.129
  542.740    5.986  144.279  118.734    0.367    0.153
  542.990    5.986  144.460  117.932    0.377    0.145
  543.240    5.998  144.749  118.690    0.388    0.150
  543.490    6.049  144.816  122.220    0.396    0.156
  543.740    6.136  144.987  125.235    0.399    0.140
  543.990    6.321  144.959  124.629    0.404    0.129
  544.240    6.359  145.018  124.217    0.393    0.142
  544.490    6.439  145.416  126.003    0.374    0.140
  544.740    6.519  145.481  128.177    0.365    0.131
  544.990    6.714  145.543  127.762    0.382    0.120
  545.240    6.923  145.394  124.562    0.399    0.160
  545.490    7.243  145.015  122.017    0.389    0.131
  545.740    8.286  144.871  118.822    0.371    0.146
  545.990    8.473  144.612  112.914    0.358    0.155
  546.240    9.280  144.576   98.722    0.370    0.153
  546.490   10.111  144.316   90.222    0.334    0.139
  546.740   10.463  144.162   91.106    0.293    0.093
  546.990   10.368  144.010   98.390    0.278    0.067
  547.240   10.174  143.627  100.629    0.300    0.077
  547.490   10.043  144.029   89.090    0.351    0.125
  547.740   11.085  143.980   69.207    0.385    0.127
  547.990   12.963  144.269   57.219    0.225    0.068
  548.240   16.079  144.121   52.470    0.183   -0.005
  548.490   18.575  144.296   55.550    0.170   -0.003
  548.740   18.131  144.245   73.375    0.183    0.018
  548.990   14.087  144.652   87.838    0.290    0.069
  549.240   10.964  145.707  104.567    0.343    0.104
  549.490    8.549  146.204  112.041    0.365    0.101
  549.740    6.789  146.264  109.761    0.376    0.100
  549.990    6.716  146.888  108.182    0.389    0.111
  550.240    6.750  147.063  106.925    0.397    0.104
  550.490    6.873  147.352  107.155    0.392    0.095
  550.740    6.972  147.413  107.398    0.358    0.106
  550.990    7.176  147.915  107.045    0.350    0.085
  551.240    7.681  149.189  106.955    0.354    0.095
  551.490    8.022  149.701  106.220    0.350    0.108
  551.740    8.227  149.983  105.485    0.337    0.085
  551.990    8.344  149.836  102.552    0.332    0.078
  552.240    8.190  149.896  101.482    0.334    0.097
  552.490    7.937  149.863  110.709    0.343    0.112
  552.740    7.405  149.820  112.430    0.361    0.125
  552.990    7.137  149.765  114.410    0.373    0.141
  553.240    7.017  149.620  118.329    0.358    0.120
  553.490    7.184  149.574  114.810    0.351    0.117
  553.740    7.841  149.314  112.520    0.349    0.097
  553.990    8.451  148.626  117.612    0.345    0.074
  554.240    8.385  148.031  120.168    0.333    0.085
  554.490    8.053  147.227  116.522    0.352    0.101
  554.740    7.791  146.839  112.296    0.383    0.114
  554.990    7.717  146.146  113.237    0.374    0.124
  555.240    8.210  146.226  118.843    0.360    0.127
  555.490    8.862  146.614  119.138    0.361    0.120
  555.740    9.361  146.563  117.107    0.361    0.110
  555.990    9.459  146.627  114.435    0.346    0.093
  556.240    9.235  146.484  114.537    0.323    0.071
  556.490    8.788  146.448  118.913    0.319    0.052
  556.740    8.097  147.381  121.535    0.328    0.091
  556.990    7.648  148.652  125.003    0.349    0.103
  557.240    7.315  148.935  129.051    0.344    0.106
  557.490    7.014  149.123  134.977    0.340    0.111
  557.740    7.037  149.289  137.741    0.350    0.124
  557.990    7.341  149.143  137.391    0.366    0.136
  558.240    7.640  149.107  135.619    0.371    0.140
  558.490    7.905  149.068  127.831    0.350    0.110
  558.740    8.150  148.695  118.619    0.328    0.066
  558.990    8.208  148.637  115.301    0.317    0.047
  559.240    8.177  148.379  120.829    0.318    0.050
  559.490    7.868  148.331  123.715    0.338    0.094
  559.740    7.230  148.519  117.159    0.336    0.124
  559.990    6.044  148.582  114.286    0.328    0.100
  560.240    5.006  149.319  123.260    0.326    0.105
  560.490    4.124  149.386  132.089    0.345    0.112
  560.740    3.728  149.448  139.178    0.490    0.119
  560.990    3.851  149.292  136.892    0.524    0.137
  561.240    4.589  147.828  125.676    0.444    0.118
  561.490    5.619  145.923  113.491    0.350    0.104
  561.740    6.957  144.454  103.762    0.322    0.061
  561.990    7.690  143.641  110.279    0.316    0.070
  562.240    8.228  143.162  109.666    0.351    0.105
  562.490    8.135  142.793  110.286    0.343    0.093
  562.740    7.559  142.655  113.955    0.345    0.074
  562.990    7.207  142.495  122.201    0.349    0.066
  563.240    7.023  142.660  136.082    0.338    0.049
  563.490    6.856  142.842  131.339    0.338    0.111
  563.740    6.731  142.576  123.557    0.352    0.095
  563.990    6.766  142.858  118.736    0.391    0.063
  564.240    7.015  143.263  108.881    0.377    0.050
  564.490    7.600  143.982   92.690    0.300    0.025
  564.740    8.589  144.374   81.925    0.256   -0.004
  564.990    9.290  144.882   98.779    0.259    0.045
  565.240    9.491  145.493  120.682    0.308    0.092
  565.490    9.083  145.563  124.988    0.336    0.090
  565.740    8.182  145.628  124.912    0.364    0.083
  565.990    7.411  145.366  125.135    0.378    0.069
  566.240    6.653  144.784  126.605    0.384    0.069
  566.490    6.331  144.523  128.122    0.379    0.096
  566.740    6.203  144.258  131.986    0.373    0.095
  566.990    6.078  143.893  131.695    0.362    0.082
  567.240    6.065  143.850  126.694    0.387    0.118
  567.490    6.064  143.477  122.469    0.387    0.108
  567.740    6.053  143.103  120.302    0.372    0.069
  567.990    6.028  143.070  133.665    0.386    0.066
  568.240    6.015  143.021  132.477    0.411    0.087
  568.490    5.906  143.092  124.752    0.401    0.066
  568.740    5.838  143.036  128.936    0.385    0.070
  568.990    5.628  142.670  133.887    0.382    0.119
  569.240    5.326  142.513  131.601    0.398    0.100
  569.490    5.190  141.825  130.151    0.409    0.109
  569.740    5.238  141.453  130.191    0.404    0.096
  569.990    5.322  141.195  127.578    0.386    0.086
  570.240    5.399  140.703  129.174    0.369    0.084
  570.490    5.157  140.222  134.907    0.380    0.081
  570.740    4.774  140.181  136.566    0.419    0.075
  570.990    4.412  140.684  135.118    0.443    0.081
  571.240    4.191  141.197  131.334    0.429    0.081
  571.490    4.115  141.697  129.367    0.391    0.063
  571.740    4.228  142.316  130.575    0.378    0.077
  571.990    4.400  142.822  132.491    0.368    0.089
  572.240    4.647  142.990  137.578    0.380    0.093
  572.490    4.845  143.389  139.100    0.406    0.110
  572.740    4.987  143.567  140.113    0.393    0.102
  572.990    5.153  143.743  151.079    0.373    0.095
  573.240    5.363  143.916  155.649    0.351    0.097
  573.490    5.716  143.347  156.073    0.351    0.093
  573.740    6.147  143.291  129.921    0.376    0.068
  573.990    6.684  143.155   80.996    0.385    0.081
  574.240    7.296  143.104   47.920    0.391    0.123
  574.490    7.891  142.936   27.328    0.389    0.099
  574.740    8.302  141.367   16.438    0.365    0.086
  574.990    7.871  138.037   15.247    0.354    0.072
  575.240    6.664  135.143   18.655    0.364    0.101
  575.490    5.673  131.715   19.853    0.407    0.170
  575.740    4.630  131.334   19.505    0.441    0.205
  575.990    3.835  130.746   17.605    0.457    0.222
