~VERSION INFORMATION
 VERS.                 2.0:   CWLS LOG ASCII STANDARD -VERSION 2.0
 WRAP.                  NO:   ONE LINE PER DEPTH STEP
~WELL INFORMATION BLOCK
#MNEM.UNIT           DATA                    DESCRIPTION OF MNEMONIC
#---------    -------------------            -------------------------------
# Generated from Intellog Unique Number	CC_80_83/WELL/2390
NULL.         -999.25                        : NULL_VALUE
WELL.         GULF RESDELN                   : Well_name    - WELL              
LOC .         10-35-083-06W4                 : Location     - LOCATION          
UWI .         00/10-35-083-06W4/0            : Uwi          - UNIQUE WELL ID    
ENTR.         DW                             : Entered      - ENTERED BY        
SRVC.         SCHLUMBERGER                   : Scn          - SERVICE COMPANY   
DATE.         09 FEB 79                      : Date         - LOG DATE
STRT.M        135                            : top_depth    - START DEPTH       
STOP.M        374.996                        : bot_depth    - STOP DEPTH        
STEP.M        0.3                            : increment    - STEP LENGTH       
~CURVE INFORMATION BLOCK
#MNEM UNIT       ERCB CURVE CODE    CURVE DESCRIPTION
#-----------   ------------------   ----------------------------------
DEPT.M        00 001 00 00         : DEPTH        - DEPTH                       
DPHI.V/V      00 890 00 00         : PHID         - DENSITY POROSITY (LIMESTONE)
NPHI.V/V      00 330 00 00         : PHIN         - NEUTRON POROSITY (LIMESTONE)
GR  .API      00 310 00 00         : GR           - GAMMA RAY                   
ILD .OHMM     00 120 00 00         : RESD         - DEEP RESISTIVITY (DIL)      
~PARAMETER INFORMATION       
#MNEM.UNIT           DATA             DESCRIPTION OF MNEMONIC
#---------         -----------     ------------------------------
GL  .M        542.64               : gl           - GROUND LEVEL ELEVATION      
EREF.M        546.14               : kb           - ELEVATION OF DEPTH REFERENCE
DATM.M        546.14               : datum        - DATUM ELEVATION             
TDD .M        380                  : tdd          - TOTAL DEPTH DRILLER         
RUN .         ONE                  : Run          - RUN NUMBER                  
ENG .         BILL                 : Engineer     - RECORDING ENGINEER          
WIT .         JIM                  : Witness      - WITNESSED BY                
MUD .         GEL                  : Mud_type     - MUD TYPE                    
MATR.         LIMESTONE            : Logunit      - NEUTRON MATRIX              
TMAX.C        25                   : BHT          - MAXIMUM RECORDED TEMPERATURE
BHTD.M        380                  : BHTDEP       - MAXIMUM RECORDED TEMPERATURE
MATR.         1                    : LOGUNIT      - NEUTRON MATRIX              
RMT .C        25                   : MDTP         - TEMPERATURE OF MUD          
NEUT.         1                    : NEUTRON      - NEUTRON TYPE                
RESI.         0                    : RESIST       - RESISTIVITY TYPE            
RMC .OHMM     0.25                 : RMC          - RESISTIVITY OF MUD CAKE     
RMF .OHMM     0.25                 : RMF          - RESISTIVITY OF MUD FILTRATE 
SUFT.C        4                    : SUFT         - SURFACE TEMPERATURE         
~A  DEPTH     PHID     PHIN       GR     RESD
# ...
  291.600    0.254    0.431   61.927    7.987
  291.900    0.268    0.386   58.813    9.094
  292.200    0.274    0.363   59.390   10.361
  292.500    0.253    0.354   61.800   12.251
  292.800    0.242    0.365   63.590   16.227
  293.100    0.248    0.387   62.944   19.559
  293.400    0.273    0.399   59.221   19.504
  293.700    0.287    0.412   57.343   18.397
  294.000    0.306    0.406   56.682   15.488
  294.300    0.274    0.406   59.713   12.555
  294.600    0.248    0.422   66.424   10.975
  294.900    0.236    0.421   68.222   11.368
  295.200    0.233    0.403   65.725   12.709
  295.500    0.246    0.401   62.614   15.316
  295.800    0.276    0.410   54.594   25.446
  296.100    0.301    0.427   43.505   41.473
  296.400    0.316    0.409   41.004   40.615
  296.700    0.323    0.413   40.352   31.704
  297.000    0.326    0.434   38.467   18.293
  297.300    0.305    0.405   39.653   11.821
  297.600    0.283    0.371   47.596    8.717
  297.900    0.254    0.375   66.587    7.474
  298.200    0.235    0.377   72.679    7.318
  298.500    0.248    0.358   80.619    7.578
  298.799    0.251    0.369   81.185    7.862
  299.099    0.257    0.409   74.400    9.120
  299.399    0.271    0.426   73.746   10.585
  299.699    0.291    0.446   70.636   11.825
  299.999    0.297    0.457   61.383   12.725
  300.299    0.275    0.438   58.888   12.703
  300.599    0.285    0.406   62.531   11.975
  300.899    0.303    0.408   63.101   10.869
  301.199    0.325    0.432   63.054   10.247
  301.499    0.271    0.417   67.932   10.033
  301.799    0.277    0.408   64.207    9.824
  302.099    0.283    0.399   64.781    9.620
  302.399    0.269    0.378   71.492   10.160
  302.699    0.228    0.381   71.445   12.953
  302.999    0.233    0.398   58.518   15.616
  303.299    0.265    0.410   50.488   28.513
  303.599    0.300    0.448   46.771   34.372
  303.899    0.315    0.445   44.887   37.691
  304.199    0.334    0.448   49.757   42.097
  304.499    0.321    0.421   54.011   42.014
  304.799    0.316    0.409   50.902   38.151
  305.099    0.331    0.426   45.950   30.334
  305.399    0.335    0.435   52.659   23.243
  305.699    0.320    0.431   65.509   17.137
  305.999    0.287    0.447   70.383   14.156
  306.299    0.267    0.433   73.409   14.395
  306.599    0.270    0.421   72.755   20.181
  306.899    0.264    0.420   68.414   27.761
  307.199    0.287    0.438   56.712   45.261
  307.499    0.311    0.455   48.688   59.947
  307.799    0.333    0.454   44.350   58.698
  308.099    0.347    0.430   49.219   58.555
  308.399    0.327    0.422   49.789   64.195
  308.699    0.302    0.439   47.294   75.947
  308.999    0.315    0.466   48.481  106.448
  309.299    0.324    0.450   49.664  140.987
  309.599    0.327    0.434   44.716  183.273
  309.899    0.314    0.422   46.518  220.907
  310.199    0.303    0.433   45.861  237.718
  310.499    0.299    0.450   37.225  255.737
  310.799    0.322    0.429   33.503  264.959
  311.099    0.334    0.403   31.006  264.425
  311.399    0.324    0.405   30.960  263.868
  311.699    0.327    0.417   32.763  273.320
  311.999    0.321    0.405   33.938  288.400
  312.299    0.312    0.416   33.289  298.997
  312.599    0.307    0.407   30.176  328.024
  312.899    0.314    0.402   30.754  380.652
  313.199    0.319    0.404   33.166  417.352
  313.499    0.314    0.412   32.510  331.903
  313.799    0.310    0.425   31.246  244.846
  314.099    0.311    0.434   32.431  167.456
  314.399    0.315    0.440   35.456  133.184
  314.699    0.326    0.451   40.330  120.870
  314.999    0.327    0.460   44.583  135.139
  315.299    0.329    0.465   43.316  178.886
  315.599    0.351    0.471   35.908  162.430
  315.899    0.359    0.472   32.794  144.728
  316.199    0.362    0.445   33.979  133.876
  316.499    0.345    0.425   33.942  131.125
  316.799    0.344    0.430   33.287  125.969
  317.099    0.349    0.445   33.247  116.512
  317.399    0.353    0.432   35.042  105.784
  317.699    0.350    0.444   35.621   97.866
  317.999    0.347    0.454   34.965   88.822
  318.299    0.344    0.441   35.532   85.365
  318.599    0.353    0.459   35.497   88.468
  318.899    0.353    0.457   32.999   91.650
  319.199    0.343    0.436   31.724   94.942
  319.499    0.345    0.440   31.687   94.742
  319.799    0.338    0.446   32.262   94.573
  320.099    0.338    0.432   32.222   73.817
  320.399    0.339    0.427   32.789   26.561
  320.699    0.333    0.440   36.426   14.757
  320.999    0.338    0.451   48.056    6.536
  321.299    0.304    0.433   59.067    4.911
  321.599    0.249    0.400   57.184    3.907
  321.899    0.283    0.404   53.454    3.416
  322.199    0.297    0.384   60.169    3.279
  322.499    0.233    0.359   82.224    3.336
  322.799    0.195    0.377   87.092    3.457
  323.099    0.201    0.407   90.128    3.719
  323.398    0.223    0.425   92.540    4.002
  323.698    0.203    0.457   90.654    4.387
  323.998    0.199    0.440   88.776    4.463
  324.298    0.201    0.435   89.349    4.710
  324.598    0.199    0.434   89.916    4.792
  324.898    0.208    0.439   91.850    4.365
  325.198    0.242    0.432   91.701    4.266
  325.498    0.204    0.427   91.566    4.091
  325.798    0.221    0.425   87.740    3.702
  326.098    0.237    0.424   88.211    3.421
  326.398    0.239    0.444   85.024    2.985
  326.698    0.174    0.448   79.363    2.556
  326.998    0.173    0.389   73.108    2.065
  327.298    0.189    0.389   68.072    2.096
  327.598    0.196    0.409   71.623    2.339
  327.898    0.219    0.401   90.442    2.979
  328.198    0.234    0.402   90.301    3.385
  328.498    0.256    0.422   86.510    3.245
  328.798    0.284    0.433   77.800    2.726
  329.098    0.320    0.446   65.385    2.007
  329.398    0.329    0.392   56.083    1.344
  329.698    0.325    0.390   41.240    1.066
  329.998    0.318    0.388   33.754    0.947
  330.298    0.315    0.381   31.140    0.890
  330.598    0.323    0.381   30.364    0.871
  330.898    0.340    0.380   30.904    0.850
  331.198    0.349    0.391   30.139    0.848
  331.498    0.342    0.415   28.771    0.843
  331.798    0.337    0.401   28.601    0.840
  332.098    0.334    0.390   29.064    0.836
  332.398    0.335    0.379   31.417    0.834
  332.698    0.345    0.374   36.191    0.830
  332.998    0.350    0.382   36.659    0.810
  333.298    0.346    0.405   32.217    0.807
  333.598    0.341    0.399   30.222    0.789
  333.898    0.343    0.397   30.700    0.787
  334.198    0.347    0.402   31.189    0.754
  334.498    0.351    0.421   32.913    0.736
  334.798    0.354    0.439   32.751    0.718
  335.098    0.349    0.427   30.782    0.716
  335.398    0.338    0.405   33.091    0.701
  335.698    0.341    0.385   34.191    0.696
  335.998    0.345    0.404   34.671    0.695
  336.298    0.332    0.393   34.471    0.731
  336.598    0.311    0.390   35.573    0.770
  336.898    0.296    0.383   37.311    0.844
  337.198    0.290    0.382   44.525    0.942
  337.498    0.277    0.399   54.797    1.112
  337.798    0.261    0.389   55.858    1.262
  338.098    0.264    0.399   54.510    1.307
  338.398    0.268    0.408   53.121    1.301
  338.698    0.268    0.397   51.786    1.270
  338.998    0.273    0.374   49.196    1.194
  339.298    0.283    0.378   44.133    1.125
  339.598    0.301    0.417   42.179    1.020
  339.898    0.298    0.398   43.878    0.923
  340.198    0.180    0.372   40.676    0.938
  340.498    0.201    0.344   41.136    1.470
  340.798    0.219    0.386   80.207    2.218
  341.098    0.233    0.404   80.066    2.668
  341.398    0.248    0.400   76.255    2.557
  341.698    0.279    0.388   68.766    2.149
  341.998    0.259    0.402   60.055    1.706
  342.298    0.263    0.392   51.354    1.303
  342.598    0.293    0.400   49.989    1.035
  342.898    0.312    0.404   48.605    0.902
  343.198    0.254    0.396   52.772    0.916
  343.498    0.276    0.383   65.491    1.123
