~VERSION INFORMATION
 VERS.                 2.0:   CWLS LOG ASCII STANDARD -VERSION 2.0
 WRAP.                  NO:   ONE LINE PER DEPTH STEP
~WELL INFORMATION BLOCK
#MNEM.UNIT           DATA                    DESCRIPTION OF MNEMONIC
#---------    -------------------            -------------------------------
# Generated from Intellog Unique Number	CS_71_72/WELL/900
WELL.         SULPETRO ET AL IPIATIK         : Well_name    - WELL
LOC .         00/11-17-072-10W4/0            : Location     - LOCATION
UWI .         00/11-17-072-10W4/0            : Uwi          - UNIQUE WELL ID
ENTR.         SP                             : Entered      - ENTERED BY
SRVC.         SCHLUMBERGER                   : Scn          - SERVICE COMPANY
STRT.M        300                            : top_depth    - START DEPTH
STOP.M        520                            : bot_depth    - STOP DEPTH
STEP.M        0.25                           : increment    - STEP LENGTH
 NULL. -999.2500:NULL Value
~CURVE INFORMATION BLOCK
#MNEM UNIT       ERCB CURVE CODE    CURVE DESCRIPTION
#-----------   ------------------   ----------------------------------
DEPT.M        00 001 00 00         : DEPTH        - DEPTH
ILD .OHMM     00 120 00 00         : RESD         - DEEP RESISTIVITY (DIL)
DPHI.V/V      00 890 00 00         : PHID         - DENSITY POROSITY (LIMESTONE)
NPHI.V/V      00 330 00 00         : PHIN         - NEUTRON POROSITY (LIMESTONE)
GR  .API      00 310 00 00         : GR           - GAMMA RAY
~PARAMETER INFORMATION
#MNEM.UNIT           DATA             DESCRIPTION OF MNEMONIC
#---------         -----------     ------------------------------
GL  .M        651.83               : gl           - GROUND LEVEL ELEVATION
EREF.M        655.44               : kb           - ELEVATION OF DEPTH REFERENCE
DATM.M        651.83               : datum        - DATUM ELEVATION
TDD .M        524                  : tdd          - TOTAL DEPTH DRILLER
RUN .         ONE                  : Run          - RUN NUMBER
ENG .         BILL                 : Engineer     - RECORDING ENGINEER
WIT .         JIM                  : Witness      - WITNESSED BY
MUD .         GEL                  : Mud_type     - MUD TYPE
MATR.         LIMESTONE            : Logunit      - NEUTRON MATRIX
TMAX.C        30                   : BHT          - MAXIMUM RECORDED TEMPERATURE
BHTD.M        524                  : BHTDEP       - MAXIMUM RECORDED TEMPERATURE
MATR.         1                    : LOGUNIT      - NEUTRON MATRIX
RMT .C        25                   : MDTP         - TEMPERATURE OF MUD
NEUT.         1                    : NEUTRON      - NEUTRON TYPE
RESI.         0                    : RESIST       - RESISTIVITY TYPE
RMC .OHMM     0.25                 : RMC          - RESISTIVITY OF MUD CAKE
RMF .OHMM     0.25                 : RMF          - RESISTIVITY OF MUD FILTRATE
SUFT.C        15                   : SUFT         - SURFACE TEMPERATURE
~A  DEPTH     RESD     PHID     PHIN       GR
# ...
  430.500    4.445    0.272    0.415   82.631
  430.750    4.529    0.274    0.431   82.013
  431.000    4.702    0.276    0.415   79.559
  431.250    4.701    0.283    0.396   78.939
  431.500    4.880    0.287    0.391   78.928
  431.750    4.972    0.297    0.403   79.527
  432.000    5.066    0.291    0.409   81.957
  432.250    5.161    0.281    0.418   84.385
  432.500    5.259    0.273    0.446   80.105
  432.750    5.357    0.274    0.433   80.093
  433.000    5.459    0.269    0.422   81.912
  433.250    5.667    0.262    0.435   81.291
  433.500    5.666    0.261    0.440   82.496
  433.750    5.773    0.257    0.445   83.708
  434.000    5.881    0.254    0.423   82.478
  434.250    5.880    0.255    0.408   81.857
  434.500    5.879    0.260    0.412   81.842
  434.750    5.990    0.256    0.418   81.837
  435.000    5.989    0.256    0.434   81.824
  435.250    6.102    0.259    0.443   84.858
  435.500    6.100    0.246    0.434   86.069
  435.750    6.216    0.240    0.417   86.669
  436.000    6.214    0.237    0.407   85.436
  436.250    6.213    0.236    0.394   84.814
  436.500    6.212    0.228    0.387   84.194
  436.750    6.095    0.223    0.401   84.186
  437.000    5.869    0.216    0.423   85.395
  437.250    5.443    0.214    0.445   89.038
  437.500    5.241    0.214    0.388   91.466
  437.750    4.180    0.215    0.393   92.066
  438.000    3.664    0.222    0.447   91.448
  438.250    2.868    0.227    0.477   94.484
  438.500    2.561    0.233    0.499   97.522
  438.750    2.375    0.244    0.514   98.728
  439.000    2.466    0.253    0.531   98.719
  439.250    2.813    0.222    0.533   98.707
  439.500    3.032    0.226    0.519   98.697
  439.750    3.269    0.232    0.475   97.466
  440.000    3.659    0.247    0.431   94.405
  440.250    4.019    0.262    0.425   90.127
  440.500    4.415    0.274    0.429   82.797
  440.750    4.671    0.281    0.396   84.616
  441.000    4.670    0.259    0.371   90.701
  441.250    4.669    0.241    0.392   95.570
  441.500    4.848    0.234    0.408   96.778
  441.750    5.325    0.241    0.442   90.667
  442.000    6.074    0.223    0.431   87.002
  442.250    6.798    0.185    0.402   81.500
  442.500    7.468    0.104    0.346   77.832
  442.750    7.609    0.114    0.329   75.385
  443.000    6.924    0.130    0.353   74.762
  443.250    6.301    0.148    0.364   79.017
  443.500    6.183    0.178    0.395   83.274
  443.750    5.733    0.201    0.416   85.703
  444.000    5.626    0.223    0.428   85.693
  444.250    5.624    0.225    0.417   84.463
  444.500    5.623    0.222    0.420   85.061
  444.750    5.729    0.211    0.406   87.487
  445.000    5.729    0.203    0.424   89.308
  445.250    5.836    0.200    0.446   90.518
  445.500    5.835    0.202    0.424   88.068
  445.750    5.834    0.202    0.407   89.883
  446.000    5.833    0.202    0.400   91.704
  446.250    5.724    0.202    0.394   92.302
  446.500    5.723    0.201    0.402   91.680
  446.750    5.722    0.201    0.419   91.670
  447.000    5.614    0.200    0.433   92.877
  447.250    5.613    0.207    0.416   94.086
  447.500    5.612    0.212    0.399   93.463
  447.750    5.611    0.222    0.434   92.234
  448.000    5.610    0.229    0.431   92.832
  448.250    5.609    0.236    0.411   95.256
  448.500    5.608    0.239    0.396   97.076
  448.750    5.607    0.239    0.405   98.898
  449.000    5.606    0.223    0.397  100.717
  449.250    5.606    0.214    0.387   97.655
  449.500    5.604    0.209    0.388   96.425
  449.750    5.499    0.200    0.403   91.534
  450.000    5.498    0.199    0.408   93.353
  450.250    5.497    0.202    0.394   97.611
  450.500    5.394    0.215    0.393   97.602
  450.750    5.392    0.220    0.427   97.584
  451.000    5.291    0.215    0.427  101.235
  451.250    5.192    0.213    0.398  106.103
  451.500    4.999    0.224    0.369  109.142
  451.750    4.724    0.231    0.400  105.473
  452.000    4.549    0.241    0.403   95.094
  452.250    4.298    0.227    0.416   92.647
  452.500    4.139    0.218    0.414   93.851
  452.750    3.838    0.214    0.404   96.891
  453.000    3.627    0.212    0.423   96.879
  453.250    3.239    0.215    0.436   95.041
  453.500    2.734    0.236    0.442   93.810
  453.750    2.396    0.246    0.459   92.578
  454.000    2.222    0.253    0.476   91.350
  454.250    2.060    0.247    0.567   92.550
  454.500    2.021    0.243    0.526   93.763
  454.750    1.983    0.240    0.480   97.410
  455.000    2.021    0.246    0.472  100.450
  455.250    2.178    0.253    0.486  101.660
  455.500    2.304    0.256    0.507  100.427
  455.750    2.531    0.246    0.524  102.244
  456.000    2.942    0.227    0.459  100.406
  456.250    3.172    0.219    0.453   96.128
  456.500    3.356    0.211    0.431   91.848
  456.750    3.686    0.207    0.408   91.226
  457.000    3.827    0.216    0.411   91.825
  457.250    3.826    0.216    0.440   94.254
  457.500    3.825    0.218    0.457   93.023
  457.750    3.897    0.229    0.422   90.571
  458.000    4.123    0.223    0.416   89.340
  458.250    4.703    0.163    0.426   86.891
  458.500    5.166    0.041    0.430   83.223
  458.750    5.364    0.011    0.366   77.724
  459.000    5.464    0.026    0.334   74.056
  459.250    5.464    0.077    0.356   79.532
  459.500    5.260    0.183    0.385   82.569
  459.750    5.065    0.257    0.413   78.291
  460.000    4.786    0.262    0.401   74.621
  460.250    4.523    0.266    0.405   75.218
  460.500    4.355    0.273    0.421   76.426
  460.750    4.354    0.266    0.383   77.028
  461.000    4.272    0.253    0.376   78.233
  461.250    4.192    0.243    0.379   81.879
  461.500    4.036    0.236    0.384   83.092
  461.750    3.961    0.233    0.393   82.469
  462.000    3.743    0.217    0.421   88.556
  462.250    3.406    0.205    0.432   93.423
  462.500    3.279    0.200    0.478   97.070
  462.750    3.041    0.202    0.498   99.494
  463.000    2.984    0.213    0.483  101.921
  463.250    2.873    0.214    0.467  103.740
  463.500    2.819    0.207    0.457  104.949
  463.750    2.819    0.210    0.472  106.160
  464.000    2.818    0.210    0.493  107.975
  464.250    2.871    0.205    0.507  109.797
  464.500    2.871    0.201    0.503  111.615
  464.750    2.980    0.199    0.463  110.385
  465.000    2.980    0.202    0.421  110.372
  465.250    3.036    0.215    0.429  109.142
  465.500    3.272    0.221    0.440  107.301
  465.750    3.397    0.197    0.442  104.244
  466.000    3.272    0.171    0.441   95.692
  466.250    3.333    0.187    0.446   93.243
  466.500    3.210    0.204    0.459   96.284
  466.750    2.813    0.213    0.437  101.758
  467.000    2.608    0.202    0.424  104.187
  467.250    2.464    0.202    0.439  107.835
  467.500    2.418    0.202    0.444  111.480
  467.750    2.758    0.197    0.481  113.911
  468.000    3.088    0.192    0.512  113.898
  468.250    3.456    0.191    0.448  107.179
  468.500    3.869    0.189    0.412  100.457
  468.750    4.093    0.181    0.375   98.624
  469.000    4.412    0.178    0.378  101.049
  469.250    4.581    0.177    0.396  104.698
  469.500    4.938    0.185    0.403  105.296
  469.750    5.127    0.185    0.399   95.526
  470.000    5.632    0.185    0.364   88.198
  470.250    6.304    0.194    0.329   83.313
  470.500    7.190    0.210    0.316   75.373
  470.750    8.049    0.201    0.299   71.706
  471.000    8.841    0.044    0.284   68.648
  471.250    9.179    0.001    0.262   66.197
  471.500    9.006    0.000    0.248   69.843
  471.750    6.790    0.188    0.265   75.928
  472.000    5.519    0.244    0.288   79.578
  472.250    4.837    0.272    0.312   77.125
  472.500    4.402    0.281    0.318   75.898
  472.750    4.159    0.272    0.323   77.715
  473.000    4.005    0.273    0.334   74.043
  473.250    3.930    0.281    0.347   70.377
  473.500    3.929    0.290    0.349   63.049
  473.750    3.855    0.290    0.343   59.380
