~VERSION INFORMATION
 VERS.                 2.0:   CWLS LOG ASCII STANDARD -VERSION 2.0
 WRAP.                  NO:   ONE LINE PER DEPTH STEP
~WELL INFORMATION BLOCK
#MNEM.UNIT           DATA                    DESCRIPTION OF MNEMONIC
#---------    -------------------            -------------------------------
# Generated from Intellog Unique Number	CS_73_76/WELL/3264
WELL.         BOW VALLEY INDUSTRIES LTD      : Well_name    - WELL
LOC .         00/11-18-075-12W4/0            : Location     - LOCATION
UWI .         00/11-18-075-12W4/0            : Uwi          - UNIQUE WELL ID
ENTR.         SP                             : Entered      - ENTERED BY
SRVC.         SCHLUMBERGER                   : Scn          - SERVICE COMPANY
STRT.M        315                            : top_depth    - START DEPTH
STOP.M        534                            : bot_depth    - STOP DEPTH
STEP.M        0.25                           : increment    - STEP LENGTH
 NULL. -999.2500:NULL Value
~CURVE INFORMATION BLOCK
#MNEM UNIT       ERCB CURVE CODE    CURVE DESCRIPTION
#-----------   ------------------   ----------------------------------
DEPT.M        00 001 00 00         : DEPTH        - DEPTH
ILD .OHMM     00 120 00 00         : RESD         - DEEP RESISTIVITY (DIL)
NPHI.V/V      00 330 00 00         : PHIN         - NEUTRON POROSITY (LIMESTONE)
DPHI.V/V      00 890 00 00         : PHID         - DENSITY POROSITY (LIMESTONE)
GR  .API      00 310 00 00         : GR           - GAMMA RAY
~PARAMETER INFORMATION
#MNEM.UNIT           DATA             DESCRIPTION OF MNEMONIC
#---------         -----------     ------------------------------
GL  .M        685.02               : gl           - GROUND LEVEL ELEVATION
EREF.M        688.37               : kb           - ELEVATION OF DEPTH REFERENCE
DATM.M        685.02               : datum        - DATUM ELEVATION
TDD .M        544                  : tdd          - TOTAL DEPTH DRILLER
RUN .         ONE                  : Run          - RUN NUMBER
ENG .         BILL                 : Engineer     - RECORDING ENGINEER
WIT .         JIM                  : Witness      - WITNESSED BY
MUD .         GEL                  : Mud_type     - MUD TYPE
MATR.         LIMESTONE            : Logunit      - NEUTRON MATRIX
TMAX.C        23.9                 : BHT          - MAXIMUM RECORDED TEMPERATURE
BHTD.M        537                  : BHTDEP       - MAXIMUM RECORDED TEMPERATURE
MATR.         1                    : LOGUNIT      - NEUTRON MATRIX
RMT .C        25                   : MDTP         - TEMPERATURE OF MUD
NEUT.         1                    : NEUTRON      - NEUTRON TYPE
RESI.         0                    : RESIST       - RESISTIVITY TYPE
RMC .OHMM     0.25                 : RMC          - RESISTIVITY OF MUD CAKE
RMF .OHMM     0.25                 : RMF          - RESISTIVITY OF MUD FILTRATE
SUFT.C        15                   : SUFT         - SURFACE TEMPERATURE
~A  DEPTH     RESD     PHIN     PHID       GR
# ...
  402.000    3.661    0.503    0.236  106.468
  402.250    3.216    0.517    0.242  107.067
  402.500    2.773    0.504    0.253  103.431
  402.750    2.527    0.505    0.261  105.842
  403.000    2.435    0.514    0.253  107.651
  403.250    2.526    0.521    0.252  108.248
  403.500    2.668    0.537    0.246  108.242
  403.750    2.768    0.541    0.240  105.815
  404.000    3.034    0.530    0.249  103.994
  404.250    3.148    0.538    0.256  107.011
  404.500    3.581    0.544    0.286   99.141
  404.750    4.073    0.548    0.301   91.271
  405.000    4.466    0.511    0.318   83.403
  405.250    5.081    0.476    0.306   77.348
  405.500    5.674    0.435    0.290   83.387
  405.750    6.221    0.460    0.301   87.011
  406.000    5.465    0.478    0.303   94.262
  406.250    3.990    0.499    0.267  105.747
  406.500    3.378    0.524    0.266  113.601
  406.750    2.467    0.556    0.277  114.200
  407.000    2.051    0.586    0.284  110.563
  407.250    2.127    0.584    0.273  106.323
  407.500    2.653    0.531    0.277   97.847
  407.750    2.856    0.462    0.286   91.189
  408.000    3.836    0.458    0.300   86.343
  408.250    4.699    0.475    0.306   88.753
  408.500    5.972    0.470    0.292   89.958
  408.750    6.920    0.433    0.285   89.953
  409.000    7.178    0.444    0.278   89.942
  409.250    7.176    0.458    0.274   89.939
  409.500    6.913    0.462    0.274   90.537
  409.750    6.784    0.455    0.293   90.530
  410.000    6.780    0.463    0.291   92.338
  410.250    6.779    0.475    0.274   92.331
  410.500    6.903    0.466    0.297   89.300
  410.750    6.901    0.456    0.300   86.872
  411.000    6.896    0.444    0.303   85.656
  411.250    6.894    0.450    0.324   86.858
  411.500    6.893    0.456    0.317   89.272
  411.750    6.890    0.469    0.310   91.684
  412.000    6.888    0.463    0.301   88.653
  412.250    6.886    0.451    0.307   90.459
  412.500    6.756    0.446    0.307   91.057
  412.750    6.754    0.458    0.295   92.261
  413.000    6.628    0.451    0.281   92.255
  413.250    6.627    0.465    0.268   92.246
  413.500    6.502    0.466    0.272   92.240
  413.750    6.500    0.454    0.275   91.630
  414.000    6.498    0.477    0.293   90.411
  414.250    6.617    0.486    0.311   89.196
  414.500    6.615    0.471    0.302   92.816
  414.750    6.612    0.451    0.278   94.020
  415.000    6.610    0.450    0.279   95.826
  415.250    6.608    0.468    0.279   90.377
  415.500    6.605    0.472    0.299   86.743
  415.750    6.603    0.459    0.304   87.943
  416.000    6.723    0.459    0.295   88.542
  416.250    6.598    0.465    0.299   89.745
  416.500    6.596    0.476    0.288   92.763
  416.750    6.473    0.487    0.287   92.756
  417.000    6.352    0.490    0.289   88.516
  417.250    6.233    0.461    0.301   89.718
  417.500    6.231    0.448    0.295   85.477
  417.750    6.345    0.462    0.282   73.371
  418.000    7.086    0.447    0.253   65.504
  418.250    8.061    0.303    0.036   57.635
  418.500    9.873    0.187    0.028   50.976
  418.750   12.093    0.193    0.024   47.340
  419.000   16.245    0.230    0.040   52.171
  419.250   16.850    0.251    0.057   60.632
  419.500   12.535    0.277    0.097   71.512
  419.750    9.499    0.303    0.169   85.413
  420.000    7.749    0.368    0.203   90.247
  420.250    7.064    0.437    0.208   95.683
  420.500    6.558    0.420    0.213   98.095
  420.750    6.201    0.407    0.217   98.086
  421.000    6.087    0.431    0.224   96.871
  421.250    6.085    0.422    0.240   95.051
  421.500    6.082    0.409    0.248   92.019
  421.750    6.194    0.418    0.257   93.220
  422.000    6.191    0.412    0.245   94.427
  422.250    6.422    0.432    0.239   95.629
  422.500    6.419    0.412    0.233   95.017
  422.750    6.537    0.426    0.240   92.591
  423.000    6.535    0.447    0.241   92.584
  423.250    6.654    0.458    0.231   93.182
  423.500    6.652    0.435    0.224   93.779
  423.750    6.774    0.434    0.235   93.168
  424.000    6.771    0.430    0.244   95.580
  424.250    6.894    0.417    0.241   99.201
  424.500    6.892    0.408    0.222  101.010
  424.750    6.890    0.406    0.213   97.372
  425.000    6.887    0.424    0.217   98.575
  425.250    6.759    0.431    0.233   99.777
  425.500    6.511    0.442    0.241   98.563
  425.750    6.388    0.453    0.249   94.321
  426.000    6.387    0.466    0.253   90.081
  426.250    6.385    0.471    0.264   87.050
  426.500    6.266    0.443    0.272   86.439
  426.750    6.381    0.433    0.270   88.245
  427.000    6.261    0.446    0.272   88.239
  427.250    6.259    0.436    0.281   87.627
  427.500    6.143    0.426    0.272   88.829
  427.750    6.140    0.441    0.266   91.846
  428.000    6.138    0.446    0.277   93.051
  428.250    6.137    0.456    0.278   90.020
  428.500    6.134    0.444    0.279   91.828
  428.750    6.019    0.448    0.281   91.819
  429.000    5.907    0.457    0.285   89.999
  429.250    5.798    0.459    0.288   96.037
  429.500    5.383    0.434    0.279   99.057
  429.750    4.391    0.421    0.269  101.469
  430.000    3.787    0.456    0.245  106.299
  430.250    3.147    0.484    0.260  109.923
  430.500    2.664    0.519    0.283  112.336
  430.750    2.428    0.544    0.301  110.514
  431.000    2.297    0.547    0.292  109.298
  431.250    2.254    0.552    0.278  108.686
  431.500    2.253    0.543    0.288  107.470
  431.750    2.294    0.513    0.301  106.858
  432.000    2.424    0.503    0.278  104.431
  432.250    2.809    0.514    0.262  101.398
  432.500    3.196    0.519    0.282   98.974
  432.750    3.772    0.494    0.267   96.548
  433.000    4.060    0.489    0.260   96.542
  433.250    4.534    0.475    0.272   95.929
  433.500    4.791    0.461    0.257   95.317
  433.750    4.877    0.466    0.250   94.102
  434.000    4.967    0.469    0.257   92.280
  434.250    4.966    0.463    0.262   89.250
  434.500    5.057    0.482    0.300   80.775
  434.750    5.054    0.475    0.323   71.697
  435.000    5.053    0.416    0.342   66.246
  435.250    5.051    0.401    0.342   64.422
  435.500    5.049    0.397    0.347   63.812
  435.750    5.141    0.411    0.353   63.806
  436.000    5.139    0.423    0.355   63.799
  436.250    5.138    0.411    0.346   63.188
  436.500    5.135    0.401    0.333   63.180
  436.750    5.133    0.422    0.330   64.382
  437.000    5.132    0.410    0.339   65.583
  437.250    5.131    0.425    0.340   65.578
  437.500    5.223    0.414    0.335   64.361
  437.750    5.222    0.408    0.335   64.957
  438.000    5.318    0.425    0.334   65.556
  438.250    5.315    0.427    0.330   65.552
  438.500    5.413    0.414    0.326   66.149
  438.750    5.411    0.408    0.320   68.559
  439.000    5.509    0.414    0.327   69.764
  439.250    5.508    0.425    0.328   69.757
  439.500    5.609    0.433    0.331   66.725
  439.750    5.606    0.439    0.327   66.115
  440.000    5.709    0.422    0.324   66.107
  440.250    5.707    0.411    0.321   67.915
  440.500    5.704    0.421    0.318   70.327
  440.750    5.808    0.428    0.317   73.342
  441.000    5.806    0.444    0.315   75.153
  441.250    5.804    0.456    0.312   77.564
  441.500    5.910    0.432    0.311   77.556
  441.750    5.908    0.419    0.310   78.760
  442.000    5.906    0.421    0.310   81.174
  442.250    6.015    0.430    0.310   79.351
  442.500    6.013    0.437    0.320   77.528
  442.750    6.009    0.447    0.332   79.337
  443.000    6.008    0.436    0.337   82.353
  443.250    5.896    0.424    0.338   84.768
  443.500    5.894    0.415    0.313   88.387
  443.750    5.893    0.419    0.287   89.592
  444.000    5.782    0.440    0.269   91.400
  444.250    5.570    0.452    0.271   89.578
  444.500    5.467    0.447    0.280   92.596
  444.750    5.364    0.437    0.267   92.588
  445.000    5.264    0.430    0.279   90.159
  445.250    5.262    0.437    0.292   89.551
