~VERSION INFORMATION
 VERS.                 2.0:   CWLS LOG ASCII STANDARD -VERSION 2.0
 WRAP.                  NO:   ONE LINE PER DEPTH STEP
~WELL INFORMATION BLOCK
#MNEM.UNIT           DATA                    DESCRIPTION OF MNEMONIC
#---------    -------------------            -------------------------------
# Generated from Intellog Unique Number	CS_73_76/WELL/842
WELL.         HOUSTON OILS LIMITED           : Well_name    - WELL
LOC .         00/10-36-073-16W4/0            : Location     - LOCATION
UWI .         00/10-36-073-16W4/0            : Uwi          - UNIQUE WELL ID
ENTR.         SP                             : Entered      - ENTERED BY
SRVC.         SCHLUMBERGER                   : Scn          - SERVICE COMPANY
STRT.M        265.176                        : top_depth    - START DEPTH
STOP.M        481.426                        : bot_depth    - STOP DEPTH
STEP.M        0.25                           : increment    - STEP LENGTH
 NULL. -999.2500:NULL Value
~CURVE INFORMATION BLOCK
#MNEM UNIT       ERCB CURVE CODE    CURVE DESCRIPTION
#-----------   ------------------   ----------------------------------
DEPT.M        00 001 00 00         : DEPTH        - DEPTH
GR  .API      00 310 00 00         : GR           - GAMMA RAY
DPHI.V/V      00 890 00 00         : PHID         - DENSITY POROSITY (SANDSTONE)
NPHI.V/V      00 330 00 00         : PHIN         - NEUTRON POROSITY (SANDSTONE)
ILD .OHMM     00 120 00 00         : RESD         - DEEP RESISTIVITY (DIL)
~PARAMETER INFORMATION
#MNEM.UNIT           DATA             DESCRIPTION OF MNEMONIC
#---------         -----------     ------------------------------
GL  .M        609.295              : gl           - GROUND LEVEL ELEVATION
EREF.M        612.038              : kb           - ELEVATION OF DEPTH REFERENCE
DATM.M        609.295              : datum        - DATUM ELEVATION
TDD .M        485.546              : tdd          - TOTAL DEPTH DRILLER
RUN .         ONE                  : Run          - RUN NUMBER
ENG .         BILL                 : Engineer     - RECORDING ENGINEER
WIT .         JIM                  : Witness      - WITNESSED BY
MUD .         GEL                  : Mud_type     - MUD TYPE
MATR.         SANDSTONE            : Logunit      - NEUTRON MATRIX
TMAX.C        25.5556              : BHT          - MAXIMUM RECORDED TEMPERATURE
BHTD.M        485.546              : BHTDEP       - MAXIMUM RECORDED TEMPERATURE
MATR.         1                    : LOGUNIT      - NEUTRON MATRIX
RMT .C        25                   : MDTP         - TEMPERATURE OF MUD
NEUT.         1                    : NEUTRON      - NEUTRON TYPE
RESI.         0                    : RESIST       - RESISTIVITY TYPE
RMC .OHMM     0.25                 : RMC          - RESISTIVITY OF MUD CAKE
RMF .OHMM     0.25                 : RMF          - RESISTIVITY OF MUD FILTRATE
SUFT.C        15                   : SUFT         - SURFACE TEMPERATURE
~A  DEPTH       GR     PHID     PHIN     RESD
# ...
  308.676   92.390    0.272    0.547    5.773
  308.926   92.152    0.251    0.528    6.076
  309.176   96.880    0.258    0.529    6.490
  309.426  100.316    0.229    0.515    6.650
  309.676  102.246    0.230    0.521    6.638
  309.926   99.167    0.265    0.528    6.560
  310.176   97.737    0.287    0.509    6.521
  310.426   95.854    0.275    0.494    6.521
  310.676   89.290    0.295    0.490    6.590
  310.926   79.445    0.310    0.469    6.654
  311.176   74.618    0.328    0.475    6.870
  311.426   76.941    0.324    0.485    7.077
  311.676   80.277    0.320    0.492    7.287
  311.926   85.358    0.315    0.501    7.375
  312.176   89.746    0.304    0.488    7.568
  312.426   87.088    0.298    0.475    7.559
  312.676   82.593    0.293    0.481    7.462
  312.926   76.136    0.288    0.475    7.425
  313.176   68.335    0.282    0.496    7.423
  313.426   62.274    0.302    0.454    7.480
  313.676   60.468    0.284    0.431    7.890
  313.926   56.352    0.282    0.412    8.119
  314.176   53.461    0.292    0.427    8.365
  314.426   52.995    0.305    0.439    8.608
  314.676   53.420    0.308    0.445    8.718
  314.926   54.136    0.304    0.438    8.924
  315.176   55.458    0.305    0.453    9.100
  315.426   56.382    0.310    0.466    9.091
  315.676   57.209    0.314    0.463    9.094
  315.926   57.182    0.317    0.460    9.096
  316.176   55.224    0.308    0.454    9.097
  316.426   53.490    0.302    0.446    9.097
  316.676   53.533    0.296    0.436    9.099
  316.926   55.497    0.293    0.440    9.099
  317.176   56.591    0.297    0.441    9.100
  317.426   56.618    0.301    0.421    9.102
  317.676   56.141    0.302    0.423    9.107
  317.926   57.239    0.285    0.418    9.118
  318.176   57.788    0.283    0.438    9.282
  318.426   57.798    0.296    0.436    9.276
  318.676   57.125    0.299    0.415    9.276
  318.926   56.543    0.291    0.427    9.156
  319.176   55.427    0.287    0.445    9.113
  319.426   52.989    0.286    0.469    9.109
  319.676   52.918    0.292    0.438    9.110
  319.926   54.789    0.297    0.427    9.111
  320.176   55.312    0.308    0.449    9.110
  320.426   54.400    0.317    0.467    9.064
  320.676   53.441    0.309    0.475    8.746
  320.926   52.429    0.306    0.492    8.752
  321.176   52.669    0.299    0.477    8.718
  321.426   56.860    0.291    0.462    8.642
  321.676   61.384    0.286    0.456    8.675
  321.926   66.949    0.282    0.453    8.620
  322.176   70.316    0.290    0.447    8.791
  322.426   66.330    0.294    0.461    8.616
  322.676   59.689    0.300    0.472    8.631
  322.926   54.861    0.304    0.453    8.633
  323.176   55.413    0.301    0.417    8.633
  323.426   56.564    0.296    0.440    8.628
  323.676   56.015    0.317    0.460    8.778
  323.926   55.018    0.334    0.439    8.814
  324.176   54.023    0.324    0.451    8.648
  324.426   53.483    0.315    0.468    8.661
  324.676   53.500    0.318    0.462    8.760
  324.926   53.501    0.309    0.455    8.642
  325.176   53.577    0.311    0.424    8.639
  325.426   52.996    0.331    0.443    8.631
  325.676   54.066    0.326    0.457    8.800
  325.926   55.496    0.324    0.456    8.818
  326.176   53.825    0.333    0.426    8.629
  326.426   54.026    0.333    0.431    8.650
  326.676   55.660    0.320    0.457    8.750
  326.926   57.252    0.312    0.468    8.632
  327.176   58.422    0.307    0.439    8.651
  327.426   56.739    0.320    0.421    8.650
  327.676   55.812    0.328    0.428    8.651
  327.926   55.288    0.336    0.442    8.652
  328.176   54.310    0.324    0.454    8.653
  328.426   55.288    0.321    0.442    8.653
  328.676   56.227    0.320    0.428    8.654
  328.926   57.067    0.316    0.430    8.655
  329.176   57.664    0.314    0.444    8.656
  329.426   57.132    0.328    0.434    8.657
  329.676   54.724    0.328    0.451    8.658
  329.926   51.700    0.322    0.456    8.659
  330.176   54.241    0.328    0.476    8.659
  330.426   58.349    0.335    0.455    8.656
  330.676   56.279    0.330    0.435    8.796
  330.926   54.980    0.319    0.428    8.885
  331.176   57.139    0.325    0.426    8.986
  331.426   60.030    0.308    0.439    8.990
  331.676   63.493    0.340    0.475    8.990
  331.926   65.468    0.333    0.466    8.991
  332.176   62.233    0.334    0.460    8.992
  332.426   61.709    0.341    0.479    8.992
  332.676   62.900    0.345    0.487    8.993
  332.926   64.610    0.358    0.509    8.994
  333.176   65.595    0.351    0.503    8.995
  333.426   65.096    0.348    0.481    8.996
  333.676   64.827    0.362    0.470    8.997
  333.926   68.619    0.372    0.472    8.998
  334.176   72.000    0.369    0.516    9.000
  334.426   74.734    0.382    0.539    9.010
  334.676   75.634    0.365    0.513    8.833
  334.926   76.498    0.362    0.519    8.685
  335.176   73.468    0.363    0.498    8.502
  335.426   69.181    0.352    0.496    8.523
  335.676   66.739    0.341    0.519    8.618
  335.926   65.186    0.358    0.497    8.684
  336.176   64.111    0.352    0.486    8.541
  336.426   65.912    0.346    0.478    8.529
  336.676   64.582    0.354    0.465    8.526
  336.926   63.547    0.369    0.509    8.527
  337.176   64.924    0.350    0.531    8.527
  337.426   67.279    0.346    0.526    8.528
  337.676   68.573    0.352    0.534    8.528
  337.926   66.915    0.359    0.523    8.518
  338.176   66.001    0.376    0.540    8.688
  338.426   64.978    0.364    0.556    8.688
  338.676   64.917    0.353    0.530    8.700
  338.926   65.924    0.354    0.515    8.545
  339.176   66.554    0.358    0.509    8.555
  339.426   67.167    0.360    0.522    8.367
  339.676   66.037    0.366    0.496    8.383
  339.926   66.022    0.368    0.471    8.382
  340.176   65.257    0.371    0.500    8.383
  340.426   63.618    0.374    0.527    8.383
  340.676   64.664    0.373    0.539    8.371
  340.926   65.997    0.366    0.476    8.544
  341.176   67.835    0.361    0.478    8.538
  341.426   65.557    0.358    0.491    8.532
  341.676   65.940    0.366    0.507    8.697
  341.926   67.641    0.365    0.495    8.700
  342.176   69.055    0.357    0.517    8.706
  342.426   70.154    0.356    0.537    8.692
  342.676   69.532    0.353    0.530    8.800
  342.926   68.843    0.348    0.516    8.711
  343.176   67.911    0.340    0.505    8.707
  343.426   65.940    0.339    0.483    8.709
  343.676   65.381    0.350    0.486    8.709
  343.926   66.457    0.355    0.512    8.710
  344.176   66.903    0.343    0.519    8.711
  344.426   68.341    0.355    0.540    8.713
  344.676   69.975    0.352    0.530    8.730
  344.926   70.931    0.329    0.595    8.540
  345.176   71.355    0.348    0.519    8.558
  345.426   70.000    0.348    0.517    8.559
  345.676   69.575    0.334    0.529    8.565
  345.926   69.389    0.351    0.517    8.424
  346.176   71.609    0.356    0.505    8.409
  346.426   73.789    0.345    0.499    8.405
  346.676   72.613    0.352    0.501    8.406
  346.926   72.881    0.350    0.501    8.404
  347.176   75.603    0.319    0.542    8.404
  347.426   82.015    0.294    0.529    7.617
  347.676   91.812    0.269    0.488    6.640
  347.926  101.726    0.239    0.548    5.741
  348.176  106.060    0.280    0.588    4.640
  348.426  108.108    0.299    0.628    4.001
  348.676  108.540    0.274    0.617    3.395
  348.926  107.430    0.285    0.593    2.844
  349.176  103.982    0.281    0.540    3.111
  349.426  103.074    0.254    0.512    3.500
  349.676  103.103    0.243    0.525    3.817
  349.926  103.123    0.251    0.554    4.450
  350.176  101.518    0.246    0.519    4.833
  350.426   96.666    0.238    0.548    5.262
  350.676   94.690    0.225    0.569    5.520
  350.926   96.038    0.227    0.568    5.626
  351.176   98.026    0.230    0.536    5.629
  351.426   99.998    0.201    0.576    5.524
  351.676  102.055    0.253    0.556    5.415
  351.926  102.428    0.237    0.544    5.037
