~VERSION INFORMATION
 VERS.                 2.0:   CWLS LOG ASCII STANDARD -VERSION 2.0
 WRAP.                  NO:   ONE LINE PER DEPTH STEP
~WELL INFORMATION BLOCK
#MNEM.UNIT           DATA                    DESCRIPTION OF MNEMONIC
#---------    -------------------            -------------------------------
# Generated from Intellog Unique Number	CS_73_76/WELL/3261
WELL.         ALLIED ROXANA MINERALS         : Well_name    - WELL
LOC .         00/11-10-076-15W4/0            : Location     - LOCATION
UWI .         00/11-10-076-15W4/0            : Uwi          - UNIQUE WELL ID
ENTR.         SP                             : Entered      - ENTERED BY
SRVC.         SCHLUMBERGER                   : Scn          - SERVICE COMPANY
STRT.M        341.376                        : top_depth    - START DEPTH
STOP.M        569.626                        : bot_depth    - STOP DEPTH
STEP.M        0.25                           : increment    - STEP LENGTH
 NULL. -999.2500:NULL Value
~CURVE INFORMATION BLOCK
#MNEM UNIT       ERCB CURVE CODE    CURVE DESCRIPTION
#-----------   ------------------   ----------------------------------
DEPT.M        00 001 00 00         : DEPTH        - DEPTH
GR  .API      00 310 00 00         : GR           - GAMMA RAY
DPHI.V/V      00 890 00 00         : PHID         - DENSITY POROSITY (SANDSTONE)
NPHI.V/V      00 330 00 00         : PHIN         - NEUTRON POROSITY (SANDSTONE)
ILD .OHMM     00 120 00 00         : RESD         - DEEP RESISTIVITY (DIL)
~PARAMETER INFORMATION
#MNEM.UNIT           DATA             DESCRIPTION OF MNEMONIC
#---------         -----------     ------------------------------
GL  .M        715.518              : gl           - GROUND LEVEL ELEVATION
EREF.M        718.566              : kb           - ELEVATION OF DEPTH REFERENCE
DATM.M        715.518              : datum        - DATUM ELEVATION
TDD .M        579.12               : tdd          - TOTAL DEPTH DRILLER
RUN .         ONE                  : Run          - RUN NUMBER
ENG .         BILL                 : Engineer     - RECORDING ENGINEER
WIT .         JIM                  : Witness      - WITNESSED BY
MUD .         GEL                  : Mud_type     - MUD TYPE
MATR.         SANDSTONE            : Logunit      - NEUTRON MATRIX
TMAX.C        23.3333              : BHT          - MAXIMUM RECORDED TEMPERATURE
BHTD.M        579.12               : BHTDEP       - MAXIMUM RECORDED TEMPERATURE
MATR.         1                    : LOGUNIT      - NEUTRON MATRIX
RMT .C        25                   : MDTP         - TEMPERATURE OF MUD
NEUT.         1                    : NEUTRON      - NEUTRON TYPE
RESI.         0                    : RESIST       - RESISTIVITY TYPE
RMC .OHMM     0.25                 : RMC          - RESISTIVITY OF MUD CAKE
RMF .OHMM     0.25                 : RMF          - RESISTIVITY OF MUD FILTRATE
SUFT.C        15                   : SUFT         - SURFACE TEMPERATURE
~A  DEPTH       GR     PHID     PHIN     RESD
# ...
  428.376   84.551    0.189    0.513    6.242
  428.626   87.358    0.218    0.515    5.453
  428.876   89.146    0.221    0.519    4.768
  429.126   88.830    0.210    0.530    4.165
  429.376   89.442    0.214    0.545    3.879
  429.626   87.344    0.231    0.531    3.795
  429.876   85.862    0.248    0.526    3.863
  430.126   86.810    0.247    0.530    4.523
  430.376   90.892    0.235    0.515    5.050
  430.626   91.579    0.227    0.523    5.673
  430.876   90.768    0.228    0.533    5.853
  431.126   89.219    0.216    0.543    5.862
  431.376   87.201    0.206    0.550    5.637
  431.626   86.037    0.206    0.559    5.606
  431.876   88.615    0.199    0.548    5.258
  432.126   90.381    0.203    0.550    5.079
  432.376   88.907    0.196    0.566    4.903
  432.626   88.439    0.197    0.581    4.830
  432.876   87.752    0.202    0.591    4.852
  433.126   83.515    0.215    0.573    5.074
  433.376   78.740    0.237    0.577    5.698
  433.626   74.165    0.258    0.561    6.354
  433.876   68.699    0.275    0.541    7.388
  434.126   64.008    0.296    0.514    8.569
  434.376   61.920    0.301    0.508    9.319
  434.626   59.381    0.290    0.506    9.574
  434.876   56.465    0.284    0.500    9.525
  435.126   58.306    0.280    0.501    9.673
  435.376   57.800    0.291    0.498    9.808
  435.626   55.812    0.283    0.501    9.985
  435.876   55.207    0.275    0.489   10.480
  436.126   56.139    0.271    0.479   10.964
  436.376   57.953    0.273    0.481   11.272
  436.626   60.492    0.277    0.481   11.716
  436.876   64.243    0.278    0.487   12.263
  437.126   69.349    0.285    0.501   11.279
  437.376   75.591    0.279    0.506    6.997
  437.626   86.535    0.273    0.534    4.750
  437.876   99.058    0.259    0.561    3.427
  438.126  106.053    0.254    0.581    2.628
  438.376  106.047    0.268    0.603    2.218
  438.626  104.697    0.269    0.651    1.825
  438.876  102.718    0.255    0.686    1.751
  439.126   97.626    0.250    0.698    1.814
  439.376   94.512    0.249    0.711    2.177
  439.626   90.878    0.250    0.721    2.580
  439.876   80.826    0.257    0.674    3.158
  440.126   78.971    0.286    0.625    4.029
  440.376   72.120    0.304    0.582    4.997
  440.626   67.080    0.331    0.544    5.368
  440.876   63.955    0.332    0.556    5.828
  441.126   63.060    0.341    0.531    6.374
  441.376   65.288    0.328    0.514    6.707
  441.626   66.249    0.321    0.512    6.703
  441.876   67.842    0.308    0.510    6.566
  442.126   69.842    0.298    0.513    6.527
  442.376   71.103    0.299    0.524    6.527
  442.626   70.268    0.304    0.550    6.526
  442.876   70.929    0.300    0.537    6.530
  443.126   71.520    0.291    0.508    6.445
  443.376   71.210    0.295    0.512    6.451
  443.626   70.323    0.309    0.503    6.452
  443.876   68.689    0.307    0.511    6.411
  444.126   67.866    0.319    0.506    6.389
  444.376   69.454    0.322    0.499    6.458
  444.626   70.143    0.328    0.517    6.456
  444.876   71.462    0.342    0.531    6.455
  445.126   71.892    0.341    0.555    6.522
  445.376   71.072    0.327    0.572    6.567
  445.626   70.768    0.312    0.563    6.619
  445.876   70.331    0.299    0.536    6.696
  446.126   70.203    0.305    0.533    6.787
  446.376   72.452    0.317    0.513    6.778
  446.626   73.739    0.320    0.497    6.740
  446.876   75.690    0.309    0.460    6.616
  447.126   76.065    0.288    0.467    6.626
  447.376   75.788    0.229    0.482    6.463
  447.626   74.727    0.216    0.480    6.185
  447.876   74.215    0.209    0.484    6.372
  448.126   72.862    0.206    0.478    2.455
  448.376   70.518    0.193    0.455    2.806
  448.626   67.624    0.173    0.417    3.231
  448.876   62.656    0.153    0.353    3.320
  449.126   56.743    0.080    0.223    3.992
  449.376   50.992    0.010    0.198    6.029
  449.626   47.123    0.001    0.184   11.439
  449.876   48.835   -0.000    0.191   15.034
  450.126   52.008    0.014    0.230   17.447
  450.376   57.003    0.066    0.264   12.010
  450.626   66.007    0.136    0.306    7.184
  450.876   71.148    0.183    0.398    5.070
  451.126   69.072    0.220    0.512    4.282
  451.376   64.581    0.254    0.520    7.411
  451.626   61.366    0.272    0.509    6.630
  451.876   57.671    0.299    0.505    6.401
  452.126   54.595    0.321    0.483    6.272
  452.376   54.313    0.336    0.450    6.167
  452.626   55.300    0.314    0.430    6.091
  452.876   56.431    0.327    0.425    6.043
  453.126   55.062    0.327    0.441    6.015
  453.376   54.118    0.327    0.479    6.012
  453.626   54.102    0.326    0.502    5.972
  453.876   53.256    0.338    0.501    5.937
  454.126   51.698    0.348    0.462    5.944
  454.376   52.096    0.351    0.452    5.858
  454.626   53.428    0.347    0.455    5.777
  454.876   54.394    0.346    0.453    5.783
  455.126   55.199    0.340    0.459    5.781
  455.376   55.142    0.336    0.466    5.783
  455.626   55.892    0.331    0.460    5.699
  455.876   57.159    0.341    0.458    5.705
  456.126   56.392    0.333    0.469    5.707
  456.376   55.931    0.328    0.490    5.708
  456.626   56.849    0.331    0.488    5.708
  456.876   57.875    0.331    0.502    5.711
  457.126   59.209    0.334    0.509    5.749
  457.376   60.541    0.337    0.510    5.788
  457.626   62.088    0.333    0.511    5.799
  457.876   62.937    0.326    0.489    5.704
  458.126   65.244    0.313    0.487    5.714
  458.376   67.660    0.330    0.488    5.715
  458.626   69.004    0.340    0.484    5.722
  458.876   71.683    0.334    0.474    5.639
  459.126   72.393    0.334    0.475    5.640
  459.376   71.678    0.322    0.491    5.636
  459.626   70.630    0.309    0.509    5.709
  459.876   68.962    0.303    0.516    5.822
  460.126   67.286    0.306    0.526    6.133
  460.376   66.313    0.314    0.539    6.518
  460.626   66.405    0.299    0.548    6.936
  460.876   68.132    0.289    0.538    7.737
  461.126   69.263    0.283    0.525    8.165
  461.376   68.231    0.271    0.518    8.522
  461.626   72.198    0.256    0.507    8.249
  461.876   76.707    0.253    0.494    7.333
  462.126   80.349    0.260    0.483    6.221
  462.376   83.429    0.287    0.501    5.593
  462.626   84.859    0.282    0.499    5.067
  462.876   84.468    0.270    0.503    4.647
  463.126   84.081    0.245    0.523    4.401
  463.376   83.316    0.236    0.556    4.209
  463.626   80.272    0.247    0.503    4.320
  463.876   82.853    0.239    0.495    4.515
  464.126   85.209    0.230    0.513    4.626
  464.376   87.120    0.213    0.521    4.711
  464.626   90.303    0.221    0.494    4.765
  464.876   91.263    0.213    0.491    4.768
  465.126   89.943    0.224    0.514    4.633
  465.376   90.906    0.231    0.540    4.593
  465.626   93.756    0.253    0.530    4.475
  465.876   94.095    0.251    0.518    4.404
  466.126   92.822    0.231    0.545    4.392
  466.376   90.723    0.225    0.572    4.483
  466.626   88.642    0.214    0.575    4.542
  466.876   88.385    0.232    0.551    4.674
  467.126   91.135    0.217    0.522    4.805
  467.376   92.981    0.226    0.493    4.945
  467.626   93.323    0.237    0.486    4.985
  467.876   93.352    0.211    0.495    5.037
  468.126   93.915    0.208    0.508    4.983
  468.376   94.615    0.203    0.506    4.958
  468.626   93.932    0.208    0.516    5.035
  468.876   92.881    0.214    0.530    5.135
  469.126   92.673    0.224    0.545    5.042
  469.376   92.684    0.226    0.532    4.905
  469.626   91.720    0.231    0.529    4.771
  469.876   90.743    0.220    0.543    4.646
  470.126   89.284    0.215    0.556    4.639
  470.376   87.376    0.210    0.564    4.873
  470.626   83.280    0.199    0.542    5.316
  470.876   77.394    0.202    0.509    5.736
  471.126   75.978    0.177    0.477    6.231
  471.376   73.351    0.204    0.471    6.630
  471.626   66.771    0.234    0.489    6.919
