~VERSION INFORMATION
 VERS.                 2.0:   CWLS LOG ASCII STANDARD -VERSION 2.0
 WRAP.                  NO:   ONE LINE PER DEPTH STEP
~WELL INFORMATION BLOCK
#MNEM.UNIT           DATA                    DESCRIPTION OF MNEMONIC
#---------    -------------------            -------------------------------
# Generated from Intellog Unique Number	CS_73_76/WELL/850
WELL.         ESSO CLYDE LAKE                : Well_name    - WELL
LOC .         00/11-23-073-09W4/0            : Location     - LOCATION
UWI .         00/11-23-073-09W4/0            : Uwi          - UNIQUE WELL ID
ENTR.         SP                             : Entered      - ENTERED BY
SRVC.         SCHLUMBERGER                   : Scn          - SERVICE COMPANY
STRT.M        285                            : top_depth    - START DEPTH
STOP.M        495                            : bot_depth    - STOP DEPTH
STEP.M        0.25                           : increment    - STEP LENGTH
 NULL. -999.2500:NULL Value
~CURVE INFORMATION BLOCK
#MNEM UNIT       ERCB CURVE CODE    CURVE DESCRIPTION
#-----------   ------------------   ----------------------------------
DEPT.M        00 001 00 00         : DEPTH        - DEPTH
ILD .OHMM     00 120 00 00         : RESD         - DEEP RESISTIVITY (DIL)
DPHI.V/V      00 890 00 00         : PHID         - DENSITY POROSITY (LIMESTONE)
NPHI.V/V      00 330 00 00         : PHIN         - NEUTRON POROSITY (LIMESTONE)
GR  .API      00 310 00 00         : GR           - GAMMA RAY
~PARAMETER INFORMATION
#MNEM.UNIT           DATA             DESCRIPTION OF MNEMONIC
#---------         -----------     ------------------------------
GL  .M        650.3                : gl           - GROUND LEVEL ELEVATION
EREF.M        654.5                : kb           - ELEVATION OF DEPTH REFERENCE
DATM.M        650.3                : datum        - DATUM ELEVATION
TDD .M        503.5                : tdd          - TOTAL DEPTH DRILLER
RUN .         ONE                  : Run          - RUN NUMBER
ENG .         BILL                 : Engineer     - RECORDING ENGINEER
WIT .         JIM                  : Witness      - WITNESSED BY
MUD .         GEL                  : Mud_type     - MUD TYPE
MATR.         LIMESTONE            : Logunit      - NEUTRON MATRIX
TMAX.C        23                   : BHT          - MAXIMUM RECORDED TEMPERATURE
BHTD.M        503.5                : BHTDEP       - MAXIMUM RECORDED TEMPERATURE
MATR.         1                    : LOGUNIT      - NEUTRON MATRIX
RMT .C        25                   : MDTP         - TEMPERATURE OF MUD
NEUT.         1                    : NEUTRON      - NEUTRON TYPE
RESI.         0                    : RESIST       - RESISTIVITY TYPE
RMC .OHMM     0.25                 : RMC          - RESISTIVITY OF MUD CAKE
RMF .OHMM     0.25                 : RMF          - RESISTIVITY OF MUD FILTRATE
SUFT.C        15                   : SUFT         - SURFACE TEMPERATURE
~A  DEPTH     RESD     PHID     PHIN       GR
# ...
  328.500    6.150    0.221    0.419  106.937
  328.750    6.469    0.220    0.410  104.492
  329.000    6.921    0.217    0.410  102.661
  329.250    7.158    0.227    0.430  101.444
  329.500    7.404    0.227    0.425   99.612
  329.750    7.531    0.221    0.413   97.780
  330.000    7.791    0.217    0.402   97.173
  330.250    7.925    0.221    0.426   96.566
  330.500    8.061    0.229    0.441   97.186
  330.750    8.199    0.243    0.451   98.416
  331.000    8.339    0.255    0.447   97.809
  331.250    8.482    0.244    0.432   98.427
  331.500    8.774    0.228    0.415   97.821
  331.750    8.924    0.218    0.400   95.992
  332.000    9.232    0.232    0.385   95.382
  332.250    9.389    0.241    0.406   95.390
  332.500    9.713    0.255    0.432   93.559
  332.750    9.880    0.235    0.464   90.502
  333.000    9.882    0.219    0.466   86.834
  333.250   10.052    0.236    0.460   91.128
  333.500   10.224    0.250    0.460   91.745
  333.750   10.225    0.245    0.468   90.525
  334.000   10.227    0.244    0.460   91.146
  334.250   10.229    0.233    0.426   92.376
  334.500    9.893    0.227    0.405   92.380
  334.750    9.729    0.217    0.419   92.998
  335.000    9.253    0.214    0.408   93.004
  335.250    8.800    0.213    0.383   93.622
  335.500    8.511    0.213    0.394   96.077
  335.750    8.232    0.213    0.416   97.307
  336.000    8.096    0.213    0.423   97.313
  336.250    7.962    0.219    0.440   91.197
  336.500    7.831    0.228    0.467   93.040
  336.750    7.833    0.237    0.456   94.882
  337.000    7.834    0.239    0.411   94.888
  337.250    7.968    0.240    0.418   91.832
  337.500    8.669    0.252    0.434   86.329
  337.750    9.590    0.271    0.421   80.825
  338.000   10.434    0.282    0.398   78.379
  338.250   11.350    0.295    0.428   71.651
  338.500   12.348    0.285    0.426   67.370
  338.750   12.560    0.271    0.397   64.927
  339.000   12.562    0.260    0.394   68.608
  339.250   12.150    0.253    0.399   70.452
  339.500   11.949    0.242    0.390   71.067
  339.750   11.556    0.240    0.399   74.135
  340.000   10.991    0.233    0.413   79.038
  340.250   10.809    0.226    0.393   83.330
  340.500   10.455    0.219    0.372   86.399
  340.750   10.282    0.214    0.378   87.015
  341.000   10.112    0.209    0.392   86.408
  341.250    9.781    0.213    0.372   88.251
  341.500    9.619    0.222    0.375   89.481
  341.750    9.461    0.226    0.378   87.651
  342.000    9.305    0.215    0.392   88.881
  342.250    9.000    0.204    0.405   91.337
  342.500    8.852    0.207    0.400   91.341
  342.750    8.706    0.212    0.395   88.287
  343.000    8.563    0.201    0.415   87.067
  343.250    8.564    0.196    0.406   86.460
  343.500    8.423    0.204    0.387   88.918
  343.750    8.567    0.213    0.402   91.372
  344.000    8.862    0.202    0.401   92.601
  344.250    9.480    0.217    0.384   91.383
  344.500   10.313    0.229    0.367   85.266
  344.750   11.032    0.243    0.356   80.985
  345.000   12.413    0.253    0.360   77.318
  345.250   13.278    0.278    0.398   72.427
  345.500   14.445    0.291    0.415   69.369
  345.750   15.194    0.288    0.429   63.253
  346.000   15.985    0.291    0.434   57.748
  346.250   16.258    0.297    0.422   54.693
  346.500   16.538    0.298    0.436   58.987
  346.750   16.540    0.299    0.458   60.828
  347.000   16.544    0.309    0.441   60.833
  347.250   16.271    0.304    0.411   61.451
  347.500   16.003    0.303    0.374   63.294
  347.750   15.478    0.295    0.420   66.363
  348.000   15.224    0.294    0.440   67.592
  348.250   14.972    0.303    0.467   66.987
  348.500   14.726    0.309    0.456   66.991
  348.750   14.729    0.315    0.490   67.609
  349.000   14.731    0.314    0.480   69.454
  349.250   14.489    0.314    0.473   70.683
  349.500   14.491    0.311    0.453   72.524
  349.750   14.740    0.301    0.416   74.981
  350.000   14.993    0.288    0.390   75.598
  350.250   15.249    0.272    0.392   75.603
  350.500   15.511    0.267    0.408   69.489
  350.750   16.044    0.276    0.425   64.594
  351.000   16.597    0.283    0.402   59.089
  351.250   17.167    0.282    0.368   52.973
  351.500   17.463    0.281    0.360   49.917
  351.750   17.761    0.290    0.368   48.086
  352.000   18.373    0.299    0.379   51.153
  352.250   18.375    0.306    0.373   50.547
  352.500   18.690    0.299    0.391   47.492
  352.750   19.335    0.295    0.403   45.660
  353.000   19.667    0.298    0.392   45.054
  353.250   19.669    0.296    0.378   45.673
  353.500   20.008    0.302    0.383   46.903
  353.750   20.350    0.310    0.387   49.358
  354.000   20.700    0.301    0.385   49.363
  354.250   20.704    0.301    0.391   46.922
  354.500   21.058    0.307    0.378   45.701
  354.750   21.423    0.301    0.394   45.708
  355.000   21.427    0.299    0.403   46.938
  355.250   21.430    0.295    0.418   49.394
  355.500   21.799    0.300    0.417   50.623
  355.750   21.803    0.308    0.393   50.628
  356.000   22.176    0.310    0.393   48.800
  356.250   22.180    0.308    0.386   48.191
  356.500   22.560    0.301    0.369   47.584
  356.750   22.563    0.307    0.367   47.590
  357.000   22.570    0.315    0.384   48.208
  357.250   22.955    0.313    0.376   50.052
  357.500   22.960    0.316    0.386   51.895
  357.750   22.965    0.307    0.408   53.123
  358.000   23.358    0.299    0.397   51.905
  358.250   23.363    0.289    0.389   50.075
  358.500   23.369    0.293    0.399   50.080
  358.750   23.372    0.299    0.370   49.475
  359.000   23.377    0.296    0.363   50.093
  359.250   23.380    0.311    0.368   51.937
  359.500   22.996    0.318    0.391   53.778
  359.750   22.242    0.325    0.432   56.235
  360.000   21.874    0.311    0.453   57.464
  360.250   21.157    0.313    0.435   58.082
  360.500   20.806    0.327    0.425   58.698
  360.750   20.123    0.327    0.453   61.153
  361.000   19.792    0.319    0.473   65.446
  361.250   19.465    0.319    0.465   70.961
  361.500   19.145    0.312    0.443   75.865
  361.750   18.829    0.303    0.433   78.932
  362.000   18.519    0.297    0.460   80.776
  362.250   18.523    0.296    0.478   80.780
  362.500   18.219    0.297    0.487   75.277
  362.750   17.919    0.299    0.486   67.935
  363.000   17.922    0.300    0.492   62.431
  363.250   17.334    0.300    0.486   64.885
  363.500   17.047    0.301    0.492   69.789
  363.750   16.767    0.303    0.477   72.244
  364.000   16.216    0.312    0.470   69.189
  364.250   15.422    0.318    0.487   63.073
  364.500   15.167    0.314    0.471   60.629
  364.750   14.670    0.298    0.473   61.859
  365.000   14.428    0.295    0.477   63.701
  365.250   14.430    0.300    0.456   61.872
  365.500   14.193    0.311    0.444   61.879
  365.750   14.195    0.317    0.458   61.884
  366.000   13.963    0.312    0.450   62.501
  366.250   13.732    0.314    0.470   63.119
  366.500   13.505    0.317    0.492   64.960
  366.750   13.282    0.313    0.489   63.742
  367.000   12.847    0.306    0.484   61.915
  367.250   12.635    0.302    0.494   61.307
  367.500   12.427    0.298    0.488   61.925
  367.750   12.020    0.301    0.472   63.154
  368.000   12.021    0.304    0.444   65.610
  368.250   11.823    0.310    0.468   66.838
  368.500   11.825    0.312    0.499   69.907
  368.750   11.631    0.308    0.453   71.136
  369.000   11.632    0.312    0.445   71.142
  369.250   11.441    0.306    0.467   69.924
  369.500   11.444    0.302    0.471   69.318
  369.750   11.254    0.302    0.449   69.936
  370.000    9.841    0.296    0.456   70.554
  370.250    7.911    0.287    0.473   72.396
  370.500    6.577    0.270    0.497   74.851
  370.750    5.750    0.263    0.506   78.532
  371.000    4.944    0.272    0.513   80.985
  371.250    3.908    0.272    0.516   84.665
  371.500    3.534    0.261    0.493   87.733
  371.750    3.305    0.254    0.482   89.574
