~VERSION INFORMATION
 VERS.                 2.0:   CWLS LOG ASCII STANDARD -VERSION 2.0
 WRAP.                  NO:   ONE LINE PER DEPTH STEP
~WELL INFORMATION BLOCK
#MNEM.UNIT           DATA                    DESCRIPTION OF MNEMONIC
#---------    -------------------            -------------------------------
# Generated from Intellog Unique Number	CS_71_72/WELL/886
WELL.         SULPETRO LIMITED               : Well_name    - WELL
LOC .         00/11-05-071-10W4/0            : Location     - LOCATION
UWI .         00/11-05-071-10W4/0            : Uwi          - UNIQUE WELL ID
ENTR.         SP                             : Entered      - ENTERED BY
SRVC.         SCHLUMBERGER                   : Scn          - SERVICE COMPANY
STRT.M        300                            : top_depth    - START DEPTH
STOP.M        535                            : bot_depth    - STOP DEPTH
STEP.M        0.25                           : increment    - STEP LENGTH
 NULL. -999.2500:NULL Value
~CURVE INFORMATION BLOCK
#MNEM UNIT       ERCB CURVE CODE    CURVE DESCRIPTION
#-----------   ------------------   ----------------------------------
DEPT.M        00 001 00 00         : DEPTH        - DEPTH
ILD .OHMM     00 120 00 00         : RESD         - DEEP RESISTIVITY (DIL)
DPHI.V/V      00 890 00 00         : PHID         - DENSITY POROSITY (LIMESTONE)
NPHI.V/V      00 330 00 00         : PHIN         - NEUTRON POROSITY (LIMESTONE)
GR  .API      00 310 00 00         : GR           - GAMMA RAY
~PARAMETER INFORMATION
#MNEM.UNIT           DATA             DESCRIPTION OF MNEMONIC
#---------         -----------     ------------------------------
GL  .M        651.97               : gl           - GROUND LEVEL ELEVATION
EREF.M        654.8                : kb           - ELEVATION OF DEPTH REFERENCE
DATM.M        651.97               : datum        - DATUM ELEVATION
TDD .M        539                  : tdd          - TOTAL DEPTH DRILLER
RUN .         ONE                  : Run          - RUN NUMBER
ENG .         BILL                 : Engineer     - RECORDING ENGINEER
WIT .         JIM                  : Witness      - WITNESSED BY
MUD .         GEL                  : Mud_type     - MUD TYPE
MATR.         LIMESTONE            : Logunit      - NEUTRON MATRIX
TMAX.C        25                   : BHT          - MAXIMUM RECORDED TEMPERATURE
BHTD.M        539                  : BHTDEP       - MAXIMUM RECORDED TEMPERATURE
MATR.         1                    : LOGUNIT      - NEUTRON MATRIX
RMT .C        25                   : MDTP         - TEMPERATURE OF MUD
NEUT.         1                    : NEUTRON      - NEUTRON TYPE
RESI.         0                    : RESIST       - RESISTIVITY TYPE
RMC .OHMM     0.25                 : RMC          - RESISTIVITY OF MUD CAKE
RMF .OHMM     0.25                 : RMF          - RESISTIVITY OF MUD FILTRATE
SUFT.C        15                   : SUFT         - SURFACE TEMPERATURE
~A  DEPTH     RESD     PHID     PHIN       GR
# ...
  430.500    6.185    0.224    0.328   96.004
  430.750    6.161    0.220    0.340  100.481
  431.000    6.184    0.212    0.365  103.427
  431.250    6.230    0.207    0.339   94.374
  431.500    6.241    0.167    0.306   85.381
  431.750    6.194    0.126    0.283   84.717
  432.000    6.068    0.133    0.261   88.641
  432.250    5.878    0.203    0.315   92.384
  432.500    5.672    0.213    0.329   95.700
  432.750    5.495    0.211    0.327   97.788
  433.000    5.403    0.209    0.350  100.305
  433.250    5.382    0.213    0.378  103.009
  433.500    5.422    0.235    0.397  104.056
  433.750    5.493    0.258    0.381  102.716
  434.000    5.534    0.245    0.409   95.745
  434.250    5.544    0.236    0.433   94.221
  434.500    5.523    0.229    0.404   97.719
  434.750    5.450    0.220    0.386  101.033
  435.000    5.389    0.215    0.363  104.102
  435.250    5.349    0.218    0.329  103.865
  435.500    5.338    0.220    0.325   99.220
  435.750    5.348    0.218    0.345   96.227
  436.000    5.357    0.217    0.374   97.582
  436.250    5.367    0.218    0.428   99.366
  436.500    5.377    0.221    0.444   97.903
  436.750    5.416    0.231    0.400   94.239
  437.000    5.426    0.229    0.355   96.940
  437.250    5.446    0.223    0.323   98.600
  437.500    5.445    0.219    0.317   95.547
  437.750    5.435    0.217    0.330   94.269
  438.000    5.404    0.213    0.361   95.868
  438.250    5.364    0.228    0.389   98.510
  438.500    5.303    0.219    0.437  100.047
  438.750    5.234    0.202    0.450  102.626
  439.000    5.176    0.194    0.420  105.940
  439.250    5.117    0.207    0.375  107.907
  439.500    5.041    0.218    0.359  106.874
  439.750    4.957    0.216    0.371  102.780
  440.000    4.856    0.210    0.391   99.666
  440.250    4.766    0.223    0.412   97.713
  440.500    4.668    0.234    0.425   96.864
  440.750    4.642    0.227    0.451   99.443
  441.000    4.641    0.217    0.400  102.573
  441.250    4.658    0.209    0.343  105.459
  441.500    4.649    0.220    0.331  105.099
  441.750    4.640    0.225    0.330  106.882
  442.000    4.623    0.219    0.331  105.666
  442.250    4.511    0.212    0.337   93.797
  442.500    4.395    0.207    0.349   97.295
  442.750    4.249    0.202    0.364   99.690
  443.000    3.784    0.196    0.377  100.860
  443.250    3.235    0.227    0.392  101.726
  443.500    2.844    0.258    0.410  103.081
  443.750    2.552    0.280    0.450  103.394
  444.000    2.315    0.262    0.467  101.136
  444.250    2.251    0.241    0.486   96.246
  444.500    2.412    0.237    0.493   92.641
  444.750    2.658    0.246    0.459   94.548
  445.000    2.923    0.246    0.410   97.371
  445.250    3.251    0.228    0.389  100.379
  445.500    3.718    0.212    0.378  103.876
  445.750    3.781    0.212    0.387  107.558
  446.000    4.029    0.226    0.403  104.198
  446.250    4.174    0.244    0.390   96.553
  446.500    4.324    0.266    0.395   92.092
  446.750    4.389    0.272    0.374   90.446
  447.000    4.496    0.255    0.369   89.596
  447.250    4.572    0.247    0.376   88.013
  447.500    4.641    0.241    0.396   89.123
  447.750    4.675    0.233    0.391   91.334
  448.000    4.745    0.229    0.342   94.894
  448.250    4.934    0.231    0.327   98.207
  448.500    5.366    0.224    0.320  100.296
  448.750    5.869    0.217    0.323   96.630
  449.000    6.763    0.108    0.331   91.127
  449.250    7.397    0.062    0.281   85.074
  449.500    7.881    0.042    0.261   80.734
  449.750    8.257    0.072    0.254   84.845
  450.000    8.149    0.127    0.325   91.282
  450.250    7.520    0.167    0.357   94.962
  450.500    6.836    0.188    0.385   97.908
  450.750    6.203    0.201    0.362   99.630
  451.000    5.682    0.210    0.347   99.026
  451.250    5.587    0.212    0.353   98.728
  451.500    5.472    0.201    0.382  100.022
  451.750    5.411    0.195    0.386  101.866
  452.000    5.350    0.194    0.382  101.078
  452.250    5.330    0.201    0.342  102.249
  452.500    5.280    0.205    0.323  104.215
  452.750    5.250    0.207    0.330  105.754
  453.000    5.211    0.208    0.354  103.068
  453.250    5.172    0.209    0.404   98.974
  453.500    5.142    0.210    0.403   98.308
  453.750    5.113    0.209    0.412   99.050
  454.000    5.065    0.204    0.433  100.344
  454.250    5.027    0.202    0.397  102.862
  454.500    4.999    0.203    0.375  104.032
  454.750    4.980    0.198    0.370   99.082
  455.000    4.970    0.201    0.373   99.946
  455.250    4.970    0.209    0.358   98.852
  455.500    4.969    0.211    0.348   97.512
  455.750    4.997    0.208    0.379   99.908
  456.000    4.877    0.215    0.395  103.960
  456.250    4.885    0.222    0.355  105.619
  456.500    5.024    0.211    0.325  106.789
  456.750    5.313    0.198    0.307  107.164
  457.000    5.504    0.193    0.307  106.927
  457.250    5.586    0.188    0.330  104.424
  457.500    5.596    0.185    0.339  102.840
  457.750    5.534    0.182    0.325  104.257
  458.000    5.411    0.181    0.339  105.243
  458.250    5.144    0.187    0.350  105.006
  458.500    4.703    0.202    0.347   98.586
  458.750    3.968    0.217    0.340   94.552
  459.000    3.177    0.230    0.354   92.355
  459.250    2.602    0.244    0.368   91.261
  459.500    2.249    0.252    0.379   93.228
  459.750    2.075    0.243    0.356   95.869
  460.000    2.044    0.236    0.370   98.572
  460.250    2.130    0.232    0.382  100.354
  460.500    2.378    0.228    0.463  102.199
  460.750    2.649    0.238    0.432  103.798
  461.000    2.958    0.266    0.350  100.254
  461.250    3.351    0.253    0.328   95.180
  461.500    3.598    0.238    0.306   93.658
  461.750    3.769    0.224    0.356   93.114
  462.000    3.876    0.216    0.416   92.632
  462.250    4.001    0.207    0.463   90.742
  462.500    4.137    0.174    0.352   86.954
  462.750    4.246    0.087    0.206   76.981
  463.000    4.278    0.039    0.159   67.377
  463.250    4.238    0.067    0.264   81.161
  463.500    4.136    0.106    0.307   86.617
  463.750    4.021    0.213    0.357   89.871
  464.000    3.903    0.240    0.391   92.082
  464.250    3.866    0.237    0.358   93.620
  464.500    3.873    0.153    0.320   90.077
  464.750    3.946    0.125    0.294   90.085
  465.000    4.072    0.134    0.293   96.276
  465.250    4.188    0.173    0.320  100.876
  465.500    4.195    0.199    0.337   98.190
  465.750    3.915    0.213    0.334   99.545
  466.000    3.633    0.214    0.311  103.225
  466.250    3.321    0.203    0.324  105.927
  466.500    3.003    0.194    0.340  102.813
  466.750    2.839    0.192    0.364  103.984
  467.000    2.755    0.204    0.395  108.155
  467.250    2.770    0.206    0.377  111.469
  467.500    2.812    0.203    0.360  108.110
  467.750    2.859    0.203    0.361  105.730
  468.000    2.886    0.207    0.412  110.941
  468.250    2.886    0.209    0.406  110.705
  468.500    2.848    0.210    0.394  109.548
  468.750    2.811    0.208    0.428  112.372
  469.000    2.789    0.207    0.453  121.442
  469.250    2.743    0.205    0.452  128.062
  469.500    2.732    0.204    0.417  131.314
  469.750    2.815    0.205    0.407  122.872
  470.000    2.831    0.208    0.412  116.330
  470.250    2.825    0.214    0.405  114.073
  470.500    2.742    0.221    0.426  117.572
  470.750    2.681    0.229    0.393  119.108
  471.000    2.671    0.227    0.369  120.096
  471.250    2.899    0.219    0.360  118.144
  471.500    3.404    0.216    0.385  113.743
  471.750    3.966    0.215    0.370  101.812
  472.000    4.330    0.224    0.355   92.207
  472.250    4.843    0.231    0.340   94.296
  472.500    5.179    0.224    0.366   89.529
  472.750    5.386    0.217    0.361   85.251
  473.000    5.685    0.216    0.363   88.076
  473.250    5.912    0.226    0.347   87.776
  473.500    6.159    0.232    0.326   83.132
  473.750    6.251    0.199    0.309   78.669
