~VERSION INFORMATION
 VERS.                 2.0:   CWLS LOG ASCII STANDARD -VERSION 2.0
 WRAP.                  NO:   ONE LINE PER DEPTH STEP
~WELL INFORMATION BLOCK
#MNEM.UNIT           DATA                    DESCRIPTION OF MNEMONIC
#---------    -------------------            -------------------------------
# Generated from Intellog Unique Number	CS_67_68/WELL/822
WELL.         ESSO RESOURCES CANADA LTD      : Well_name    - WELL
LOC .         00/11-19-068-06W4/0            : Location     - LOCATION
UWI .         00/11-19-068-06W4/0            : Uwi          - UNIQUE WELL ID
ENTR.         SP                             : Entered      - ENTERED BY
SRVC.         SCHLUMBERGER                   : Scn          - SERVICE COMPANY
STRT.M        330                            : top_depth    - START DEPTH
STOP.M        550                            : bot_depth    - STOP DEPTH
STEP.M        0.25                           : increment    - STEP LENGTH
 NULL. -999.2500:NULL Value
~CURVE INFORMATION BLOCK
#MNEM UNIT       ERCB CURVE CODE    CURVE DESCRIPTION
#-----------   ------------------   ----------------------------------
DEPT.M        00 001 00 00         : DEPTH        - DEPTH
ILD .OHMM     00 120 00 00         : RESD         - DEEP RESISTIVITY (DIL)
DPHI.V/V      00 890 00 00         : PHID         - DENSITY POROSITY (LIMESTONE)
NPHI.V/V      00 330 00 00         : PHIN         - NEUTRON POROSITY (LIMESTONE)
GR  .API      00 310 00 00         : GR           - GAMMA RAY
~PARAMETER INFORMATION
#MNEM.UNIT           DATA             DESCRIPTION OF MNEMONIC
#---------         -----------     ------------------------------
GL  .M        668.73               : gl           - GROUND LEVEL ELEVATION
EREF.M        672                  : kb           - ELEVATION OF DEPTH REFERENCE
DATM.M        672.6                : datum        - DATUM ELEVATION
TDD .M        557                  : tdd          - TOTAL DEPTH DRILLER
RUN .         ONE                  : Run          - RUN NUMBER
ENG .         BILL                 : Engineer     - RECORDING ENGINEER
WIT .         JIM                  : Witness      - WITNESSED BY
MUD .         GEL                  : Mud_type     - MUD TYPE
MATR.         LIMESTONE            : Logunit      - NEUTRON MATRIX
TMAX.C        28                   : BHT          - MAXIMUM RECORDED TEMPERATURE
BHTD.M        557                  : BHTDEP       - MAXIMUM RECORDED TEMPERATURE
MATR.         1                    : LOGUNIT      - NEUTRON MATRIX
RMT .C        25                   : MDTP         - TEMPERATURE OF MUD
NEUT.         1                    : NEUTRON      - NEUTRON TYPE
RESI.         0                    : RESIST       - RESISTIVITY TYPE
RMC .OHMM     0.25                 : RMC          - RESISTIVITY OF MUD CAKE
RMF .OHMM     0.25                 : RMF          - RESISTIVITY OF MUD FILTRATE
SUFT.C        15                   : SUFT         - SURFACE TEMPERATURE
~A  DEPTH     RESD     PHID     PHIN       GR
# ...
  460.500    3.920    0.281    0.500   72.156
  460.750    3.870    0.313    0.486   73.810
  461.000    3.777    0.339    0.494   75.963
  461.250    3.707    0.358    0.534   78.174
  461.500    3.659    0.349    0.561   81.013
  461.750    3.694    0.335    0.556   83.539
  462.000    3.808    0.317    0.530   85.505
  462.250    3.941    0.300    0.527   85.411
  462.500    4.086    0.323    0.523   83.132
  462.750    4.071    0.349    0.505   81.352
  463.000    4.011    0.337    0.471   82.882
  463.250    3.982    0.279    0.445   84.346
  463.500    3.945    0.303    0.471   83.005
  463.750    3.953    0.330    0.475   84.286
  464.000    4.015    0.355    0.449   84.814
  464.250    4.146    0.305    0.434   81.725
  464.500    4.258    0.268    0.455   80.009
  464.750    4.292    0.300    0.475   80.420
  465.000    4.228    0.287    0.483   81.326
  465.250    4.088    0.272    0.468   81.786
  465.500    4.081    0.262    0.466   82.258
  465.750    4.641    0.248    0.490   84.094
  466.000    5.736    0.265    0.503   77.890
  466.250    6.827    0.250    0.449   71.430
  466.500    7.561    0.172    0.391   64.784
  466.750    7.989    0.121    0.332   67.126
  467.000    7.782    0.127    0.291   74.587
  467.250    6.629    0.225    0.329   78.419
  467.500    6.159    0.243    0.433   81.632
  467.750    6.045    0.250    0.480   80.598
  468.000    6.244    0.263    0.492   76.076
  468.250    6.787    0.276    0.519   74.985
  468.500    7.103    0.286    0.546   72.829
  468.750    7.721    0.295    0.531   68.682
  469.000    8.080    0.290    0.490   67.029
  469.250    8.362    0.291    0.465   66.124
  469.500    8.475    0.298    0.476   65.912
  469.750    8.287    0.295    0.464   66.557
  470.000    7.641    0.288    0.475   68.467
  470.250    6.760    0.286    0.487   71.548
  470.500    6.425    0.288    0.493   71.455
  470.750    6.118    0.291    0.471   69.364
  471.000    5.848    0.295    0.457   74.074
  471.250    5.697    0.284    0.445   77.788
  471.500    5.591    0.278    0.472   75.574
  471.750    5.457    0.293    0.477   79.720
  472.000    5.356    0.300    0.458   84.433
  472.250    5.197    0.284    0.443   87.523
  472.500    5.053    0.272    0.466   86.239
  472.750    4.858    0.261    0.481   80.908
  473.000    4.687    0.259    0.468   85.365
  473.250    4.405    0.256    0.456   91.260
  473.500    4.211    0.255    0.469   95.284
  473.750    4.063    0.273    0.489   89.576
  474.000    3.898    0.283    0.495   82.309
  474.250    3.684    0.293    0.516   82.464
  474.500    3.515    0.286    0.514   84.678
  474.750    3.309    0.275    0.501   81.713
  475.000    3.139    0.265    0.475   76.568
  475.250    2.873    0.224    0.459   73.413
  475.500    2.397    0.177    0.500   74.132
  475.750    1.977    0.274    0.524   73.975
  476.000    1.800    0.299    0.530   68.889
  476.250    1.632    0.309    0.548   71.542
  476.500    1.565    0.309    0.579   70.700
  476.750    1.566    0.307    0.593   68.171
  477.000    1.587    0.309    0.590   68.951
  477.250    1.639    0.313    0.573   72.915
  477.500    1.712    0.318    0.574   77.751
  477.750    1.806    0.313    0.582   80.775
  478.000    1.897    0.300    0.560   77.747
  478.250    1.974    0.287    0.522   74.599
  478.500    2.043    0.274    0.498   72.942
  478.750    2.094    0.263    0.503   76.592
  479.000    2.110    0.258    0.536   80.616
  479.250    2.127    0.267    0.537   82.956
  479.500    2.127    0.269    0.538   80.929
  479.750    2.112    0.271    0.540   80.213
  480.000    2.104    0.276    0.545   82.237
  480.250    2.121    0.276    0.563   79.397
  480.500    2.153    0.252    0.576   75.436
  480.750    2.199    0.233    0.586   77.714
  481.000    2.289    0.247    0.588   81.425
  481.250    2.464    0.253    0.581   85.447
  481.500    2.526    0.234    0.565   84.918
  481.750    2.579    0.251    0.531   82.579
  482.000    2.705    0.260    0.512   81.173
  482.250    2.836    0.262    0.506   82.452
  482.500    3.071    0.255    0.512   84.604
  482.750    3.395    0.252    0.511   79.025
  483.000    3.958    0.233    0.484   75.060
  483.250    4.334    0.146    0.408   70.098
  483.500    4.631    0.102    0.349   63.327
  483.750    4.520    0.063    0.331   67.289
  484.000    4.386    0.061    0.361   81.175
  484.250    4.185    0.131    0.386   86.195
  484.500    4.023    0.187    0.420   89.281
  484.750    3.875    0.240    0.432   92.183
  485.000    3.725    0.231    0.444   87.534
  485.250    3.608    0.224    0.454   86.007
  485.500    3.494    0.218    0.467   89.903
  485.750    3.404    0.213    0.480   92.430
  486.000    3.272    0.210    0.486   88.532
  486.250    3.128    0.210    0.480   86.442
  486.500    2.979    0.218    0.476   86.283
  486.750    2.940    0.224    0.473   88.873
  487.000    2.946    0.227    0.482   85.665
  487.250    3.208    0.238    0.496   79.147
  487.500    4.325    0.206    0.503   73.805
  487.750    5.864    0.121    0.486   62.110
  488.000    8.210    0.067    0.411   51.219
  488.250   11.604    0.109    0.341   54.002
  488.500   13.889    0.164    0.375   57.708
  488.750   16.219    0.233    0.414   62.487
  489.000   13.558    0.277    0.431   65.068
  489.250   12.038    0.289    0.409   69.345
  489.500   10.791    0.284    0.406   74.677
  489.750   10.084    0.281    0.423   77.452
  490.000    9.657    0.283    0.428   71.935
  490.250    9.179    0.292    0.433   73.904
  490.500    8.791    0.298    0.448   76.989
  490.750    8.387    0.301    0.473   80.824
  491.000    8.062    0.302    0.441   84.594
  491.250    7.765    0.296    0.422   89.563
  491.500    7.380    0.285    0.435   92.146
  491.750    6.805    0.276    0.441   94.860
  492.000    6.288    0.266    0.435   96.385
  492.250    6.102    0.252    0.432   96.790
  492.500    6.046    0.216    0.448   96.758
  492.750    6.047    0.213    0.431   94.730
  493.000    6.234    0.235    0.400   95.447
  493.250    6.259    0.246    0.388   98.163
  493.500    6.320    0.206    0.393   95.946
  493.750    6.369    0.204    0.405   87.994
  494.000    6.554    0.205    0.419   83.594
  494.250    6.667    0.202    0.413   80.005
  494.500    7.260    0.202    0.390   76.854
  494.750    8.464    0.229    0.377   71.712
  495.000    8.874    0.229    0.374   67.620
  495.250    9.464    0.258    0.371   64.717
  495.500   10.384    0.286    0.369   66.747
  495.750   11.969    0.296    0.376   68.274
  496.000   12.716    0.286    0.382   60.132
  496.250   15.077    0.285    0.388   56.605
  496.500   15.080    0.295    0.383   62.502
  496.750   14.718    0.297    0.379   66.531
  497.000   14.609    0.289    0.392   66.992
  497.250   16.091    0.280    0.408   59.411
  497.500   17.227    0.296    0.401   53.207
  497.750   17.625    0.305    0.397   53.549
  498.000   17.530    0.297    0.396   57.324
  498.250   16.257    0.289    0.395   59.787
  498.500   14.963    0.280    0.383   62.061
  498.750   14.116    0.280    0.366   66.213
  499.000   14.198    0.299    0.392   70.109
  499.250   15.491    0.317    0.419   73.199
  499.500   16.837    0.317    0.424   73.977
  499.750   17.755    0.311    0.417   74.945
  500.000   18.270    0.311    0.419   76.474
  500.250   17.966    0.311    0.414   78.062
  500.500   15.773    0.302    0.423   78.531
  500.750   14.192    0.286    0.454   75.198
  501.000   12.698    0.057    0.477   72.415
  501.250   11.361    0.025    0.432   71.824
  501.500   10.300    0.021    0.394   80.965
  501.750    9.077    0.179    0.324   88.923
  502.000    8.386    0.233    0.361   94.689
  502.250    7.252    0.243    0.392  100.459
  502.500    6.476    0.228    0.377  103.734
  502.750    6.309    0.222    0.379   97.276
  503.000    6.418    0.221    0.371   94.688
  503.250    6.781    0.215    0.370   86.051
  503.500    7.483    0.212    0.382   79.029
  503.750    8.990    0.217    0.391   70.697
