~VERSION INFORMATION
 VERS.                 2.0:   CWLS LOG ASCII STANDARD -VERSION 2.0
 WRAP.                  NO:   ONE LINE PER DEPTH STEP
~WELL INFORMATION BLOCK
#MNEM.UNIT           DATA                    DESCRIPTION OF MNEMONIC
#---------    -------------------            -------------------------------
# Generated from Intellog Unique Number	CW_70_72/WELL/3025
NULL.         -999.25                        : NULL_VALUE
WELL.         BRASCAN AMOCO MEYER 11-02      : Well_name    - WELL              
LOC .         12-02-070-25W4                 : Location     - LOCATION          
UWI .         00/12-02-070-25W4/0            : Uwi          - UNIQUE WELL ID    
ENTR.         J                              : Entered      - ENTERED BY        
SRVC.         SCHLUMBERGER                   : Scn          - SERVICE COMPANY   
DATE.         30 JULY 73                     : Date         - LOG DATE          
STRT.M        466.344                        : top_depth    - START DEPTH       
STOP.M        682.844                        : bot_depth    - STOP DEPTH        
STEP.M        0.25                           : increment    - STEP LENGTH       
~CURVE INFORMATION BLOCK
#MNEM UNIT       ERCB CURVE CODE    CURVE DESCRIPTION
#-----------   ------------------   ----------------------------------
DEPT.M        00 001 00 00         : DEPTH        - DEPTH                       
ILD .OHMM     00 120 00 00         : RESD         - DEEP RESISTIVITY (DIL)      
CALI.MM       00 280 01 00         : CAL          - CALIPER                     
GR  .API      00 310 00 00         : GR           - GAMMA RAY                   
NPHI.V/V      00 330 00 00         : PHIN         - NEUTRON POROSITY (SANDSTONE)
DPHI.V/V      00 890 00 00         : PHID         - DENSITY POROSITY (SANDSTONE)
~PARAMETER INFORMATION       
#MNEM.UNIT           DATA             DESCRIPTION OF MNEMONIC
#---------         -----------     ------------------------------
GL  .M        656.844              : gl           - GROUND LEVEL ELEVATION      
EREF.M        659.587              : kb           - ELEVATION OF DEPTH REFERENCE
DATM.M        656.844              : datum        - DATUM ELEVATION             
TDD .M        684.581              : tdd          - TOTAL DEPTH DRILLER         
RUN .         ONE                  : Run          - RUN NUMBER                  
BASE.         EDM                  : Branch       - HOME BASE OF LOGGING UNIT   
MUD .         GEL CHEM             : Mud_type     - MUD TYPE                    
MATR.         SANDSTONE            : Logunit      - NEUTRON MATRIX              
TMAX.C        36.1111              : BHT          - MAXIMUM RECORDED TEMPERATURE
BHTD.M        684.581              : BHTDEP       - MAXIMUM RECORDED TEMPERATURE
RMT .C        24.4444              : MDTP         - TEMPERATURE OF MUD          
MUDD.KG/M     1140                 : MWT          - MUD DENSITY                 
NEUT.         1                    : NEUTRON      - NEUTRON TYPE                
RESI.         0                    : RESIST       - RESISTIVITY TYPE            
RM  .OHMM     2.46                 : RM           - RESISTIVITY OF MUD          
RMC .OHMM     0.25                 : RMC          - RESISTIVITY OF MUD CAKE     
RMF .OHMM     3.29                 : RMF          - RESISTIVITY OF MUD FILTRATE 
SUFT.C        10                   : SUFT         - SURFACE TEMPERATURE         
~A  DEPTH     RESD      CAL       GR     PHIN     PHID
# ...
  612.344    2.073  151.404   62.960    0.434    0.222
  612.594    2.222  153.585   61.336    0.414    0.205
  612.844    2.369  156.896   62.444    0.418    0.252
  613.094    2.531  158.042   63.786    0.444    0.272
  613.344    2.477  158.073   64.042    0.438    0.263
  613.594    2.320  157.479   59.328    0.413    0.231
  613.844    2.181  157.601   60.254    0.381    0.188
  614.094    2.251  157.515   61.053    0.365    0.190
  614.344    2.535  157.437   61.429    0.368    0.242
  614.594    2.978  157.050   61.325    0.419    0.264
  614.844    3.492  156.767   60.671    0.437    0.267
  615.094    4.263  157.100   59.958    0.405    0.258
  615.344    4.731  157.321   59.181    0.392    0.245
  615.594    4.936  157.548   58.526    0.409    0.187
  615.844    4.498  157.366   57.872    0.343    0.129
  616.094    3.945  156.981   56.492    0.245    0.082
  616.344    3.511  161.311   55.354    0.218    0.071
  616.594    3.247  165.542   56.095    0.204    0.060
  616.844    3.272  169.261   58.108    0.194    0.066
  617.094    3.482  162.919   59.333    0.230    0.124
  617.344    3.831  156.271   59.954    0.352    0.210
  617.594    3.825  154.862   59.663    0.416    0.268
  617.844    3.448  154.674   59.011    0.377    0.236
  618.094    3.013  154.595   59.508    0.280    0.174
  618.344    2.761  156.566   56.190    0.236    0.062
  618.594    2.413  159.978   52.019    0.249    0.071
  618.844    2.244  159.486   55.186    0.286    0.139
  619.094    2.180  151.502   56.591    0.376    0.250
  619.344    2.249  149.375   57.880    0.430    0.271
  619.594    2.346  150.114   58.924    0.455    0.277
  619.844    2.461  151.981   59.545    0.446    0.278
  620.094    2.553  154.775   60.041    0.448    0.254
  620.344    2.630  155.105   60.721    0.469    0.278
  620.594    2.669  151.742   62.673    0.454    0.292
  620.844    2.724  150.331   63.776    0.472    0.278
  621.094    2.791  149.637   61.852    0.464    0.278
  621.344    2.869  150.372   59.379    0.447    0.273
  621.594    2.993  153.987   57.090    0.452    0.266
  621.844    3.100  157.703   57.286    0.424    0.251
  622.094    3.124  159.268   57.298    0.417    0.238
  622.344    3.062  159.291   61.312    0.422    0.244
  622.594    2.959  159.311   60.175    0.423    0.240
  622.844    2.922  158.616   58.307    0.402    0.232
  623.094    3.150  157.620   60.687    0.381    0.224
  623.344    3.471  157.225   61.304    0.394    0.243
  623.594    3.790  156.940   59.803    0.404    0.236
  623.844    4.109  156.040   58.302    0.407    0.225
  624.094    4.171  155.444   57.223    0.360    0.243
  624.344    4.164  155.572   56.569    0.291    0.223
  624.594    4.046  157.953   57.919    0.246    0.167
  624.844    3.916  164.030   60.476    0.246    0.080
  625.094    3.709  159.127   68.672    0.273    0.106
  625.344    3.656  156.692   78.926    0.350    0.163
  625.594    3.571  156.610   73.487    0.390    0.191
  625.844    3.457  156.740   71.376    0.375    0.161
  626.094    3.352  156.861   73.573    0.343    0.144
  626.344    3.280  156.884   74.494    0.352    0.150
  626.594    3.170  156.906   74.144    0.363    0.168
  626.844    3.125  157.439   78.036    0.377    0.174
  627.094    3.143  156.847   78.474    0.385    0.175
  627.344    3.255  156.252   79.579    0.389    0.158
  627.594    3.408  155.661   81.775    0.379    0.170
  627.844    3.588  155.068   83.849    0.371    0.183
  628.094    3.882  155.294   85.622    0.377    0.178
  628.344    4.185  156.959   86.540    0.391    0.172
  628.594    4.414  159.856   85.162    0.406    0.159
  628.844    4.622  163.778   81.115    0.418    0.146
  629.094    4.884  159.388   76.156    0.371    0.087
  629.344    4.984  159.615   75.507    0.344    0.063
  629.594    4.913  162.003   74.610    0.356    0.114
  629.844    4.696  163.662   72.318    0.356    0.096
  630.094    4.545  166.457   75.968    0.318    0.082
  630.344    4.320  167.612   81.315    0.296    0.091
  630.594    4.099  167.736   85.755    0.358    0.127
  630.844    4.018  167.759   88.493    0.383    0.116
  631.094    3.947  168.093   89.416    0.384    0.114
  631.344    4.028  168.006   86.944    0.387    0.120
  631.594    4.103  167.720   84.839    0.388    0.128
  631.844    4.273  167.437   86.667    0.388    0.148
  632.094    4.649  167.355   89.954    0.391    0.156
  632.344    4.903  167.277   87.361    0.398    0.139
  632.594    5.115  167.197   84.344    0.384    0.126
  632.844    5.202  167.121   82.176    0.368    0.109
  633.094    5.100  167.141   80.494    0.355    0.096
  633.344    4.936  166.958   81.778    0.354    0.085
  633.594    4.761  166.466   85.306    0.337    0.086
  633.844    4.625  165.462   87.865    0.341    0.126
  634.094    4.518  157.069   85.333    0.384    0.113
  634.344    4.406  164.275   87.589    0.376    0.086
  634.594    4.358  161.732   88.390    0.354    0.080
  634.844    4.258  159.087   87.192    0.388    0.115
  635.094    4.174  165.987   87.571    0.367    0.126
  635.344    4.145  166.624   89.041    0.364    0.125
  635.594    4.124  166.446   88.565    0.388    0.155
  635.844    4.125  166.674   88.763    0.401    0.168
  636.094    4.164  166.804   90.410    0.410    0.165
  636.344    4.250  166.713   95.029    0.405    0.160
  636.594    4.483  166.738   95.469    0.389    0.147
  636.844    4.931  167.175   94.391    0.382    0.133
  637.094    5.032  167.195   92.103    0.376    0.112
  637.344    4.934  167.017   89.993    0.366    0.111
  637.594    4.837  167.240   89.459    0.345    0.097
  637.844    4.742  166.234   92.382    0.332    0.092
  638.094    4.633  164.828   98.760    0.350    0.124
  638.344    4.567  164.546   97.804    0.376    0.153
  638.594    4.669  164.872   94.606    0.387    0.145
  638.844    4.943  165.198   92.016    0.355    0.123
  639.094    5.072  165.425   90.753    0.346    0.109
  639.344    4.874  165.654   89.008    0.355    0.078
  639.594    4.709  165.887   95.931    0.355    0.076
  639.844    4.575  165.696   98.430    0.349    0.095
  640.094    4.397  166.038   98.624    0.361    0.121
  640.344    4.335  166.056   98.698    0.366    0.136
  640.594    4.375  166.072  100.409    0.364    0.135
  640.844    4.523  166.507  103.392    0.356    0.135
  641.094    4.616  166.632  105.345    0.356    0.132
  641.344    4.728  165.423  102.146    0.370    0.128
  641.594    4.835  162.984   97.916    0.378    0.128
  641.844    4.801  162.493   94.051    0.367    0.123
  642.094    4.605  165.285   91.458    0.373    0.113
  642.344    4.039  166.438   90.808    0.365    0.122
  642.594    3.094  165.227   91.246    0.347    0.107
  642.844    2.569  163.301   92.588    0.361    0.095
  643.094    2.173  160.451   95.693    0.368    0.133
  643.344    1.941  160.478  101.587    0.385    0.131
  643.594    1.889  161.521  104.508    0.445    0.142
  643.844    2.036  165.036  106.098    0.516    0.169
  644.094    2.286  167.210  107.022    0.515    0.206
  644.344    2.519  168.263  107.275    0.505    0.156
  644.594    2.681  167.974  102.926    0.519    0.118
  644.844    3.143  167.386   95.182    0.520    0.124
  645.094    3.547  166.998   76.588    0.324    0.104
  645.344    3.930  165.996   72.906    0.279    0.048
  645.594    2.522  164.069   78.614    0.266   -0.005
  645.844    2.496  162.854   87.174    0.333    0.083
  646.094    2.407  160.823   87.191    0.364    0.066
  646.344    2.088  158.284   87.443    0.361    0.057
  646.594    1.623  157.278   95.032    0.362    0.124
  646.844    1.178  156.379   97.713    0.354    0.132
  647.094    0.950  155.580   98.455    0.359    0.129
  647.344    0.742  155.090   99.499    0.362    0.119
  647.594    0.603  156.136  102.177    0.357    0.097
  647.844    0.461  160.572  108.010    0.373    0.114
  648.094    0.420  166.135  107.900    0.408    0.113
  648.344    0.442  168.622  100.885    0.413    0.131
  648.594    1.215  164.538  100.230    0.396    0.088
