~VERSION INFORMATION
 VERS.                 2.0:   CWLS LOG ASCII STANDARD -VERSION 2.0
 WRAP.                  NO:   ONE LINE PER DEPTH STEP
~WELL INFORMATION BLOCK
#MNEM.UNIT           DATA                    DESCRIPTION OF MNEMONIC
#---------    -------------------            -------------------------------
# Generated from Intellog Unique Number	CW_82_90/WELL/879
WELL.         10-20-083-20W4                 : Well_name    - WELL
LOC .         00/10-20-083-20W4/0            : Location     - LOCATION
UWI .         00/10-20-083-20W4/0            : Uwi          - UNIQUE WELL ID
ENTR.         JAYE                           : Entered      - ENTERED BY
SRVC.         SCHLUMBERGER                   : Scn          - SERVICE COMPANY
DATE.         16 MAR 74                      : Date         - LOG DATE
STRT.M        222.504                        : top_depth    - START DEPTH
STOP.M        436.504                        : bot_depth    - STOP DEPTH
STEP.M        0.25                           : increment    - STEP LENGTH
 NULL. -999.2500:NULL Value
~CURVE INFORMATION BLOCK
#MNEM UNIT       ERCB CURVE CODE    CURVE DESCRIPTION
#-----------   ------------------   ----------------------------------
DEPT.M        00 001 00 00         : DEPTH        - DEPTH
ILD .OHMM     00 120 00 00         : RESD         - DEEP RESISTIVITY (DIL)
CALI.MM       00 280 01 00         : CAL          - CALIPER
GR  .API      00 310 00 00         : GR           - GAMMA RAY
NPHI.V/V      00 330 00 00         : PHIN         - NEUTRON POROSITY (SANDSTONE)
DPHI.V/V      00 890 00 00         : PHID         - DENSITY POROSITY (SANDSTONE)
~PARAMETER INFORMATION
#MNEM.UNIT           DATA             DESCRIPTION OF MNEMONIC
#---------         -----------     ------------------------------
GL  .M        632.765              : gl           - GROUND LEVEL ELEVATION
EREF.M        637.032              : kb           - ELEVATION OF DEPTH REFERENCE
DATM.M        632.765              : datum        - DATUM ELEVATION
TDD .M        444.094              : tdd          - TOTAL DEPTH DRILLER
RUN .         ONE                  : Run          - RUN NUMBER
ENG .         AUGUSTIN             : Engineer     - RECORDING ENGINEER
WIT .         FYFFE                : Witness      - WITNESSED BY
BASE.         EDMONTON             : Branch       - HOME BASE OF LOGGING UNIT
MUD .         GEL CHEM             : Mud_type     - MUD TYPE
MATR.         SANDSTONE            : Logunit      - NEUTRON MATRIX
TMAX.C        22.2222              : BHT          - MAXIMUM RECORDED TEMPERATURE
BHTD.M        444.094              : BHTDEP       - MAXIMUM RECORDED TEMPERATURE
RMT .C        15.5556              : MDTP         - TEMPERATURE OF MUD
MUDD.KG/M     8500                 : MWT          - MUD DENSITY
NEUT.         1                    : NEUTRON      - NEUTRON TYPE
RESI.         0                    : RESIST       - RESISTIVITY TYPE
RM  .OHMM     4.85                 : RM           - RESISTIVITY OF MUD
RMC .OHMM     0                    : RMC          - RESISTIVITY OF MUD CAKE
RMF .OHMM     0                    : RMF          - RESISTIVITY OF MUD FILTRATE
SUFT.C        -17.7778             : SUFT         - SURFACE TEMPERATURE
~A  DEPTH     RESD      CAL       GR     PHIN     PHID
# ...
  259.004   28.997  196.862   50.094    0.464    0.376
  259.254   29.556  196.812   48.668    0.469    0.374
  259.504   28.001  196.255   49.674    0.473    0.372
  259.754   24.838  196.517   51.894    0.473    0.375
  260.004   22.357  196.465   53.386    0.477    0.381
  260.254   21.180  196.626   53.906    0.493    0.388
  260.504   20.815  196.377   53.209    0.514    0.400
  260.754   21.063  195.908   51.420    0.519    0.404
  261.004   21.700  195.659   49.992    0.497    0.394
  261.254   23.795  195.917   49.416    0.481    0.395
  261.504   25.478  195.761   49.325    0.524    0.394
  261.754   27.133  195.504   49.907    0.520    0.383
  262.004   28.738  195.146   50.852    0.514    0.368
  262.254   29.831  194.477   49.912    0.495    0.364
  262.504   30.911  194.112   48.546    0.477    0.366
  262.754   31.791  193.779   47.180    0.471    0.359
  263.004   32.760  193.623   45.449    0.473    0.358
  263.254   33.633  193.270   45.846    0.468    0.364
  263.504   34.667  193.624   45.998    0.456    0.366
  263.754   34.941  193.895   46.457    0.441    0.372
  264.004   35.351  194.986   45.701    0.443    0.367
  264.254   34.865  196.162   45.123    0.473    0.359
  264.504   34.196  196.623   45.338    0.485    0.362
  264.754   34.034  196.572   45.366    0.500    0.372
  265.004   33.816  196.843   45.584    0.519    0.372
  265.254   33.841  196.167   45.677    0.499    0.369
  265.504   33.868  195.919   46.559    0.485    0.369
  265.754   33.767  194.957   47.508    0.471    0.369
  266.004   33.611  193.774   48.997    0.522    0.369
  266.254   33.391  194.550   50.065    0.507    0.370
  266.504   33.355  194.803   50.706    0.494    0.370
  266.754   33.202  195.065   51.224    0.479    0.367
  267.004   32.922  195.126   51.501    0.461    0.363
  267.254   32.952  194.670   51.166    0.448    0.355
  267.504   32.736  194.303   51.990    0.469    0.354
  267.754   32.341  194.263   52.935    0.484    0.356
  268.004   31.839  194.217   53.636    0.488    0.355
  268.254   31.227  194.879   54.149    0.491    0.353
  268.504   30.294  194.842   54.310    0.498    0.355
  268.754   29.017  194.366   57.262    0.504    0.359
  269.004   27.793  194.121   64.529    0.521    0.362
  269.254   26.480  193.977   75.324    0.546    0.358
  269.504   25.735  193.721   72.491    0.545    0.361
  269.754   25.011  194.074   68.335    0.530    0.365
  270.004   24.490  194.555   64.537    0.513    0.362
  270.254   24.194  194.094   60.553    0.526    0.363
  270.504   23.863  194.658   59.556    0.523    0.370
  270.754   23.576  194.923   59.343    0.513    0.378
  271.004   23.551  195.078   58.586    0.503    0.385
  271.254   23.745  195.445   58.011    0.493    0.379
  271.504   23.761  195.502   57.800    0.491    0.372
  271.754   24.040  195.658   58.136    0.554    0.375
  272.004   24.412  195.606   56.038    0.564    0.374
  272.254   24.746  195.452   55.586    0.547    0.373
  272.504   24.857  195.923   55.982    0.534    0.373
  272.754   24.969  196.383   56.261    0.516    0.370
  273.004   25.029  197.156   56.596    0.502    0.374
  273.254   24.734  197.113   57.054    0.500    0.375
  273.504   24.572  197.579   57.757    0.522    0.379
  273.754   24.276  197.014   58.519    0.526    0.384
  274.004   23.858  196.873   59.159    0.532    0.384
  274.254   23.316  196.301   58.885    0.547    0.378
  274.504   22.825  196.154   57.399    0.542    0.375
  274.754   22.267  195.906   56.823    0.532    0.372
  275.004   21.839  195.851   57.040    0.521    0.368
  275.254   21.382  196.014   57.982    0.524    0.365
  275.504   21.089  195.655   58.561    0.540    0.366
  275.754   20.798  195.611   58.168    0.539    0.374
  276.004   20.549  195.562   58.200    0.546    0.376
  276.254   20.156  195.501   59.570    0.537    0.371
  276.504   19.697  195.668   59.299    0.533    0.366
  276.754   19.007  195.110   58.179    0.532    0.370
  277.004   18.370  194.957   59.913    0.537    0.371
  277.254   17.724  194.603   58.362    0.554    0.370
  277.504   17.321  194.443   57.908    0.545    0.369
  277.754   16.868  194.503   58.309    0.563    0.366
  278.004   16.514  195.069   59.552    0.559    0.361
  278.254   16.678  195.438   60.129    0.479    0.353
  278.504   17.825  196.218   60.044    0.468    0.326
  278.754   19.942  197.398   59.959    0.433    0.253
  279.004   23.655  198.383   58.652    0.335    0.116
  279.254   28.627  200.085   56.920    0.243    0.091
  279.504   29.234  201.064   55.977    0.235    0.092
  279.754   25.835  199.774   55.769    0.250    0.111
  280.004   20.994  198.707   56.104    0.281    0.167
  280.254   18.184  197.424   60.213    0.467    0.256
  280.504   15.104  196.552   65.415    0.552    0.340
  280.754   12.362  195.471   65.324    0.575    0.346
  281.004    9.845  194.806   67.300    0.573    0.351
  281.254    8.029  194.658   70.133    0.574    0.360
  281.504    6.817  194.813   74.056    0.585    0.363
  281.754    6.411  194.768   72.021    0.579    0.360
  282.004    6.108  194.309   71.259    0.573    0.343
  282.254    5.925  193.840   71.357    0.569    0.331
  282.504    6.039  194.001   72.971    0.560    0.336
  282.754    6.384  194.164   71.724    0.564    0.333
  283.004    7.182  194.214   69.204    0.571    0.336
  283.254    8.644  194.474   66.925    0.581    0.338
  283.504   10.086  194.533   64.279    0.579    0.339
  283.754   12.095  194.798   62.673    0.572    0.349
  284.004   14.374  194.539   61.064    0.568    0.366
  284.254   16.081  194.386   61.701    0.571    0.369
  284.504   16.721  193.927   63.381    0.566    0.367
  284.754   17.294  193.361   63.777    0.559    0.366
  285.004   17.436  192.701   62.894    0.549    0.363
  285.254   17.323  192.647   62.806    0.538    0.365
  285.504   17.055  192.607   62.713    0.532    0.368
  285.754   16.879  193.281   63.662    0.533    0.365
  286.004   16.618  193.943   65.398    0.537    0.360
  286.254   16.388  194.626   66.891    0.543    0.356
  286.504   16.104  196.116   68.442    0.547    0.351
  286.754   16.264  196.795   69.015    0.553    0.344
  287.004   16.456  197.153   68.504    0.557    0.346
  287.254   16.741  197.105   67.502    0.564    0.352
  287.504   16.601  196.857   67.599    0.571    0.354
  287.754   15.727  196.906   68.058    0.575    0.349
  288.004   13.475  196.646   70.095    0.569    0.341
  288.254   11.588  196.504   72.984    0.535    0.322
  288.504    9.874  196.452   75.270    0.531    0.303
  288.754    8.823  196.617   77.977    0.541    0.294
  289.004    8.435  198.420   77.882    0.561    0.311
  289.254    8.629  199.606   73.787    0.570    0.312
  289.504    8.990  198.830   70.048    0.573    0.301
  289.754    9.715  198.277   69.289    0.568    0.306
  290.004   10.595  198.022   67.499    0.553    0.318
  290.254   11.809  198.182   65.762    0.551    0.316
  290.504   12.761  197.921   64.339    0.541    0.325
  290.754   12.655  197.874   61.881    0.523    0.341
  291.004   11.946  197.618   62.268    0.499    0.350
  291.254   11.071  197.681   64.438    0.465    0.355
  291.504   10.075  197.943   74.322    0.487    0.331
  291.754    9.203  199.126   78.182    0.501    0.306
  292.004    8.560  200.215   74.750    0.508    0.290
  292.254    7.949  201.296   74.480    0.528    0.282
  292.504    7.530  202.279   75.965    0.543    0.279
  292.754    7.107  203.778   75.698    0.558    0.275
  293.004    6.746  205.058   77.372    0.565    0.268
  293.254    6.497  205.527   80.869    0.572    0.277
  293.504    6.491  206.094   81.693    0.562    0.285
  293.754    6.738  206.661   81.546    0.554    0.282
  294.004    7.032  206.728   81.271    0.545    0.287
  294.254    7.475  206.364   79.116    0.540    0.295
  294.504    7.975  206.118   80.549    0.557    0.301
  294.754    8.248  203.696   85.017    0.566    0.301
  295.004    8.104  202.416   87.421    0.567    0.290
  295.254    7.705  202.368   89.217    0.568    0.280
