~VERSION INFORMATION
 VERS.                 2.0:   CWLS LOG ASCII STANDARD -VERSION 2.0
 WRAP.                  NO:   ONE LINE PER DEPTH STEP
~WELL INFORMATION BLOCK
#MNEM.UNIT           DATA                    DESCRIPTION OF MNEMONIC
#---------    -------------------            -------------------------------
# Generated from Intellog Unique Number	CW_79_81/WELL/2472
WELL.         10-23-081-20W4                 : Well_name    - WELL
LOC .         00/10-23-081-20W4/0            : Location     - LOCATION
UWI .         00/10-23-081-20W4/0            : Uwi          - UNIQUE WELL ID
ENTR.         MAX                            : Entered      - ENTERED BY
SRVC.         SCHLUMBERGER                   : Scn          - SERVICE COMPANY
STRT.M        182.88                         : top_depth    - START DEPTH
STOP.M        405.13                         : bot_depth    - STOP DEPTH
STEP.M        0.25                           : increment    - STEP LENGTH
 NULL. -999.2500:NULL Value
~CURVE INFORMATION BLOCK
#MNEM UNIT       ERCB CURVE CODE    CURVE DESCRIPTION
#-----------   ------------------   ----------------------------------
DEPT.M        00 001 00 00         : DEPTH        - DEPTH
ILD .OHMM     00 120 00 00         : RESD         - DEEP RESISTIVITY (DIL)
NPHI.V/V      00 330 00 00         : PHIN         - NEUTRON POROSITY (SANDSTONE)
DPHI.V/V      00 890 00 00         : PHID         - DENSITY POROSITY (SANDSTONE)
GR  .API      00 310 00 00         : GR           - GAMMA RAY
CALI.MM       00 280 01 00         : CAL          - CALIPER
~PARAMETER INFORMATION
#MNEM.UNIT           DATA             DESCRIPTION OF MNEMONIC
#---------         -----------     ------------------------------
GL  .M        582.778              : gl           - GROUND LEVEL ELEVATION
EREF.M        586.13               : kb           - ELEVATION OF DEPTH REFERENCE
DATM.M        582.778              : datum        - DATUM ELEVATION
TDD .M        414.223              : tdd          - TOTAL DEPTH DRILLER
RUN .         ONE                  : Run          - RUN NUMBER
ENG .         BILL                 : Engineer     - RECORDING ENGINEER
WIT .         JIM                  : Witness      - WITNESSED BY
MUD .         GEL                  : Mud_type     - MUD TYPE
MATR.         SANDSTONE            : Logunit      - NEUTRON MATRIX
TMAX.C        25.5556              : BHT          - MAXIMUM RECORDED TEMPERATURE
BHTD.M        414.223              : BHTDEP       - MAXIMUM RECORDED TEMPERATURE
MATR.         1                    : LOGUNIT      - NEUTRON MATRIX
RMT .C        11.6667              : MDTP         - TEMPERATURE OF MUD
NEUT.         1                    : NEUTRON      - NEUTRON TYPE
RESI.         0                    : RESIST       - RESISTIVITY TYPE
RMC .OHMM     3.8                  : RMC          - RESISTIVITY OF MUD CAKE
RMF .OHMM     2.57                 : RMF          - RESISTIVITY OF MUD FILTRATE
SUFT.C        -20                  : SUFT         - SURFACE TEMPERATURE
~A  DEPTH     RESD     PHIN     PHID       GR      CAL
# ...
  328.880    4.157    0.476    0.228   83.955  164.881
  329.130    4.135    0.479    0.232   84.916  164.724
  329.380    4.129    0.482    0.232   84.529  164.763
  329.630    4.115    0.481    0.232   84.401  164.891
  329.880    4.075    0.470    0.231   88.335  165.350
  330.130    4.069    0.453    0.225   89.766  165.783
  330.380    4.086    0.460    0.220   90.846  165.325
  330.630    4.126    0.467    0.212   91.107  165.167
  330.880    4.175    0.469    0.206   90.900  165.704
  331.130    4.206    0.488    0.213   91.784  166.550
  331.380    4.231    0.502    0.227   93.763  166.592
  331.630    4.349    0.503    0.225   95.195  166.230
  331.880    4.397    0.494    0.221   94.864  166.170
  332.130    4.438    0.484    0.213   93.128  166.212
  332.380    4.502    0.475    0.207   91.335  166.253
  332.630    4.595    0.458    0.216   92.271  166.299
  332.880    4.621    0.458    0.221   94.497  166.349
  333.130    4.614    0.457    0.217   93.816  166.778
  333.380    4.584    0.459    0.212   93.134  166.915
  333.630    4.547    0.480    0.214   94.096  167.153
  333.880    4.517    0.508    0.222   95.881  167.590
  334.130    4.501    0.494    0.222   94.912  168.119
  334.380    4.463    0.473    0.208   93.471  168.579
  334.630    4.425    0.481    0.201   94.432  169.016
  334.880    4.387    0.483    0.200   94.866  168.854
  335.130    4.366    0.479    0.200   94.538  168.695
  335.380    4.359    0.472    0.200   94.210  168.738
  335.630    4.345    0.471    0.205   95.694  168.702
  335.880    4.305    0.480    0.212   95.963  168.326
  336.130    4.268    0.501    0.204   95.051  168.365
  336.380    4.254    0.515    0.216   95.720  168.408
  336.630    4.247    0.505    0.216   97.385  168.253
  336.880    4.249    0.485    0.194   99.403  167.897
  337.130    4.279    0.501    0.171  100.826  168.285
  337.380    4.305    0.522    0.208   99.629  172.050
  337.630    4.268    0.509    0.219   99.420  175.669
  337.880    4.229    0.494    0.211  100.441  175.707
  338.130    4.191    0.485    0.199  101.404  172.767
  338.380    4.161    0.481    0.198  101.722  169.632
  338.630    4.154    0.475    0.221  101.366  171.599
  338.880    4.147    0.461    0.212  100.655  173.292
  339.130    4.141    0.441    0.215   99.975  173.339
  339.380    4.135    0.426    0.205   96.832  172.788
  339.630    4.129    0.425    0.192   94.861  172.828
  339.880    4.122    0.435    0.182   95.999  173.361
  340.130    4.114    0.441    0.183  100.436  174.667
  340.380    4.108    0.448    0.213  100.216  182.985
  340.630    4.163    0.444    0.214   95.547  183.422
  340.880    4.242    0.431    0.205   90.879  185.050
  341.130    4.360    0.416    0.203   86.445  180.122
  341.380    4.579    0.403    0.213   82.833  170.030
  341.630    5.186    0.398    0.222   81.280  165.311
  341.880    5.981    0.423    0.223   82.768  165.353
  342.130    6.991    0.411    0.250   82.792  165.396
  342.380    7.432    0.423    0.271   82.112  164.841
  342.630    7.490    0.450    0.283   81.549  164.285
  342.880    7.390    0.474    0.284   81.220  164.027
  343.130    7.169    0.462    0.272   80.398  164.075
  343.380    7.033    0.421    0.246   79.689  164.116
  343.630    7.058    0.390    0.210   76.192  164.152
  343.880    7.198    0.369    0.193   76.218  164.194
  344.130    7.303    0.366    0.210   77.768  164.436
  344.380    7.320    0.383    0.243   79.022  164.775
  344.630    7.279    0.412    0.241   78.153  164.816
  344.880    7.111    0.421    0.234   77.200  164.862
  345.130    6.628    0.442    0.242   78.631  164.905
  345.380    6.247    0.439    0.239   81.292  164.946
  345.630    5.946    0.428    0.229   84.247  164.984
  345.880    5.733    0.419    0.218   86.558  165.020
  346.130    5.613    0.408    0.212   86.608  165.065
  346.380    5.509    0.416    0.223   83.212  165.115
  346.630    5.472    0.414    0.228   83.003  165.151
  346.880    5.458    0.412    0.235   82.965  165.190
  347.130    5.542    0.409    0.239   81.930  164.834
  347.380    5.773    0.402    0.238   79.843  164.677
  347.630    6.323    0.383    0.222   76.538  166.310
  347.880    7.148    0.360    0.176   70.453  166.347
  348.130    7.693    0.297    0.109   63.205  166.796
  348.380    7.976    0.269    0.092   63.519  166.634
  348.630    8.002    0.284    0.108   68.704  166.074
  348.880    7.855    0.336    0.141   75.942  165.816
  349.130    7.593    0.398    0.185   83.185  167.470
  349.380    7.264    0.394    0.189   87.611  169.585
  349.630    6.781    0.393    0.164   85.760  168.425
  349.880    6.498    0.396    0.155   84.431  169.064
  350.130    6.431    0.397    0.159   82.929  170.099
  350.380    6.504    0.391    0.168   81.194  170.929
  350.630    6.527    0.377    0.165   79.519  171.604
  350.880    6.520    0.374    0.158   78.078  170.826
  351.130    6.451    0.423    0.194   79.042  170.461
  351.380    6.263    0.442    0.206   79.826  169.803
  351.630    6.087    0.432    0.199   79.615  168.852
  351.880    6.011    0.405    0.184   78.467  168.100
  352.130    6.123    0.384    0.164   77.222  168.628
  352.380    6.246    0.382    0.149   76.758  169.079
  352.630    6.271    0.380    0.160   78.661  169.913
  352.880    6.155    0.391    0.174   80.387  170.452
  353.130    5.892    0.409    0.190   80.996  171.088
  353.380    5.570    0.424    0.207   80.957  171.820
  353.630    5.274    0.420    0.223   82.794  172.266
  353.880    5.074    0.409    0.223   85.995  172.312
  354.130    5.037    0.429    0.211   88.130  172.351
  354.380    4.976    0.444    0.203   88.683  172.388
  354.630    4.923    0.441    0.199   87.651  172.426
  354.880    4.869    0.425    0.198   86.090  172.467
  355.130    4.761    0.418    0.207   86.756  172.519
  355.380    4.723    0.436    0.212   89.957  172.560
  355.630    4.685    0.427    0.195   87.869  172.600
  355.880    4.694    0.418    0.187   87.367  172.640
  356.130    4.671    0.419    0.194   88.329  173.674
  356.380    4.562    0.428    0.213   90.230  176.397
  356.630    4.304    0.442    0.230   92.477  181.788
  356.880    4.136    0.481    0.234   94.209  184.730
  357.130    3.972    0.477    0.241   93.534  187.150
  357.380    3.833    0.459    0.210   93.029  186.596
  357.630    3.734    0.433    0.181   94.691  182.863
  357.880    3.681    0.420    0.182   98.527  178.432
  358.130    3.679    0.457    0.224  101.912  179.975
  358.380    3.706    0.489    0.220   98.755  187.456
  358.630    3.698    0.492    0.243   98.543  199.016
  358.880    3.716    0.483    0.239   98.160  200.745
  359.130    3.771    0.478    0.232   97.245  195.621
  359.380    3.866    0.480    0.239   95.682  188.511
  359.630    4.022    0.488    0.279   92.573  185.352
  359.880    4.212    0.523    0.307   87.466  181.256
  360.130    4.422    0.522    0.293   82.328  185.660
  360.380    4.722    0.486    0.240   81.239  178.153
  360.630    5.496    0.447    0.203   83.490  170.250
  360.880    7.031    0.424    0.199   88.204  166.815
  361.130    8.706    0.421    0.209   94.284  166.065
  361.380    9.325    0.414    0.210   94.066  166.106
  361.630    8.908    0.421    0.203   92.445  166.146
  361.880    8.467    0.418    0.186   89.068  165.590
  362.130    8.629    0.400    0.172   85.573  165.232
  362.380    9.414    0.373    0.162   83.600  165.272
  362.630   10.250    0.361    0.144   85.437  165.320
  362.880   11.237    0.360    0.143   88.638  165.362
  363.130   11.510    0.401    0.178   92.886  165.405
  363.380   11.119    0.409    0.204   93.966  165.446
  363.630   10.162    0.405    0.214   93.637  165.089
  363.880    9.009    0.401    0.213   93.014  164.534
  364.130    7.927    0.399    0.209   92.426  164.668
  364.380    7.566    0.396    0.198   91.718  165.119
  364.630    7.466    0.393    0.185   87.519  165.560
  364.880    7.599    0.397    0.188   77.338  165.694
  365.130    7.942    0.404    0.203   66.099  165.732
