~VERSION INFORMATION
 VERS.                 2.0:   CWLS LOG ASCII STANDARD -VERSION 2.0
 WRAP.                  NO:   ONE LINE PER DEPTH STEP
~WELL INFORMATION BLOCK
#MNEM.UNIT           DATA                    DESCRIPTION OF MNEMONIC
#---------    -------------------            -------------------------------
# Generated from Intellog Unique Number	CS_73_76/WELL/2194
WELL.         DOME PETROLEUM LIMITED         : Well_name    - WELL
LOC .         00/11-02-074-06W4/0            : Location     - LOCATION
UWI .         00/11-02-074-06W4/0            : Uwi          - UNIQUE WELL ID
ENTR.         SP                             : Entered      - ENTERED BY
SRVC.         SCHLUMBERGER                   : Scn          - SERVICE COMPANY
STRT.M        255                            : top_depth    - START DEPTH
STOP.M        475                            : bot_depth    - STOP DEPTH
STEP.M        0.25                           : increment    - STEP LENGTH
 NULL. -999.2500:NULL Value
~CURVE INFORMATION BLOCK
#MNEM UNIT       ERCB CURVE CODE    CURVE DESCRIPTION
#-----------   ------------------   ----------------------------------
DEPT.M        00 001 00 00         : DEPTH        - DEPTH
ILD .OHMM     00 120 00 00         : RESD         - DEEP RESISTIVITY (DIL)
DPHI.V/V      00 890 00 00         : PHID         - DENSITY POROSITY (LIMESTONE)
NPHI.V/V      00 330 00 00         : PHIN         - NEUTRON POROSITY (LIMESTONE)
GR  .API      00 310 00 00         : GR           - GAMMA RAY
~PARAMETER INFORMATION
#MNEM.UNIT           DATA             DESCRIPTION OF MNEMONIC
#---------         -----------     ------------------------------
GL  .M        646.01               : gl           - GROUND LEVEL ELEVATION
EREF.M        649.91               : kb           - ELEVATION OF DEPTH REFERENCE
DATM.M        646.01               : datum        - DATUM ELEVATION
TDD .M        484                  : tdd          - TOTAL DEPTH DRILLER
RUN .         ONE                  : Run          - RUN NUMBER
ENG .         BILL                 : Engineer     - RECORDING ENGINEER
WIT .         JIM                  : Witness      - WITNESSED BY
MUD .         GEL                  : Mud_type     - MUD TYPE
MATR.         LIMESTONE            : Logunit      - NEUTRON MATRIX
TMAX.C        21                   : BHT          - MAXIMUM RECORDED TEMPERATURE
BHTD.M        484                  : BHTDEP       - MAXIMUM RECORDED TEMPERATURE
MATR.         1                    : LOGUNIT      - NEUTRON MATRIX
RMT .C        25                   : MDTP         - TEMPERATURE OF MUD
NEUT.         1                    : NEUTRON      - NEUTRON TYPE
RESI.         0                    : RESIST       - RESISTIVITY TYPE
RMC .OHMM     0.25                 : RMC          - RESISTIVITY OF MUD CAKE
RMF .OHMM     0.25                 : RMF          - RESISTIVITY OF MUD FILTRATE
SUFT.C        15                   : SUFT         - SURFACE TEMPERATURE
~A  DEPTH     RESD     PHID     PHIN       GR
# ...
  385.500    5.882    0.322    0.450   69.524
  385.750    5.885    0.328    0.442   70.141
  386.000    5.889    0.328    0.437   69.532
  386.250    5.893    0.338    0.466   70.150
  386.500    5.896    0.350    0.467   71.991
  386.750    5.792    0.335    0.456   73.831
  387.000    5.687    0.315    0.456   75.671
  387.250    5.586    0.300    0.458   78.737
  387.500    5.695    0.306    0.450   83.028
  387.750    5.807    0.277    0.444   85.480
  388.000    5.811    0.251    0.455   87.933
  388.250    5.925    0.253    0.455   89.162
  388.500    5.928    0.237    0.455   86.717
  388.750    5.932    0.231    0.457   87.334
  389.000    5.938    0.240    0.464   90.399
  389.250    5.940    0.233    0.466   91.016
  389.500    5.833    0.225    0.454   87.958
  389.750    5.838    0.233    0.435   81.227
  390.000    5.732    0.256    0.419   83.682
  390.250    5.422    0.261    0.412   86.747
  390.500    5.129    0.247    0.413   88.587
  390.750    4.943    0.236    0.434   92.876
  391.000    4.854    0.224    0.463   99.005
  391.250    4.506    0.212    0.482  100.232
  391.500    4.030    0.206    0.485   97.177
  391.750    3.810    0.220    0.482   95.343
  392.000    3.102    0.229    0.465   93.510
  392.250    2.773    0.231    0.467   91.067
  392.500    2.623    0.241    0.527   89.846
  392.750    2.436    0.263    0.568   88.013
  393.000    2.392    0.259    0.566   86.183
  393.250    2.349    0.268    0.549   85.574
  393.500    2.350    0.259    0.537   84.965
  393.750    2.352    0.273    0.523   83.745
  394.000    2.353    0.281    0.529   84.360
  394.250    2.355    0.273    0.548   86.814
  394.500    2.401    0.254    0.566   89.266
  394.750    2.542    0.246    0.573   91.719
  395.000    2.794    0.232    0.556   92.948
  395.250    3.013    0.232    0.535   91.727
  395.500    3.250    0.238    0.508   90.507
  395.750    3.709    0.248    0.466   84.389
  396.000    5.302    0.254    0.439   82.556
  396.250    8.019    0.228    0.433   83.172
  396.500   11.042    0.233    0.439   77.667
  396.750   12.835    0.271    0.414   70.324
  397.000   17.020    0.388    0.342   58.695
  397.250   23.875    0.429    0.237   57.474
  397.500   36.110    0.472    0.120   58.092
  397.750   41.203    0.450    0.105   58.709
  398.000   39.719    0.431    0.121   59.325
  398.250   40.492    0.443    0.137   59.329
  398.500   42.875    0.478    0.142   59.944
  398.750   43.705    0.462    0.109   61.173
  399.000   45.413    0.448    0.099   59.953
  399.250   45.436    0.447    0.105   56.895
  399.500   42.196    0.457    0.116   56.900
  399.750   39.162    0.465    0.123   58.129
  400.000   37.035    0.474    0.117   55.685
  400.250   33.740    0.448    0.112   54.463
  400.500   30.737    0.424    0.141   55.079
  400.750   29.624    0.408    0.216   53.860
  401.000   28.553    0.393    0.242   53.252
  401.250   28.040    0.378    0.273   52.031
  401.500   27.024    0.364    0.336   49.587
  401.750   25.087    0.345    0.398   48.365
  402.000   22.012    0.334    0.433   49.594
  402.250   17.919    0.342    0.435   52.048
  402.500   14.314    0.355    0.449   50.828
  402.750   11.872    0.362    0.441   48.995
  403.000    9.137    0.343    0.437   48.386
  403.250    8.323    0.333    0.431   51.452
  403.500    7.725    0.331    0.427   54.517
  403.750    7.448    0.328    0.426   55.134
  404.000    7.736    0.333    0.434   51.465
  404.250    8.038    0.323    0.434   50.244
  404.500    8.350    0.322    0.445   49.636
  404.750    9.352    0.309    0.439   52.090
  405.000   10.279    0.313    0.436   55.767
  405.250   10.678    0.315    0.438   55.772
  405.500    8.532    0.327    0.448   54.550
  405.750    7.486    0.335    0.449   52.107
  406.000    6.819    0.344    0.437   50.275
  406.250    7.929    0.339    0.428   48.441
  406.500   10.517    0.327    0.418   47.833
  406.750   12.695    0.319    0.429   47.837
  407.000   15.325    0.323    0.431   47.230
  407.250   19.210    0.328    0.434   49.072
  407.500   21.921    0.308    0.438   50.300
  407.750   21.528    0.306    0.429   51.528
  408.000   19.614    0.294    0.426   52.758
  408.250   16.271    0.289    0.434   53.985
  408.500   14.818    0.312    0.454   55.214
  408.750   13.501    0.330    0.455   58.891
  409.000   14.839    0.318    0.462   60.732
  409.250   16.937    0.310    0.468   58.900
  409.500   18.267    0.319    0.470   56.454
  409.750   19.707    0.344    0.472   53.398
  410.000   20.474    0.360    0.463   52.790
  410.250   20.878    0.347    0.455   53.407
  410.500   20.887    0.325    0.444   54.022
  410.750   20.898    0.313    0.433   57.090
  411.000   21.713    0.291    0.416   58.317
  411.250   22.566    0.275    0.379   59.546
  411.500   23.006    0.302    0.397   59.549
  411.750   23.020    0.334    0.423   58.330
  412.000   22.605    0.323    0.434   56.498
  412.250   20.989    0.348    0.439   56.500
  412.500   20.222    0.334    0.460   57.729
  412.750   19.495    0.329    0.478   58.346
  413.000   19.505    0.317    0.482   58.962
  413.250   20.649    0.324    0.491   58.966
  413.500   21.855    0.319    0.489   57.745
  413.750   24.942    0.309    0.482   54.688
  414.000   27.940    0.304    0.467   52.856
  414.250   28.482    0.330    0.451   53.473
  414.500   28.502    0.354    0.450   54.090
  414.750   24.544    0.339    0.456   54.706
  415.000   22.782    0.324    0.457   54.097
  415.250   22.381    0.330    0.456   53.488
  415.500   22.811    0.325    0.442   55.943
  415.750   24.609    0.315    0.437   56.559
  416.000   25.093    0.312    0.434   54.726
  416.250   21.610    0.294    0.404   54.730
  416.500   18.270    0.282    0.385   57.184
  416.750   17.607    0.271    0.381   60.249
  417.000   17.288    0.324    0.406   61.478
  417.250   16.976    0.330    0.448   58.420
  417.500   16.983    0.338    0.454   57.200
  417.750   16.685    0.348    0.441   57.204
  418.000   16.077    0.337    0.454   56.596
  418.250   14.376    0.333    0.458   54.152
  418.500   12.854    0.331    0.454   51.706
  418.750   11.930    0.325    0.451   50.488
  419.000   11.497    0.322    0.447   51.103
  419.250   11.508    0.320    0.456   52.944
  419.500   12.180    0.310    0.453   55.397
  419.750   13.647    0.303    0.460   57.237
  420.000   14.176    0.316    0.467   58.466
  420.250   14.727    0.325    0.463   57.858
  420.500   15.302    0.311    0.460   56.639
  420.750   15.601    0.312    0.455   56.031
  421.000   16.205    0.317    0.473   56.646
  421.250   17.810    0.321    0.438   56.652
  421.500   19.211    0.306    0.403   57.267
  421.750   17.836    0.287    0.382   58.496
  422.000   15.362    0.257    0.372   58.499
  422.250   14.527    0.238    0.370   57.279
  422.500   12.992    0.262    0.413   60.345
  422.750   12.518    0.296    0.444   62.185
  423.000   11.622    0.317    0.452   62.802
  423.250   11.198    0.329    0.458   60.969
  423.500   10.395    0.331    0.466   59.138
  423.750    8.789    0.332    0.476   60.366
  424.000    8.311    0.325    0.483   61.595
  424.250    7.159    0.302    0.491   62.211
  424.500    6.769    0.290    0.496   62.827
  424.750    6.167    0.298    0.478   61.606
  425.000    5.727    0.317    0.458   61.612
  425.250    5.729    0.318    0.449   61.616
  425.500    5.733    0.302    0.455   56.109
  425.750    5.846    0.299    0.465   49.379
  426.000    6.188    0.306    0.473   40.810
  426.250    6.804    0.311    0.469   27.345
  426.500    6.936    0.301    0.421   19.390
  426.750    7.205    0.312    0.395   15.109
  427.000    7.485    0.319    0.383   15.726
  427.250    7.631    0.306    0.365   17.566
  427.500    7.931    0.317    0.350   22.468
  427.750    8.085    0.332    0.394   29.209
  428.000    8.243    0.344    0.435   31.661
  428.250    8.249    0.345    0.438   35.338
  428.500    8.412    0.351    0.450   43.304
  428.750    8.738    0.352    0.449   46.981
