~VERSION INFORMATION
 VERS.                 2.0:   CWLS LOG ASCII STANDARD -VERSION 2.0
 WRAP.                  NO:   ONE LINE PER DEPTH STEP
~WELL INFORMATION BLOCK
#MNEM.UNIT           DATA                    DESCRIPTION OF MNEMONIC
#---------    -------------------            -------------------------------
# Generated from Intellog Unique Number	CW_70_72/WELL/1034
NULL.         -999.25                        : NULL_VALUE
WELL.         SUNDANCE ET AL SMITH 10-10     : Well_name    - WELL              
LOC .         10-10-071-23W4                 : Location     - LOCATION          
UWI .         00/10-10-071-23W4/0            : Uwi          - UNIQUE WELL ID    
ENTR.         J                              : Entered      - ENTERED BY        
SRVC.         SCHLUMBERGER                   : Scn          - SERVICE COMPANY   
DATE.         25 FEB 1976                    : Date         - LOG DATE          
STRT.M        423.672                        : top_depth    - START DEPTH       
STOP.M        612.672                        : bot_depth    - STOP DEPTH        
STEP.M        0.25                           : increment    - STEP LENGTH       
~CURVE INFORMATION BLOCK
#MNEM UNIT       ERCB CURVE CODE    CURVE DESCRIPTION
#-----------   ------------------   ----------------------------------
DEPT.M        00 001 00 00         : DEPTH        - DEPTH                       
DPHI.V/V      00 890 00 00         : PHID         - DENSITY POROSITY (SANDSTONE)
NPHI.V/V      00 330 00 00         : PHIN         - NEUTRON POROSITY (SANDSTONE)
GR  .API      00 310 00 00         : GR           - GAMMA RAY                   
CALI.MM       00 280 01 00         : CAL          - CALIPER                     
ILD .OHMM     00 120 00 00         : RESD         - DEEP RESISTIVITY (DIL)      
~PARAMETER INFORMATION       
#MNEM.UNIT           DATA             DESCRIPTION OF MNEMONIC
#---------         -----------     ------------------------------
GL  .M        662.026              : gl           - GROUND LEVEL ELEVATION      
EREF.M        665.683              : kb           - ELEVATION OF DEPTH REFERENCE
DATM.M        661.721              : datum        - DATUM ELEVATION             
TDD .M        620.268              : tdd          - TOTAL DEPTH DRILLER         
RUN .         ONE                  : Run          - RUN NUMBER                  
BASE.         EDM                  : Branch       - HOME BASE OF LOGGING UNIT   
MUD .         GEL CHEM             : Mud_type     - MUD TYPE                    
MATR.         SANDSTONE            : Logunit      - NEUTRON MATRIX              
TMAX.C        24.4444              : BHT          - MAXIMUM RECORDED TEMPERATURE
BHTD.M        620.268              : BHTDEP       - MAXIMUM RECORDED TEMPERATURE
RMT .C        -17.7778             : MDTP         - TEMPERATURE OF MUD          
MUDD.KG/M     0                    : MWT          - MUD DENSITY                 
NEUT.         1                    : NEUTRON      - NEUTRON TYPE                
RESI.         0                    : RESIST       - RESISTIVITY TYPE            
RM  .OHMM     0                    : RM           - RESISTIVITY OF MUD          
RMC .OHMM     0                    : RMC          - RESISTIVITY OF MUD CAKE     
RMF .OHMM     0                    : RMF          - RESISTIVITY OF MUD FILTRATE 
SUFT.C        0                    : SUFT         - SURFACE TEMPERATURE         
~A  DEPTH     PHID     PHIN       GR      CAL     RESD
# ...
  496.672    0.071    0.254   62.619  163.174    5.111
  496.922    0.164    0.301   65.121  161.414    4.286
  497.172    0.211    0.363   67.246  159.120    3.575
  497.422    0.254    0.423   69.561  155.252    3.251
  497.672    0.284    0.456   70.134  155.915    3.165
  497.922    0.272    0.440   69.217  156.987    3.197
  498.172    0.269    0.427   70.289  158.693    3.339
  498.422    0.263    0.420   73.100  160.190    3.624
  498.672    0.257    0.415   76.096  160.745    3.970
  498.922    0.252    0.434   75.428  161.611    3.974
  499.172    0.248    0.466   70.284  161.947    3.883
  499.422    0.273    0.484   65.390  160.499    3.887
  499.672    0.271    0.469   65.156  158.314    4.022
  499.922    0.249    0.440   67.346  159.076    4.146
  500.172    0.234    0.439   66.367  160.891    4.353
  500.422    0.250    0.442   63.710  162.283    4.349
  500.672    0.277    0.401   60.308  163.469    4.289
  500.922    0.265    0.398   57.090  163.177    4.168
  501.172    0.283    0.431   55.552  163.096    3.926
  501.422    0.285    0.448   54.821  162.908    3.630
  501.672    0.285    0.437   55.583  162.624    3.357
  501.922    0.280    0.432   57.274  162.856    3.144
  502.172    0.269    0.434   59.090  162.985    3.056
  502.422    0.265    0.434   59.167  163.006    3.047
  502.672    0.262    0.427   58.065  163.032    3.101
  502.922    0.261    0.415   57.208  162.115    3.150
  503.172    0.268    0.428   57.224  161.505    3.229
  503.422    0.281    0.447   57.858  161.638    3.310
  503.672    0.271    0.439   60.794  162.291    3.381
  503.922    0.270    0.433   58.322  163.052    3.422
  504.172    0.274    0.428   57.779  163.708    3.463
  504.422    0.266    0.421   59.407  164.158    3.479
  504.672    0.275    0.416   63.773  165.129    3.463
  504.922    0.283    0.417   67.515  165.678    3.428
  505.172    0.278    0.442   69.890  166.334    3.381
  505.422    0.279    0.443   71.955  166.676    3.280
  505.672    0.286    0.436   76.257  166.808    3.199
  505.922    0.284    0.426   79.876  167.256    3.138
  506.172    0.268    0.439   81.692  166.745    3.129
  506.422    0.275    0.453   75.867  166.464    3.196
  506.672    0.279    0.455   71.905  166.063    3.332
  506.922    0.287    0.438   66.824  165.875    3.505
  507.172    0.296    0.436   69.013  166.007    3.673
  507.422    0.278    0.454   69.898  166.135    3.807
  507.672    0.267    0.456   70.162  166.160    3.983
  507.922    0.261    0.453   73.035  165.981    4.168
  508.172    0.281    0.445   75.534  165.479    4.312
  508.422    0.281    0.462   75.239  164.980    4.445
  508.672    0.287    0.477   78.423  164.579    4.566
  508.922    0.271    0.466   82.042  164.498    4.646
  509.172    0.260    0.449   85.473  164.413    4.736
  509.422    0.219    0.462   88.717  164.866    4.785
  509.672    0.181    0.478   91.280  165.418    4.798
  509.922    0.190    0.460   93.781  165.750    4.793
  510.172    0.198    0.449   94.727  165.984    4.789
  510.422    0.215    0.448   94.368  166.330    4.820
  510.672    0.212    0.451   93.701  166.351    4.904
  510.922    0.180    0.452   93.528  166.796    5.000
  511.172    0.183    0.460   93.542  167.770    5.060
  511.422    0.202    0.462   96.041  168.322    5.094
  511.672    0.229    0.452   98.542  170.657    5.080
  511.922    0.216    0.440  100.111  174.890    5.037
  512.172    0.217    0.445   99.565  173.127    4.913
  512.422    0.222    0.459   96.721  168.839    4.680
  512.672    0.213    0.473   97.980  165.917    4.539
  512.922    0.213    0.488  100.790  167.414    4.331
  513.172    0.224    0.481  102.296  170.706    4.086
  513.422    0.218    0.493  100.198  172.305    3.703
  513.672    0.197    0.511  100.710  173.487    3.526
  513.922    0.202    0.487  106.068  173.830    3.433
  514.172    0.185    0.473  104.715  172.593    3.625
  514.422    0.180    0.467  101.810  171.035    4.022
  514.672    0.190    0.462  101.639  169.271    4.439
  514.922    0.190    0.459  104.513  167.615    4.652
  515.172    0.173    0.459  105.644  167.115    4.806
  515.422    0.178    0.465  104.106  166.610    4.845
  515.672    0.179    0.487  102.878  166.636    4.823
  515.922    0.181    0.482  101.215  166.660    4.722
  516.172    0.179    0.461   99.924  166.796    4.623
  516.422    0.186    0.458  101.928  166.603    4.459
  516.672    0.192    0.475   96.972  166.524    4.239
  516.922    0.202    0.498   91.829  165.291    4.044
  517.172    0.220    0.483   84.885  162.786    3.788
  517.422    0.270    0.460   78.685  159.761    3.496
  517.672    0.284    0.431   76.029  158.734    3.373
  517.922    0.279    0.451   74.367  159.177    3.351
  518.172    0.284    0.457   71.645  160.148    3.487
  518.422    0.290    0.451   68.741  161.543    3.641
  518.672    0.294    0.440   68.444  162.304    3.830
  518.922    0.293    0.447   70.137  162.960    4.196
  519.172    0.284    0.447   72.884  163.094    4.699
  519.422    0.247    0.435   72.839  163.012    4.972
  519.672    0.219    0.416   73.225  162.824    4.957
  519.922    0.222    0.395   76.409  162.847    4.643
  520.172    0.241    0.415   81.332  162.877    4.341
  520.422    0.282    0.448   87.188  163.218    4.305
  520.672    0.287    0.454   92.855  163.238    4.389
  520.922    0.276    0.453   97.219  165.158    4.677
  521.172    0.259    0.448  100.216  166.234    5.077
  521.422    0.239    0.445  102.717  168.260    5.214
  521.672    0.227    0.461  101.985  169.546    5.171
  521.922    0.216    0.471   99.764  170.202    4.989
  522.172    0.205    0.443   98.721  170.753    4.857
  522.422    0.201    0.454  101.594  170.888    4.695
  522.672    0.193    0.447   99.560  170.801    4.588
  522.922    0.186    0.455   95.101  170.196    4.549
  523.172    0.168    0.468   91.202  169.591    4.698
  523.422    0.202    0.465   88.046  168.457    5.034
  523.672    0.226    0.434   85.077  166.167    5.649
  523.922    0.262    0.416   80.930  163.563    6.849
  524.172    0.285    0.415   78.026  162.744    7.727
  524.422    0.263    0.417   76.113  162.454    8.372
  524.672    0.225    0.395   73.207  163.214    8.302
  524.922    0.185    0.304   70.859  164.504    7.132
  525.172    0.133    0.274   70.751  165.264    5.680
  525.422    0.133    0.305   73.313  164.868    4.790
  525.672    0.170    0.424   75.876  163.630    4.198
  525.922    0.209    0.452   77.443  162.707    3.896
  526.172    0.238    0.472   78.762  161.995    3.914
  526.422    0.260    0.447   80.268  162.445    4.043
  526.672    0.252    0.440   82.582  162.676    4.183
  526.922    0.240    0.450   84.833  161.963    4.449
  527.172    0.246    0.464   86.589  158.625    4.595
  527.422    0.257    0.484   87.534  150.439    4.702
  527.672    0.253    0.481   86.555  153.095    4.680
  527.922    0.247    0.464   92.410  158.486    4.473
  528.172    0.240    0.453   97.022  163.247    4.182
  528.422    0.224    0.463  101.263  165.165    3.882
  528.672    0.210    0.496   99.600  167.187    3.751
  528.922    0.231    0.501  103.840  172.263    3.762
  529.172    0.217    0.494  104.848  177.233    3.921
  529.422    0.224    0.512  101.010  176.944    4.400
  529.672    0.236    0.499   92.326  170.024    5.188
  529.922    0.218    0.465   85.196  164.683    6.885
  530.172    0.207    0.413   76.076  161.867    8.362
  530.422    0.178    0.373   69.069  161.573   10.596
  530.672    0.107    0.253   64.796  162.447   15.082
  530.922    0.036    0.214   60.834  163.523   19.864
  531.172    0.015    0.186   61.783  164.174   23.555
  531.422    0.008    0.173   63.908  165.043   23.189
  531.672    0.034    0.187   68.523  165.170   15.819
  531.922    0.054    0.211   72.885  165.836   12.188
  532.172    0.064    0.270   79.239  166.272   10.053
  532.422    0.069    0.262   85.404  166.507    8.893
  532.672    0.084    0.326   88.588  166.957    7.999
  532.922    0.126    0.381   91.460  167.084    7.235
