~VERSION INFORMATION
 VERS.                 2.0:   CWLS LOG ASCII STANDARD -VERSION 2.0
 WRAP.                  NO:   ONE LINE PER DEPTH STEP
~WELL INFORMATION BLOCK
#MNEM.UNIT           DATA                    DESCRIPTION OF MNEMONIC
#---------    -------------------            -------------------------------
# Generated from Intellog Unique Number	CS_73_76/WELL/811
WELL.         FOREST OIL CORPORATION         : Well_name    - WELL
LOC .         00/10-05-073-18W4/0            : Location     - LOCATION
UWI .         00/10-05-073-18W4/0            : Uwi          - UNIQUE WELL ID
ENTR.         SP                             : Entered      - ENTERED BY
SRVC.         SCHLUMBERGER                   : Scn          - SERVICE COMPANY
STRT.M        274.32                         : top_depth    - START DEPTH
STOP.M        496.57                         : bot_depth    - STOP DEPTH
STEP.M        0.25                           : increment    - STEP LENGTH
 NULL. -999.2500:NULL Value
~CURVE INFORMATION BLOCK
#MNEM UNIT       ERCB CURVE CODE    CURVE DESCRIPTION
#-----------   ------------------   ----------------------------------
DEPT.M        00 001 00 00         : DEPTH        - DEPTH
GR  .API      00 310 00 00         : GR           - GAMMA RAY
DPHI.V/V      00 890 00 00         : PHID         - DENSITY POROSITY (SANDSTONE)
NPHI.V/V      00 330 00 00         : PHIN         - NEUTRON POROSITY (SANDSTONE)
ILD .OHMM     00 120 00 00         : RESD         - DEEP RESISTIVITY (DIL)
~PARAMETER INFORMATION
#MNEM.UNIT           DATA             DESCRIPTION OF MNEMONIC
#---------         -----------     ------------------------------
GL  .M        594.543              : gl           - GROUND LEVEL ELEVATION
EREF.M        598.201              : kb           - ELEVATION OF DEPTH REFERENCE
DATM.M        594.543              : datum        - DATUM ELEVATION
TDD .M        520.903              : tdd          - TOTAL DEPTH DRILLER
RUN .         ONE                  : Run          - RUN NUMBER
ENG .         BILL                 : Engineer     - RECORDING ENGINEER
WIT .         JIM                  : Witness      - WITNESSED BY
MUD .         GEL                  : Mud_type     - MUD TYPE
MATR.         SANDSTONE            : Logunit      - NEUTRON MATRIX
TMAX.C        81.1111              : BHT          - MAXIMUM RECORDED TEMPERATURE
BHTD.M        520.903              : BHTDEP       - MAXIMUM RECORDED TEMPERATURE
MATR.         1                    : LOGUNIT      - NEUTRON MATRIX
RMT .C        25                   : MDTP         - TEMPERATURE OF MUD
NEUT.         1                    : NEUTRON      - NEUTRON TYPE
RESI.         0                    : RESIST       - RESISTIVITY TYPE
RMC .OHMM     0.25                 : RMC          - RESISTIVITY OF MUD CAKE
RMF .OHMM     0.25                 : RMF          - RESISTIVITY OF MUD FILTRATE
SUFT.C        15                   : SUFT         - SURFACE TEMPERATURE
~A  DEPTH       GR     PHID     PHIN     RESD
# ...
  361.320   87.319    0.206    0.497    5.547
  361.570   87.822    0.204    0.482    5.382
  361.820   86.010    0.218    0.476    5.223
  362.070   84.456    0.227    0.475    4.998
  362.320   84.212    0.233    0.486    4.704
  362.570   83.176    0.221    0.494    4.427
  362.820   81.626    0.211    0.487    4.167
  363.070   79.613    0.218    0.483    3.904
  363.320   74.421    0.235    0.489    3.691
  363.570   66.893    0.261    0.485    3.930
  363.820   61.069    0.294    0.477    4.112
  364.070   58.276    0.323    0.484    3.987
  364.320   58.458    0.336    0.481    4.161
  364.570   60.192    0.323    0.455    4.361
  364.820   61.067    0.314    0.455    4.489
  365.070   62.565    0.307    0.473    4.497
  365.320   62.473    0.328    0.466    4.499
  365.570   62.436    0.352    0.478    4.368
  365.820   63.370    0.330    0.490    4.307
  366.070   63.702    0.321    0.479    4.251
  366.320   63.428    0.332    0.473    4.219
  366.570   60.488    0.341    0.467    4.240
  366.820   56.149    0.348    0.460    4.321
  367.070   53.962    0.343    0.454    4.367
  367.320   56.891    0.337    0.460    4.394
  367.570   58.877    0.337    0.459    4.470
  367.820   58.451    0.347    0.453    4.478
  368.070   57.186    0.353    0.448    4.484
  368.320   58.249    0.357    0.449    4.560
  368.570   58.685    0.351    0.459    4.554
  368.820   59.093    0.340    0.459    4.551
  369.070   59.799    0.334    0.460    4.611
  369.320   59.048    0.333    0.467    4.629
  369.570   59.119    0.336    0.462    4.630
  369.820   59.519    0.326    0.454    4.628
  370.070   59.740    0.337    0.447    4.627
  370.320   59.288    0.345    0.441    4.619
  370.570   56.897    0.339    0.439    4.717
  370.820   56.795    0.334    0.445    4.720
  371.070   56.859    0.332    0.465    4.779
  371.320   56.152    0.326    0.464    5.010
  371.570   56.199    0.340    0.460    5.257
  371.820   55.630    0.340    0.464    5.418
  372.070   55.675    0.331    0.481    5.466
  372.320   55.691    0.334    0.492    5.528
  372.570   54.908    0.339    0.488    5.536
  372.820   53.590    0.331    0.473    5.392
  373.070   52.682    0.341    0.462    5.234
  373.320   55.274    0.331    0.475    5.079
  373.570   58.017    0.345    0.477    4.940
  373.820   59.471    0.335    0.487    4.938
  374.070   58.122    0.330    0.485    5.025
  374.320   57.516    0.322    0.494    5.238
  374.570   58.515    0.326    0.494    5.392
  374.820   60.445    0.340    0.479    5.404
  375.070   59.352    0.345    0.471    5.405
  375.320   58.783    0.331    0.464    5.327
  375.570   59.719    0.335    0.460    5.281
  375.820   60.067    0.343    0.467    5.110
  376.070   60.796    0.353    0.479    5.059
  376.320   60.050    0.350    0.495    4.920
  376.570   60.086    0.340    0.493    4.842
  376.820   61.006    0.356    0.482    4.737
  377.070   62.721    0.354    0.478    4.739
  377.320   62.731    0.330    0.485    4.738
  377.570   61.327    0.319    0.490    4.730
  377.820   60.789    0.329    0.485    4.833
  378.070   61.393    0.312    0.486    4.966
  378.320   60.869    0.305    0.488    5.221
  378.570   57.792    0.302    0.500    5.475
  378.820   57.217    0.302    0.507    5.636
  379.070   57.133    0.313    0.503    5.810
  379.320   56.083    0.327    0.499    5.880
  379.570   57.446    0.319    0.480    5.767
  379.820   58.713    0.327    0.469    5.629
  380.070   60.788    0.329    0.458    5.561
  380.320   61.795    0.336    0.442    5.441
  380.570   62.743    0.333    0.437    5.439
  380.820   63.169    0.337    0.443    5.347
  381.070   63.881    0.342    0.449    5.348
  381.320   64.458    0.332    0.451    5.347
  381.570   61.372    0.326    0.457    5.344
  381.820   58.360    0.323    0.466    5.343
  382.070   58.625    0.325    0.469    5.339
  382.320   56.926    0.330    0.442    5.273
  382.570   54.875    0.346    0.440    5.242
  382.820   53.913    0.339    0.451    5.235
  383.070   53.913    0.336    0.437    5.180
  383.320   53.923    0.340    0.436    5.139
  383.570   53.884    0.328    0.445    5.143
  383.820   54.591    0.334    0.442    5.040
  384.070   54.528    0.337    0.433    4.941
  384.320   52.983    0.320    0.436    4.946
  384.570   52.827    0.325    0.446    4.943
  384.820   52.817    0.327    0.453    4.941
  385.070   53.816    0.334    0.460    4.938
  385.320   54.652    0.327    0.460    4.930
  385.570   54.660    0.320    0.460    5.023
  385.820   53.168    0.328    0.451    5.012
  386.070   50.889    0.332    0.445    5.123
  386.320   51.619    0.316    0.443    5.106
  386.570   52.619    0.313    0.443    5.223
  386.820   53.630    0.313    0.458    5.103
  387.070   54.096    0.321    0.453    5.026
  387.320   54.958    0.334    0.450    4.982
  387.570   56.610    0.344    0.460    4.827
  387.820   58.057    0.340    0.466    4.772
  388.070   59.490    0.341    0.461    4.652
  388.320   58.967    0.346    0.468    4.566
  388.570   57.622    0.356    0.474    4.566
  388.820   56.474    0.360    0.463    4.561
  389.070   58.317    0.352    0.454    4.564
  389.320   59.689    0.352    0.449    4.469
  389.570   60.970    0.353    0.442    4.474
  389.820   61.465    0.348    0.456    4.473
  390.070   61.479    0.341    0.471    4.470
  390.320   61.520    0.338    0.462    4.468
  390.570   62.617    0.324    0.477    4.468
  390.820   62.928    0.307    0.481    4.497
  391.070   63.313    0.306    0.479    4.544
  391.320   62.782    0.326    0.474    4.543
  391.570   64.244    0.323    0.479    4.542
  391.820   65.117    0.315    0.485    4.539
  392.070   66.740    0.325    0.490    4.486
  392.320   67.501    0.335    0.490    4.455
  392.570   66.460    0.318    0.498    4.451
  392.820   64.450    0.312    0.503    4.450
  393.070   64.021    0.306    0.498    4.448
  393.320   64.508    0.298    0.494    4.447
  393.570   65.571    0.312    0.503    4.480
  393.820   65.891    0.310    0.499    4.523
  394.070   66.499    0.307    0.485    4.520
  394.320   66.501    0.300    0.474    4.502
  394.570   70.144    0.279    0.481    4.275
  394.820   73.293    0.253    0.485    3.703
  395.070   76.230    0.235    0.472    3.445
  395.320   79.010    0.242    0.485    3.137
  395.570   81.927    0.221    0.511    3.039
  395.820   84.747    0.222    0.527    3.019
  396.070   84.635    0.231    0.524    3.060
  396.320   82.635    0.220    0.511    3.215
  396.570   82.194    0.209    0.516    3.379
  396.820   81.162    0.230    0.505    3.650
  397.070   80.666    0.248    0.487    3.826
  397.320   78.637    0.254    0.481    4.110
  397.570   81.235    0.255    0.479    4.282
  397.820   83.648    0.246    0.482    4.527
  398.070   85.789    0.240    0.470    4.656
  398.320   86.808    0.251    0.473    4.746
  398.570   86.951    0.246    0.495    4.739
  398.820   88.170    0.236    0.493    4.742
  399.070   88.503    0.224    0.474    4.650
  399.320   89.536    0.217    0.484    4.556
  399.570   88.552    0.235    0.500    4.570
  399.820   85.373    0.239    0.494    4.469
  400.070   82.899    0.220    0.467    4.475
  400.320   83.298    0.215    0.474    4.476
  400.570   84.733    0.229    0.478    4.503
  400.820   82.945    0.236    0.483    4.553
  401.070   81.306    0.241    0.478    4.702
  401.320   81.147    0.227    0.470    4.741
  401.570   82.379    0.213    0.476    4.800
  401.820   84.128    0.200    0.482    4.896
  402.070   85.774    0.190    0.489    4.883
  402.320   87.819    0.196    0.489    4.964
  402.570   87.461    0.219    0.488    4.970
  402.820   84.024    0.230    0.472    4.969
  403.070   82.199    0.229    0.458    4.968
  403.320   80.655    0.234    0.452    4.965
  403.570   80.795    0.244    0.453    4.963
  403.820   82.439    0.257    0.451    4.958
  404.070   83.588    0.248    0.451    4.929
  404.320   84.960    0.233    0.466    4.867
  404.570   86.342    0.233    0.482    4.860
