~VERSION INFORMATION
 VERS.                 2.0:   CWLS LOG ASCII STANDARD -VERSION 2.0
 WRAP.                  NO:   ONE LINE PER DEPTH STEP
~WELL INFORMATION BLOCK
#MNEM.UNIT           DATA                    DESCRIPTION OF MNEMONIC
#---------    -------------------            -------------------------------
# Generated from Intellog Unique Number	CW_73_75/WELL/903
WELL.         CDN SUP ET AL FRANCIS 10-01    : Well_name    - WELL
LOC .         00/10-01-074-21W4/0            : Location     - LOCATION
UWI .         00/10-01-074-21W4/0            : Uwi          - UNIQUE WELL ID
ENTR.         JAYE                           : Entered      - ENTERED BY
SRVC.         SCHLUMBERGER                   : Scn          - SERVICE COMPANY
DATE.         16 FEB 75                      : Date         - LOG DATE
STRT.M        396.24                         : top_depth    - START DEPTH
STOP.M        636.99                         : bot_depth    - STOP DEPTH
STEP.M        0.25                           : increment    - STEP LENGTH
 NULL. -999.2500:NULL Value
~CURVE INFORMATION BLOCK
#MNEM UNIT       ERCB CURVE CODE    CURVE DESCRIPTION
#-----------   ------------------   ----------------------------------
DEPT.M        00 001 00 00         : DEPTH        - DEPTH
DPHI.V/V      00 890 00 00         : PHID         - DENSITY POROSITY (SANDSTONE)
NPHI.V/V      00 330 00 00         : PHIN         - NEUTRON POROSITY (SANDSTONE)
GR  .API      00 310 00 00         : GR           - GAMMA RAY
CALI.MM       00 280 01 00         : CAL          - CALIPER
ILD .OHMM     00 120 00 00         : RESD         - DEEP RESISTIVITY (DIL)
~PARAMETER INFORMATION
#MNEM.UNIT           DATA             DESCRIPTION OF MNEMONIC
#---------         -----------     ------------------------------
GL  .M        708.05               : gl           - GROUND LEVEL ELEVATION
EREF.M        710.489              : kb           - ELEVATION OF DEPTH REFERENCE
DATM.M        708.05               : datum        - DATUM ELEVATION
TDD .M        694.944              : tdd          - TOTAL DEPTH DRILLER
RUN .         ONE                  : Run          - RUN NUMBER
ENG .         LLOYD                : Engineer     - RECORDING ENGINEER
WIT .         NESSIER              : Witness      - WITNESSED BY
BASE.         EDMONTON             : Branch       - HOME BASE OF LOGGING UNIT
MUD .         GEL                  : Mud_type     - MUD TYPE
MATR.         SANDSTONE            : Logunit      - NEUTRON MATRIX
TMAX.C        26.1111              : BHT          - MAXIMUM RECORDED TEMPERATURE
BHTD.M        695.249              : BHTDEP       - MAXIMUM RECORDED TEMPERATURE
RMT .C        4.44444              : MDTP         - TEMPERATURE OF MUD
MUDD.KG/M     1104                 : MWT          - MUD DENSITY
NEUT.         1                    : NEUTRON      - NEUTRON TYPE
RESI.         0                    : RESIST       - RESISTIVITY TYPE
RM  .OHMM     5.12                 : RM           - RESISTIVITY OF MUD
RMC .OHMM     0                    : RMC          - RESISTIVITY OF MUD CAKE
RMF .OHMM     3.6                  : RMF          - RESISTIVITY OF MUD FILTRATE
SUFT.C        -17.7778             : SUFT         - SURFACE TEMPERATURE
~A  DEPTH     PHID     PHIN       GR      CAL     RESD
# ...
  505.740    0.287    0.494   74.973  166.209    5.405
  505.990    0.286    0.479   77.041  166.734    5.446
  506.240    0.285    0.468   76.504  167.057    5.438
  506.490    0.295    0.475   73.058  167.174    5.389
  506.740    0.288    0.481   73.248  166.777    5.361
  506.990    0.280    0.484   75.439  166.586    5.333
  507.240    0.273    0.478   78.719  166.704    5.276
  507.490    0.269    0.473   81.698  166.820    5.238
  507.740    0.257    0.466   82.858  167.245    5.135
  507.990    0.243    0.448   82.866  168.696    4.842
  508.240    0.256    0.470   87.238  173.020    4.166
  508.490    0.242    0.488   90.641  177.858    3.341
  508.740    0.229    0.508   92.346  181.567    2.922
  508.990    0.242    0.528   94.052  180.349    2.886
  509.240    0.257    0.552   95.697  178.312    3.101
  509.490    0.268    0.570   95.038  179.148    3.407
  509.740    0.268    0.541   95.532  181.624    3.819
  509.990    0.234    0.519   95.783  183.793    4.329
  510.240    0.240    0.525   95.367  183.911    4.989
  510.490    0.256    0.524   91.860  182.385    5.322
  510.740    0.226    0.471   94.353  181.886    5.217
  510.990    0.184    0.460   94.665  182.825    4.546
  511.240    0.184    0.469   93.218  183.557    3.818
  511.490    0.210    0.482   90.742  184.394    3.213
  511.740    0.203    0.493   90.629  185.023    2.386
  511.990    0.199    0.480   94.032  185.447    1.935
  512.240    0.216    0.477   96.222  185.770    1.918
  512.490    0.198    0.478   98.351  185.989    2.158
  512.740    0.208    0.467   98.602  186.004    2.782
  512.990    0.196    0.472   97.581  184.479    3.432
  513.240    0.209    0.456   96.256  182.133    4.179
  513.490    0.184    0.451   94.750  179.684    5.358
  513.740    0.187    0.460   92.879  177.440    6.371
  513.990    0.196    0.468   90.888  175.196    6.685
  514.240    0.193    0.471   89.562  172.441    6.786
  514.490    0.191    0.466   88.480  170.197    6.639
  514.740    0.201    0.458   88.125  167.851    6.532
  514.990    0.207    0.451   88.800  167.559    6.498
  515.240    0.202    0.444   89.050  168.188    6.547
  515.490    0.193    0.437   86.029  168.817    6.465
  515.740    0.186    0.430   85.977  168.933    6.384
  515.990    0.187    0.437   87.015  169.153    6.339
  516.240    0.223    0.444   87.933  169.168    6.340
  516.490    0.229    0.452   88.851  169.387    6.436
  516.740    0.213    0.461   89.950  169.915    6.521
  516.990    0.228    0.449   90.746  170.649    6.656
  517.240    0.218    0.429   91.784  171.278    6.806
  517.490    0.202    0.439   91.308  172.318    6.947
  517.740    0.206    0.438   88.833  172.845    7.143
  517.990    0.215    0.431   86.356  172.552    7.318
  518.240    0.194    0.435   81.819  171.951    7.497
  518.490    0.176    0.403   75.888  171.041    7.540
  518.740    0.134    0.347   73.836  168.592    7.337
  518.990    0.109    0.338   80.268  166.761    7.126
  519.240    0.153    0.406   94.034  167.494    6.870
  519.490    0.196    0.450   92.891  167.610    6.735
  519.740    0.220    0.448   90.414  167.520    6.626
  519.990    0.224    0.429   85.393  167.536    6.543
  520.240    0.211    0.429   86.189  167.447    6.473
  520.490    0.193    0.430   88.925  167.564    6.380
  520.740    0.217    0.425   92.145  168.296    6.276
  520.990    0.190    0.426   93.305  170.672    6.164
  521.240    0.207    0.429   91.859  171.302    6.075
  521.490    0.209    0.438   90.110  170.597    5.955
  521.740    0.204    0.447   90.058  170.303    5.935
  521.990    0.202    0.461   91.461  171.857    6.147
  522.240    0.184    0.474   89.227  175.566    6.729
  522.490    0.205    0.433   84.871  176.401    7.204
  522.740    0.233    0.416   80.758  169.539    8.076
  522.990    0.250    0.390   75.615  164.012    9.256
  523.240    0.282    0.374   71.018  163.719   11.293
  523.490    0.308    0.373   63.511  163.631   12.567
  523.740    0.306    0.380   59.822  163.952   12.922
  523.990    0.295    0.367   59.831  164.482   12.973
  524.240    0.273    0.350   60.688  164.597   12.905
  524.490    0.249    0.323   58.272  164.611   13.075
  524.740    0.176    0.297   56.523  164.523   13.127
  524.990    0.134    0.273   56.349  164.537   13.179
  525.240    0.108    0.290   58.176  164.246   13.279
  525.490    0.103    0.289   61.093  164.362   13.654
  525.740    0.088    0.270   60.194  164.478   14.566
  525.990    0.108    0.292   58.565  164.390   15.624
  526.240    0.141    0.280   56.694  164.508   16.883
  526.490    0.098    0.228   55.188  164.315   18.480
  526.740    0.075    0.204   53.924  164.435   21.297
  526.990    0.048    0.189   53.387  164.139   23.268
  527.240    0.028    0.167   53.698  164.152   22.765
  527.490    0.022    0.167   55.646  164.371   18.567
  527.740    0.069    0.225   56.321  164.695   13.289
  527.990    0.141    0.322   56.511  164.811    9.441
  528.240    0.202    0.367   57.369  164.929    7.974
  528.490    0.288    0.451   58.649  164.841    6.910
  528.740    0.328    0.474   60.598  164.752    6.133
  528.990    0.315    0.450   62.727  164.150    5.565
  529.240    0.296    0.434   65.160  163.447    5.277
  529.490    0.284    0.439   65.229  162.949    5.097
  529.740    0.280    0.441   63.904  162.654    5.015
  529.990    0.293    0.435   62.457  162.258    4.979
  530.240    0.303    0.437   60.588  162.272    4.881
  530.490    0.298    0.446   61.748  162.287    4.828
  530.740    0.288    0.450   63.210  162.608    4.785
  530.990    0.294    0.454   64.493  162.724    4.752
  531.240    0.303    0.463   65.531  163.457    4.683
  531.490    0.315    0.460   67.296  164.088    4.633
  531.740    0.313    0.460   69.547  164.307    4.558
  531.990    0.301    0.464   68.344  164.732    4.543
  532.240    0.312    0.481   64.776  165.054    4.527
  532.490    0.309    0.508   62.724  165.376    4.520
  532.740    0.299    0.486   65.945  165.493    4.546
  532.990    0.298    0.450   68.498  165.509    4.572
  533.240    0.290    0.452   67.840  165.419    4.616
  533.490    0.299    0.460   66.516  165.333    4.668
  533.740    0.304    0.454   66.767  165.448    4.756
  533.990    0.294    0.450   67.684  165.565    4.899
  534.240    0.287    0.457   69.025  165.580    5.112
  534.490    0.280    0.448   70.489  165.696    5.218
  534.740    0.279    0.439   71.224  165.812    5.307
  534.990    0.286    0.435   71.839  165.827    5.387
  535.240    0.274    0.452   73.423  166.149    5.388
  535.490    0.265    0.451   76.886  166.369    5.330
  535.740    0.256    0.432   82.471  166.999    5.215
  535.990    0.242    0.436   87.630  167.936    4.991
  536.240    0.229    0.443   90.123  169.182    4.699
  536.490    0.239    0.435   90.739  171.147    4.407
  536.740    0.241    0.420   92.019  175.267    4.133
  536.990    0.232    0.436   94.391  178.052    3.820
  537.240    0.240    0.457   94.158  181.761    3.453
  537.490    0.250    0.479   97.014  184.546    3.299
  537.740    0.250    0.477   99.386  184.560    3.288
  537.990    0.242    0.486   97.396  183.548    3.412
  538.240    0.238    0.498   96.010  182.330    3.687
  538.490    0.245    0.513   96.866  181.832    3.991
  538.740    0.250    0.525   97.359  181.231    4.304
  538.990    0.253    0.525   95.611  181.040    4.677
  539.240    0.236    0.497   94.467  181.670    5.008
  539.490    0.217    0.472   93.083  183.839    5.382
  539.740    0.192    0.462   91.878  185.188    5.699
  539.990    0.202    0.457   88.614  184.690    6.090
  540.240    0.219    0.456   88.076  179.366    6.461
  540.490    0.205    0.454   86.630  175.070    6.717
  540.740    0.192    0.451   84.639  171.289    6.920
  540.990    0.205    0.439   82.465  169.557    7.050
  541.240    0.201    0.427   80.415  168.750    7.182
  541.490    0.189    0.438   81.695  168.765    7.145
  541.740    0.208    0.452   85.097  169.087    7.029
  541.990    0.229    0.447   88.984  168.999    6.954
