~VERSION INFORMATION
 VERS.                 2.0:   CWLS LOG ASCII STANDARD -VERSION 2.0
 WRAP.                  NO:   ONE LINE PER DEPTH STEP
~WELL INFORMATION BLOCK
#MNEM.UNIT           DATA                    DESCRIPTION OF MNEMONIC
#---------    -------------------            -------------------------------
# Generated from Intellog Unique Number	CW_73_75/WELL/1037
WELL.         THOM-JEN CHERPETA 11-11        : Well_name    - WELL
LOC .         00/11-11-074-20W4/0            : Location     - LOCATION
UWI .         00/11-11-074-20W4/0            : Uwi          - UNIQUE WELL ID
ENTR.         JAYE                           : Entered      - ENTERED BY
SRVC.         COMPUTALOG                     : Scn          - SERVICE COMPANY
DATE.         5 MAR 85                       : Date         - LOG DATE
STRT.M        450                            : top_depth    - START DEPTH
STOP.M        675                            : bot_depth    - STOP DEPTH
STEP.M        0.25                           : increment    - STEP LENGTH
 NULL. -999.2500:NULL Value
~CURVE INFORMATION BLOCK
#MNEM UNIT       ERCB CURVE CODE    CURVE DESCRIPTION
#-----------   ------------------   ----------------------------------
DEPT.M        00 001 00 00         : DEPTH        - DEPTH
GR  .API      00 310 00 00         : GR           - GAMMA RAY
CALI.MM       00 280 01 00         : CAL          - CALIPER
NPHI.V/V      00 330 00 00         : PHIN         - NEUTRON POROSITY (SANDSTONE)
DPHI.V/V      00 890 00 00         : PHID         - DENSITY POROSITY (SANDSTONE)
ILD .OHMM     00 120 00 00         : RESD         - DEEP RESISTIVITY (DIL)
~PARAMETER INFORMATION
#MNEM.UNIT           DATA             DESCRIPTION OF MNEMONIC
#---------         -----------     ------------------------------
GL  .M        763.9                : gl           - GROUND LEVEL ELEVATION
EREF.M        767.6                : kb           - ELEVATION OF DEPTH REFERENCE
DATM.M        763.9                : datum        - DATUM ELEVATION
TDD .M        700                  : tdd          - TOTAL DEPTH DRILLER
RUN .         ONE                  : Run          - RUN NUMBER
ENG .         TEETZEL              : Engineer     - RECORDING ENGINEER
WIT .         GORMAN               : Witness      - WITNESSED BY
BASE.         EDMONTON             : Branch       - HOME BASE OF LOGGING UNIT
MUD .         GEL CHEM             : Mud_type     - MUD TYPE
MATR.         SANDSTONE            : Logunit      - NEUTRON MATRIX
TMAX.C        38                   : BHT          - MAXIMUM RECORDED TEMPERATURE
BHTD.M        698.7                : BHTDEP       - MAXIMUM RECORDED TEMPERATURE
RMT .C        38                   : MDTP         - TEMPERATURE OF MUD
MUDD.KG/M     1110                 : MWT          - MUD DENSITY
NEUT.         1                    : NEUTRON      - NEUTRON TYPE
RESI.         0                    : RESIST       - RESISTIVITY TYPE
RM  .OHMM     4.7                  : RM           - RESISTIVITY OF MUD
RMC .OHMM     0                    : RMC          - RESISTIVITY OF MUD CAKE
RMF .OHMM     3.7                  : RMF          - RESISTIVITY OF MUD FILTRATE
SUFT.C        0                    : SUFT         - SURFACE TEMPERATURE
~A  DEPTH       GR      CAL     PHIN     PHID     RESD
# ...
  632.500   89.697  164.076    0.399    0.160    5.954
  632.750   93.530  163.304    0.408    0.179    5.758
  633.000   95.845  159.583    0.418    0.178    5.432
  633.250   94.812  156.810    0.426    0.175    5.107
  633.500   95.802  157.513    0.409    0.174    4.948
  633.750   97.990  159.682    0.403    0.184    4.913
  634.000   98.285  161.229    0.405    0.184    4.887
  634.250   96.432  160.672    0.396    0.165    4.843
  634.500   91.801  159.584    0.374    0.130    4.737
  634.750   91.084  158.810    0.394    0.138    4.580
  635.000   95.358  159.087    0.411    0.157    4.413
  635.250   98.051  159.364    0.416    0.178    4.316
  635.500   98.222  159.014    0.409    0.190    4.318
  635.750  105.336  158.239    0.392    0.180    4.352
  636.000  102.663  158.094    0.373    0.163    4.488
  636.250   97.905  158.276    0.373    0.158    4.742
  636.500   98.578  158.557    0.384    0.164    4.927
  636.750  102.032  158.522    0.398    0.171    4.747
  637.000  104.916  158.912    0.408    0.182    4.547
  637.250  107.672  159.820    0.419    0.188    4.315
  637.500  106.578  160.518    0.429    0.192    4.188
  637.750  102.641  160.911    0.433    0.183    4.230
  638.000   99.715  160.981    0.407    0.172    4.453
  638.250   95.778  160.733    0.374    0.172    4.769
  638.500   98.030  160.910    0.354    0.176    5.020
  638.750  100.469  162.342    0.376    0.173    5.196
  639.000   99.061  163.788    0.375    0.164    5.228
  639.250  102.007  165.749    0.356    0.157    5.220
  639.500  105.082  165.609    0.374    0.163    5.106
  639.750  106.703  164.837    0.380    0.178    5.118
  640.000  104.153  164.803    0.357    0.187    5.388
  640.250   95.987  164.768    0.359    0.231    5.868
  640.500   80.871  163.680    0.398    0.342    6.880
  640.750   51.355  161.537    0.475    0.549    8.650
  641.000   32.387  160.129    0.567    0.740    9.784
  641.250   27.376  159.678    0.642    0.751   11.981
  641.500   28.492  160.484    0.637    0.740   14.206
  641.750   34.281  161.502    0.667    0.671   15.978
  642.000   51.249  163.359    0.592    0.543   16.167
  642.250   59.122  164.800    0.486    0.484   16.328
  642.500   58.404  165.711    0.478    0.458   17.190
  642.750   51.185  166.622    0.488    0.468   18.338
  643.000   47.375  167.008    0.453    0.439   19.198
  643.250   45.836  167.606    0.404    0.359   19.242
  643.500   46.131  168.515    0.364    0.310   18.328
  643.750   48.635  170.690    0.330    0.286   17.360
  644.000   51.458  172.866    0.278    0.268   16.503
  644.250   53.079  172.619    0.282    0.255   15.780
  644.500   52.424  170.900    0.302    0.256   15.316
  644.750   48.994  167.921    0.356    0.271   14.895
  645.000   46.761  161.565    0.358    0.268   14.486
  645.250   47.876  158.796    0.335    0.256   14.141
  645.500   49.119  157.601    0.293    0.239   13.700
  645.750   52.065  157.772    0.280    0.222   13.001
  646.000   56.023  158.375    0.288    0.213   12.312
  646.250   61.560  158.964    0.327    0.210   11.251
  646.500   73.097  158.303    0.327    0.192   10.300
  646.750   92.845  157.846    0.307    0.150    9.411
  647.000  112.212  160.232    0.310    0.159    8.391
  647.250  116.548  167.458    0.312    0.142    7.136
  647.500  115.517  169.527    0.313    0.123    6.595
  647.750  108.548  170.964    0.305    0.123    6.475
  648.000  106.062  173.144    0.291    0.115    6.551
  648.250  107.748  173.213    0.283    0.106    6.704
  648.500  111.515  171.493    0.294    0.099    6.758
  648.750  115.285  169.982    0.310    0.103    6.762
  649.000  120.569  169.941    0.326    0.135    6.727
  649.250  125.852  169.909    0.339    0.142    6.704
  649.500  124.820  170.090    0.334    0.129    6.657
  649.750  119.305  169.737    0.330    0.131    6.622
  650.000  113.220  168.436    0.338    0.152    6.563
  650.250  104.294  166.716    0.333    0.166    6.492
  650.500  104.652  165.104    0.323    0.163    6.421
  650.750  108.104  162.119    0.320    0.165    6.376
  651.000  110.606  160.508    0.319    0.178    6.307
  651.250  110.586  160.472    0.316    0.192    6.250
  651.500  110.125  161.278    0.332    0.208    6.067
  651.750  109.281  162.823    0.359    0.217    5.900
  652.000  105.850  159.630    0.371    0.231    5.770
  652.250   96.608  159.594    0.332    0.240    5.622
  652.500   97.029  165.453    0.313    0.215    5.478
  652.750  100.355  172.258    0.309    0.189    5.398
  653.000   99.385  174.644    0.314    0.166    5.442
  653.250   98.796  172.399    0.320    0.181    5.569
  653.500  100.101  170.363    0.324    0.197    5.688
  653.750  102.670  169.486    0.326    0.203    5.680
  654.000  109.217  168.080    0.336    0.202    5.524
  654.250  119.238  166.359    0.372    0.200    5.272
  654.500  119.089  164.534    0.383    0.193    5.127
  654.750  115.847  162.919    0.349    0.184    5.071
  655.000  108.940  161.411    0.324    0.180    5.044
  655.250  104.500  160.009    0.318    0.197    5.018
  655.500  100.563  158.604    0.313    0.216    4.973
  655.750   96.057  157.414    0.325    0.231    4.938
  656.000   92.436  156.848    0.339    0.226    4.940
  656.250   92.224  156.817    0.331    0.203    4.989
  656.500   94.605  158.150    0.310    0.180    5.154
  656.750  105.003  161.271    0.288    0.157    5.355
  657.000  112.878  165.761    0.311    0.160    5.575
  657.250  101.551  169.516    0.297    0.157    5.705
  657.500   88.457  167.897    0.270    0.152    5.654
  657.750   92.477  166.917    0.290    0.148    5.488
  658.000  131.172  166.252    0.368    0.159    5.347
  658.250  124.518  165.900    0.416    0.172    5.220
  658.500  106.055  165.443    0.382    0.172    5.057
  658.750  103.192  165.510    0.329    0.165    4.983
  659.000  113.087  165.375    0.326    0.156    4.920
  659.250  119.571  164.072    0.380    0.186    4.904
  659.500  119.675  164.459    0.395    0.208    4.915
  659.750  107.466  165.896    0.397    0.221    4.964
  660.000   91.339  167.229    0.375    0.211    5.051
  660.250   81.276  167.510    0.375    0.199    5.238
  660.500   68.938  164.845    0.359    0.184    5.546
  660.750   62.033  162.494    0.306    0.169    5.839
  661.000   54.054  161.407    0.262    0.164    6.021
  661.250   51.822  161.473    0.254    0.165    6.150
  661.500   53.001  162.493    0.264    0.161    6.118
  661.750   60.179  164.350    0.277    0.155    5.849
  662.000   67.547  165.265    0.283    0.161    5.529
  662.250   73.778  162.277    0.287    0.182    5.208
  662.500   79.947  160.456    0.300    0.214    4.970
  662.750   91.610  160.421    0.306    0.209    4.833
  663.000  109.146  162.702    0.322    0.154    4.647
  663.250  117.335  163.720    0.353    0.112    4.435
  663.500  108.219  162.946    0.356    0.125    4.297
  663.750  100.999  157.962    0.342    0.155    4.202
  664.000   92.197  156.877    0.347    0.203    4.172
  664.250   91.546  157.157    0.341    0.226    4.166
  664.500   98.472  157.857    0.330    0.204    4.208
  664.750  116.577  159.296    0.340    0.181    4.274
  665.000  119.398  161.786    0.369    0.161    4.415
  665.250  121.208  163.330    0.376    0.158    4.640
  665.500  121.373  164.135    0.339    0.157    4.866
  665.750  118.576  163.574    0.338    0.156    4.933
  666.000  114.385  163.539    0.377    0.153    4.834
  666.250  110.701  162.661    0.391    0.141    4.710
  666.500  106.197  161.364    0.351    0.125    4.676
  666.750  109.080  160.907    0.329    0.140    4.750
  667.000  114.427  163.291    0.331    0.149    4.824
  667.250  107.900  168.625    0.335    0.153    4.927
  667.500  102.007  168.061    0.328    0.165    5.033
  667.750   96.806  165.498    0.337    0.151    5.190
  668.000   95.269  163.885    0.358    0.128    5.382
  668.250   92.151  162.061    0.360    0.127    5.529
  668.500   89.100  159.184    0.325    0.132    5.711
  668.750   84.277  157.361    0.305    0.127    5.945
