~VERSION INFORMATION
 VERS.                 2.0:   CWLS LOG ASCII STANDARD -VERSION 2.0
 WRAP.                  NO:   ONE LINE PER DEPTH STEP
~WELL INFORMATION BLOCK
#MNEM.UNIT           DATA                    DESCRIPTION OF MNEMONIC
#---------    -------------------            -------------------------------
# Generated from Intellog Unique Number	CC_80_83/WELL/2420
NULL.         -999.25                        : NULL_VALUE
WELL.         AMOCO SURMONT E5               : Well_name    - WELL
LOC .         11-31-083-09W4                 : Location     - LOCATION          
UWI .         00/11-31-083-09W400            : Uwi          - UNIQUE WELL ID    
ENTR.         DW                             : Entered      - ENTERED BY        
SRVC.         SCHLUMBERGER                   : Scn          - SERVICE COMPANY   
DATE.         07 MAR 77                      : Date         - LOG DATE
STRT.M        240.792                        : top_depth    - START DEPTH       
STOP.M        484.639                        : bot_depth    - STOP DEPTH        
STEP.M        0.305                          : increment    - STEP LENGTH       
~CURVE INFORMATION BLOCK
#MNEM UNIT       ERCB CURVE CODE    CURVE DESCRIPTION
#-----------   ------------------   ----------------------------------
DEPT.M        00 001 00 00         : DEPTH        - DEPTH                       
DPHI.V/V      00 890 00 00         : PHID         - DENSITY POROSITY (LIMESTONE)
NPHI.V/V      00 330 00 00         : PHIN         - NEUTRON POROSITY (LIMESTONE)
GR  .API      00 310 00 00         : GR           - GAMMA RAY                   
ILD .OHMM     00 120 00 00         : RESD         - DEEP RESISTIVITY (DIL)      
~PARAMETER INFORMATION       
#MNEM.UNIT           DATA             DESCRIPTION OF MNEMONIC
#---------         -----------     ------------------------------
GL  .M        712.318              : gl           - GROUND LEVEL ELEVATION      
EREF.M        716.28               : kb           - ELEVATION OF DEPTH REFERENCE
DATM.M        716.28               : datum        - DATUM ELEVATION             
TDD .M        486.461              : tdd          - TOTAL DEPTH DRILLER         
RUN .         ONE                  : Run          - RUN NUMBER                  
ENG .         BILL                 : Engineer     - RECORDING ENGINEER          
WIT .         JIM                  : Witness      - WITNESSED BY                
MUD .         GEL                  : Mud_type     - MUD TYPE                    
MATR.         LIMESTONE            : Logunit      - NEUTRON MATRIX              
TMAX.C        21.6667              : BHT          - MAXIMUM RECORDED TEMPERATURE
BHTD.M        486.461              : BHTDEP       - MAXIMUM RECORDED TEMPERATURE
MATR.         1                    : LOGUNIT      - NEUTRON MATRIX              
RMT .C        25                   : MDTP         - TEMPERATURE OF MUD          
NEUT.         1                    : NEUTRON      - NEUTRON TYPE                
RESI.         0                    : RESIST       - RESISTIVITY TYPE            
RMC .OHMM     0.25                 : RMC          - RESISTIVITY OF MUD CAKE     
RMF .OHMM     0.25                 : RMF          - RESISTIVITY OF MUD FILTRATE 
SUFT.C        15                   : SUFT         - SURFACE TEMPERATURE         
~A  DEPTH     PHID     PHIN       GR     RESD
# ...
  346.865    0.419    0.281   71.147   34.339
  347.170    0.394    0.302   67.502   34.343
  347.475    0.378    0.286   61.428   37.014
  347.779    0.376    0.262   58.998   43.796
  348.084    0.381    0.245   60.211   49.001
  348.389    0.385    0.240   63.246   50.874
  348.694    0.394    0.239   65.066   49.944
  348.999    0.390    0.242   57.170   48.121
  349.303    0.372    0.256   45.630   43.026
  349.608    0.262    0.262   42.593   31.327
  349.913    0.052    0.207   46.235   20.391
  350.218    0.171    0.281   53.520   16.921
  350.523    0.288    0.402   60.199   16.001
  350.827    0.319    0.428   68.092   16.307
  351.132    0.338    0.455   79.021   16.617
  351.437    0.339    0.463   63.838   16.621
  351.742    0.328    0.472   59.586   16.316
  352.047    0.321    0.457   59.584   15.721
  352.352    0.327    0.452   59.583   15.431
  352.656    0.332    0.446   58.974   15.435
  352.961    0.333    0.438   56.543   17.267
  353.266    0.333    0.435   52.898   17.928
  353.571    0.321    0.448   48.646   22.020
  353.876    0.152    0.416   45.608   35.791
  354.180    0.019    0.176   43.785   45.635
  354.485    0.000    0.131   43.176   46.504
  354.790    0.007    0.133   45.604   35.148
  355.095    0.132    0.178   50.461   18.630
  355.400    0.179    0.279   55.317   15.751
  355.704    0.275    0.353   58.959   15.176
  356.009    0.336    0.410   60.780   14.623
  356.314    0.333    0.456   60.171   14.354
  356.619    0.328    0.444   59.562   14.358
  356.924    0.326    0.436   61.383   14.630
  357.228    0.324    0.453   61.989   16.992
  357.533    0.333    0.455   61.987   17.973
  357.838    0.316    0.440   60.164   18.315
  358.143    0.299    0.453   58.340   17.000
  358.448    0.298    0.468   58.946   15.489
  358.753    0.318    0.476   60.159   15.204
  359.057    0.332    0.478   60.765   14.924
  359.362    0.341    0.469   60.156   14.115
  359.667    0.325    0.473   60.762   14.117
  359.972    0.314    0.478   60.761   13.858
  360.277    0.297    0.482   60.759   13.861
  360.581    0.292    0.473   60.758   14.124
  360.886    0.309    0.453   61.971   14.395
  361.191    0.321    0.429   63.184   14.396
  361.496    0.326    0.434   63.183   13.871
  361.801    0.328    0.448   61.967   13.616
  362.105    0.336    0.461   62.572   13.368
  362.410    0.332    0.441   63.178   13.370
  362.715    0.321    0.428   64.391   13.372
  363.020    0.333    0.435   64.390   13.374
  363.325    0.314    0.447   62.566   13.886
  363.629    0.295    0.444   60.743   15.828
  363.934    0.276    0.450   58.313   18.727
  364.239    0.256    0.461   54.668   20.565
  364.544    0.161    0.436   50.415   20.189
  364.849    0.110    0.279   51.628   19.091
  365.154    0.257    0.359   57.700   17.070
  365.458    0.299    0.442   61.341   15.552
  365.763    0.327    0.458   66.182   14.168
  366.068    0.325    0.468   67.996   13.650
  366.373    0.333    0.458   69.808   12.909
  366.678    0.322    0.454   71.014   12.911
  366.982    0.312    0.456   70.399   12.675
  367.287    0.316    0.459   66.746   13.159
  367.592    0.315    0.451   66.129   12.680
  367.897    0.301    0.448   69.156   12.682
  368.202    0.284    0.440   70.968   12.923
  368.506    0.260    0.442   70.961   13.671
  368.811    0.229    0.438   69.130   14.461
  369.116    0.154    0.403   67.906   14.736
  369.421    0.206    0.327   61.825   14.198
  369.726    0.247    0.374   64.850   13.428
  370.030    0.312    0.468   69.699   12.937
  370.335    0.301    0.453   73.333   12.465
  370.640    0.298    0.458   75.753   12.011
  370.945    0.298    0.464   77.564   11.358
  371.250    0.294    0.481   75.126   10.944
  371.555    0.309    0.465   77.547   10.349
  371.859    0.300    0.459   80.573    8.914
  372.164    0.281    0.456   72.671    7.397
  372.469    0.251    0.452   79.340    6.254
  372.774    0.254    0.461   86.618    5.804
  373.079    0.248    0.461   90.250    5.806
  373.383    0.242    0.455   87.814    6.618
  373.688    0.239    0.449   84.769    7.543
  373.993    0.225    0.448   81.116    8.439
  374.298    0.204    0.434   78.071    8.284
  374.603    0.201    0.446   80.489    7.271
  374.907    0.217    0.465   88.374    6.749
  375.212    0.261    0.449   96.260    6.382
  375.517    0.255    0.447   92.000    5.601
  375.822    0.232    0.494   91.991    5.103
  376.127    0.226    0.524   93.803    4.736
  376.431    0.251    0.517   93.187    4.649
  376.736    0.262    0.492   90.140    5.300
  377.041    0.241    0.485   87.091    6.509
  377.346    0.227    0.480   87.085    7.560
  377.651    0.215    0.471   88.897    7.849
  377.956    0.266    0.458   93.140    7.705
  378.260    0.278    0.452   98.594    7.564
  378.565    0.258    0.445   98.587    7.021
  378.870    0.239    0.448   91.290    7.022
  379.175    0.222    0.458   84.601    6.893
  379.480    0.189    0.468   82.768    6.895
  379.784    0.202    0.475   86.402    6.895
  380.089    0.231    0.487   88.216    6.770
  380.394    0.213    0.499   96.101    6.645
  380.699    0.209    0.487  103.380    6.284
  381.004    0.244    0.491  103.977    6.055
  381.308    0.257    0.498  101.539    5.516
  381.613    0.245    0.510  104.565    5.315
  381.918    0.248    0.534  108.808    4.752
  382.223    0.240    0.553  113.049    4.411
  382.528    0.244    0.564  106.966    4.095
  382.832    0.262    0.573  100.279    4.019
  383.137    0.257    0.539  110.592    3.801
  383.442    0.250    0.522  113.012    3.528
  383.747    0.232    0.543  113.001    3.154
  384.052    0.208    0.525  106.920    3.400
  384.357    0.203    0.495   99.017    4.255
  384.661    0.207    0.486  102.650    4.672
  384.966    0.208    0.474  105.676    5.227
  385.271    0.206    0.491  103.847    6.070
  385.576    0.215    0.468  100.801    6.919
  385.881    0.200    0.471   98.362    7.598
  386.185    0.207    0.504   98.355    8.188
  386.490    0.213    0.500  106.239    8.992
  386.795    0.204    0.463  110.480    9.335
  387.100    0.185    0.449  110.472   10.062
  387.405    0.186    0.436  106.817   10.844
  387.709    0.169    0.410  104.380   11.687
  388.014    0.134    0.385   97.691   12.134
  388.319    0.150    0.367   92.824   11.912
  388.624    0.188    0.379   96.459   11.478
  388.929    0.193    0.408  100.093   11.267
  389.233    0.189    0.428  100.688   10.856
  389.538    0.200    0.436  104.932   10.656
  389.843    0.189    0.425  109.173    9.529
  390.148    0.177    0.439  110.378    8.681
  390.453    0.202    0.455  105.511    7.908
  390.758    0.217    0.465  111.573    7.204
  391.062    0.222    0.468  109.744    7.205
  391.367    0.236    0.452  102.446    8.686
  391.672    0.239    0.416   96.972    9.718
  391.977    0.237    0.400   92.711   10.671
  392.282    0.245    0.402   92.704   10.875
  392.586    0.251    0.419   95.122   10.877
  392.891    0.248    0.427   98.756   10.678
  393.196    0.225    0.406  101.177   10.288
  393.501    0.192    0.406  100.561    9.550
  393.806    0.195    0.429   96.907    9.201
  394.110    0.204    0.447   98.113    8.382
  394.415    0.193    0.443   99.923    7.780
  394.720    0.181    0.441   98.702    7.638
  395.025    0.192    0.442   90.191    8.079
  395.330    0.209    0.445   96.860    8.388
  395.634    0.218    0.445   98.067    9.040
  395.939    0.207    0.424   96.236    9.563
  396.244    0.198    0.417   93.190    9.565
  396.549    0.217    0.408   94.394    9.216
  396.854    0.222    0.426   98.638    8.880
  397.159    0.231    0.458  100.450    8.882
  397.463    0.241    0.446   87.080    8.883
  397.768    0.226    0.434   81.000    9.051
  398.073    0.223    0.422   77.954   10.127
  398.378    0.245    0.418   79.767   10.129
  398.683    0.257    0.442   86.436    9.401
  398.987    0.239    0.457   91.283    8.251
  399.292    0.235    0.468   94.311    7.802
  399.597    0.251    0.500   99.161    6.596
