~VERSION INFORMATION
 VERS.                 2.0:   CWLS LOG ASCII STANDARD -VERSION 2.0
 WRAP.                  NO:   ONE LINE PER DEPTH STEP
~WELL INFORMATION BLOCK
#MNEM.UNIT           DATA                    DESCRIPTION OF MNEMONIC
#---------    -------------------            -------------------------------
# Generated from Intellog Unique Number	CS_77_79/WELL/973
WELL.         FRANCANA LEISMERE              : Well_name    - WELL
LOC .         00/10-27-078-07W4/0            : Location     - LOCATION
UWI .         00/10-27-078-07W4/0            : Uwi          - UNIQUE WELL ID
ENTR.         JHS                            : Entered      - ENTERED BY
SRVC.         SCHLUMBERGER                   : Scn          - SERVICE COMPANY
STRT.M        110                            : top_depth    - START DEPTH
STOP.M        345                            : bot_depth    - STOP DEPTH
STEP.M        0.25                           : increment    - STEP LENGTH
 NULL. -999.2500:NULL Value
~CURVE INFORMATION BLOCK
#MNEM UNIT       ERCB CURVE CODE    CURVE DESCRIPTION
#-----------   ------------------   ----------------------------------
DEPT.M        00 001 00 00         : DEPTH        - DEPTH
DPHI.V/V      00 890 00 00         : PHID         - DENSITY POROSITY (LIMESTONE)
NPHI.V/V      00 330 00 00         : PHIN         - NEUTRON POROSITY (LIMESTONE)
GR  .API      00 310 00 00         : GR           - GAMMA RAY
ILD .OHMM     00 120 00 00         : RESD         - DEEP RESISTIVITY (DIL)
~PARAMETER INFORMATION
#MNEM.UNIT           DATA             DESCRIPTION OF MNEMONIC
#---------         -----------     ------------------------------
GL  .M        548.21               : gl           - GROUND LEVEL ELEVATION
EREF.M        555.72               : kb           - ELEVATION OF DEPTH REFERENCE
DATM.M        555.72               : datum        - DATUM ELEVATION
TDD .M        351                  : tdd          - TOTAL DEPTH DRILLER
RUN .         ONE                  : Run          - RUN NUMBER
ENG .         BILL                 : Engineer     - RECORDING ENGINEER
WIT .         JIM                  : Witness      - WITNESSED BY
MUD .         GEL                  : Mud_type     - MUD TYPE
MATR.         LIMESTONE            : Logunit      - NEUTRON MATRIX
TMAX.C        13                   : BHT          - MAXIMUM RECORDED TEMPERATURE
BHTD.M        351                  : BHTDEP       - MAXIMUM RECORDED TEMPERATURE
MATR.         1                    : LOGUNIT      - NEUTRON MATRIX
RMT .C        25                   : MDTP         - TEMPERATURE OF MUD
NEUT.         1                    : NEUTRON      - NEUTRON TYPE
RESI.         0                    : RESIST       - RESISTIVITY TYPE
RMC .OHMM     0.25                 : RMC          - RESISTIVITY OF MUD CAKE
RMF .OHMM     0.25                 : RMF          - RESISTIVITY OF MUD FILTRATE
SUFT.C        15                   : SUFT         - SURFACE TEMPERATURE
~A  DEPTH     PHID     PHIN       GR     RESD
# ...
  284.000    0.184    0.366   69.964    8.344
  284.250    0.276    0.354   66.935    8.204
  284.500    0.306    0.345   63.899    8.371
  284.750    0.314    0.345   62.083    8.543
  285.000    0.304    0.350   60.892    8.556
  285.250    0.288    0.361   60.912    8.409
  285.500    0.273    0.376   63.384    7.957
  285.750    0.258    0.397   63.420    7.528
  286.000    0.245    0.419   62.824    6.989
  286.250    0.276    0.437   66.525    6.488
  286.500    0.282    0.460   65.329    6.022
  286.750    0.305    0.438   62.292    5.384
  287.000    0.316    0.415   58.645    4.905
  287.250    0.296    0.409   59.284    4.730
  287.500    0.296    0.433   62.979    4.647
  287.750    0.301    0.457   69.740    4.744
  288.000    0.306    0.473   71.611    4.934
  288.250    0.306    0.504   69.793    5.332
  288.500    0.310    0.499   66.146    6.459
  288.750    0.313    0.478   64.337    7.672
  289.000    0.311    0.457   59.461    9.463
  289.250    0.316    0.431   52.145   14.945
  289.500    0.312    0.421   52.171   18.436
  289.750    0.306    0.419   53.422   24.085
  290.000    0.304    0.416   53.445   28.081
  290.250    0.308    0.420   52.244   29.765
  290.500    0.325    0.430   55.332   30.972
  290.750    0.323    0.438   59.037   31.022
  291.000    0.315    0.420   62.117   28.805
  291.250    0.304    0.408   65.825   26.231
  291.500    0.296    0.400   67.685   22.142
  291.750    0.291    0.413   68.314   17.011
  292.000    0.294    0.440   70.183   14.359
  292.250    0.284    0.432   73.875   12.356
  292.500    0.266    0.435   83.702   10.632
  292.750    0.247    0.422   92.908    9.326
  293.000    0.232    0.420  102.117    8.494
  293.250    0.216    0.421  107.649    8.036
  293.500    0.235    0.412  111.350    8.205
  293.750    0.231    0.400  107.709    8.534
  294.000    0.215    0.377   99.157    9.050
  294.250    0.218    0.368   85.714    9.784
  294.500    0.237    0.388   80.234    9.980
  294.750    0.242    0.413   79.040   10.782
  295.000    0.247    0.422   77.223   11.879
  295.250    0.232    0.413   73.574   13.086
  295.500    0.239    0.411   68.703   13.602
  295.750    0.252    0.430   65.664   14.699
  296.000    0.263    0.413   65.695   15.003
  296.250    0.279    0.404   68.166   13.668
  296.500    0.261    0.395   74.313   12.215
  296.750    0.229    0.407   81.689   10.919
  297.000    0.214    0.393   84.160   10.137
  297.250    0.212    0.382   84.800    9.414
  297.500    0.225    0.382   82.993    9.245
  297.750    0.230    0.379   83.015    8.749
  298.000    0.205    0.384   86.100    8.437
  298.250    0.181    0.435   89.188    8.290
  298.500    0.146    0.452   91.664    8.304
  298.750    0.146    0.441   94.140    8.483
  299.000    0.189    0.420   90.488    8.653
  299.250    0.201    0.404   83.172    8.663
  299.500    0.201    0.391   81.973    9.017
  299.750    0.209    0.388   81.384    9.029
  300.000    0.219    0.377   80.174    9.020
  300.250    0.220    0.369   81.973    9.172
  300.500    0.213    0.364   88.055    9.155
  300.750    0.210    0.367   91.690    9.141
  301.000    0.215    0.379   88.591    9.298
  301.250    0.224    0.387   86.720    9.461
  301.500    0.230    0.372   87.910    9.988
  301.750    0.244    0.371   86.036   10.556
  302.000    0.269    0.380   82.938   11.373
  302.250    0.295    0.390   79.224   13.463
  302.500    0.309    0.407   76.129   18.903
  302.750    0.301    0.425   74.260   24.603
  303.000    0.296    0.423   74.220   28.578
  303.250    0.294    0.417   89.488   30.777
  303.500    0.286    0.424  102.916   31.904
  303.750    0.267    0.407  120.627   31.840
  304.000    0.288    0.399  112.022   31.788
  304.250    0.285    0.406  102.801   30.534
  304.500    0.272    0.394  109.498   29.355
  304.750    0.274    0.382  109.464   27.153
  305.000    0.266    0.375  112.484   25.612
  305.250    0.274    0.380  108.776   23.699
  305.500    0.266    0.400  101.391   22.345
  305.750    0.251    0.386  101.962   22.732
  306.000    0.266    0.409   98.868   24.951
  306.250    0.287    0.413   93.942   32.474
  306.500    0.301    0.404   80.440   39.925
  306.750    0.312    0.407   66.321   44.655
  307.000    0.322    0.409   57.102   47.192
  307.250    0.309    0.412   52.781   45.331
  307.500    0.290    0.423   53.354   42.757
  307.750    0.279    0.418   54.541   39.566
  308.000    0.295    0.413   53.284   36.586
  308.250    0.297    0.405   51.409   36.539
  308.500    0.312    0.433   50.154   38.606
  308.750    0.325    0.451   48.278   42.348
  309.000    0.332    0.442   47.018   43.080
  309.250    0.327    0.436   47.592   41.415
  309.500    0.321    0.438   53.063   38.308
  309.750    0.290    0.426   59.764   36.120
  310.000    0.271    0.422   69.519   36.053
  310.250    0.287    0.421   71.305   35.998
  310.500    0.288    0.423   67.598   34.599
  310.750    0.301    0.426   66.348   30.238
  311.000    0.294    0.420   62.633   30.179
  311.250    0.285    0.409   58.314   31.880
  311.500    0.292    0.415   53.377   31.834
  311.750    0.312    0.424   50.286   34.923
  312.000    0.322    0.414   46.575   40.584
  312.250    0.312    0.421   52.044   48.966
  312.500    0.316    0.427   53.843   60.207
  312.750    0.315    0.424   48.913   64.809
  313.000    0.316    0.415   41.529   57.726
  313.250    0.318    0.410   48.838   49.516
  313.500    0.312    0.404   54.925   43.286
  313.750    0.303    0.398   61.005   39.288
  314.000    0.283    0.403   65.253   37.044
  314.250    0.315    0.411   62.767   36.983
  314.500    0.331    0.399   52.330   38.355
  314.750    0.324    0.402   51.066   43.707
  315.000    0.300    0.410   58.986   49.816
  315.250    0.310    0.426   61.393   56.784
  315.500    0.318    0.473   61.351   67.206
  315.750    0.325    0.465   58.262   72.383
  316.000    0.329    0.451   53.328   70.905
  316.250    0.325    0.440   54.518   35.764
  316.500    0.316    0.428   61.209   23.971
  316.750    0.302    0.419   67.909   15.468
  317.000    0.243    0.427   73.991   13.015
  317.250    0.247    0.473   75.787   12.273
  317.500    0.292    0.479   66.575   13.215
  317.750    0.331    0.465   57.358   18.916
  318.000    0.351    0.458   49.972   33.985
  318.250    0.348    0.438   44.431   49.567
  318.500    0.348    0.426   43.781   51.387
  318.750    0.335    0.415   53.532   42.440
  319.000    0.315    0.405   60.232   21.401
  319.250    0.282    0.420   68.153   17.017
  319.500    0.268    0.439   69.947   14.871
  319.750    0.245    0.440   72.960   14.024
  320.000    0.235    0.434   77.220   13.477
  320.250    0.257    0.465   80.244   12.948
  320.500    0.270    0.486   73.473   13.165
  320.750    0.281    0.471   69.156   13.655
  321.000    0.267    0.406   66.048   14.149
  321.250    0.252    0.391   65.409   14.406
  321.500    0.242    0.405   65.368   14.377
  321.750    0.229    0.418   69.620   14.078
  322.000    0.253    0.423   73.251   14.325
  322.250    0.273    0.430   72.605   14.852
  322.500    0.264    0.437   68.898   14.817
  322.750    0.282    0.435   71.299   14.514
  323.000    0.264    0.431   74.939   14.216
  323.250    0.253    0.464   76.741   13.397
  323.500    0.255    0.477   73.643   13.125
  323.750    0.253    0.472   71.767   12.611
  324.000    0.240    0.461   70.511   12.597
  324.250    0.252    0.455   71.076   12.569
  324.500    0.257    0.460   70.430   12.789
  324.750    0.257    0.468   68.564   13.513
  325.000    0.264    0.481   67.298   15.110
  325.250    0.275    0.459   66.034   16.577
  325.500    0.293    0.439   64.781   16.230
  325.750    0.292    0.438   62.904   16.213
  326.000    0.279    0.450   69.601   16.181
  326.250    0.273    0.473   71.400   16.460
  326.500    0.294    0.463   68.915   17.729
  326.750    0.301    0.467   65.819   18.372
  327.000    0.281    0.459   66.389   18.696
  327.250    0.272    0.449   66.348   20.906
