~VERSION INFORMATION
 VERS.                 2.0:   CWLS LOG ASCII STANDARD -VERSION 2.0
 WRAP.                  NO:   ONE LINE PER DEPTH STEP
~WELL INFORMATION BLOCK
#MNEM.UNIT           DATA                    DESCRIPTION OF MNEMONIC
#---------    -------------------            -------------------------------
# Generated from Intellog Unique Number	CW_70_72/WELL/1046
NULL.         -999.25                        : NULL_VALUE
WELL.         SUNDANCE ET AL SMITH 10-33-071 : Well_name    - WELL              
LOC .         10-33-071-23W4                 : Location     - LOCATION          
UWI .         00/10-33-071-23W4/0            : Uwi          - UNIQUE WELL ID    
ENTR.         JAYE                           : Entered      - ENTERED BY        
SRVC.         SCHLUMBERGER                   : Scn          - SERVICE COMPANY   
DATE.         3 MAR 76                       : Date         - LOG DATE          
STRT.M        432.816                        : top_depth    - START DEPTH       
STOP.M        646.066                        : bot_depth    - STOP DEPTH        
STEP.M        0.25                           : increment    - STEP LENGTH       
~CURVE INFORMATION BLOCK
#MNEM UNIT       ERCB CURVE CODE    CURVE DESCRIPTION
#-----------   ------------------   ----------------------------------
DEPT.M        00 001 00 00         : DEPTH        - DEPTH                       
DPHI.V/V      00 890 00 00         : PHID         - DENSITY POROSITY (SANDSTONE)
NPHI.V/V      00 330 00 00         : PHIN         - NEUTRON POROSITY (SANDSTONE)
GR  .API      00 310 00 00         : GR           - GAMMA RAY                   
CALI.MM       00 280 01 00         : CAL          - CALIPER                     
ILD .OHMM     00 120 00 00         : RESD         - DEEP RESISTIVITY (DIL)      
~PARAMETER INFORMATION       
#MNEM.UNIT           DATA             DESCRIPTION OF MNEMONIC
#---------         -----------     ------------------------------
GL  .M        679.399              : gl           - GROUND LEVEL ELEVATION      
EREF.M        683.057              : kb           - ELEVATION OF DEPTH REFERENCE
DATM.M        679.399              : datum        - DATUM ELEVATION             
TDD .M        662.94               : tdd          - TOTAL DEPTH DRILLER         
RUN .         ONE                  : Run          - RUN NUMBER                  
ENG .         WILSHIRE             : Engineer     - RECORDING ENGINEER          
WIT .         ROBINSON             : Witness      - WITNESSED BY                
BASE.         EDM                  : Branch       - HOME BASE OF LOGGING UNIT   
MATR.         SANDSTONE            : Logunit      - NEUTRON MATRIX              
TMAX.C        -17.7778             : BHT          - MAXIMUM RECORDED TEMPERATURE
BHTD.M        662.635              : BHTDEP       - MAXIMUM RECORDED TEMPERATURE
RMT .C        4.44444              : MDTP         - TEMPERATURE OF MUD          
MUDD.KG/M     0                    : MWT          - MUD DENSITY                 
NEUT.         1                    : NEUTRON      - NEUTRON TYPE                
RESI.         0                    : RESIST       - RESISTIVITY TYPE            
RM  .OHMM     1.93                 : RM           - RESISTIVITY OF MUD          
RMC .OHMM     0                    : RMC          - RESISTIVITY OF MUD CAKE     
RMF .OHMM     0                    : RMF          - RESISTIVITY OF MUD FILTRATE 
SUFT.C        -17.7778             : SUFT         - SURFACE TEMPERATURE         
~A  DEPTH     PHID     PHIN       GR      CAL     RESD
# ...
  542.316    0.254    0.415   88.053  176.472    4.484
  542.566    0.259    0.433   91.569  176.566    4.296
  542.816    0.248    0.418   94.405  176.868    4.210
  543.066    0.232    0.409   97.673  176.542    4.266
  543.316    0.217    0.416  100.324  176.530    4.389
  543.566    0.236    0.430  103.964  177.668    4.583
  543.816    0.232    0.446  108.530  178.600    4.831
  544.066    0.259    0.462  110.130  181.098    4.787
  544.316    0.244    0.476  107.157  183.181    4.535
  544.566    0.224    0.471  103.565  183.063    4.452
  544.816    0.189    0.483   99.170  182.424    4.863
  545.066    0.205    0.495   90.757  181.681    5.704
  545.316    0.179    0.279   83.273  180.412    6.690
  545.566    0.128    0.279   79.000  179.041    7.658
  545.816    0.118    0.289   77.697  177.981    8.620
  546.066    0.100    0.207   75.032  177.969   10.225
  546.316    0.003    0.143   70.637  178.271   13.294
  546.566   -0.009    0.131   65.808  178.680   16.341
  546.816   -0.008    0.147   64.257  179.296   20.124
  547.066    0.015    0.190   68.020  179.493   22.106
  547.316    0.131    0.224   81.301  179.166   18.715
  547.566    0.161    0.274   89.576  178.841   12.165
  547.816    0.180    0.341   96.181  178.514    9.884
  548.066    0.205    0.405   98.832  178.188    8.558
  548.316    0.192    0.396  101.730  178.806    7.300
  548.566    0.171    0.374  103.639  180.887    6.537
  548.816    0.162    0.384  103.694  181.712    6.055
  549.066    0.177    0.382  103.378  181.807    5.955
  549.316    0.168    0.372  103.061  182.211    6.058
  549.566    0.156    0.378  103.426  182.410    6.303
  549.816    0.155    0.383  107.436  182.711    6.496
  550.066    0.159    0.369  117.070  182.805    6.596
  550.316    0.170    0.377  120.091  183.108    6.549
  550.566    0.186    0.386  116.191  183.409    6.452
  550.816    0.197    0.390  113.340  183.712    6.252
  551.066    0.196    0.400  111.171  183.282    6.103
  551.316    0.173    0.406  108.939  182.119    6.013
  551.566    0.183    0.399  106.213  180.641    5.970
  551.816    0.202    0.406  103.425  179.479    5.838
  552.066    0.193    0.413  101.502  178.313    5.753
  552.316    0.200    0.419  100.074  178.304    5.744
  552.566    0.197    0.404   98.707  178.291    5.756
  552.816    0.169    0.392   96.661  178.280    5.833
  553.066    0.159    0.397   92.513  177.536    5.868
  553.316    0.171    0.400   95.472  176.687    5.858
  553.566    0.181    0.376   98.185  175.734    5.837
  553.816    0.201    0.360  101.144  173.942    5.795
  554.066    0.178    0.379  103.733  173.827    5.764
  554.316    0.171    0.405  106.384  177.059    5.680
  554.566    0.181    0.410  107.180  180.814    5.565
  554.816    0.182    0.385  107.853  181.429    5.525
  555.066    0.157    0.375  109.330  181.103    5.526
  555.316    0.163    0.376  111.980  181.195    5.528
  555.566    0.178    0.381  112.529  181.498    5.508
  555.816    0.192    0.394  112.151  181.697    5.541
  556.066    0.184    0.392  111.774  181.580    5.542
  556.316    0.145    0.402  111.458  181.778    5.430
  556.566    0.161    0.420  111.080  181.869    5.462
  556.816    0.159    0.411  109.652  181.650    5.619
  557.066    0.121    0.401  108.038  181.848    5.868
  557.316    0.129    0.399  107.845  181.940    6.094
  557.566    0.125    0.397  108.456  182.139    6.316
  557.816    0.149    0.395  110.057  182.125    6.425
  558.066    0.142    0.377  112.460  182.115    6.475
  558.316    0.140    0.385  114.616  181.998    6.368
  558.566    0.158    0.405  115.104  181.984    6.204
  558.816    0.175    0.415  114.232  182.183    5.966
  559.066    0.182    0.412  115.769  182.277    5.706
  559.316    0.195    0.404  119.223  182.473    5.507
  559.566    0.188    0.395  122.183  182.776    5.326
  559.816    0.179    0.398  118.838  182.449    5.228
  560.066    0.169    0.407  114.258  181.706    5.152
  560.316    0.188    0.414  104.919  178.136    5.163
  560.566    0.181    0.413   95.704  175.091    5.222
  560.816    0.172    0.410   91.247  174.972    5.312
  561.066    0.174    0.403   92.353  176.218    5.486
  561.316    0.184    0.398   94.447  177.878    5.707
  561.566    0.191    0.404   94.872  178.287    6.107
  561.816    0.175    0.415   93.938  178.589    6.330
  562.066    0.194    0.419   95.043  179.101    6.237
  562.316    0.187    0.407   98.992  178.252    6.157
  562.566    0.196    0.391  102.817  179.078    5.921
  562.816    0.217    0.404  107.260  177.705    5.651
  563.066    0.187    0.398  111.270  176.960    5.394
  563.316    0.176    0.417  113.859  177.786    5.177
  563.566    0.188    0.423  114.779  179.030    4.998
  563.816    0.196    0.418  116.070  180.797    4.943
  564.066    0.191    0.412  118.474  182.041    5.000
  564.316    0.192    0.403  116.859  182.134    5.105
  564.566    0.191    0.394  113.206  182.018    5.203
  564.816    0.178    0.388  108.193  181.796    5.373
  565.066    0.174    0.382  102.933  181.471    5.569
  565.316    0.162    0.374  102.988  181.355    5.697
  565.566    0.178    0.395  105.638  181.134    5.763
  565.816    0.185    0.396  108.474  180.807    5.721
  566.066    0.204    0.381  110.692  180.169    5.637
  566.316    0.195    0.378  111.674  179.215    5.586
  566.566    0.178    0.385  111.791  178.785    5.515
  566.816    0.170    0.402  109.806  178.564    5.454
  567.066    0.161    0.407  110.664  178.656    5.425
  567.316    0.162    0.404  109.916  179.482    5.376
  567.566    0.168    0.393  108.611  180.517    5.327
  567.816    0.182    0.402  108.480  181.550    5.288
  568.066    0.185    0.397  108.906  181.854    5.250
  568.316    0.177    0.390  106.489  181.737    5.202
  568.566    0.178    0.378  106.853  180.990    5.175
  568.816    0.183    0.373  108.268  180.875    5.137
  569.066    0.181    0.387  108.755  180.864    5.110
  569.316    0.166    0.395  108.192  180.748    5.101
  569.566    0.174    0.383  111.337  181.050    5.074
  569.816    0.190    0.371  115.038  181.246    5.037
  570.066    0.190    0.361  114.846  181.652    5.019
  570.316    0.169    0.371  111.131  181.852    4.946
  570.566    0.148    0.399  111.556  182.153    4.910
  570.816    0.157    0.389  106.852  182.352    4.893
  571.066    0.154    0.397  101.097  181.502    4.885
  571.316    0.155    0.391   93.242  177.409    4.941
  571.566    0.157    0.375   85.633  174.467    5.387
  571.816    0.030    0.344   74.996  175.187    6.735
  572.066    0.001    0.208   68.623  175.908   11.109
  572.316    0.017    0.218   74.919  177.049   14.471
  572.566    0.046    0.271   79.795  178.815   17.622
  572.816    0.080    0.340   83.311  178.595   16.883
  573.066    0.097    0.354   87.507  177.535   13.793
  573.316    0.106    0.361   96.152  177.211   10.633
  573.566    0.132    0.369  103.315  178.663    8.935
  573.816    0.178    0.378  100.032  179.908    7.766
  574.066    0.158    0.385   96.812  181.048    6.981
  574.316    0.170    0.390   96.434  180.930    6.346
  574.566    0.187    0.395   97.786  179.663    6.023
  574.816    0.185    0.384  100.128  177.663    5.825
  575.066    0.162    0.377  101.975  175.454    5.707
  575.316    0.183    0.370  104.255  175.024    5.530
  575.566    0.184    0.366  108.883  176.161    5.328
  575.816    0.163    0.375  112.646  177.616    5.191
  576.066    0.180    0.411  106.459  177.919    5.163
  576.316    0.183    0.389   99.406  174.558    5.282
  576.566    0.178    0.377   95.629  176.533    5.495
  576.816    0.158    0.366   92.532  179.348    5.991
  577.066    0.140    0.358   90.919  181.325    6.730
  577.316    0.091    0.317   94.805  181.522    7.379
  577.566    0.140    0.320   99.186  181.719    7.663
  577.816    0.164    0.358  102.825  181.499    7.342
  578.066    0.182    0.375  106.774  182.534    6.699
  578.316    0.205    0.385  110.784  182.731    6.136
  578.566    0.187    0.393  113.497  182.928    5.526
