~VERSION INFORMATION
 VERS.                 2.0:   CWLS LOG ASCII STANDARD -VERSION 2.0
 WRAP.                  NO:   ONE LINE PER DEPTH STEP
~WELL INFORMATION BLOCK
#MNEM.UNIT           DATA                    DESCRIPTION OF MNEMONIC
#---------    -------------------            -------------------------------
# Generated from Intellog Unique Number	CW_76_78/WELL/1028
WELL.         11-27-077-23W4                 : Well_name    - WELL
LOC .         00/11-27-077-23W4/0            : Location     - LOCATION
UWI .         00/11-27-077-23W4/0            : Uwi          - UNIQUE WELL ID
ENTR.         jj                             : Entered      - ENTERED BY
SRVC.         WESTERN ATLAS                  : Scn          - SERVICE COMPANY
DATE.         12 MARCH 67                    : Date         - LOG DATE
STRT.M        472.578                        : top_depth    - START DEPTH
STOP.M        612.828                        : bot_depth    - STOP DEPTH
STEP.M        0.25                           : increment    - STEP LENGTH
 NULL. -999.2500:NULL Value
~CURVE INFORMATION BLOCK
#MNEM UNIT       ERCB CURVE CODE    CURVE DESCRIPTION
#-----------   ------------------   ----------------------------------
DEPT.M        00 001 00 00         : DEPTH        - DEPTH
GR  .API      00 310 00 00         : GR           - GAMMA RAY
DELT.US/F     00 520 00 00         : DELT         - SONIC TRAVEL TIME
ILD .OHMM     00 120 00 00         : RESD         - DEEP RESISTIVITY (DIL)
~PARAMETER INFORMATION
#MNEM.UNIT           DATA             DESCRIPTION OF MNEMONIC
#---------         -----------     ------------------------------
GL  .M        651.571              : gl           - GROUND LEVEL ELEVATION
EREF.M        655.93               : kb           - ELEVATION OF DEPTH REFERENCE
DATM.M        651.571              : datum        - DATUM ELEVATION
TDD .M        613.867              : tdd          - TOTAL DEPTH DRILLER
RUN .         ONE                  : Run          - RUN NUMBER
ENG .         MANLY                : Engineer     - RECORDING ENGINEER
WIT .         SAMIS                : Witness      - WITNESSED BY
MUD .         WATER GEL            : Mud_type     - MUD TYPE
MATR.         SANDSTONE            : Logunit      - NEUTRON MATRIX
TMAX.C        27.2222              : BHT          - MAXIMUM RECORDED TEMPERATURE
BHTD.M        612.648              : BHTDEP       - MAXIMUM RECORDED TEMPERATURE
RMT .C        15.5556              : MDTP         - TEMPERATURE OF MUD
MUDD.KG/M     1176                 : MWT          - MUD DENSITY
NEUT.         1                    : NEUTRON      - NEUTRON TYPE
RESI.         0                    : RESIST       - RESISTIVITY TYPE
RM  .OHMM     3                    : RM           - RESISTIVITY OF MUD
RMC .OHMM     3.32                 : RMC          - RESISTIVITY OF MUD CAKE
RMF .OHMM     2.72                 : RMF          - RESISTIVITY OF MUD FILTRATE
SUFT.C        4.5                  : SUFT         - SURFACE TEMPERATURE
~A  DEPTH       GR     DELT     RESD
# ...
  581.078   47.915  122.029    3.156
  581.328   52.936  121.947    3.161
  581.578   62.529  121.856    3.166
  581.828   70.682  121.568    3.221
  582.078   81.242  121.380    3.277
  582.328   93.001  121.194    3.380
  582.578   99.710  121.105    3.485
  582.828   83.065  121.119    3.590
  583.078   51.254  121.233    3.644
  583.328   35.579  121.550    3.601
  583.578   29.036  122.670    3.508
  583.828   29.489  123.185    3.415
  584.078   33.070  123.202    3.322
  584.328   48.202  123.415    3.179
  584.578   58.521  124.032    3.085
  584.828   70.043  124.047    3.042
  585.078   71.454  124.059    3.042
  585.328   74.550  123.770    3.057
  585.578   80.529  123.685    3.108
  585.828   86.517  123.799    3.213
  586.078   93.948  123.911    3.219
  586.328   87.414  123.826    3.225
  586.578   76.307  123.537    3.380
  586.828   68.092  123.150    3.632
  587.078   59.392  122.860    3.785
  587.328   51.409  122.472    4.037
  587.578   46.327  122.383    4.191
  587.828   40.514  122.801    4.098
  588.078   34.465  123.215    4.005
  588.328   30.097  123.633    3.961
  588.578   32.474  123.345    3.918
  588.828   32.678  122.754    3.973
  589.078   34.330  122.565    3.973
  589.328   35.260  122.481    3.986
  589.578   41.247  122.593    4.038
  589.828   46.990  122.504    4.143
  590.078   46.471  121.713    4.198
  590.328   45.957  120.518    4.254
  590.578   47.372  119.227    4.308
  590.828   50.709  117.931    4.512
  591.078   53.800  116.434    4.814
  591.328   54.493  116.349    5.215
  591.578   43.146  116.349    5.269
  591.828   37.578  116.379    5.226
  592.078   38.989  116.587    5.231
  592.328   51.956  119.017    5.731
  592.578   68.050  120.641    6.230
  592.828   66.569  122.466    7.125
  593.078   57.628  128.318    8.760
  593.328   54.708  133.868   12.124
  593.578   47.451  138.814   15.636
  593.828   44.290  141.647   16.828
  594.078   38.963  143.673   16.735
  594.328   34.598  145.196   16.493
  594.578   42.507  147.125   16.103
  594.828   65.825  148.143   14.776
  595.078   94.674  149.567   10.781
  595.328   98.973  149.277    8.318
  595.578   96.534  147.380    7.336
  595.828   94.094  144.976    6.600
  596.078   92.858  137.944    5.816
  596.328   89.697  126.884    5.280
  596.578   86.532  119.449    5.236
  596.828   82.167  110.301    5.192
  597.078   75.392  106.591    5.147
  597.328   57.784  105.799    4.856
  597.578   50.050  106.115    4.272
  597.828   50.735  107.134    4.078
  598.078   56.245  109.967    4.035
  598.328   83.895  111.391    4.040
  598.578  106.728  111.906    4.096
  598.828  112.707  112.121    4.151
  599.078  106.181  111.633    4.305
  599.328  102.053  110.840    4.410
  599.578  101.058  110.752    4.513
  599.828  100.299  111.573    4.617
  600.078   99.548  110.578    4.772
  600.328   98.071  110.591    4.772
  600.578   95.628  113.525    4.785
  600.828   97.039  118.070    4.787
  601.078   96.284  117.378    4.744
  601.328   93.364  116.485    4.651
  601.578   92.845  114.988    4.410
  601.828   94.260  110.070    4.317
  602.078   93.987  107.364    4.126
  602.328   96.120  106.675    3.982
  602.578   98.012  107.596    3.841
  602.828   97.975  108.616    3.748
  603.078   93.851  109.736    3.703
  603.328   85.155  110.857    3.659
  603.578   79.579  112.178    3.616
  603.828   90.384  113.299    3.622
  604.078  101.906  114.219    3.627
  604.328   95.849  114.219    3.632
  604.578   91.729  114.755    3.639
  604.828   84.232  115.669    3.645
  605.078   75.291  118.198    3.798
  605.328   49.019  119.620    3.854
  605.578   48.505  122.051    3.810
  605.828   54.733  122.166    3.766
  606.078   67.695  120.971    3.870
  606.328   74.405  117.963    3.974
  606.578   79.185  114.354    3.982
  606.828   83.965  111.145    3.887
  607.078   90.193  111.764    3.745
  607.328   95.695  113.690    3.651
  607.578   91.812  116.321    3.460
  607.828   83.352  119.156    3.268
  608.078   84.515  119.771    3.126
  608.328   84.971  120.389    3.033
  608.578   79.399  121.308    2.940
  608.828   75.757  120.417    2.895
  609.078   68.496  118.113    2.852
  609.328   66.061  115.912    2.858
  609.578   65.062  116.026    2.913
  609.828   65.025  116.645    3.018
  610.078   64.755  115.451    3.121
  610.328   64.245  113.047    3.275
  610.578   63.005  111.652    3.775
  610.828   62.731  110.761    4.472
  611.078   64.860  111.179    4.923
  611.328   66.516  111.592    5.421
  611.578   63.836  112.813    6.019
  611.828   62.600  114.136    6.025
  612.078   63.049  112.739    6.032
  612.328   63.252  111.042    5.888
  612.578   62.502  111.157    5.599
  612.828   62.705  110.364    5.554
