~VERSION INFORMATION
 VERS.                 2.0:   CWLS LOG ASCII STANDARD -VERSION 2.0
 WRAP.                  NO:   ONE LINE PER DEPTH STEP
~WELL INFORMATION BLOCK
#MNEM.UNIT           DATA                    DESCRIPTION OF MNEMONIC
#---------    -------------------            -------------------------------
# Generated from Intellog Unique Number	CS_67_68/WELL/851
WELL.         ESSO RESOURCES CANADA LTD      : Well_name    - WELL
LOC .         00/12-18-068-07W4/0            : Location     - LOCATION
UWI .         00/12-18-068-07W4/0            : Uwi          - UNIQUE WELL ID
ENTR.         SP                             : Entered      - ENTERED BY
SRVC.         SCHLUMBERGER                   : Scn          - SERVICE COMPANY
STRT.M        290                            : top_depth    - START DEPTH
STOP.M        525                            : bot_depth    - STOP DEPTH
STEP.M        0.25                           : increment    - STEP LENGTH
 NULL. -999.2500:NULL Value
~CURVE INFORMATION BLOCK
#MNEM UNIT       ERCB CURVE CODE    CURVE DESCRIPTION
#-----------   ------------------   ----------------------------------
DEPT.M        00 001 00 00         : DEPTH        - DEPTH
ILD .OHMM     00 120 00 00         : RESD         - DEEP RESISTIVITY (DIL)
DPHI.V/V      00 890 00 00         : PHID         - DENSITY POROSITY (LIMESTONE)
NPHI.V/V      00 330 00 00         : PHIN         - NEUTRON POROSITY (LIMESTONE)
GR  .API      00 310 00 00         : GR           - GAMMA RAY
~PARAMETER INFORMATION
#MNEM.UNIT           DATA             DESCRIPTION OF MNEMONIC
#---------         -----------     ------------------------------
GL  .M        619.1                : gl           - GROUND LEVEL ELEVATION
EREF.M        623.3                : kb           - ELEVATION OF DEPTH REFERENCE
DATM.M        619.1                : datum        - DATUM ELEVATION
TDD .M        533                  : tdd          - TOTAL DEPTH DRILLER
RUN .         ONE                  : Run          - RUN NUMBER
ENG .         BILL                 : Engineer     - RECORDING ENGINEER
WIT .         JIM                  : Witness      - WITNESSED BY
MUD .         GEL                  : Mud_type     - MUD TYPE
MATR.         LIMESTONE            : Logunit      - NEUTRON MATRIX
TMAX.C        29                   : BHT          - MAXIMUM RECORDED TEMPERATURE
BHTD.M        533                  : BHTDEP       - MAXIMUM RECORDED TEMPERATURE
MATR.         1                    : LOGUNIT      - NEUTRON MATRIX
RMT .C        25                   : MDTP         - TEMPERATURE OF MUD
NEUT.         1                    : NEUTRON      - NEUTRON TYPE
RESI.         0                    : RESIST       - RESISTIVITY TYPE
RMC .OHMM     0.25                 : RMC          - RESISTIVITY OF MUD CAKE
RMF .OHMM     0.25                 : RMF          - RESISTIVITY OF MUD FILTRATE
SUFT.C        15                   : SUFT         - SURFACE TEMPERATURE
~A  DEPTH     RESD     PHID     PHIN       GR
  290.000    2.079    0.284    0.445  105.619
  290.250    2.056    0.280    0.454  104.636
  290.500    2.038    0.279    0.465  106.412
  290.750    2.028    0.291    0.477  106.103
  291.000    2.033    0.285    0.425   98.194
  291.250    2.053    0.277    0.393   99.663
  291.500    2.066    0.277    0.378  100.029
  291.750    2.086    0.205    0.388   96.778
  292.000    2.099    0.191    0.403   95.979
  292.250    2.132    0.198    0.410   96.529
  292.500    2.153    0.247    0.407   97.753
  292.750    2.158    0.259    0.407   98.609
  293.000    2.163    0.262    0.417   99.220
  293.250    2.189    0.262    0.420  100.812
  293.500    2.207    0.264    0.416  103.385
  293.750    2.237    0.269    0.392  100.134
  294.000    2.298    0.268    0.377   97.312
  294.250    2.360    0.256    0.373  102.091
  294.500    2.452    0.254    0.382  107.668
  294.750    2.552    0.258    0.401  103.252
  295.000    2.641    0.259    0.413   99.143
  295.250    2.698    0.250    0.407  102.512
  295.500    2.674    0.240    0.396  106.924
  295.750    2.626    0.236    0.391  108.332
  296.000    2.588    0.231    0.390   97.725
  296.250    2.555    0.229    0.419   92.574
  296.500    2.504    0.235    0.427   93.737
  296.750    2.464    0.242    0.442  104.339
  297.000    2.433    0.245    0.436  109.303
  297.250    2.415    0.246    0.430  112.366
  297.500    2.421    0.251    0.439  112.609
  297.750    2.427    0.245    0.429  106.845
  298.000    2.433    0.242    0.422  102.000
  298.250    2.448    0.247    0.413  100.589
  298.500    2.472    0.247    0.407  108.617
  298.750    2.497    0.245    0.418  108.554
  299.000    2.527    0.242    0.435  105.548
  299.250    2.547    0.259    0.413  104.013
  299.500    2.548    0.271    0.392  104.196
  299.750    2.549    0.279    0.378  105.787
  300.000    2.532    0.268    0.375  106.827
  300.250    2.524    0.267    0.380  106.703
  300.500    2.525    0.274    0.379  109.705
  300.750    2.460    0.265    0.370  115.158
  301.000    2.416    0.262    0.360  120.060
  301.250    2.417    0.261    0.356  112.151
  301.500    2.516    0.269    0.384  107.796
  301.750    2.719    0.286    0.402  109.879
  302.000    3.028    0.300    0.415  104.114
  302.250    3.353    0.202    0.431   93.508
  302.500    3.820    0.134    0.398   81.736
  302.750    4.239    0.082    0.384   73.520
  303.000    4.495    0.124    0.373   69.779
  303.250    4.750    0.216    0.361   80.136
  303.500    4.842    0.288    0.377   82.280
  303.750    4.845    0.293    0.382   88.469
  304.000    4.820    0.285    0.376   96.804
  304.250    4.786    0.276    0.365  103.300
  304.500    4.726    0.268    0.355   84.724
  304.750    4.649    0.261    0.369   76.385
  305.000    4.574    0.261    0.398   73.380
  305.250    4.508    0.300    0.417   65.654
  305.500    4.459    0.322    0.421   54.373
  305.750    4.453    0.328    0.391   39.659
  306.000    4.489    0.327    0.371   35.243
  306.250    4.525    0.318    0.368   42.474
  306.500    4.545    0.306    0.369   45.967
  306.750    4.556    0.302    0.369   49.459
  307.000    4.558    0.317    0.378   53.809
  307.250    4.535    0.308    0.390   50.742
  307.500    4.369    0.306    0.390   49.576
  307.750    4.388    0.308    0.377   60.853
  308.000    4.423    0.295    0.366   72.130
  308.250    4.459    0.287    0.358   79.423
  308.500    4.546    0.297    0.361   80.585
  308.750    4.705    0.307    0.375   75.067
  309.000    4.860    0.288    0.393   76.597
  309.250    4.992    0.273    0.402   83.645
  309.500    5.129    0.256    0.385   93.450
  309.750    5.151    0.245    0.368   96.513
  310.000    5.076    0.239    0.352   95.898
  310.250    5.031    0.241    0.375   97.613
  310.500    5.015    0.241    0.400   98.714
  310.750    5.036    0.260    0.419   98.896
  311.000    5.077    0.273    0.435   96.504
  311.250    5.070    0.283    0.430   91.168
  311.500    4.950    0.280    0.420   87.489
  311.750    4.770    0.261    0.416   93.494
  312.000    4.666    0.251    0.412   99.377
  312.250    4.616    0.240    0.410  104.033
  312.500    4.584    0.253    0.408   96.860
  312.750    4.577    0.247    0.412   89.808
  313.000    4.545    0.241    0.418   88.151
  313.250    4.472    0.270    0.423   89.007
  313.500    4.374    0.299    0.429   81.710
  313.750    4.359    0.316    0.432   75.395
  314.000    4.428    0.334    0.442   74.412
  314.250    4.447    0.324    0.454   76.310
  314.500    4.466    0.316    0.461   76.676
  314.750    4.510    0.332    0.462   67.479
  315.000    4.564    0.339    0.447   62.328
  315.250    4.592    0.332    0.435   68.027
  315.500    4.646    0.326    0.429   74.891
  315.750    4.818    0.323    0.429   78.199
  316.000    4.977    0.332    0.411   77.891
  316.250    5.141    0.345    0.404   85.735
  316.500    5.067    0.420    0.404   93.579
  316.750    4.994    0.374    0.440   97.745
  317.000    4.988    0.329    0.464   95.598
  317.250    4.990    0.312    0.463   77.574
  317.500    5.021    0.308    0.447   68.561
  317.750    5.023    0.312    0.436   62.735
  318.000    5.026    0.311    0.425   63.837
  318.250    4.990    0.308    0.419   66.899
  318.500    4.845    0.305    0.412   68.185
  318.750    4.625    0.310    0.405   68.183
  319.000    4.490    0.290    0.406   77.683
  319.250    4.409    0.273    0.418   83.872
  319.500    4.386    0.266    0.456   88.161
  319.750    4.438    0.282    0.476   89.875
  320.000    4.619    0.326    0.460   84.479
  320.250    4.945    0.468    0.487   70.194
  320.500    5.335    0.433    0.512   59.955
  320.750    5.733    0.373    0.502   65.899
  321.000    5.978    0.349    0.488   71.782
  321.250    6.027    0.335    0.482   73.435
  321.500    5.884    0.325    0.467   70.429
  321.750    5.659    0.320    0.425   69.263
  322.000    5.567    0.324    0.422   69.874
  322.250    5.508    0.328    0.420   71.343
  322.500    5.490    0.332    0.418   72.200
  322.750    5.431    0.333    0.434   74.588
  323.000    5.362    0.332    0.434   72.809
  323.250    5.275    0.330    0.425   74.278
  323.500    5.208    0.326    0.416   81.754
  323.750    5.201    0.325    0.399   88.556
  324.000    5.194    0.325    0.388   92.478
  324.250    5.217    0.317    0.384   92.231
  324.500    5.229    0.309    0.385   91.493
  324.750    5.272    0.304    0.410   77.944
  325.000    5.314    0.300    0.407   65.498
  325.250    5.346    0.303    0.398   60.899
  325.500    5.390    0.307    0.400   56.422
  325.750    5.362    0.295    0.403   69.477
  326.000    5.354    0.288    0.404   81.122
  326.250    5.347    0.304    0.431   81.303
  326.500    5.330    0.317    0.443   78.175
  326.750    5.303    0.309    0.448   79.889
  327.000    5.285    0.298    0.432   84.976
  327.250    5.239    0.293    0.413   87.793
  327.500    5.231    0.299    0.396   86.872
  327.750    5.244    0.305    0.400   82.517
  328.000    5.306    0.303    0.414   79.757
  328.250    5.441    0.289    0.422   81.288
  328.500    5.567    0.282    0.424   85.822
  328.750    5.773    0.282    0.420   84.165
  329.000    5.919    0.294    0.414   79.933
  329.250    6.068    0.292    0.398   77.112
  329.500    6.129    0.237    0.385   77.968
  329.750    6.178    0.257    0.376   79.498
  330.000    5.976    0.273    0.381   79.558
  330.250    5.791    0.278    0.398   79.923
  330.500    5.653    0.280    0.415   83.415
  330.750    5.572    0.286    0.424   87.398
  331.000    5.564    0.296    0.424   89.174
  331.250    5.662    0.300    0.424   85.739
  331.500    5.872    0.301    0.416   79.484
  331.750    6.076    0.301    0.406   71.268
  332.000    6.277    0.278    0.415   66.485
  332.250    6.375    0.242    0.435   69.425
  332.500    6.463    0.224    0.448   71.262
  332.750    6.577    0.250    0.443   66.295
  333.000    6.555    0.304    0.438   62.615
  333.250    6.199    0.302    0.425   69.356
