~VERSION INFORMATION
 VERS.                 2.0:   CWLS LOG ASCII STANDARD -VERSION 2.0
 WRAP.                  NO:   ONE LINE PER DEPTH STEP
~WELL INFORMATION BLOCK
#MNEM.UNIT           DATA                    DESCRIPTION OF MNEMONIC
#---------    -------------------            -------------------------------
# Generated from Intellog Unique Number	CW_79_81/WELL/2491
WELL.         14-17-081-24W4                 : Well_name    - WELL
LOC .         00/14-17-081-24W4/0            : Location     - LOCATION
UWI .         00/14-17-081-24W4/0            : Uwi          - UNIQUE WELL ID
ENTR.         MAX                            : Entered      - ENTERED BY
SRVC.         WESTERN ATLAS                  : Scn          - SERVICE COMPANY
STRT.M        215                            : top_depth    - START DEPTH
STOP.M        459.75                         : bot_depth    - STOP DEPTH
STEP.M        0.25                           : increment    - STEP LENGTH
 NULL. -999.2500:NULL Value
~CURVE INFORMATION BLOCK
#MNEM UNIT       ERCB CURVE CODE    CURVE DESCRIPTION
#-----------   ------------------   ----------------------------------
DEPT.M        00 001 00 00         : DEPTH        - DEPTH
ILD .OHMM     00 120 00 00         : RESD         - DEEP RESISTIVITY (DIL)
NPHI.V/V      00 330 00 00         : PHIN         - NEUTRON POROSITY (SANDSTONE)
DPHI.V/V      00 890 00 00         : PHID         - DENSITY POROSITY (SANDSTONE)
GR  .API      00 310 00 00         : GR           - GAMMA RAY
CALI.MM       00 280 01 00         : CAL          - CALIPER
~PARAMETER INFORMATION
#MNEM.UNIT           DATA             DESCRIPTION OF MNEMONIC
#---------         -----------     ------------------------------
GL  .M        602.08               : gl           - GROUND LEVEL ELEVATION
EREF.M        605.78               : kb           - ELEVATION OF DEPTH REFERENCE
DATM.M        602.08               : datum        - DATUM ELEVATION
TDD .M        462                  : tdd          - TOTAL DEPTH DRILLER
RUN .         ONE                  : Run          - RUN NUMBER
ENG .         BILL                 : Engineer     - RECORDING ENGINEER
WIT .         JIM                  : Witness      - WITNESSED BY
MUD .         GEL                  : Mud_type     - MUD TYPE
MATR.         SANDSTONE            : Logunit      - NEUTRON MATRIX
TMAX.C        22                   : BHT          - MAXIMUM RECORDED TEMPERATURE
BHTD.M        462                  : BHTDEP       - MAXIMUM RECORDED TEMPERATURE
MATR.         1                    : LOGUNIT      - NEUTRON MATRIX
RMT .C        13                   : MDTP         - TEMPERATURE OF MUD
NEUT.         1                    : NEUTRON      - NEUTRON TYPE
RESI.         0                    : RESIST       - RESISTIVITY TYPE
RMC .OHMM     4.2                  : RMC          - RESISTIVITY OF MUD CAKE
RMF .OHMM     2.5                  : RMF          - RESISTIVITY OF MUD FILTRATE
SUFT.C        -20                  : SUFT         - SURFACE TEMPERATURE
~A  DEPTH     RESD     PHIN     PHID       GR      CAL
# ...
  251.500    2.898    0.404    0.245   98.297  220.557
  251.750    2.897    0.415    0.244   99.939  221.163
  252.000    2.887    0.428    0.249  103.385  221.865
  252.250    2.836    0.447    0.254  103.382  222.280
  252.500    2.793    0.444    0.250  100.974  222.301
  252.750    2.793    0.443    0.250  101.220  220.775
  253.000    2.808    0.431    0.251  101.467  220.699
  253.250    2.899    0.436    0.251  101.713  220.914
  253.500    3.090    0.462    0.249  101.725  221.033
  253.750    3.464    0.466    0.242   99.537  221.608
  254.000    4.171    0.414    0.223   92.038  222.441
  254.250    4.814    0.374    0.212   85.536  222.076
  254.500    5.875    0.367    0.222   79.210  221.127
  254.750    7.348    0.363    0.245   74.220  220.567
  255.000    9.293    0.357    0.279   69.403  220.591
  255.250   13.186    0.366    0.324   60.306  220.621
  255.500   18.467    0.387    0.322   55.472  220.640
  255.750   21.162    0.389    0.322   55.021  219.497
  256.000   23.420    0.383    0.324   54.220  219.522
  256.250   25.213    0.379    0.328   54.699  219.741
  256.500   26.779    0.380    0.332   56.399  219.665
  256.750   29.235    0.378    0.334   57.480  219.381
  257.000   32.809    0.375    0.325   57.011  219.811
  257.250   37.069    0.382    0.320   58.421  220.611
  257.500   42.574    0.396    0.326   58.434  220.823
  257.750   50.229    0.396    0.331   58.099  220.844
  258.000   59.731    0.379    0.331   58.113  221.063
  258.250   66.834    0.363    0.331   58.826  222.023
  258.500   69.964    0.373    0.335   58.839  222.854
  258.750   72.025    0.373    0.330   58.387  223.271
  259.000   72.554    0.374    0.325   57.934  223.387
  259.250   71.217    0.376    0.323   57.133  223.406
  259.500   69.049    0.377    0.326   56.507  223.429
  259.750   67.623    0.379    0.333   57.889  223.377
  260.000   65.595    0.376    0.332   60.086  222.992
  260.250   62.762    0.373    0.335   59.866  222.626
  260.500   59.388    0.383    0.336   60.344  222.554
  260.750   56.863    0.393    0.322   61.056  222.577
  261.000   54.267    0.392    0.303   61.534  222.696
  261.250   49.175    0.365    0.321   60.735  223.190
  261.500   48.063    0.347    0.333   57.840  223.620
  261.750   50.200    0.344    0.294   55.295  222.093
  262.000   48.007    0.356    0.292   59.206  221.434
  262.250   44.103    0.369    0.301   65.967  221.454
  262.500   39.965    0.372    0.302   73.367  222.156
  262.750   35.922    0.356    0.280   80.743  223.817
  263.000   36.194    0.334    0.237   81.484  224.242
  263.250   38.908    0.299    0.143   72.655  224.265
  263.500   42.724    0.269    0.093   66.444  224.287
  263.750   45.869    0.241    0.048   61.571  224.309
  264.000   44.356    0.220    0.009   58.036  224.331
  264.250   34.629    0.222    0.041   57.218  224.273
  264.500   29.591    0.257    0.126   57.718  223.892
  264.750   25.889    0.337    0.240   65.409  223.527
  265.000   24.827    0.363    0.254   67.515  223.454
  265.250   24.735    0.362    0.247   71.950  223.476
  265.500   25.049    0.357    0.253   81.155  223.691
  265.750   26.135    0.366    0.275   90.849  224.575
  266.000   27.998    0.395    0.282   84.558  225.005
  266.250   31.411    0.410    0.295   70.842  225.413
  266.500   34.367    0.416    0.303   64.283  226.112
  266.750   37.495    0.408    0.317   60.340  226.909
  267.000   41.181    0.393    0.332   56.339  227.513
  267.250   46.517    0.384    0.308   51.858  227.459
  267.500   56.009    0.355    0.170   53.809  227.079
  267.750   63.283    0.324    0.133   52.427  225.552
  268.000   68.652    0.310    0.146   52.616  224.895
  268.250   71.515    0.332    0.232   53.561  224.528
  268.500   72.034    0.373    0.340   54.040  224.259
  268.750   70.656    0.385    0.352   52.281  224.446
  269.000   69.060    0.389    0.347   51.567  225.280
  269.250   66.076    0.397    0.346   52.744  225.300
  269.500   62.877    0.398    0.345   54.794  225.324
  269.750   60.640    0.398    0.346   55.855  225.346
  270.000   59.542    0.400    0.348   55.461  225.271
  270.250   59.012    0.396    0.347   54.641  224.831
  270.500   58.561    0.381    0.342   55.140  224.445
  270.750   56.446    0.372    0.340   55.620  224.468
  271.000   53.504    0.366    0.340   57.145  224.199
  271.250   51.038    0.364    0.337   58.204  224.028
  271.500   48.831    0.367    0.333   58.101  224.148
  271.750   45.027    0.373    0.332   56.422  224.566
  272.000   41.748    0.373    0.333   53.768  224.591
  272.250   41.139    0.375    0.334   53.317  224.609
  272.500   42.340    0.379    0.335   54.087  224.921
  272.750   45.165    0.383    0.337   53.985  225.137
  273.000   48.903    0.387    0.341   52.834  225.061
  273.250   51.790    0.389    0.348   52.433  224.541
  273.500   53.392    0.382    0.356   52.691  223.757
  273.750   54.964    0.376    0.354   52.003  223.389
  274.000   56.891    0.374    0.353   52.193  223.316
  274.250   59.420    0.374    0.351   52.439  223.338
  274.500   62.758    0.373    0.344   52.277  223.359
  274.750   68.136    0.371    0.328   51.594  223.386
  275.000   74.128    0.367    0.319   51.608  223.407
  275.250   82.579    0.356    0.324   50.925  223.043
  275.500   86.396    0.330    0.310   49.540  222.677
  275.750   80.537    0.305    0.246   48.041  222.504
  276.000   68.131    0.297    0.174   47.706  222.527
  276.250   54.403    0.336    0.226   50.805  222.476
  276.500   48.236    0.380    0.348   52.272  222.096
  276.750   45.812    0.389    0.351   54.614  222.116
  277.000   43.762    0.396    0.346   55.209  222.427
  277.250   42.040    0.404    0.341   54.756  223.031
  277.500   40.300    0.412    0.340   54.011  223.540
  277.750   37.671    0.410    0.344   54.134  222.939
  278.000   35.995    0.400    0.351   55.845  221.746
  278.250   32.209    0.393    0.353   56.789  220.995
  278.500   28.841    0.390    0.352   57.385  220.531
  278.750   24.610    0.385    0.345   59.029  220.359
  279.000   17.596    0.378    0.334   60.612  220.477
  279.250   10.069    0.381    0.293   58.969  221.214
  279.500    9.062    0.393    0.159   61.165  222.858
  279.750    9.741    0.397    0.214   63.041  223.652
  280.000   13.571    0.403    0.287   63.170  224.158
  280.250   19.442    0.405    0.331   62.368  224.374
  280.500   22.858    0.400    0.338   61.392  224.300
  280.750   25.879    0.397    0.335   60.847  223.939
  281.000   24.727    0.415    0.340   60.375  223.963
  281.250   12.042    0.438    0.340   59.459  223.983
  281.500    7.522    0.428    0.338   59.414  224.005
  281.750    5.127    0.406    0.331   61.870  223.834
  282.000    3.804    0.392    0.319   66.827  223.471
  282.250    3.134    0.413    0.304   73.339  223.032
  282.500    3.110    0.445    0.307   76.747  222.649
  282.750    3.202    0.445    0.273   74.199  222.671
  283.000    3.261    0.419    0.244   72.876  222.694
  283.250    3.236    0.397    0.228   71.843  223.103
  283.500    3.119    0.395    0.225   71.100  223.996
  283.750    2.920    0.410    0.232   72.307  225.267
  284.000    2.811    0.423    0.263   75.959  225.695
  284.250    2.791    0.436    0.271   79.463  225.715
  284.500    2.785    0.442    0.276   82.790  225.448
  284.750    2.785    0.449    0.278   84.665  225.280
  285.000    2.785    0.457    0.278   84.969  225.304
  285.250    2.780    0.464    0.282   84.849  225.244
  285.500    2.759    0.452    0.284   85.347  224.866
  285.750    2.719    0.458    0.265   80.706  224.496
  286.000    2.664    0.467    0.292   81.302  224.711
  286.250    2.625    0.469    0.308   82.015  225.316
  286.500    2.620    0.463    0.299   81.041  225.922
  286.750    2.687    0.465    0.302   79.795  225.948
  287.000    2.834    0.467    0.310   79.323  225.978
  287.250    3.003    0.463    0.315   78.637  225.611
  287.500    3.302    0.452    0.303   78.478  225.532
  287.750    3.890    0.439    0.286   78.724  225.553
