~VERSION INFORMATION
 VERS.                 2.0:   CWLS LOG ASCII STANDARD -VERSION 2.0
 WRAP.                  NO:   ONE LINE PER DEPTH STEP
~WELL INFORMATION BLOCK
#MNEM.UNIT           DATA                    DESCRIPTION OF MNEMONIC
#---------    -------------------            -------------------------------
# Generated from Intellog Unique Number	CS_73_76/WELL/2184
WELL.         BOW VALLEY EXPLORATION         : Well_name    - WELL
LOC .         00/10-06-074-15W4/0            : Location     - LOCATION
UWI .         00/10-06-074-15W4/0            : Uwi          - UNIQUE WELL ID
ENTR.         SP                             : Entered      - ENTERED BY
SRVC.         SCHLUMBERGER                   : Scn          - SERVICE COMPANY
STRT.M        286.512                        : top_depth    - START DEPTH
STOP.M        493.512                        : bot_depth    - STOP DEPTH
STEP.M        0.25                           : increment    - STEP LENGTH
 NULL. -999.2500:NULL Value
~CURVE INFORMATION BLOCK
#MNEM UNIT       ERCB CURVE CODE    CURVE DESCRIPTION
#-----------   ------------------   ----------------------------------
DEPT.M        00 001 00 00         : DEPTH        - DEPTH
GR  .API      00 310 00 00         : GR           - GAMMA RAY
DPHI.V/V      00 890 00 00         : PHID         - DENSITY POROSITY (SANDSTONE)
NPHI.V/V      00 330 00 00         : PHIN         - NEUTRON POROSITY (SANDSTONE)
ILD .OHMM     00 120 00 00         : RESD         - DEEP RESISTIVITY (DIL)
~PARAMETER INFORMATION
#MNEM.UNIT           DATA             DESCRIPTION OF MNEMONIC
#---------         -----------     ------------------------------
GL  .M        10                   : gl           - GROUND LEVEL ELEVATION
EREF.M        637.337              : kb           - ELEVATION OF DEPTH REFERENCE
DATM.M        10                   : datum        - DATUM ELEVATION
TDD .M        484.327              : tdd          - TOTAL DEPTH DRILLER
RUN .         ONE                  : Run          - RUN NUMBER
ENG .         BILL                 : Engineer     - RECORDING ENGINEER
WIT .         JIM                  : Witness      - WITNESSED BY
MUD .         GEL                  : Mud_type     - MUD TYPE
MATR.         SANDSTONE            : Logunit      - NEUTRON MATRIX
TMAX.C        22.2222              : BHT          - MAXIMUM RECORDED TEMPERATURE
BHTD.M        469.087              : BHTDEP       - MAXIMUM RECORDED TEMPERATURE
MATR.         1                    : LOGUNIT      - NEUTRON MATRIX
RMT .C        25                   : MDTP         - TEMPERATURE OF MUD
NEUT.         1                    : NEUTRON      - NEUTRON TYPE
RESI.         0                    : RESIST       - RESISTIVITY TYPE
RMC .OHMM     0.25                 : RMC          - RESISTIVITY OF MUD CAKE
RMF .OHMM     0.25                 : RMF          - RESISTIVITY OF MUD FILTRATE
SUFT.C        15                   : SUFT         - SURFACE TEMPERATURE
~A  DEPTH       GR     PHID     PHIN     RESD
# ...
  373.512   96.551    0.247    0.554    3.561
  373.762   95.708    0.260    0.588    3.264
  374.012   93.866    0.282    0.561    3.229
  374.262   86.889    0.301    0.507    3.697
  374.512   80.651    0.321    0.489    4.551
  374.762   76.899    0.298    0.490    5.389
  375.012   76.028    0.299    0.491    6.372
  375.262   75.268    0.300    0.503    7.039
  375.512   76.987    0.316    0.511    7.197
  375.762   77.925    0.323    0.494    7.118
  376.012   77.448    0.332    0.478    7.098
  376.262   71.315    0.333    0.469    7.183
  376.512   69.103    0.320    0.477    7.563
  376.762   70.875    0.306    0.478    7.821
  377.012   73.927    0.288    0.458    8.599
  377.262   75.986    0.298    0.450    9.219
  377.512   75.844    0.321    0.447   10.634
  377.762   74.483    0.307    0.436   11.963
  378.012   72.637    0.295    0.430   13.133
  378.262   72.358    0.300    0.461   13.669
  378.512   72.607    0.294    0.459   12.967
  378.762   75.126    0.308    0.468   11.410
  379.012   74.828    0.318    0.481   10.211
  379.262   73.779    0.322    0.473    9.142
  379.512   73.440    0.316    0.472    8.379
  379.762   71.441    0.309    0.472    8.170
  380.012   68.933    0.317    0.462    7.992
  380.262   69.499    0.320    0.456    8.202
  380.512   69.566    0.319    0.467    8.596
  380.762   67.980    0.310    0.461    8.853
  381.012   67.102    0.311    0.461    9.123
  381.262   68.592    0.316    0.466    9.270
  381.512   69.745    0.322    0.469    9.470
  381.762   70.129    0.312    0.472    9.448
  382.012   69.835    0.310    0.452    9.352
  382.262   68.982    0.301    0.435    9.073
  382.512   67.858    0.300    0.429    8.637
  382.762   65.673    0.266    0.407    8.683
  383.012   62.159    0.218    0.325    9.166
  383.262   61.180    0.107    0.277    9.723
  383.512   62.530    0.148    0.326   10.172
  383.762   66.271    0.244    0.394   10.361
  384.012   65.952    0.274    0.413   10.209
  384.262   63.447    0.268    0.357    9.896
  384.512   60.062    0.166    0.256    9.794
  384.762   58.436    0.032    0.178   10.358
  385.012   59.622   -0.000    0.164   11.440
  385.262   62.430    0.000    0.223   12.147
  385.512   67.384    0.016    0.346   13.332
  385.762   71.561    0.080    0.415   13.326
  386.012   75.541    0.155    0.448   11.724
  386.262   76.061    0.304    0.456    9.759
  386.512   75.832    0.305    0.457    8.547
  386.762   78.335    0.307    0.473    7.821
  387.012   81.211    0.313    0.474    7.460
  387.262   81.081    0.299    0.462    7.719
  387.512   80.620    0.279    0.461    8.321
  387.762   80.263    0.272    0.458    9.177
  388.012   81.762    0.282    0.457    9.586
  388.262   83.725    0.286    0.473    9.967
  388.512   85.500    0.289    0.455    9.923
  388.762   84.860    0.283    0.454    9.447
  389.012   84.169    0.287    0.459    8.906
  389.262   84.240    0.287    0.465    8.204
  389.512   84.088    0.281    0.456    7.738
  389.762   87.928    0.268    0.475    7.293
  390.012   90.403    0.248    0.489    6.721
  390.262   92.942    0.225    0.493    6.413
  390.512   94.528    0.222    0.479    6.421
  390.762   94.435    0.229    0.471    6.760
  391.012   89.113    0.224    0.460    7.128
  391.262   81.781    0.241    0.434    7.866
  391.512   76.076    0.255    0.380    9.515
  391.762   72.435    0.226    0.288   10.993
  392.012   71.519    0.139    0.267   13.180
  392.262   73.516    0.224    0.359   15.034
  392.512   73.045    0.256    0.445   15.769
  392.762   67.266    0.278    0.473   13.332
  393.012   64.484    0.291    0.470   12.049
  393.262   62.089    0.282    0.457   11.320
  393.512   63.671    0.279    0.454   10.656
  393.762   66.497    0.281    0.463   10.333
  394.012   65.339    0.279    0.469   10.295
  394.262   62.939    0.275    0.476   10.289
  394.512   62.834    0.282    0.467   10.287
  394.762   65.492    0.286    0.444   10.282
  395.012   67.758    0.290    0.440   10.293
  395.262   66.244    0.284    0.441   10.094
  395.512   63.274    0.287    0.443    9.869
  395.762   62.386    0.293    0.448    9.579
  396.012   64.286    0.288    0.447    9.277
  396.262   68.593    0.287    0.454    9.191
  396.512   68.125    0.288    0.461    9.036
  396.762   67.182    0.289    0.451    9.166
  397.012   67.896    0.294    0.454    9.373
  397.262   69.453    0.300    0.466    9.685
  397.512   71.297    0.293    0.456    9.725
  397.762   72.638    0.275    0.448    9.549
  398.012   75.001    0.286    0.451    9.390
  398.262   77.306    0.289    0.454    8.973
  398.512   78.755    0.297    0.455    8.586
  398.762   78.495    0.291    0.456    8.158
  399.012   81.228    0.296    0.461    7.755
  399.262   82.721    0.289    0.462    7.539
  399.512   83.157    0.274    0.460    7.326
  399.762   82.810    0.271    0.457    6.965
  400.012   81.263    0.281    0.473    6.895
  400.262   80.317    0.293    0.477    6.722
  400.512   79.358    0.285    0.491    6.598
  400.762   80.823    0.289    0.494    6.600
  401.012   83.965    0.292    0.486    6.597
  401.262   85.333    0.299    0.477    6.596
  401.512   86.241    0.281    0.471    6.595
  401.762   83.141    0.276    0.467    6.598
  402.012   81.059    0.274    0.478    6.491
  402.262   85.122    0.272    0.495    6.241
  402.512   90.093    0.273    0.497    5.997
  402.762   96.816    0.257    0.520    5.422
  403.012  104.302    0.225    0.543    4.604
  403.262  106.365    0.212    0.535    4.138
  403.512  105.333    0.201    0.543    3.453
  403.762  105.372    0.211    0.558    3.232
  404.012  106.393    0.195    0.549    3.157
  404.262  106.792    0.210    0.527    3.295
  404.512  104.980    0.210    0.528    3.441
  404.762  104.767    0.228    0.503    3.981
  405.012  101.565    0.214    0.479    4.274
  405.262   99.036    0.229    0.466    4.699
  405.512   97.119    0.234    0.468    5.238
  405.762   96.274    0.214    0.477    5.623
  406.012   96.264    0.214    0.471    5.908
  406.262   94.984    0.220    0.457    6.208
  406.512   96.574    0.222    0.449    6.178
  406.762   98.801    0.216    0.462    6.108
  407.012   98.755    0.209    0.469    5.872
  407.262   96.173    0.222    0.476    5.887
  407.512   94.669    0.220    0.478    5.888
  407.762   94.739    0.231    0.485    5.888
  408.012   98.749    0.224    0.490    5.891
  408.262  101.203    0.217    0.485    5.790
  408.512   99.656    0.225    0.499    5.779
  408.762   98.793    0.241    0.503    5.774
  409.012   99.864    0.259    0.514    5.863
  409.262  100.043    0.260    0.516    5.870
  409.512   96.373    0.254    0.510    5.995
  409.762   94.634    0.255    0.486    5.907
  410.012   91.193    0.286    0.480    5.874
  410.262   89.973    0.281    0.471    5.986
  410.512   92.133    0.260    0.468    5.985
  410.762   93.704    0.239    0.475    5.986
  411.012   94.671    0.238    0.478    5.986
  411.262   95.271    0.217    0.493    5.996
  411.512   92.175    0.226    0.492    5.864
  411.762   90.236    0.235    0.482    5.889
  412.012   89.666    0.239    0.482    5.865
  412.262   89.980    0.240    0.494    5.863
  412.512   87.912    0.223    0.501    5.874
  412.762   86.578    0.232    0.481    5.871
  413.012   82.879    0.249    0.464    5.870
  413.262   81.013    0.251    0.489    5.948
  413.512   79.466    0.272    0.486    6.005
  413.762   75.987    0.289    0.473    6.090
  414.012   72.680    0.283    0.459    6.155
  414.262   70.855    0.291    0.444    6.191
  414.512   69.894    0.298    0.454    6.302
  414.762   69.792    0.290    0.473    6.309
  415.012   70.428    0.296    0.469    6.311
  415.262   69.989    0.306    0.459    6.313
  415.512   67.562    0.303    0.460    6.350
  415.762   65.052    0.290    0.451    6.553
  416.012   63.262    0.299    0.443    6.753
  416.262   62.150    0.289    0.430    6.955
  416.512   62.169    0.297    0.416    7.302
  416.762   61.829    0.304    0.386    8.259
