~VERSION INFORMATION
 VERS.                 2.0:   CWLS LOG ASCII STANDARD -VERSION 2.0
 WRAP.                  NO:   ONE LINE PER DEPTH STEP
~WELL INFORMATION BLOCK
#MNEM.UNIT           DATA                    DESCRIPTION OF MNEMONIC
#---------    -------------------            -------------------------------
# Generated from Intellog Unique Number	CS_71_72/WELL/1040
WELL.         BVX SUNDANCE LYLE              : Well_name    - WELL
LOC .         00/10-23-072-17W4/0            : Location     - LOCATION
UWI .         00/10-23-072-17W4/0            : Uwi          - UNIQUE WELL ID
ENTR.         TIM                            : Entered      - ENTERED BY
SRVC.         SCHLUMBERGER                   : Scn          - SERVICE COMPANY
STRT.M        243.84                         : top_depth    - START DEPTH
STOP.M        432.84                         : bot_depth    - STOP DEPTH
STEP.M        0.25                           : increment    - STEP LENGTH
 NULL. -999.2500:NULL Value
~CURVE INFORMATION BLOCK
#MNEM UNIT       ERCB CURVE CODE    CURVE DESCRIPTION
#-----------   ------------------   ----------------------------------
DEPT.M        00 001 00 00         : DEPTH        - DEPTH
ILD .OHMM     00 120 00 00         : RESD         - DEEP RESISTIVITY (DIL)
DPHI.V/V      00 890 00 00         : PHID         - DENSITY POROSITY (SANDSTONE)
GR  .API      00 310 00 00         : GR           - GAMMA RAY
~PARAMETER INFORMATION
#MNEM.UNIT           DATA             DESCRIPTION OF MNEMONIC
#---------         -----------     ------------------------------
GL  .M        560.832              : gl           - GROUND LEVEL ELEVATION
EREF.M        563.88               : kb           - ELEVATION OF DEPTH REFERENCE
DATM.M        563.88               : datum        - DATUM ELEVATION
TDD .M        434.645              : tdd          - TOTAL DEPTH DRILLER
RUN .         ONE                  : Run          - RUN NUMBER
ENG .         BILL                 : Engineer     - RECORDING ENGINEER
WIT .         JIM                  : Witness      - WITNESSED BY
MUD .         GEL                  : Mud_type     - MUD TYPE
MATR.         SANDSTONE            : Logunit      - NEUTRON MATRIX
TMAX.C        26.6667              : BHT          - MAXIMUM RECORDED TEMPERATURE
BHTD.M        434.34               : BHTDEP       - MAXIMUM RECORDED TEMPERATURE
RMT .C        17                   : MDTP         - TEMPERATURE OF MUD
MUDD.KG/M     9041.66              : MWT          - MUD DENSITY
NEUT.         1                    : NEUTRON      - NEUTRON TYPE
RESI.         0                    : RESIST       - RESISTIVITY TYPE
RM  .OHMM     3.1                  : RM           - RESISTIVITY OF MUD
RMC .OHMM     3.7                  : RMC          - RESISTIVITY OF MUD CAKE
RMF .OHMM     2.5                  : RMF          - RESISTIVITY OF MUD FILTRATE
SUFT.C        4                    : SUFT         - SURFACE TEMPERATURE
~A  DEPTH     RESD     PHID       GR
# ...
  352.340    2.227    0.242   92.930
  352.590    2.158    0.236   95.440
  352.840    2.166    0.230  100.401
  353.090    2.336    0.226  100.500
  353.340    2.582    0.221   98.755
  353.590    2.910    0.213   99.462
  353.840    2.996    0.217   99.521
  354.090    3.243    0.222  100.227
  354.340    3.489    0.224  100.267
  354.590    3.898    0.225   97.307
  354.840    3.906    0.214   91.328
  355.090    4.076    0.205   88.349
  355.340    4.168    0.192   85.996
  355.590    4.254    0.185   89.134
  355.840    4.264    0.195   92.859
  356.090    4.274    0.209   94.762
  356.340    4.287    0.206   94.821
  356.590    4.218    0.211   90.646
  356.840    4.150    0.218   88.901
  357.090    4.079    0.227   88.373
  357.340    4.013    0.231   88.491
  357.590    3.865    0.227   88.590
  357.840    3.794    0.223   88.021
  358.090    3.730    0.226   87.493
  358.340    3.657    0.232   86.983
  358.590    3.667    0.233   87.043
  358.840    3.527    0.231   87.141
  359.090    3.532    0.221   87.201
  359.340    3.540    0.210   87.319
  359.590    3.471    0.206   87.358
  359.840    3.484    0.222   86.830
  360.090    3.491    0.242   85.693
  360.340    3.428    0.261   84.556
  360.590    3.440    0.298   81.597
  360.840    3.369    0.280   78.049
  361.090    3.377    0.272   75.069
  361.340    3.390    0.273   70.894
  361.590    3.318    0.285   67.346
  361.840    3.331    0.298   64.994
  362.090    3.344    0.303   63.857
  362.340    3.349    0.304   62.113
  362.590    3.283    0.291   61.584
  362.840    3.295    0.282   61.643
  363.090    3.308    0.272   61.115
  363.340    3.392    0.243   60.586
  363.590    3.483    0.229   59.469
  363.840    3.887    0.225   58.352
  364.090    4.289    0.212   57.176
  364.340    5.011    0.161   54.864
  364.590    5.809    0.131   53.707
  364.840    6.612    0.125   53.159
  365.090    6.225    0.129   51.414
  365.340    5.681    0.152   53.964
  365.590    4.746    0.192   57.062
  365.840    4.047    0.259   60.807
  366.090    3.585    0.293   62.102
  366.340    3.598    0.303   63.416
  366.590    3.608    0.305   63.475
  366.840    3.618    0.310   63.554
  367.090    3.704    0.304   63.025
  367.340    3.956    0.299   62.496
  367.590    4.284    0.296   61.360
  367.840    4.527    0.290   60.831
  368.090    4.934    0.295   60.302
  368.340    5.099    0.300   58.558
  368.590    5.267    0.267   54.382
  368.840    5.196    0.231   53.854
  369.090    5.051    0.211   56.383
  369.340    4.746    0.232   57.658
  369.590    4.365    0.262   61.443
  369.840    4.215    0.283   62.090
  370.090    3.989    0.303   63.404
  370.340    3.839    0.308   63.463
  370.590    3.617    0.307   63.562
  370.840    3.549    0.307   63.621
  371.090    3.559    0.306   63.700
  371.340    3.572    0.299   63.779
  371.590    3.579    0.288   63.898
  371.840    3.587    0.285   63.957
  372.090    3.605    0.286   64.036
  372.340    3.688    0.291   64.115
  372.590    3.699    0.298   63.625
  372.840    3.788    0.302   63.665
  373.090    3.876    0.302   63.176
  373.340    3.968    0.295   63.215
  373.590    4.136    0.285   62.706
  373.840    4.222    0.278   62.785
  374.090    4.471    0.274   62.844
  374.340    4.560    0.289   62.963
  374.590    4.331    0.298   63.061
  374.840    4.026    0.290   62.532
  375.090    3.879    0.291   62.572
  375.340    3.653    0.296   62.671
  375.590    3.584    0.301   62.750
  375.840    3.520    0.306   63.417
  376.090    3.528    0.304   64.751
  376.340    3.459    0.301   65.418
  376.590    3.396    0.301   66.124
  376.840    3.401    0.309   66.791
  377.090    3.419    0.311   68.105
  377.340    3.348    0.298   68.772
  377.590    3.355    0.286   70.067
  377.840    3.363    0.287   71.969
  378.090    3.373    0.299   75.106
  378.340    3.386    0.290   78.852
  378.590    3.317    0.261   81.950
  378.840    3.327    0.211   88.734
  379.090    3.258    0.210   94.910
  379.340    3.190    0.211   99.223
  379.590    3.121    0.213   99.322
  379.840    2.976    0.214   98.793
  380.090    2.908    0.214   98.892
  380.340    2.836    0.214   98.951
  380.590    2.773    0.211   99.030
  380.840    2.702    0.204   99.756
  381.090    2.709    0.195   99.816
  381.340    2.725    0.183  100.483
  381.590    2.808    0.183  101.169
  381.840    2.981    0.206  101.248
  382.090    3.070    0.210   99.524
  382.340    3.235    0.203   97.760
  382.590    3.566    0.198   94.192
  382.840    3.731    0.200   90.017
  383.090    4.056    0.189   86.449
  383.340    4.384    0.178   82.881
  383.590    4.788    0.186   79.921
  383.840    5.189    0.180   76.374
  384.090    5.908    0.139   74.022
  384.340    6.788    0.119   71.062
  384.590    7.586    0.089   68.082
  384.840    8.937    0.079   62.691
  385.090   10.526    0.093   59.124
  385.340   11.245    0.103   60.418
  385.590   11.176    0.101   63.556
  385.840    9.136    0.130   66.066
  386.090    7.098    0.161   69.164
  386.340    6.160    0.174   77.771
  386.590    5.382    0.171   83.927
  386.840    5.156    0.171   91.319
  387.090    5.087    0.166   90.810
  387.340    5.176    0.164   90.889
  387.590    5.347    0.156   90.968
  387.840    5.514    0.152   91.675
  388.090    5.527    0.148   91.734
  388.340    5.534    0.143   91.793
  388.590    5.468    0.146   91.284
  388.840    5.324    0.171   90.755
  389.090    5.252    0.176   90.854
  389.340    5.184    0.174   90.933
  389.590    5.113    0.188   90.992
  389.840    5.123    0.183   91.698
  390.090    5.059    0.175   92.405
  390.340    5.067    0.181   92.444
  390.590    5.234    0.178   91.935
  390.840    5.328    0.177   91.387
  391.090    5.412    0.177   91.485
  391.340    5.506    0.173   92.819
  391.590    5.514    0.173   93.486
  391.840    5.527    0.194   94.193
  392.090    5.532    0.206   94.232
  392.340    5.547    0.197   94.959
  392.590    5.473    0.190   95.626
  392.840    5.410    0.194   96.900
  393.090    5.338    0.195   98.234
  393.340    5.272    0.189   98.313
  393.590    5.282    0.192   97.177
  393.840    5.290    0.184   95.432
  394.090    5.224    0.161   92.453
  394.340    5.158    0.143   88.885
  394.590    5.168    0.171   85.925
  394.840    5.094    0.182   84.789
  395.090    4.952    0.175   88.534
  395.340    4.878    0.151   89.828
  395.590    4.573    0.127   90.515
  395.840    3.717    0.154   90.574
  396.090    2.939    0.183   90.673
  396.340    2.713    0.196   91.340
  396.590    2.568    0.200   92.674
  396.840    2.578    0.200   93.949
  397.090    2.665    0.200   95.851
  397.340    2.759    0.199   97.165
  397.590    2.845    0.194   98.460
  397.840    3.170    0.191   98.519
  398.090    3.574    0.184   96.186
  398.340    4.293    0.172   93.814
  398.590    5.330    0.143   89.659
  398.840    5.813    0.131   86.072
  399.090    6.301    0.119   81.288
  399.340    6.309    0.102   75.917
  399.590    6.004    0.101   73.546
  399.840    5.696    0.129   79.114
  400.090    5.549    0.162   83.427
  400.340    5.559    0.164   90.212
  400.590    6.047    0.158   89.075
  400.840    6.448    0.140   86.115
  401.090    7.012    0.122   81.960
  401.340    7.338    0.097   78.980
  401.590    7.030    0.081   74.197
  401.840    6.410    0.062   70.629
  402.090    5.869    0.056   67.650
  402.340    5.327    0.089   73.846
  402.590    4.867    0.136   79.394
  402.840    4.560    0.157   84.335
  403.090    4.176    0.162   88.061
  403.340    3.637    0.162   91.787
  403.590    3.335    0.166   98.590
  403.840    3.188    0.163  101.688
  404.090    3.038    0.157  103.610
  404.340    2.893    0.151  103.669
  404.590    2.898    0.142  102.553
  404.840    2.908    0.122  102.004
  405.090    3.081    0.169  100.280
  405.340    3.243    0.187   99.751
  405.590    3.416    0.187  101.653
  405.840    3.663    0.184  102.340
  406.090    3.912    0.175   99.400
  406.340    4.074    0.166   95.244
