~VERSION INFORMATION
 VERS.                 2.0:   CWLS LOG ASCII STANDARD -VERSION 2.0
 WRAP.                  NO:   ONE LINE PER DEPTH STEP
~WELL INFORMATION BLOCK
#MNEM.UNIT           DATA                    DESCRIPTION OF MNEMONIC
#---------    -------------------            -------------------------------
# Generated from Intellog Unique Number	CS_71_72/WELL/862
WELL.         HB PITLOCHRIE                  : Well_name    - WELL
LOC .         00/10-20-071-12W4/0            : Location     - LOCATION
UWI .         00/10-20-071-12W4/0            : Uwi          - UNIQUE WELL ID
ENTR.         SP                             : Entered      - ENTERED BY
SRVC.         SCHLUMBERGER                   : Scn          - SERVICE COMPANY
STRT.M        262.128                        : top_depth    - START DEPTH
STOP.M        490.378                        : bot_depth    - STOP DEPTH
STEP.M        0.25                           : increment    - STEP LENGTH
 NULL. -999.2500:NULL Value
~CURVE INFORMATION BLOCK
#MNEM UNIT       ERCB CURVE CODE    CURVE DESCRIPTION
#-----------   ------------------   ----------------------------------
DEPT.M        00 001 00 00         : DEPTH        - DEPTH
GR  .API      00 310 00 00         : GR           - GAMMA RAY
DPHI.V/V      00 890 00 00         : PHID         - DENSITY POROSITY (SANDSTONE)
NPHI.V/V      00 330 00 00         : PHIN         - NEUTRON POROSITY (SANDSTONE)
ILD .OHMM     00 120 00 00         : RESD         - DEEP RESISTIVITY (DIL)
~PARAMETER INFORMATION
#MNEM.UNIT           DATA             DESCRIPTION OF MNEMONIC
#---------         -----------     ------------------------------
GL  .M        592.836              : gl           - GROUND LEVEL ELEVATION
EREF.M        595.884              : kb           - ELEVATION OF DEPTH REFERENCE
DATM.M        592.836              : datum        - DATUM ELEVATION
TDD .M        492.252              : tdd          - TOTAL DEPTH DRILLER
RUN .         ONE                  : Run          - RUN NUMBER
ENG .         BILL                 : Engineer     - RECORDING ENGINEER
WIT .         JIM                  : Witness      - WITNESSED BY
MUD .         GEL                  : Mud_type     - MUD TYPE
MATR.         SANDSTONE            : Logunit      - NEUTRON MATRIX
TMAX.C        16.1111              : BHT          - MAXIMUM RECORDED TEMPERATURE
BHTD.M        492.252              : BHTDEP       - MAXIMUM RECORDED TEMPERATURE
MATR.         1                    : LOGUNIT      - NEUTRON MATRIX
RMT .C        25                   : MDTP         - TEMPERATURE OF MUD
NEUT.         1                    : NEUTRON      - NEUTRON TYPE
RESI.         0                    : RESIST       - RESISTIVITY TYPE
RMC .OHMM     0.25                 : RMC          - RESISTIVITY OF MUD CAKE
RMF .OHMM     0.25                 : RMF          - RESISTIVITY OF MUD FILTRATE
SUFT.C        15                   : SUFT         - SURFACE TEMPERATURE
~A  DEPTH       GR     PHID     PHIN     RESD
# ...
  436.128   74.741    0.250    0.381   12.526
  436.378   84.826    0.271    0.367   10.009
  436.628   94.963    0.240    0.353    8.136
  436.878  105.199    0.219    0.349    6.466
  437.128  112.353    0.208    0.361    5.480
  437.378  117.644    0.196    0.369    4.817
  437.628  122.447    0.186    0.375    4.483
  437.878  125.496    0.190    0.394    4.304
  438.128  127.093    0.182    0.406    4.248
  438.378  129.975    0.168    0.407    4.291
  438.628  132.171    0.164    0.409    4.349
  438.878  131.920    0.174    0.415    4.435
  439.128  125.126    0.190    0.413    4.641
  439.378  121.348    0.202    0.406    4.885
  439.628  121.421    0.192    0.397    5.042
  439.878  121.445    0.181    0.401    5.250
  440.128  121.130    0.180    0.416    5.409
  440.378  119.242    0.161    0.430    5.533
  440.628  119.573    0.148    0.433    5.623
  440.878  117.220    0.164    0.405    5.703
  441.128  110.309    0.175    0.365    5.740
  441.378  102.889    0.224    0.357    5.738
  441.628   90.227    0.239    0.363    5.719
  441.878   86.968    0.253    0.371    5.694
  442.128   86.763    0.247    0.378    5.669
  442.378   89.478    0.249    0.384    5.630
  442.628   93.411    0.235    0.386    5.656
  442.878   95.272    0.213    0.372    5.728
  443.128   97.482    0.200    0.359    5.831
  443.378   89.133    0.192    0.363    5.884
  443.628   83.469    0.190    0.359    5.984
  443.878   81.931    0.200    0.349    6.222
  444.128   81.143    0.179    0.356    6.519
  444.378   81.127    0.167    0.359    6.750
  444.628   74.959    0.189    0.365    6.862
  444.878   73.659    0.197    0.379    6.940
  445.128   76.086    0.200    0.370    7.104
  445.378   79.248    0.188    0.364    7.213
  445.628   80.834    0.185    0.371    7.193
  445.878   75.458    0.196    0.369    6.833
  446.128   74.416    0.214    0.364    6.647
  446.378   73.161    0.239    0.373    6.521
  446.628   73.570    0.264    0.378    6.061
  446.878   75.446    0.266    0.368    5.426
  447.128   77.234    0.242    0.374    4.930
  447.378   70.248    0.254    0.393    4.436
  447.628   66.259    0.272    0.382    3.970
  447.878   66.305    0.283    0.387    3.599
  448.128   67.195    0.291    0.390    3.193
  448.378   71.548    0.282    0.382    3.012
  448.628   80.036    0.248    0.379    2.865
  448.878   90.861    0.213    0.379    2.895
  449.128  110.158    0.213    0.381    3.041
  449.378  123.044    0.192    0.391    3.229
  449.628  130.633    0.142    0.427    3.407
  449.878  132.561    0.098    0.467    3.529
  450.128  125.061    0.076    0.497    3.683
  450.378  121.204    0.057    0.490    3.812
  450.628  124.850    0.045    0.484    3.842
  450.878  129.745    0.070    0.487    3.831
  451.128  132.180    0.085    0.507    3.795
  451.378  111.280    0.236    0.488    3.615
  451.628   98.157    0.280    0.465    3.308
  451.878   79.914    0.303    0.425    3.038
  452.128   69.949    0.314    0.390    2.812
  452.378   67.229    0.256    0.367    2.674
  452.628   67.790    0.217    0.345    2.526
  452.878   68.745    0.181    0.327    2.443
  453.128   70.114    0.182    0.371    2.373
  453.378   71.428    0.252    0.413    2.352
  453.628   73.372    0.289    0.405    2.372
  453.878   74.936    0.282    0.393    2.395
  454.128   77.488    0.264    0.385    2.471
  454.378   78.969    0.252    0.379    2.598
  454.628   81.328    0.242    0.379    2.725
  454.878   84.227    0.240    0.390    2.930
  455.128   87.261    0.248    0.389    3.005
  455.378   90.194    0.250    0.383    3.277
  455.628   93.531    0.236    0.376    3.444
  455.878   96.672    0.218    0.369    3.571
  456.128  100.287    0.200    0.363    3.763
  456.378  103.217    0.213    0.362    3.954
  456.628  105.521    0.211    0.359    4.181
  456.878  103.826    0.184    0.358    4.330
  457.128  103.790    0.160    0.360    4.442
  457.378  106.653    0.168    0.365    4.587
  457.628  110.046    0.173    0.380    4.639
  457.878  113.636    0.185    0.389    4.656
  458.128  118.904    0.179    0.391    4.671
  458.378  124.545    0.158    0.389    4.686
  458.628  128.972    0.171    0.381    4.792
  458.878  121.253    0.150    0.374    4.946
  459.128  114.230    0.137    0.364    5.132
  459.378  109.780    0.119    0.362    5.428
  459.628  103.857    0.102    0.361    5.826
  459.878  101.001    0.122    0.365    5.907
  460.128  105.858    0.126    0.381    5.927
  460.378  108.295    0.152    0.385    5.862
  460.628  105.755    0.137    0.382    5.835
  460.878  101.823    0.142    0.388    5.849
  461.128   99.300    0.130    0.376    5.864
  461.378  100.739    0.124    0.364    5.891
  461.628  105.857    0.135    0.374    5.887
  461.878  107.896    0.174    0.382    5.925
  462.128  107.434    0.182    0.385    5.953
  462.378  103.544    0.174    0.394    5.959
  462.628   95.049    0.179    0.408    5.928
  462.878   87.972    0.209    0.403    5.997
  463.128   83.106    0.210    0.389    6.056
  463.378   81.901    0.209    0.381    6.119
  463.628   86.226    0.174    0.375    6.077
  463.878   89.029    0.177    0.379    5.979
  464.128   90.807    0.193    0.380    5.606
  464.378   87.236    0.235    0.378    5.044
  464.628   83.991    0.248    0.376    4.685
  464.878   83.064    0.239    0.375    4.391
  465.128   79.382    0.229    0.381    3.079
  465.378   62.027    0.230    0.385    2.798
  465.628   59.959    0.241    0.383    2.520
  465.878   65.950    0.292    0.384    2.309
  466.128   70.235    0.292    0.395    2.224
  466.378   72.138    0.280    0.406    2.083
  466.628   73.568    0.273    0.410    2.056
  466.878   74.850    0.278    0.401    2.041
  467.128   74.406    0.268    0.408    2.052
  467.378   66.653    0.277    0.417    2.074
  467.628   62.465    0.294    0.407    2.064
  467.878   62.095    0.299    0.397    2.042
  468.128   65.293    0.287    0.388    2.072
  468.378   71.649    0.269    0.387    2.124
  468.628   81.126    0.244    0.385    2.055
  468.878   87.730    0.223    0.382    2.067
  469.128   87.771    0.222    0.396    2.099
  469.378   66.076    0.230    0.411    2.144
  469.628   61.325    0.236    0.423    2.153
  469.878   58.446    0.310    0.422    2.023
  470.128   56.817    0.316    0.423    1.892
  470.378   57.109    0.302    0.437    1.801
  470.628   59.094    0.294    0.427    1.785
  470.878   60.730    0.295    0.415    1.795
  471.128   58.316    0.304    0.430    1.802
  471.378   55.560    0.305    0.446    1.800
  471.628   54.141    0.291    0.425    1.825
  471.878   57.415    0.260    0.406    1.849
  472.128   67.244    0.238    0.415    1.885
  472.378   74.726    0.226    0.420    1.993
  472.628   78.536    0.235    0.407    2.078
  472.878   85.281    0.229    0.391    2.178
  473.128   93.744    0.239    0.385    2.284
  473.378   97.741    0.226    0.394    2.462
  473.628  101.488    0.232    0.402    2.719
  473.878  108.186    0.224    0.403    2.965
  474.128  128.993    0.204    0.400    3.243
  474.378  137.895    0.185    0.398    3.644
  474.628  144.049    0.189    0.392    3.944
  474.878  149.584    0.164    0.388    4.110
  475.128  153.415    0.146    0.385    4.200
  475.378  154.418    0.213    0.387    4.212
  475.628  136.493    0.257    0.383    4.123
  475.878  125.994    0.265    0.383    4.007
  476.128  124.354    0.253    0.376    3.857
  476.378  125.680    0.266    0.374    3.602
  476.628  117.532    0.281    0.386    3.138
  476.878  109.720    0.289    0.398    2.818
  477.128  103.101    0.292    0.392    2.628
  477.378   99.040    0.299    0.394    2.591
  477.628   97.121    0.296    0.388    2.757
  477.878   95.302    0.277    0.377    3.011
  478.128  102.966    0.257    0.369    3.310
  478.378  107.868    0.240    0.363    3.622
  478.628  109.801    0.219    0.404    3.825
  478.878   95.383    0.270    0.428    3.915
  479.128   95.263    0.292    0.403    3.719
  479.378  106.943    0.256    0.378    3.566
