~VERSION INFORMATION
 VERS.                 2.0:   CWLS LOG ASCII STANDARD -VERSION 2.0
 WRAP.                  NO:   ONE LINE PER DEPTH STEP
~WELL INFORMATION BLOCK
#MNEM.UNIT           DATA                    DESCRIPTION OF MNEMONIC
#---------    -------------------            -------------------------------
# Generated from Intellog Unique Number	CW_82_90/WELL/924
WELL.         PARAMOUNT ET AL LIVOCK 10-25   : Well_name    - WELL
LOC .         00/10-25-084-19W4/0            : Location     - LOCATION
UWI .         00/10-25-084-19W400            : Uwi          - UNIQUE WELL ID
ENTR.         JAYE                           : Entered      - ENTERED BY
SRVC.         COMPUTALOG                     : Scn          - SERVICE COMPANY
DATE.         31 JAN 77                      : Date         - LOG DATE
STRT.M        213.36                         : top_depth    - START DEPTH
STOP.M        341.36                         : bot_depth    - STOP DEPTH
STEP.M        0.25                           : increment    - STEP LENGTH
 NULL. -999.2500:NULL Value
~CURVE INFORMATION BLOCK
#MNEM UNIT       ERCB CURVE CODE    CURVE DESCRIPTION
#-----------   ------------------   ----------------------------------
DEPT.M        00 001 00 00         : DEPTH        - DEPTH
CALI.MM       00 280 01 00         : CAL          - CALIPER
GR  .API      00 310 00 00         : GR           - GAMMA RAY
NPHI.V/V      00 330 00 00         : PHIN         - NEUTRON POROSITY (SANDSTONE)
DPHI.V/V      00 890 00 00         : PHID         - DENSITY POROSITY (SANDSTONE)
ILD .OHMM     00 120 00 00         : RESD         - DEEP RESISTIVITY (DIL)
~PARAMETER INFORMATION
#MNEM.UNIT           DATA             DESCRIPTION OF MNEMONIC
#---------         -----------     ------------------------------
GL  .M        582.168              : gl           - GROUND LEVEL ELEVATION
EREF.M        585.521              : kb           - ELEVATION OF DEPTH REFERENCE
DATM.M        582.168              : datum        - DATUM ELEVATION
TDD .M        370.942              : tdd          - TOTAL DEPTH DRILLER
RUN .         ONE                  : Run          - RUN NUMBER
ENG .         KING                 : Engineer     - RECORDING ENGINEER
WIT .         KNIGHT               : Witness      - WITNESSED BY
BASE.         MEDICINE HAT         : Branch       - HOME BASE OF LOGGING UNIT
MUD .         GEL CHEM             : Mud_type     - MUD TYPE
MATR.         SANDSTONE            : Logunit      - NEUTRON MATRIX
TMAX.C        0                    : BHT          - MAXIMUM RECORDED TEMPERATURE
BHTD.M        61                   : BHTDEP       - MAXIMUM RECORDED TEMPERATURE
RMT .C        1217                 : MDTP         - TEMPERATURE OF MUD
MUDD.KG/M     47                   : MWT          - MUD DENSITY
NEUT.         9.3                  : NEUTRON      - NEUTRON TYPE
RM  .OHMM     0                    : RM           - RESISTIVITY OF MUD
RMC .OHMM     5.5                  : RMC          - RESISTIVITY OF MUD CAKE
RMF .OHMM     0                    : RMF          - RESISTIVITY OF MUD FILTRATE
SUFT.C        3.8                  : SUFT         - SURFACE TEMPERATURE
SUFT.C        0                    : SUFT         - SURFACE TEMPERATURE
~A  DEPTH      CAL       GR     PHIN     PHID     RESD
# ...
  249.860  156.405   80.440    0.331    0.322    9.157
  250.110  156.407   78.983    0.371    0.320    9.095
  250.360  156.307   80.079    0.327    0.317    9.018
  250.610  156.516   81.721    0.307    0.314    8.989
  250.860  156.415   82.270    0.328    0.312    8.959
  251.110  156.418   82.575    0.310    0.312    8.938
  251.360  156.626   83.671    0.287    0.312    8.893
  251.610  156.423   84.948    0.306    0.308    8.839
  251.860  155.705   86.956    0.333    0.296    8.578
  252.110  155.090   90.969    0.342    0.284    7.828
  252.360  154.578   96.926    0.371    0.281    6.574
  252.610  154.272  105.315    0.403    0.262    5.128
  252.860  154.789  120.633    0.414    0.244    4.531
  253.110  155.615  122.397    0.456    0.234    3.766
  253.360  156.956  122.885    0.461    0.225    3.264
  253.610  157.884  121.488    0.462    0.214    2.971
  253.860  158.299  124.590    0.504    0.217    2.909
  254.110  157.890  128.298    0.487    0.223    2.920
  254.360  157.892  131.704    0.478    0.218    3.019
  254.610  158.410  132.252    0.482    0.215    3.270
  254.860  158.618  131.160    0.492    0.215    3.608
  255.110  158.930  131.101    0.473    0.218    4.076
  255.360  159.344  126.240    0.464    0.218    4.350
  255.610  160.170  124.600    0.454    0.221    4.753
  255.860  160.790  118.889    0.438    0.230    5.156
  256.110  162.645  108.984    0.432    0.238    5.550
  256.360  163.059  105.264    0.421    0.226    6.033
  256.610  161.724  104.124    0.403    0.224    6.484
  256.860  157.919  101.452    0.414    0.214    6.912
  257.110  155.863  105.161    0.421    0.225    7.211
  257.360  155.762  114.157    0.412    0.236    7.397
  257.610  155.662  117.502    0.403    0.238    7.527
  257.860  154.739  117.260    0.388    0.235    7.610
  258.110  154.227  115.560    0.390    0.229    7.613
  258.360  154.024  112.827    0.395    0.229    7.647
  258.610  153.923  116.536    0.393    0.231    7.738
  258.860  153.411  118.725    0.375    0.234    7.838
  259.110  153.105  117.936    0.377    0.241    7.880
  259.360  152.799  104.445    0.386    0.227    8.019
  259.610  152.390   90.346    0.390    0.245    8.077
  259.860  151.672   76.126    0.345    0.256    8.216
  260.110  150.955   82.388    0.343    0.247    8.499
  260.360  150.957   85.124    0.350    0.250    8.653
  260.610  151.577   86.159    0.367    0.258    8.664
  260.860  152.197   88.652    0.345    0.246    8.531
  261.110  152.818  101.356    0.336    0.235    8.406
  261.360  152.614  103.607    0.340    0.243    8.264
  261.610  152.308   93.094    0.362    0.265    8.123
  261.860  151.899   91.211    0.361    0.264    8.005
  262.110  151.490   97.108    0.342    0.256    7.992
  262.360  150.772   97.049    0.348    0.245    7.955
  262.610  149.951   95.470    0.395    0.242    7.853
  262.860  149.336   95.715    0.398    0.265    7.656
  263.110  150.471  101.126    0.390    0.253    7.467
  263.360  155.414   97.237    0.377    0.249    7.269
  263.610  159.739  100.399    0.404    0.247    7.088
  263.860  156.552  101.677    0.388    0.247    6.882
  264.110  155.730  102.833    0.373    0.250    6.701
  264.360  156.556  105.388    0.377    0.252    6.512
  264.610  157.280  111.406    0.398    0.247    6.314
  264.860  158.105  111.165    0.405    0.250    6.117
  265.110  158.108  101.138    0.414    0.253    6.128
  265.360  156.464  100.532    0.400    0.256    6.419
  265.610  153.173   99.075    0.367    0.257    6.862
  265.860  151.220   94.579    0.333    0.251    7.105
  266.110  150.811   88.442    0.339    0.208    7.299
  266.360  151.637  100.173    0.386    0.204    7.310
  266.610  153.390  101.876    0.403    0.237    7.224
  266.860  155.038  104.188    0.403    0.275    6.987
  267.110  155.865   99.266    0.402    0.280    6.749
  267.360  156.176   92.582    0.400    0.292    6.808
  267.610  155.664   86.628    0.386    0.297    6.955
  267.860  154.947   86.811    0.389    0.292    7.174
  268.110  154.126   89.366    0.402    0.286    7.288
  268.360  153.202   92.832    0.417    0.285    7.339
  268.610  152.381   92.772    0.436    0.284    7.134
  268.860  151.457   90.403    0.430    0.267    6.752
  269.110  150.431   95.753    0.408    0.275    6.467
  269.360  150.228  101.103    0.367    0.272    6.342
  269.610  151.053  109.675    0.400    0.258    6.144
  269.860  153.011  110.406    0.411    0.242    5.955
  270.110  155.588  100.500    0.405    0.256    5.773
  270.360  155.590  104.999    0.411    0.248    5.608
  270.610  154.460  111.687    0.396    0.234    5.507
  270.860  155.904  112.721    0.386    0.238    5.446
  271.110  159.509  119.104    0.406    0.242    5.384
  271.360  160.952  119.106    0.410    0.242    5.387
  271.610  160.337  106.162    0.445    0.241    5.549
  271.860  159.722  108.959    0.449    0.238    5.712
  272.110  158.696  111.331    0.436    0.235    5.867
  272.360  158.389  117.897    0.412    0.231    6.038
  272.610  157.364  119.175    0.407    0.231    6.128
  272.860  156.954  116.927    0.424    0.229    6.179
  273.110  156.648  113.404    0.390    0.219    6.150
  273.360  158.503  114.196    0.381    0.221    6.161
  273.610  160.666  114.561    0.423    0.233    6.211
  273.860  160.669  120.519    0.429    0.235    6.374
  274.110  159.128  119.305    0.416    0.236    6.593
  274.360  157.793  112.561    0.369    0.239    7.236
  274.610  157.590  103.263    0.350    0.235    8.127
  274.860  157.696  103.265    0.368    0.239    9.650
  275.110  157.904  101.868    0.368    0.291   10.149
  275.360  157.392  109.346    0.358    0.284    9.919
  275.610  157.085  116.458    0.335    0.271    9.618
  275.860  156.883  121.687    0.342    0.252    9.540
  276.110  156.988  124.423    0.379    0.257    9.623
  276.360  157.300   95.859    0.366    0.251    9.962
  276.610  157.508   86.865    0.338    0.227   10.317
  276.860  157.407   86.563    0.306    0.187   10.472
  277.110  157.411   90.211    0.265    0.151   10.595
  277.360  157.207  101.943    0.251    0.184   10.629
  277.610  156.797   99.210    0.311    0.174   10.688
  277.860  157.006   89.365    0.295    0.207   10.834
  278.110  156.289   88.941    0.288    0.188   11.493
  278.360  156.497   85.904    0.266    0.166   12.704
  278.610  156.293   80.800    0.018    0.136   14.980
  278.860  155.781   79.647   -0.005    0.081   14.871
  279.110  152.903   98.793    0.001    0.181   14.257
  279.360  151.156  107.061    0.173    0.242   12.707
  279.610  152.393  109.129    0.307    0.245   11.638
  279.860  153.734  108.948    0.386    0.251   10.464
  280.110  156.207  107.734    0.377    0.261    9.658
  280.360  156.621  110.470    0.362    0.262    9.477
  280.610  156.520  106.096    0.344    0.251    9.392
  280.860  156.729  103.727    0.368    0.248    9.242
  281.110  156.938  102.027    0.375    0.250    9.061
  281.360  156.734  100.023    0.379    0.248    8.960
  281.610  156.119  103.853    0.404    0.244    8.994
  281.860  155.607  103.916    0.395    0.239    9.261
  282.110  155.095  101.608    0.361    0.233   10.136
  282.360  152.731   94.863    0.326    0.226   11.107
  282.610  152.322   86.173    0.222    0.191   12.342
  282.860  153.559   82.042    0.062    0.127   12.449
  283.110  155.929   80.524   -0.018    0.094   12.308
  283.360  156.755  100.947   -0.016    0.120   11.782
  283.610  156.449  103.683    0.384    0.257   10.601
  283.860  155.628  105.508    0.366    0.254    9.795
  284.110  155.631  107.515    0.364    0.253    9.013
  284.360  157.280  110.070    0.377    0.256    8.712
  284.610  159.238  114.873    0.419    0.262    8.651
  284.860  160.682  112.018    0.412    0.265    8.765
  285.110  160.684  109.710    0.390    0.263    8.928
  285.360  159.761  110.076    0.348    0.258    9.203
  285.610  158.528  110.928    0.354    0.254    9.382
  285.860  157.502  111.173    0.343    0.244    9.384
  286.110  158.636  113.545    0.333    0.236    9.267
