~VERSION INFORMATION
 VERS.                 2.0:   CWLS LOG ASCII STANDARD -VERSION 2.0
 WRAP.                  NO:   ONE LINE PER DEPTH STEP
~WELL INFORMATION BLOCK
#MNEM.UNIT           DATA                    DESCRIPTION OF MNEMONIC
#---------    -------------------            -------------------------------
# Generated from Intellog Unique Number	CW_82_90/WELL/3449
WELL.         CHEVRON FINA TROUT             : Well_name    - WELL
LOC .         00/11-18-088-02W5/0            : Location     - LOCATION
UWI .         00/11-18-088-02W5/0            : Uwi          - UNIQUE WELL ID
ENTR.         MAX                            : Entered      - ENTERED BY
SRVC.         SCHLUMBERGER                   : Scn          - SERVICE COMPANY
STRT.M        381                            : top_depth    - START DEPTH
STOP.M        551.75                         : bot_depth    - STOP DEPTH
STEP.M        0.25                           : increment    - STEP LENGTH
 NULL. -999.2500:NULL Value
~CURVE INFORMATION BLOCK
#MNEM UNIT       ERCB CURVE CODE    CURVE DESCRIPTION
#-----------   ------------------   ----------------------------------
DEPT.M        00 001 00 00         : DEPTH        - DEPTH
ILD .OHMM     00 120 00 00         : RESD         - DEEP RESISTIVITY (DIL)
NPHI.V/V      00 330 00 00         : PHIN         - NEUTRON POROSITY (SANDSTONE)
DPHI.V/V      00 890 00 00         : PHID         - DENSITY POROSITY (SANDSTONE)
CALI.MM       00 280 01 00         : CAL          - CALIPER
GR  .API      00 310 00 00         : GR           - GAMMA RAY
~PARAMETER INFORMATION
#MNEM.UNIT           DATA             DESCRIPTION OF MNEMONIC
#---------         -----------     ------------------------------
GL  .M        738.896              : gl           - GROUND LEVEL ELEVATION
EREF.M        742.493              : kb           - ELEVATION OF DEPTH REFERENCE
DATM.M        738.896              : datum        - DATUM ELEVATION
TDD .M        555.041              : tdd          - TOTAL DEPTH DRILLER
RUN .         ONE                  : Run          - RUN NUMBER
ENG .         BILL                 : Engineer     - RECORDING ENGINEER
WIT .         JIM                  : Witness      - WITNESSED BY
MUD .         GEL                  : Mud_type     - MUD TYPE
MATR.         SANDSTONE            : Logunit      - NEUTRON MATRIX
TMAX.C        23.3333              : BHT          - MAXIMUM RECORDED TEMPERATURE
BHTD.M        555.041              : BHTDEP       - MAXIMUM RECORDED TEMPERATURE
MATR.         1                    : LOGUNIT      - NEUTRON MATRIX
RMT .C        17.2222              : MDTP         - TEMPERATURE OF MUD
NEUT.         1                    : NEUTRON      - NEUTRON TYPE
RESI.         0                    : RESIST       - RESISTIVITY TYPE
RMC .OHMM     5.05                 : RMC          - RESISTIVITY OF MUD CAKE
RMF .OHMM     8.05                 : RMF          - RESISTIVITY OF MUD FILTRATE
SUFT.C        -23.3333             : SUFT         - SURFACE TEMPERATURE
~A  DEPTH     RESD     PHIN     PHID      CAL       GR
  381.000    8.592    0.408    0.273  192.684   53.774
  381.250    8.928    0.405    0.270  192.303   55.309
  381.500    8.949    0.399    0.266  193.446   55.994
  381.750    8.807    0.390    0.264  193.595   56.649
  382.000    8.588    0.389    0.266  193.214   57.031
  382.250    7.934    0.388    0.262  192.866   59.759
  382.500    7.392    0.396    0.253  192.998   63.055
  382.750    6.704    0.439    0.241  194.141   69.892
  383.000    6.024    0.558    0.218  195.747   91.126
  383.250    5.365    0.578    0.172  199.391   90.324
  383.500    4.866    0.558    0.163  199.540   92.769
  383.750    4.535    0.573    0.178  200.152   93.140
  384.000    4.305    0.578    0.204  200.782   91.458
  384.250    4.239    0.581    0.201  200.931   91.536
  384.500    4.208    0.585    0.189  201.576   94.852
  384.750    4.103    0.582    0.172  201.692   96.103
  385.000    4.075    0.570    0.186  200.847   94.724
  385.250    4.086    0.564    0.192  200.980   93.922
  385.500    4.169    0.564    0.203  200.599   92.543
  385.750    4.255    0.567    0.197  200.251   91.135
  386.000    4.422    0.563    0.192  200.383   89.159
  386.250    4.593    0.547    0.179  200.532   87.193
  386.500    5.087    0.523    0.153  199.157   88.758
  386.750    5.582    0.506    0.132  198.826   90.000
  387.000    5.443    0.508    0.173  199.455   90.371
  387.250    4.981    0.538    0.210  197.120   89.266
  387.500    4.280    0.611    0.223  196.225   87.007
  387.750    3.776    0.641    0.227  196.871   84.434
  388.000    3.363    0.658    0.221  198.991   81.588
  388.250    3.464    0.634    0.209  199.140   79.925
  388.500    3.631    0.599    0.183  198.262   79.984
  388.750    3.986    0.529    0.166  196.456   80.942
  389.000    4.181    0.485    0.146  196.075   83.084
  389.250    4.189    0.484    0.138  195.711   85.803
  389.500    3.939    0.526    0.190  195.827   91.172
  389.750    3.606    0.565    0.203  196.009   95.378
  390.000    3.270    0.610    0.210  196.605   93.989
  390.250    2.993    0.633    0.213  198.244   91.720
  390.500    2.765    0.619    0.219  199.370   91.505
  390.750    2.647    0.602    0.217  200.496   91.593
  391.000    2.559    0.590    0.218  201.126   91.661
  391.250    2.517    0.596    0.222  201.771   92.033
  391.500    2.501    0.608    0.224  201.920   92.121
  391.750    2.529    0.632    0.222  202.053   92.512
  392.000    2.603    0.636    0.211  201.688   94.037
  392.250    2.831    0.608    0.204  200.843   95.299
  392.500    3.135    0.573    0.199  198.988   91.279
  392.750    3.666    0.538    0.192  197.630   87.817
  393.000    4.485    0.493    0.179  196.785   83.503
  393.250    5.293    0.474    0.165  196.404   80.051
  393.500    6.023    0.467    0.150  195.576   78.955
  393.750    6.204    0.481    0.137  195.195   80.520
  394.000    6.329    0.479    0.173  195.311   79.415
  394.250    6.639    0.454    0.198  194.979   78.612
  394.500    6.835    0.442    0.210  195.128   78.407
  394.750    6.913    0.448    0.205  195.244   80.539
  395.000    7.056    0.452    0.204  195.360   87.385
  395.250    7.135    0.438    0.214  195.012   89.518
  395.500    7.148    0.426    0.205  194.664   89.009
  395.750    7.036    0.428    0.200  194.780   88.207
  396.000    6.619    0.434    0.200  194.929   90.055
  396.250    6.455    0.448    0.203  195.061   91.014
  396.500    6.470    0.456    0.205  194.200   90.799
  396.750    6.541    0.456    0.209  194.365   89.713
  397.000    6.798    0.442    0.198  194.017   86.260
  397.250    6.937    0.434    0.207  194.116   81.047
  397.500    7.080    0.435    0.219  194.265   80.264
  397.750    7.225    0.441    0.223  194.381   77.712
  398.000    7.238    0.433    0.220  194.546   75.716
  398.250    7.257    0.441    0.227  194.199   74.914
  398.500    7.272    0.423    0.228  194.298   83.511
  398.750    7.287    0.429    0.213  193.966   83.883
  399.000    7.236    0.431    0.214  193.089   82.220
  399.250    7.186    0.429    0.213  192.757   84.645
  399.500    7.073    0.438    0.208  192.856   83.560
  399.750    6.959    0.488    0.209  192.989   82.445
  400.000    6.786    0.508    0.217  193.154   83.423
  400.250    6.561    0.520    0.222  193.270   81.144
  400.500    6.398    0.508    0.222  193.402   79.461
  400.750    6.240    0.479    0.223  193.551   78.376
  401.000    6.030    0.476    0.230  193.700   78.737
  401.250    5.826    0.492    0.238  193.833   79.119
  401.500    5.335    0.502    0.232  192.971   80.664
  401.750    4.926    0.512    0.233  193.633   85.153
  402.000    4.346    0.550    0.235  193.749   86.415
  402.250    3.801    0.575    0.231  193.865   86.787
  402.500    3.417    0.601    0.226  194.014   87.745
  402.750    3.156    0.604    0.216  195.173   86.356
  403.000    3.078    0.597    0.224  195.769   84.380
  403.250    3.228    0.572    0.230  195.935   83.881
  403.500    3.477    0.567    0.237  196.067   83.382
  403.750    3.886    0.552    0.244  195.686   79.930
  404.000    4.228    0.534    0.251  194.344   76.477
  404.250    4.514    0.518    0.259  193.980   73.034
  404.500    4.999    0.506    0.266  194.112   74.022
  404.750    5.240    0.487    0.268  194.245   77.015
  405.000    5.020    0.490    0.260  194.874   80.340
  405.250    4.894    0.515    0.254  196.033   86.874
  405.500    4.951    0.499    0.249  196.165   82.854
  405.750    5.098    0.465    0.248  196.298   79.117
  406.000    5.346    0.442    0.244  194.940   77.141
  406.250    5.505    0.441    0.236  195.088   75.743
  406.500    5.617    0.480    0.229  195.237   74.080
  406.750    5.384    0.505    0.231  195.337   72.975
  407.000    5.063    0.512    0.236  195.519   72.760
  407.250    4.846    0.485    0.240  195.154   73.131
  407.500    4.642    0.460    0.230  195.286   71.175
  407.750    4.567    0.485    0.225  195.402   70.060
  408.000    4.618    0.532    0.234  195.535   68.377
  408.250    4.801    0.519    0.242  195.684   66.421
  408.500    5.081    0.473    0.255  194.806   65.013
  408.750    5.375    0.448    0.278  194.441   63.340
  409.000    5.689    0.452    0.289  194.110   61.071
  409.250    5.968    0.466    0.292  194.226   60.846
  409.500    6.087    0.480    0.282  193.861   62.411
  409.750    6.215    0.494    0.276  193.513   63.076
  410.000    6.283    0.493    0.281  193.182   63.144
  410.250    6.353    0.489    0.278  193.281   63.829
  410.500    6.424    0.477    0.258  192.916   64.777
  410.750    6.383    0.463    0.245  192.585   66.342
  411.000    6.394    0.481    0.238  192.734   67.878
  411.250    6.350    0.483    0.245  192.336   67.956
  411.500    6.252    0.477    0.253  191.972   67.467
  411.750    6.263    0.473    0.254  192.137   67.535
  412.000    6.221    0.469    0.253  192.270   68.493
  412.250    6.122    0.468    0.253  192.899   68.278
  412.500    6.081    0.469    0.254  193.512   68.092
  412.750    5.719    0.475    0.248  194.671   69.325
  413.000    5.048    0.489    0.242  196.294   72.943
  413.250    4.620    0.503    0.244  197.933   76.249
  413.500    4.228    0.538    0.237  199.059   76.924
  413.750    3.941    0.599    0.231  200.169   77.012
  414.000    3.773    0.639    0.217  201.328   76.777
  414.250    3.679    0.615    0.213  202.471   75.114
  414.500    3.687    0.602    0.223  203.597   74.889
  414.750    3.833    0.605    0.220  204.723   76.141
  415.000    3.842    0.629    0.218  204.839   78.879
  415.250    3.712    0.638    0.217  205.468   81.599
  415.500    3.365    0.626    0.211  205.136   81.677
  415.750    2.998    0.613    0.221  204.772   82.048
  416.000    2.769    0.610    0.234  204.391   83.300
  416.250    2.603    0.635    0.230  204.026   87.212
  416.500    2.426    0.650    0.238  203.678   89.354
  416.750    2.263    0.664    0.245  203.811   89.726
  417.000    2.206    0.666    0.250  203.943   86.273
  417.250    2.152    0.621    0.252  204.109   82.537
