~VERSION INFORMATION
 VERS.                 2.0:   CWLS LOG ASCII STANDARD -VERSION 2.0
 WRAP.                  NO:   ONE LINE PER DEPTH STEP
~WELL INFORMATION BLOCK
#MNEM.UNIT           DATA                    DESCRIPTION OF MNEMONIC
#---------    -------------------            -------------------------------
# Generated from Intellog Unique Number	CS_77_79/WELL/1009
WELL.         MESA PORTAGE                   : Well_name    - WELL
LOC .         00/11-34-079-18W4/0            : Location     - LOCATION
UWI .         00/11-34-079-18W4/0            : Uwi          - UNIQUE WELL ID
ENTR.         JHS                            : Entered      - ENTERED BY
SRVC.         SCHLUMBERGER                   : Scn          - SERVICE COMPANY
STRT.M        152.4                          : top_depth    - START DEPTH
STOP.M        374.65                         : bot_depth    - STOP DEPTH
STEP.M        0.25                           : increment    - STEP LENGTH
 NULL. -999.2500:NULL Value
~CURVE INFORMATION BLOCK
#MNEM UNIT       ERCB CURVE CODE    CURVE DESCRIPTION
#-----------   ------------------   ----------------------------------
DEPT.M        00 001 00 00         : DEPTH        - DEPTH
RHOB.KG/M3    00 350 00 00         : DENS         - BULK DENSITY
GR  .API      00 310 00 00         : GR           - GAMMA RAY
DPHI.V/V      00 890 00 00         : PHID         - DENSITY POROSITY (SANDSTONE)
NPHI.V/V      00 330 00 00         : PHIN         - NEUTRON POROSITY (SANDSTONE)
ILD .OHMM     00 120 00 00         : RESD         - DEEP RESISTIVITY (DIL)
~PARAMETER INFORMATION
#MNEM.UNIT           DATA             DESCRIPTION OF MNEMONIC
#---------         -----------     ------------------------------
GL  .M        554.462              : gl           - GROUND LEVEL ELEVATION
EREF.M        557.814              : kb           - ELEVATION OF DEPTH REFERENCE
DATM.M        557.814              : datum        - DATUM ELEVATION
TDD .M        374.904              : tdd          - TOTAL DEPTH DRILLER
RUN .         ONE                  : Run          - RUN NUMBER
ENG .         BILL                 : Engineer     - RECORDING ENGINEER
WIT .         JIM                  : Witness      - WITNESSED BY
MUD .         GEL                  : Mud_type     - MUD TYPE
MATR.         SANDSTONE            : Logunit      - NEUTRON MATRIX
TMAX.C        60                   : BHT          - MAXIMUM RECORDED TEMPERATURE
BHTD.M        374.904              : BHTDEP       - MAXIMUM RECORDED TEMPERATURE
MATR.         1                    : LOGUNIT      - NEUTRON MATRIX
RMT .C        25                   : MDTP         - TEMPERATURE OF MUD
NEUT.         1                    : NEUTRON      - NEUTRON TYPE
RESI.         0                    : RESIST       - RESISTIVITY TYPE
RMC .OHMM     0.25                 : RMC          - RESISTIVITY OF MUD CAKE
RMF .OHMM     0.25                 : RMF          - RESISTIVITY OF MUD FILTRATE
SUFT.C        15                   : SUFT         - SURFACE TEMPERATURE
~A  DEPTH     DENS       GR     PHID     PHIN     RESD
# ...
  261.900   -0.000   44.881    0.049    0.292   10.446
  262.150   -0.000   50.889    0.243    0.345    9.213
  262.400    0.000   55.429    0.225    0.476    8.030
  262.650    0.000   57.257    0.217    0.501    7.474
  262.900    0.000   57.198    0.209    0.481    7.324
  263.150   -0.000   56.840    0.213    0.466    7.330
  263.400   -0.000   55.951    0.223    0.456    7.352
  263.650    0.000   56.026    0.235    0.466    7.082
  263.900    0.000   56.670    0.239    0.483    6.883
  264.150    0.000   58.631    0.227    0.501    6.510
  264.400   -0.000   57.458    0.224    0.506    6.227
  264.650   -0.000   55.717    0.227    0.514    6.203
  264.900   -0.000   54.772    0.226    0.522    6.480
  265.150    0.000   53.734    0.240    0.501    6.768
  265.400    0.000   53.454    0.249    0.493    7.173
  265.650    0.000   52.386    0.258    0.501    7.560
  265.900   -0.000   50.671    0.277    0.506    7.689
  266.150   -0.000   51.432    0.265    0.508    7.658
  266.400   -0.000   53.753    0.266    0.516    7.419
  266.650    0.000   54.382    0.264    0.519    7.336
  266.900    0.000   54.380    0.241    0.510    7.300
  267.150   -0.000   54.422    0.256    0.501    7.302
  267.400   -0.000   53.444    0.272    0.495    7.296
  267.650   -0.000   52.465    0.256    0.502    7.480
  267.900    0.000   51.493    0.248    0.533    7.849
  268.150    0.000   50.796    0.253    0.534    8.049
  268.400    0.000   50.136    0.247    0.509    8.025
  268.650   -0.000   51.006    0.236    0.495    7.777
  268.900   -0.000   54.614    0.236    0.484    7.416
  269.150   -0.000   55.130    0.237    0.474    7.219
  269.400    0.000   55.486    0.222    0.471    7.244
  269.650    0.000   55.905    0.227    0.484    7.085
  269.900   -0.000   53.981    0.247    0.491    7.111
  270.150   -0.000   52.620    0.227    0.485    7.299
  270.400   -0.000   53.679    0.221    0.474    7.478
  270.650    0.000   55.176    0.212    0.471    7.948
  270.900    0.000   55.967    0.224    0.490    8.552
  271.150    0.000   54.175    0.235    0.517    9.022
  271.400   -0.000   50.068    0.244    0.510    9.912
  271.650   -0.000   47.198    0.255    0.487   10.909
  271.900   -0.000   43.564    0.282    0.466   11.461
  272.150    0.000   44.156    0.290    0.442   11.360
  272.400    0.000   45.186    0.264    0.425   10.958
  272.650    0.000   45.550    0.195    0.437   10.843
  272.900   -0.000   43.419    0.150    0.455   12.136
  273.150   -0.000   36.121    0.017    0.277   13.934
  273.400    0.000   29.171    0.000    0.216   16.600
  273.650    0.000   30.058    0.000    0.207   19.285
  273.900    0.000   32.722    0.001    0.233   18.744
  274.150   -0.000   38.988    0.002    0.276   15.569
  274.400   -0.000   45.919    0.121    0.306   11.980
  274.650   -0.000   52.732    0.152    0.381   10.144
  274.900    0.000   55.835    0.191    0.448    8.976
  275.150    0.000   56.104    0.201    0.477    8.098
  275.400    0.000   56.166    0.189    0.480    7.657
  275.650   -0.000   57.236    0.178    0.480    7.283
  275.900   -0.000   58.418    0.204    0.488    7.235
  276.150    0.000   59.282    0.199    0.503    7.835
  276.400    0.000   57.403    0.190    0.519    8.545
  276.650    0.000   55.936    0.217    0.525    9.207
  276.900   -0.000   55.693    0.225    0.523    9.818
  277.150   -0.000   54.366    0.224    0.526   10.158
  277.400   -0.000   53.765    0.235    0.501   10.245
  277.650    0.000   53.876    0.236    0.480   10.098
  277.900    0.000   54.420    0.238    0.463    9.735
  278.150    0.000   55.090    0.231    0.463    9.158
  278.400   -0.000   54.670    0.230    0.468    8.839
  278.650   -0.000   54.941    0.221    0.483    9.109
  278.900   -0.000   56.384    0.215    0.493    8.866
  279.150    0.000   57.487    0.206    0.498    8.793
  279.400    0.000   57.855    0.215    0.473    9.066
  279.650   -0.000   57.091    0.229    0.458    9.061
  279.900   -0.000   55.769    0.214    0.457    8.982
  280.150   -0.000   53.684    0.200    0.458    8.710
  280.400    0.000   52.723    0.209    0.459    8.443
  280.650    0.000   55.273    0.230    0.481    8.446
  280.900    0.000   57.767    0.206    0.467    8.462
  281.150   -0.000   55.087    0.198    0.448    8.757
  281.400   -0.000   55.014    0.217    0.450    8.780
  281.650   -0.000   55.322    0.205    0.467    8.787
  281.900    0.000   54.808    0.207    0.479    8.540
  282.150    0.000   56.758    0.222    0.474    8.119
  282.400   -0.000   57.207    0.200    0.467    7.739
  282.650   -0.000   57.878    0.184    0.474    7.238
  282.900   -0.000   59.512    0.194    0.479    6.824
  283.150    0.000   57.888    0.211    0.491    6.107
  283.400    0.000   58.332    0.202    0.508    5.523
  283.650    0.000   57.049    0.211    0.521    5.015
  283.900   -0.000   57.196    0.227    0.498    4.717
  284.150   -0.000   58.750    0.211    0.520    4.783
  284.400   -0.000   60.334    0.224    0.527    4.996
  284.650    0.000   57.426    0.242    0.524    5.860
  284.900    0.000   52.716    0.258    0.517    7.045
  285.150    0.000   48.105    0.292    0.471    8.779
  285.400   -0.000   43.739    0.264    0.449   10.197
  285.650   -0.000   45.690    0.266    0.459   11.070
  285.900    0.000   47.039    0.276    0.461   11.393
  286.150    0.000   44.268    0.280    0.457   11.425
  286.400    0.000   43.963    0.282    0.466   11.155
  286.650   -0.000   41.742    0.293    0.480   10.831
  286.900   -0.000   40.733    0.294    0.493   10.384
  287.150   -0.000   43.785    0.293    0.486   10.180
  287.400    0.000   43.709    0.298    0.467    9.511
  287.650    0.000   42.709    0.298    0.478    9.443
  287.900    0.000   47.986    0.287    0.493    9.352
  288.150   -0.000   49.583    0.291    0.488    9.262
  288.400   -0.000   48.191    0.307    0.490    8.852
  288.650    0.000   45.967    0.287    0.499    9.378
  288.900    0.000   47.462    0.281    0.483    9.534
  289.150    0.000   47.557    0.273    0.458   10.588
  289.400   -0.000   45.493    0.260    0.451   11.476
  289.650   -0.000   43.450    0.244    0.407   13.017
  289.900   -0.000   42.260    0.129    0.358   14.388
  290.150    0.000   41.221    0.101    0.319   15.545
  290.400    0.000   41.207    0.123    0.352   16.554
  290.650    0.000   41.248    0.154    0.358   17.193
  290.900   -0.000   41.849    0.138    0.336   16.386
  291.150   -0.000   41.794    0.127    0.321   15.589
  291.400   -0.000   42.492    0.127    0.319   13.723
  291.650    0.000   43.975    0.146    0.333   11.622
  291.900    0.000   45.434    0.177    0.386    9.961
  292.150   -0.000   48.561    0.247    0.411    8.995
  292.400   -0.000   51.995    0.238    0.452    8.640
  292.650   -0.000   52.009    0.223    0.472    8.669
  292.900    0.000   48.874    0.212    0.480    8.666
  293.150    0.000   45.848    0.202    0.465    8.847
  293.400    0.000   48.484    0.221    0.469    9.032
  293.650   -0.000   51.979    0.243    0.483    9.172
  293.900   -0.000   54.079    0.228    0.474    9.133
  294.150   -0.000   56.816    0.233    0.476    9.053
  294.400    0.000   55.918    0.222    0.497    8.925
  294.650    0.000   54.496    0.229    0.496    8.853
  294.900    0.000   57.396    0.210    0.475    8.576
  295.150   -0.000   55.532    0.201    0.482    8.269
  295.400   -0.000   51.497    0.198    0.494    8.107
  295.650    0.000   50.008    0.203    0.477    8.137
  295.900    0.000   54.952    0.187    0.441    8.224
  296.150    0.000   59.787    0.204    0.453    8.525
  296.400   -0.000   62.233    0.183    0.465    8.925
  296.650   -0.000   61.521    0.188    0.485    9.433
  296.900   -0.000   59.061    0.189    0.495    9.513
  297.150    0.000   53.757    0.185    0.463    9.546
  297.400    0.000   52.846    0.172    0.450    9.534
  297.650    0.000   53.910    0.181    0.444    9.338
  297.900   -0.000   54.885    0.223    0.460    9.355
  298.150   -0.000   58.159    0.214    0.474    9.359
