~VERSION INFORMATION
 VERS.                 2.0:   CWLS LOG ASCII STANDARD -VERSION 2.0
 WRAP.                  NO:   ONE LINE PER DEPTH STEP
~WELL INFORMATION BLOCK
#MNEM.UNIT           DATA                    DESCRIPTION OF MNEMONIC
#---------    -------------------            -------------------------------
# Generated from Intellog Unique Number	CS_67_68/WELL/2196
WELL.         10-28-067-03W4                 : Well_name    - WELL
LOC .         00/10-28-067-03W4/0            : Location     - LOCATION
UWI .         00/10-28-067-03W4/0            : Uwi          - UNIQUE WELL ID
ENTR.         SP                             : Entered      - ENTERED BY
SRVC.         SCHLUMBERGER                   : Scn          - SERVICE COMPANY
STRT.M        335                            : top_depth    - START DEPTH
STOP.M        560                            : bot_depth    - STOP DEPTH
STEP.M        0.25                           : increment    - STEP LENGTH
 NULL. -999.2500:NULL Value
~CURVE INFORMATION BLOCK
#MNEM UNIT       ERCB CURVE CODE    CURVE DESCRIPTION
#-----------   ------------------   ----------------------------------
DEPT.M        00 001 00 00         : DEPTH        - DEPTH
ILD .OHMM     00 120 00 00         : RESD         - DEEP RESISTIVITY (DIL)
DPHI.V/V      00 890 00 00         : PHID         - DENSITY POROSITY (LIMESTONE)
NPHI.V/V      00 330 00 00         : PHIN         - NEUTRON POROSITY (LIMESTONE)
GR  .API      00 310 00 00         : GR           - GAMMA RAY
CALI.MM       00 280 01 00         : CAL          - CALIPER
~PARAMETER INFORMATION
#MNEM.UNIT           DATA             DESCRIPTION OF MNEMONIC
#---------         -----------     ------------------------------
GL  .M        678.88               : gl           - GROUND LEVEL ELEVATION
EREF.M        682.54               : kb           - ELEVATION OF DEPTH REFERENCE
DATM.M        682.54               : datum        - DATUM ELEVATION
TDD .M        573                  : tdd          - TOTAL DEPTH DRILLER
RUN .         ONE                  : Run          - RUN NUMBER
ENG .         BILL                 : Engineer     - RECORDING ENGINEER
WIT .         JIM                  : Witness      - WITNESSED BY
MUD .         GEL                  : Mud_type     - MUD TYPE
MATR.         LIMESTONE            : Logunit      - NEUTRON MATRIX
TMAX.C        18                   : BHT          - MAXIMUM RECORDED TEMPERATURE
BHTD.M        572.4                : BHTDEP       - MAXIMUM RECORDED TEMPERATURE
MATR.         1                    : LOGUNIT      - NEUTRON MATRIX
RMT .C        25                   : MDTP         - TEMPERATURE OF MUD
NEUT.         1                    : NEUTRON      - NEUTRON TYPE
RESI.         0                    : RESIST       - RESISTIVITY TYPE
RMC .OHMM     0.25                 : RMC          - RESISTIVITY OF MUD CAKE
RMF .OHMM     0.25                 : RMF          - RESISTIVITY OF MUD FILTRATE
SUFT.C        15                   : SUFT         - SURFACE TEMPERATURE
~A  DEPTH     RESD     PHID     PHIN       GR      CAL
  335.000    2.860    0.269    0.556  105.037  213.242
  335.250    2.865    0.279    0.540  104.434  213.659
  335.500    2.859    0.251    0.505  102.795  214.076
  335.750    2.892    0.193    0.477   97.440  213.984
  336.000    2.985    0.149    0.475   92.999  213.994
  336.250    3.152    0.182    0.486   94.711  212.990
  336.500    3.542    0.219    0.484  105.562  212.089
  336.750    3.684    0.239    0.480  113.184  211.490
  337.000    3.643    0.254    0.490  110.692  211.092
  337.250    3.595    0.262    0.504  106.129  210.393
  337.500    3.521    0.256    0.517  102.480  209.590
  337.750    3.442    0.254    0.528  100.963  209.094
  338.000    3.340    0.266    0.533   97.740  209.103
  338.250    3.127    0.272    0.525   95.066  209.317
  338.500    2.984    0.274    0.533   92.940  208.210
  338.750    2.809    0.275    0.472   83.320  206.494
  339.000    2.640    0.297    0.390   75.223  205.286
  339.250    2.567    0.317    0.333   70.416  204.281
  339.500    3.371    0.341    0.327   67.437  203.987
  339.750    4.168    0.375    0.303   63.178  203.287
  340.000    5.453    0.394    0.290   66.231  202.789
  340.250    6.568    0.389    0.313   69.953  202.292
  340.500    8.291    0.374    0.307   64.599  201.592
  340.750   11.095    0.389    0.292   59.914  201.299
  341.000   14.006    0.401    0.293   56.630  201.106
  341.250   15.618    0.406    0.293   56.879  200.814
  341.500   16.369    0.412    0.288   60.664  200.824
  341.750   17.285    0.418    0.305   64.204  200.831
  342.000   17.513    0.392    0.336   69.693  200.642
  342.250   17.512    0.352    0.391   76.584  200.549
  342.500   16.802    0.316    0.438   82.987  200.661
  342.750   13.948    0.293    0.462   86.588  200.873
  343.000    9.704    0.284    0.473   90.251  200.885
  343.250    7.614    0.276    0.461   93.485  200.894
  343.500    6.110    0.274    0.447   96.964  200.909
  343.750    5.786    0.278    0.446   92.462  200.918
  344.000    5.479    0.285    0.453   86.802  200.928
  344.250    5.296    0.286    0.457   87.174  200.738
  344.500    5.286    0.286    0.456   90.836  200.747
  344.750    5.396    0.273    0.456   94.559  200.755
  345.000    5.645    0.282    0.459   80.857  200.968
  345.250    5.817    0.307    0.470   59.112  201.689
  345.500    6.028    0.330    0.446   51.077  202.818
  345.750    6.247    0.348    0.428   56.993  203.639
  346.000    6.823    0.319    0.416   66.564  204.666
  346.250    7.870    0.301    0.436   77.538  205.184
  346.500    9.769    0.279    0.454   87.109  205.397
  346.750   11.700    0.262    0.458   93.147  205.510
  347.000   13.145    0.252    0.437   94.128  205.624
  347.250   12.494    0.257    0.431   90.358  205.430
  347.500    8.958    0.281    0.439   87.440  205.134
  347.750    7.042    0.291    0.424   86.044  204.434
  348.000    6.115    0.294    0.413   87.573  203.530
  348.250    6.069    0.287    0.407   92.393  202.832
  348.500    6.409    0.289    0.448  100.929  202.638
  348.750    6.742    0.305    0.480  106.663  202.751
  349.000    6.883    0.313    0.487  111.664  202.964
  349.250    6.921    0.271    0.470  106.309  203.279
  349.500    6.741    0.244    0.468   98.700  203.390
  349.750    6.468    0.245    0.468   92.431  203.707
  350.000    5.976    0.257    0.425   89.208  203.921
  350.250    5.712    0.248    0.423   84.767  203.830
  350.500    5.616    0.253    0.437   79.472  203.838
  350.750    5.584    0.265    0.433   73.020  203.748
  351.000    5.733    0.259    0.425   68.579  203.759
  351.250    5.863    0.276    0.423   72.424  203.567
  351.500    5.963    0.287    0.435   75.599  203.475
  351.750    6.053    0.261    0.442   77.189  203.485
  352.000    6.064    0.253    0.436   76.890  203.496
  352.250    6.132    0.281    0.435   66.478  203.811
  352.500    6.307    0.297    0.439   57.955  203.821
  352.750    6.536    0.281    0.460   63.871  203.731
  353.000    6.967    0.285    0.493   56.140  203.639
  353.250    7.553    0.315    0.469   50.602  203.548
  353.500    8.189    0.328    0.449   53.837  203.559
  353.750    9.535    0.305    0.444   65.175  203.570
  354.000   10.713    0.282    0.470   76.392  203.377
  354.250   11.723    0.290    0.485   84.197  203.183
  354.500   11.312    0.296    0.498   85.726  202.891
  354.750   10.511    0.303    0.470   85.063  202.900
  355.000    9.749    0.305    0.446   87.933  202.809
  355.250    8.693    0.305    0.486   93.483  202.616
  355.500    7.809    0.315    0.510   92.515  202.732
  355.750    7.243    0.322    0.524   84.723  202.538
  356.000    6.910    0.327    0.502   78.941  202.649
  356.250    6.807    0.326    0.490   75.474  202.761
  356.500    7.027    0.325    0.481   72.983  202.973
  356.750    7.448    0.322    0.476   71.770  203.086
  357.000    7.895    0.319    0.462   70.010  203.097
  357.250    8.400    0.314    0.438   69.102  203.007
  357.500    9.021    0.321    0.460   69.047  203.117
  357.750    9.652    0.316    0.485   66.616  203.128
  358.000   10.192    0.162    0.487   62.785  203.341
  358.250   10.582    0.045    0.196   59.441  203.353
  358.500   10.946    0.026    0.185   57.193  203.565
  358.750   12.390    0.015    0.177   55.979  203.982
  359.000   15.236    0.021    0.174   55.559  204.500
  359.250   18.385    0.083    0.201   56.663  204.612
  359.500   21.773    0.122    0.266   58.130  204.723
  359.750   27.127    0.196    0.330   60.635  204.837
  360.000   34.829    0.280    0.414   63.444  204.542
  360.250   28.163    0.308    0.448   64.608  204.148
  360.500   18.174    0.308    0.464   63.152  204.056
  360.750   14.695    0.310    0.461   67.362  203.761
  361.000   12.176    0.312    0.449   72.121  203.771
  361.250   10.204    0.314    0.446   77.001  203.783
  361.500    8.945    0.316    0.457   76.764  203.692
  361.750    8.391    0.321    0.456   72.323  203.501
  362.000    8.172    0.323    0.441   69.222  203.307
  362.250    7.990    0.324    0.440   68.679  203.214
  362.500    7.796    0.322    0.453   73.682  203.024
  362.750    7.579    0.321    0.461   79.719  202.931
  363.000    7.340    0.323    0.467   83.259  202.639
  363.250    7.109    0.323    0.475   83.510  202.444
  363.500    6.950    0.320    0.483   80.897  202.455
  363.750    6.833    0.315    0.489   78.771  202.465
  364.000    6.605    0.312    0.466   78.290  202.476
  364.250    6.458    0.310    0.446   80.123  202.488
  364.500    6.254    0.307    0.437   83.054  202.599
  364.750    6.069    0.304    0.429   83.060  202.812
  365.000    5.978    0.302    0.441   84.102  202.925
  365.250    5.899    0.298    0.454   85.875  202.935
  365.500    5.932    0.294    0.448   84.907  202.947
  365.750    6.090    0.287    0.449   82.903  202.755
  366.000    6.205    0.282    0.440   82.177  202.663
  366.250    6.287    0.279    0.451   82.488  202.775
  366.500    6.370    0.292    0.471   84.200  202.581
  366.750    6.430    0.310    0.489   86.827  202.591
  367.000    6.551    0.315    0.501   89.211  202.601
  367.250    6.675    0.306    0.509   90.678  202.612
  367.500    6.763    0.299    0.496   91.415  202.830
  367.750    6.763    0.292    0.492   91.238  203.043
  368.000    6.674    0.295    0.495   88.198  203.257
  368.250    6.624    0.297    0.489   89.302  203.470
  368.500    6.561    0.297    0.498   90.404  203.785
  368.750    6.549    0.296    0.487   87.242  203.999
  369.000    6.536    0.291    0.497   87.188  204.313
  369.250    6.511    0.280    0.510   87.986  204.424
  369.500    6.474    0.269    0.493   90.979  204.535
  369.750    6.450    0.288    0.465   93.787  204.445
  370.000    6.425    0.300    0.446   92.026  204.454
  370.250    6.400    0.303    0.451   93.677  204.769
  370.500    6.364    0.307    0.457   92.343  204.983
  370.750    6.328    0.303    0.461   89.303  205.095
  371.000    6.268    0.295    0.480   94.124  205.003
  371.250    6.233    0.290    0.492   97.724  205.014
