~VERSION INFORMATION
 VERS.                 2.0:   CWLS LOG ASCII STANDARD -VERSION 2.0
 WRAP.                  NO:   ONE LINE PER DEPTH STEP
~WELL INFORMATION BLOCK
#MNEM.UNIT           DATA                    DESCRIPTION OF MNEMONIC
#---------    -------------------            -------------------------------
# Generated from Intellog Unique Number	CW_70_72/WELL/1055
NULL.         -999.25                        : NULL_VALUE
WELL.         NORCEN VICTOR 11-08            : Well_name    - WELL              
LOC .         11-08-072-01W5                 : Location     - LOCATION          
UWI .         00/11-08-072-01W5/0            : Uwi          - UNIQUE WELL ID    
ENTR.         JAYE                           : Entered      - ENTERED BY        
SRVC.         WESTERN ATLAS                  : Scn          - SERVICE COMPANY   
DATE.         11 MAR 81                      : Date         - LOG DATE          
STRT.M        424                            : top_depth    - START DEPTH       
STOP.M        673                            : bot_depth    - STOP DEPTH        
STEP.M        0.25                           : increment    - STEP LENGTH       
~CURVE INFORMATION BLOCK
#MNEM UNIT       ERCB CURVE CODE    CURVE DESCRIPTION
#-----------   ------------------   ----------------------------------
DEPT.M        00 001 00 00         : DEPTH        - DEPTH                       
DPHI.V/V      00 890 00 00         : PHID         - DENSITY POROSITY (SANDSTONE)
NPHI.V/V      00 330 00 00         : PHIN         - NEUTRON POROSITY (SANDSTONE)
GR  .API      00 310 00 00         : GR           - GAMMA RAY                   
CALI.MM       00 280 01 00         : CAL          - CALIPER                     
ILD .OHMM     00 120 00 00         : RESD         - DEEP RESISTIVITY (DIL)      
~PARAMETER INFORMATION       
#MNEM.UNIT           DATA             DESCRIPTION OF MNEMONIC
#---------         -----------     ------------------------------
GL  .M        610.84               : gl           - GROUND LEVEL ELEVATION      
EREF.M        615.4                : kb           - ELEVATION OF DEPTH REFERENCE
DATM.M        610.84               : datum        - DATUM ELEVATION             
TDD .M        685                  : tdd          - TOTAL DEPTH DRILLER         
RUN .         ONE                  : Run          - RUN NUMBER                  
BASE.         R.D.                 : Branch       - HOME BASE OF LOGGING UNIT   
MUD .         GEL CHEM             : Mud_type     - MUD TYPE                    
MATR.         SANDSTONE            : Logunit      - NEUTRON MATRIX              
TMAX.C        30                   : BHT          - MAXIMUM RECORDED TEMPERATURE
BHTD.M        685.4                : BHTDEP       - MAXIMUM RECORDED TEMPERATURE
RMT .C        5                    : MDTP         - TEMPERATURE OF MUD          
MUDD.KG/M     1110                 : MWT          - MUD DENSITY                 
NEUT.         1                    : NEUTRON      - NEUTRON TYPE                
RESI.         0                    : RESIST       - RESISTIVITY TYPE            
RM  .OHMM     7                    : RM           - RESISTIVITY OF MUD          
RMC .OHMM     3.5                  : RMC          - RESISTIVITY OF MUD CAKE     
RMF .OHMM     4.5                  : RMF          - RESISTIVITY OF MUD FILTRATE 
SUFT.C        0                    : SUFT         - SURFACE TEMPERATURE         
~A  DEPTH     PHID     PHIN       GR      CAL     RESD
# ...
  606.500    0.030    0.323   97.161  214.434    4.611
  606.750    0.011    0.315  101.314  213.797    4.748
  607.000    0.054    0.305   99.232  213.791    4.853
  607.250    0.095    0.299   94.254  213.891    5.188
  607.500    0.071    0.288   88.519  213.989    5.555
  607.750    0.057    0.279   84.927  214.297    5.807
  608.000    0.003    0.272   82.594  214.398    5.761
  608.250    0.018    0.294   85.109  214.496    5.392
  608.500    0.087    0.308   91.403  214.596    4.835
  608.750    0.133    0.320   94.862  214.696    4.303
  609.000    0.116    0.330   95.929  214.584    4.051
  609.250    0.100    0.314   94.289  214.369    4.155
  609.500    0.088    0.324   93.151  214.048    4.360
  609.750    0.093    0.332   94.344  213.727    4.617
  610.000    0.105    0.331   93.900  213.616    4.946
  610.250    0.101    0.323   93.645  213.820    5.160
  610.500    0.084    0.315   92.948  213.814    5.342
  610.750    0.066    0.307   90.363  213.914    5.491
  611.000    0.036    0.299   84.314  214.433    5.540
  611.250    0.040    0.294   79.525  214.950    5.214
  611.500    0.064    0.292   71.776  215.051    4.745
  611.750    0.096    0.293   62.516  215.045    4.030
  612.000    0.142    0.296   56.530  215.039    3.286
  612.250    0.171    0.300   51.803  214.718    2.817
  612.500    0.228    0.309   48.840  214.397    2.493
  612.750    0.254    0.318   47.388  214.182    2.240
  613.000    0.257    0.318   47.636  213.650    1.997
  613.250    0.252    0.313   49.522  213.225    1.876
  613.500    0.244    0.308   52.226  212.904    1.823
  613.750    0.239    0.306   51.530  212.793    1.829
  614.000    0.242    0.308   52.219  212.786    1.852
  614.250    0.249    0.314   53.349  212.677    1.886
  614.500    0.246    0.325   53.346  212.566    1.946
  614.750    0.240    0.325   52.587  212.560    2.011
  615.000    0.238    0.322   55.732  212.554    2.036
  615.250    0.234    0.321   56.799  212.337    2.038
  615.500    0.227    0.323   55.094  212.122    2.060
  615.750    0.214    0.323   54.713  211.905    2.130
  616.000    0.206    0.324   51.939  211.795    2.144
  616.250    0.225    0.324   51.810  211.474    2.140
  616.500    0.237    0.323   54.199  211.469    2.135
  616.750    0.236    0.324   55.959  211.043    2.136
  617.000    0.235    0.325   59.104  210.617    2.155
  617.250    0.241    0.327   60.044  210.298    2.194
  617.500    0.237    0.327   58.656  209.661    2.238
  617.750    0.216    0.327   57.015  209.550    2.262
  618.000    0.218    0.327   58.712  209.230    2.278
  618.250    0.222    0.328   60.975  209.014    2.289
  618.500    0.218    0.327   62.042  208.904    2.305
  618.750    0.207    0.326   63.046  208.791    2.343
  619.000    0.204    0.324   64.743  208.680    2.372
  619.250    0.203    0.318   65.243  208.465    2.425
  619.500    0.196    0.310   67.444  208.670    2.487
  619.750    0.185    0.304   67.629  208.874    2.571
  620.000    0.177    0.297   63.407  209.392    2.623
  620.250    0.162    0.297   60.192  209.597    2.695
  620.500    0.121    0.311   59.747  209.906    2.780
  620.750    0.167    0.314   61.255  210.215    2.837
  621.000    0.199    0.312   63.581  210.629    2.851
  621.250    0.201    0.307   65.593  211.042    2.850
  621.500    0.187    0.304   67.604  211.247    2.853
  621.750    0.178    0.302   68.986  211.346    2.883
  622.000    0.174    0.313   68.416  211.550    2.952
  622.250    0.163    0.327   65.327  211.858    2.990
  622.500    0.153    0.333   63.182  212.168    3.021
  622.750    0.170    0.334   66.390  212.581    3.031
  623.000    0.194    0.333   70.795  212.680    3.018
  623.250    0.194    0.331   74.192  212.990    3.010
  623.500    0.176    0.333   72.992  213.404    2.969
  623.750    0.166    0.339   69.399  214.342    2.874
  624.000    0.166    0.340   71.159  215.386    2.793
  624.250    0.176    0.330   74.304  215.171    2.860
  624.500    0.183    0.318   69.640  214.220    2.956
  624.750    0.180    0.306   70.392  212.744    3.044
  625.000    0.171    0.312   71.837  212.004    3.153
  625.250    0.162    0.318   73.471  211.998    3.197
  625.500    0.153    0.295   75.671  212.622    3.243
  625.750    0.164    0.281   76.738  213.770    3.315
  626.000    0.171    0.291   76.357  214.918    3.383
  626.250    0.167    0.310   75.094  215.333    3.457
  626.500    0.154    0.315   74.335  215.641    3.560
  626.750    0.154    0.317   74.205  215.532    3.611
  627.000    0.162    0.311   74.516  215.735    3.684
  627.250    0.160    0.303   74.513  215.834    3.751
  627.500    0.139    0.309   74.635  216.038    3.877
  627.750    0.132    0.318   75.009  216.243    4.045
  628.000    0.124    0.325   74.502  216.237    4.219
  628.250    0.117    0.327   73.177  216.439    4.536
  628.500    0.126    0.323   71.851  216.435    4.813
  628.750    0.144    0.321   76.255  216.743    4.956
  629.000    0.140    0.322   86.957  216.843    4.897
  629.250    0.127    0.333   98.099  217.047    4.500
  629.500    0.134    0.339  103.826  217.145    4.269
  629.750    0.137    0.329  104.453  217.140    4.155
  630.000    0.125    0.317   98.026  217.449    4.053
  630.250    0.132    0.319   92.103  217.337    3.975
  630.500    0.136    0.328   94.051  217.123    3.922
  630.750    0.135    0.340   97.763  216.696    3.903
  631.000    0.133    0.339  101.349  216.375    3.916
  631.250    0.123    0.334   96.937  215.949    4.002
  631.500    0.123    0.316   88.181  215.839    4.279
  631.750    0.140    0.304   80.180  215.517    4.765
  632.000    0.154    0.300   71.046  215.303    5.388
  632.250    0.148    0.292   60.022  215.297    5.846
  632.500    0.136    0.282   60.900  215.395    6.250
  632.750    0.118    0.280   69.524  215.285    6.399
  633.000    0.100    0.295   74.621  214.964    6.195
  633.250    0.138    0.301   71.720  214.433    5.671
  633.500    0.170    0.304   66.742  214.008    5.046
  633.750    0.191    0.298   62.393  213.267    4.099
  634.000    0.208    0.286   55.526  211.897    3.372
  634.250    0.222    0.269   48.470  210.107    2.838
  634.500    0.214    0.249   47.900  208.947    2.530
  634.750    0.116    0.219   51.989  208.626    2.674
  635.000    0.049    0.196   53.686  209.145    3.234
  635.250    0.012    0.180   50.093  212.812    4.335
  635.500   -0.002    0.168   50.530  216.480    5.597
  635.750    0.010    0.157   54.116  219.203    7.267
  636.000    0.022    0.177   56.254  219.406    8.657
  636.250    0.071    0.228   59.398  219.401    6.952
  636.500    0.161    0.269   63.110  219.395    4.571
  636.750    0.170    0.299   66.067  219.075    3.569
  637.000    0.171    0.315   69.652  218.437    3.049
  637.250    0.178    0.320   72.923  218.117    2.791
  637.500    0.189    0.303   75.565  217.901    2.794
  637.750    0.193    0.287   77.891  217.685    2.959
  638.000    0.191    0.275   82.485  217.471    3.235
  638.250    0.182    0.265   83.678  217.569    3.457
  638.500    0.137    0.247   83.170  217.563    3.924
  638.750    0.074    0.234   83.230  217.662    4.503
  639.000    0.025    0.218   78.818  217.657    5.355
  639.250    0.003    0.195   65.905  217.650    6.463
  639.500   -0.004    0.171   61.683  217.854    7.659
  639.750    0.038    0.179   69.172  217.744    8.217
  640.000    0.064    0.234   78.237  217.843    8.273
  640.250    0.054    0.230   61.420  217.942    8.535
  640.500    0.021    0.209   50.397  218.041    9.331
  640.750    0.001    0.176   42.144  218.035   10.829
  641.000    0.010    0.148   46.422  218.134   10.290
  641.250    0.035    0.198   50.449  218.233    8.822
  641.500    0.036    0.184   59.262  218.438    7.424
  641.750    0.016    0.202   83.124  218.851    6.400
  642.000    0.119    0.260   90.992  219.475    5.518
  642.250    0.125    0.297   88.659  219.993    4.784
  642.500    0.102    0.253   74.612  220.303    4.259
  642.750    0.113    0.227   65.793  220.508    4.184
