~VERSION INFORMATION
 VERS.                 2.0:   CWLS LOG ASCII STANDARD -VERSION 2.0
 WRAP.                  NO:   ONE LINE PER DEPTH STEP
~WELL INFORMATION BLOCK
#MNEM.UNIT           DATA                    DESCRIPTION OF MNEMONIC
#---------    -------------------            -------------------------------
# Generated from Intellog Unique Number	CC_84_87/WELL/2343
WELL.         HB GORDON LAKE                 : Well_name    - WELL
LOC .         00/15-21-084-03W4/0            : Location     - LOCATION
UWI .         00/15-21-084-03W400            : Uwi          - UNIQUE WELL ID
ENTR.         DW                             : Entered      - ENTERED BY
SRVC.         SCHLUMBERGER                   : Scn          - SERVICE COMPANY
STRT.M        60.96                          : top_depth    - START DEPTH
STOP.M        289.21                         : bot_depth    - STOP DEPTH
STEP.M        0.25                           : increment    - STEP LENGTH
 NULL. -999.2500:NULL Value
~CURVE INFORMATION BLOCK
#MNEM UNIT       ERCB CURVE CODE    CURVE DESCRIPTION
#-----------   ------------------   ----------------------------------
DEPT.M        00 001 00 00         : DEPTH        - DEPTH
GR  .API      00 310 00 00         : GR           - GAMMA RAY
DPHI.V/V      00 890 00 00         : PHID         - DENSITY POROSITY (SANDSTONE)
NPHI.V/V      00 330 00 00         : PHIN         - NEUTRON POROSITY (SANDSTONE)
ILD .OHMM     00 120 00 00         : RESD         - DEEP RESISTIVITY (DIL)
~PARAMETER INFORMATION
#MNEM.UNIT           DATA             DESCRIPTION OF MNEMONIC
#---------         -----------     ------------------------------
GL  .M        456.59               : gl           - GROUND LEVEL ELEVATION
EREF.M        458.419              : kb           - ELEVATION OF DEPTH REFERENCE
DATM.M        458.419              : datum        - DATUM ELEVATION
TDD .M        291.389              : tdd          - TOTAL DEPTH DRILLER
RUN .         ONE                  : Run          - RUN NUMBER
ENG .         BILL                 : Engineer     - RECORDING ENGINEER
WIT .         JIM                  : Witness      - WITNESSED BY
MUD .         GEL                  : Mud_type     - MUD TYPE
MATR.         SANDSTONE            : Logunit      - NEUTRON MATRIX
TMAX.C        18.8889              : BHT          - MAXIMUM RECORDED TEMPERATURE
BHTD.M        291.389              : BHTDEP       - MAXIMUM RECORDED TEMPERATURE
MATR.         1                    : LOGUNIT      - NEUTRON MATRIX
RMT .C        25                   : MDTP         - TEMPERATURE OF MUD
NEUT.         1                    : NEUTRON      - NEUTRON TYPE
RESI.         0                    : RESIST       - RESISTIVITY TYPE
RMC .OHMM     0.25                 : RMC          - RESISTIVITY OF MUD CAKE
RMF .OHMM     0.25                 : RMF          - RESISTIVITY OF MUD FILTRATE
SUFT.C        15                   : SUFT         - SURFACE TEMPERATURE
~A  DEPTH       GR     PHID     PHIN     RESD
# ...
  234.960   58.863    0.293    0.457    4.029
  235.210   84.830    0.272    0.389    4.336
  235.460  100.460    0.214    0.406    4.903
  235.710   94.300    0.161    0.452    5.418
  235.960   89.095    0.159    0.440    5.366
  236.210   78.266    0.205    0.429    4.643
  236.460   67.443    0.241    0.455    4.085
  236.710   61.473    0.271    0.435    3.814
  236.960   66.764    0.269    0.399    3.818
  237.210   76.628    0.230    0.401    3.973
  237.460   72.331    0.203    0.417    4.080
  237.710   51.147    0.232    0.407    4.083
  237.960   45.022    0.274    0.396    3.983
  238.210   48.253    0.286    0.391    3.823
  238.460   48.530    0.278    0.387    3.650
  238.710   43.433    0.271    0.382    3.496
  238.960   38.297    0.276    0.381    3.341
  239.210   42.388    0.311    0.387    3.143
  239.460   46.469    0.331    0.406    3.027
  239.710   45.597    0.321    0.411    2.956
  239.960   40.357    0.301    0.392    2.967
  240.210   34.131    0.292    0.372    3.061
  240.460   32.173    0.296    0.368    3.058
  240.710   35.350    0.285    0.359    3.066
  240.960   37.869    0.268    0.342    3.003
  241.210   38.578    0.284    0.360    2.920
  241.460   37.901    0.318    0.406    2.896
  241.710   34.634    0.320    0.415    2.900
  241.960   30.536    0.315    0.387    2.906
  242.210   28.465    0.307    0.377    2.842
  242.460   27.819    0.304    0.395    2.732
  242.710   28.773    0.307    0.403    2.599
  242.960   31.541    0.311    0.390    2.506
  243.210   32.015    0.314    0.387    2.513
  243.460   29.478    0.316    0.383    2.507
  243.710   53.432    0.313    0.413    2.854
  243.960   74.779    0.298    0.411    3.295
  244.210   73.485    0.254    0.373    3.747
  244.460   70.042    0.197    0.372    4.340
  244.710   67.256    0.203    0.376    4.670
  244.960   69.411    0.219    0.379    5.123
  245.210   72.248    0.222    0.371    5.407
  245.460   73.766    0.204    0.358    5.311
  245.710   75.141    0.178    0.354    5.199
  245.960   75.555    0.180    0.358    5.380
  246.210   74.366    0.204    0.367    5.414
  246.460   71.047    0.227    0.376    5.221
  246.710   62.606    0.235    0.387    4.373
  246.960   51.743    0.247    0.398    3.403
  247.210   44.767    0.276    0.409    3.102
  247.460   42.614    0.300    0.429    2.877
  247.710   45.598    0.333    0.454    2.712
  247.960   51.084    0.319    0.457    2.734
  248.210   55.728    0.310    0.461    2.834
  248.460   59.738    0.313    0.462    3.013
  248.710   64.664    0.259    0.434    3.355
  248.960   67.968    0.251    0.428    3.524
  249.210   72.223    0.253    0.415    3.647
  249.460   69.349    0.249    0.428    3.682
  249.710   58.772    0.252    0.452    3.572
  249.960   49.700    0.273    0.440    3.413
  250.210   45.337    0.300    0.426    3.313
  250.460   43.875    0.298    0.420    3.267
  250.710   44.381    0.279    0.413    3.183
  250.960   45.470    0.266    0.414    3.112
  251.210   45.469    0.273    0.413    3.152
  251.460   43.813    0.286    0.394    3.251
  251.710   43.023    0.260    0.393    3.293
  251.960   50.293    0.237    0.398    3.433
  252.210   56.616    0.227    0.419    3.547
  252.460   60.339    0.223    0.433    3.571
  252.710   62.591    0.233    0.420    3.561
  252.960   56.322    0.257    0.412    3.507
  253.210   50.901    0.254    0.414    3.469
  253.460   47.621    0.240    0.425    3.333
  253.710   46.693    0.252    0.426    3.231
  253.960   47.562    0.265    0.414    3.173
  254.210   47.270    0.252    0.413    3.026
  254.460   45.093    0.261    0.425    2.971
  254.710   47.936    0.280    0.402    3.066
  254.960   67.382    0.268    0.374    3.301
  255.210  101.227    0.216    0.420    3.659
  255.460  124.271    0.168    0.509    4.049
  255.710  117.623    0.154    0.526    4.290
  255.960  109.564    0.137    0.511    4.314
  256.210  104.779    0.162    0.490    4.256
  256.460  104.515    0.187    0.471    4.188
  256.710  108.802    0.163    0.452    4.138
  256.960  113.624    0.120    0.445    4.152
  257.210  116.263    0.110    0.463    4.271
  257.460  115.608    0.102    0.468    4.540
  257.710  117.525    0.137    0.502    4.717
  257.960  119.430    0.178    0.523    4.688
  258.210  116.836    0.189    0.502    4.512
  258.460  115.043    0.214    0.515    4.315
  258.710  120.129    0.217    0.569    4.263
  258.960  124.650    0.207    0.590    4.055
  259.210  126.798    0.218    0.587    3.862
  259.460  126.431    0.240    0.594    3.757
  259.710  123.096    0.246    0.603    3.663
  259.960  119.710    0.273    0.610    3.727
  260.210  115.589    0.341    0.647    3.718
  260.460  110.500    0.371    0.675    3.875
  260.710  107.994    0.367    0.714    4.505
  260.960  103.653    0.322    0.678    5.349
  261.210   90.719    0.193    0.480    6.004
  261.460   81.105    0.098    0.380    6.714
  261.710   78.496    0.087    0.354    6.994
  261.960   81.264    0.104    0.358    6.853
  262.210   82.484    0.117    0.383    6.667
  262.460   77.245    0.126    0.396    6.425
  262.710   69.334    0.126    0.371    5.857
  262.960   63.103    0.134    0.358    5.460
  263.210   61.151    0.148    0.364    4.804
  263.460   59.830    0.171    0.360    4.204
  263.710   55.162    0.199    0.367    3.866
  263.960   47.496    0.215    0.403    3.480
  264.210   39.348    0.228    0.393    3.333
  264.460   35.326    0.247    0.378    3.095
  264.710   33.622    0.266    0.377    3.002
  264.960   33.833    0.270    0.373    3.110
  265.210   35.984    0.250    0.364    3.195
  265.460   36.392    0.225    0.364    3.242
  265.710   34.513    0.226    0.366    3.255
  265.960   32.949    0.244    0.371    3.194
  266.210   30.899    0.262    0.388    3.056
  266.460   27.709    0.280    0.408    2.849
  266.710   24.841    0.308    0.409    2.598
  266.960   22.391    0.332    0.395    2.401
  267.210   20.152    0.318    0.388    2.354
  267.460   19.343    0.305    0.382    2.282
  267.710   19.833    0.317    0.376    2.192
  267.960   21.054    0.326    0.378    2.177
  268.210   22.528    0.314    0.391    2.178
  268.460   21.701    0.313    0.394    2.176
  268.710   20.655    0.306    0.393    2.199
  268.960   19.356    0.300    0.392    2.242
  269.210   18.171    0.302    0.391    2.262
  269.460   19.092    0.307    0.392    2.263
  269.710   21.653    0.313    0.392    2.329
  269.960   22.561    0.316    0.392    2.479
  270.210   25.077    0.310    0.387    2.572
  270.460   26.815    0.290    0.380    2.688
  270.710   25.963    0.265    0.371    2.922
  270.960   26.608    0.253    0.353    3.145
  271.210   28.031    0.242    0.332    3.254
  271.460   29.766    0.236    0.360    3.287
  271.710   32.646    0.244    0.370    3.213
  271.960   43.454    0.249    0.348    3.151
  272.210   59.250    0.238    0.356    3.220
  272.460   61.200    0.231    0.385    3.228
  272.710   52.805    0.241    0.363    2.964
  272.960   46.197    0.263    0.372    2.553
  273.210   44.938    0.280    0.397    2.250
  273.460   45.861    0.286    0.392    2.137
  273.710   45.614    0.295    0.391    2.074
  273.960   42.527    0.318    0.412    1.950
  274.210   42.141    0.336    0.410    1.904
  274.460   45.002    0.325    0.398    1.864
  274.710   43.139    0.313    0.396    1.824
  274.960   36.026    0.323    0.404    1.873
  275.210   33.865    0.328    0.416    1.990
  275.460   33.974    0.318    0.390    2.186
  275.710   56.133    0.236    0.353    2.550
  275.960   82.730    0.178    0.376    2.991
  276.210   92.701    0.187    0.394    3.485
  276.460   99.594    0.173    0.361    4.034
  276.710  119.201    0.142    0.448    4.369
  276.960  128.260    0.144    0.499    4.507
  277.210  124.528    0.162    0.508    4.725
  277.460  114.510    0.174    0.494    5.019
  277.710  103.689    0.178    0.457    5.089
  277.960   96.605    0.171    0.435    4.776
  278.210   87.915    0.176    0.423    4.264
