~VERSION INFORMATION
 VERS.                 2.0:   CWLS LOG ASCII STANDARD -VERSION 2.0
 WRAP.                  NO:   ONE LINE PER DEPTH STEP
~WELL INFORMATION BLOCK
#MNEM.UNIT           DATA                    DESCRIPTION OF MNEMONIC
#---------    -------------------            -------------------------------
# Generated from Intellog Unique Number	CC_80_83/WELL/2328
NULL.         -999.25                        : NULL_VALUE
WELL.         CHEVRON CAN OXY JOLI FOU       : Well_name    - WELL
LOC .         10-01-082-18W4                 : Location     - LOCATION          
UWI .         00/10-01-082-18W400            : Uwi          - UNIQUE WELL ID    
ENTR.         DW                             : Entered      - ENTERED BY        
SRVC.         SCHLUMBERGER                   : Scn          - SERVICE COMPANY   
DATE.         14 FEB 73                      : Date         - LOG DATE
STRT.M        131.064                        : top_depth    - START DEPTH       
STOP.M        338.328                        : bot_depth    - STOP DEPTH        
STEP.M        0.305                          : increment    - STEP LENGTH       
~CURVE INFORMATION BLOCK
#MNEM UNIT       ERCB CURVE CODE    CURVE DESCRIPTION
#-----------   ------------------   ----------------------------------
DEPT.M        00 001 00 00         : DEPTH        - DEPTH                       
DPHI.V/V      00 890 00 00         : PHID         - DENSITY POROSITY (LIMESTONE)
NPHI.V/V      00 330 00 00         : PHIN         - NEUTRON POROSITY (LIMESTONE)
GR  .API      00 310 00 00         : GR           - GAMMA RAY                   
ILD .OHMM     00 120 00 00         : RESD         - DEEP RESISTIVITY (DIL)      
~PARAMETER INFORMATION       
#MNEM.UNIT           DATA             DESCRIPTION OF MNEMONIC
#---------         -----------     ------------------------------
GL  .M        545.287              : gl           - GROUND LEVEL ELEVATION      
EREF.M        548.64               : kb           - ELEVATION OF DEPTH REFERENCE
DATM.M        548.64               : datum        - DATUM ELEVATION             
TDD .M        336.499              : tdd          - TOTAL DEPTH DRILLER         
RUN .         ONE                  : Run          - RUN NUMBER                  
ENG .         BILL                 : Engineer     - RECORDING ENGINEER          
WIT .         JIM                  : Witness      - WITNESSED BY                
MUD .         GEL                  : Mud_type     - MUD TYPE                    
MATR.         LIMESTONE            : Logunit      - NEUTRON MATRIX              
TMAX.C        17.7778              : BHT          - MAXIMUM RECORDED TEMPERATURE
BHTD.M        336.499              : BHTDEP       - MAXIMUM RECORDED TEMPERATURE
MATR.         1                    : LOGUNIT      - NEUTRON MATRIX              
RMT .C        25                   : MDTP         - TEMPERATURE OF MUD          
NEUT.         1                    : NEUTRON      - NEUTRON TYPE                
RESI.         0                    : RESIST       - RESISTIVITY TYPE            
RMC .OHMM     0.25                 : RMC          - RESISTIVITY OF MUD CAKE     
RMF .OHMM     0.25                 : RMF          - RESISTIVITY OF MUD FILTRATE 
SUFT.C        15                   : SUFT         - SURFACE TEMPERATURE         
~A  DEPTH     PHID     PHIN       GR     RESD
  131.064    0.230    0.000   90.624    3.000
  131.369    0.236    0.000   90.622    2.798
  131.674    0.236    0.000   88.816    2.797
  131.978    0.238    0.000   87.009    2.796
  132.283    0.233    0.000   87.607    2.794
  132.588    0.223    0.000   89.408    2.993
  132.893    0.216    0.000   91.809    2.991
  133.198    0.242    0.000   91.806    2.790
  133.502    0.266    0.000   91.203    2.788
  133.807    0.248    0.000   89.397    2.787
  134.112    0.220    0.000   86.990    2.785
  134.417    0.236    0.000   82.781    2.984
  134.722    0.217    0.000   82.778    3.182
  135.026    0.236    0.000   85.179    3.381
  135.331    0.253    0.000   84.576    3.379
  135.636    0.244    0.000   81.567    3.178
  135.941    0.253    0.000   80.964    3.177
  136.245    0.258    0.000   85.168    3.375
  136.550    0.256    0.000   82.160    3.374
  136.855    0.230    0.000   81.556    4.172
  137.160    0.200    0.531   92.371    4.571
  137.465    0.185    0.535   97.777    4.769
  137.769    0.201    0.554   97.773    4.168
  138.074    0.232    0.610   95.367    3.366
  138.379    0.242    0.616   90.557    2.965
  138.684    0.257    0.623   83.943    2.563
  138.989    0.269    0.625   82.137    2.162
  139.293    0.284    0.621   80.331    2.560
  139.598    0.299    0.606   77.925    4.559
  139.903    0.310    0.577   74.317    6.158
  140.208    0.293    0.521   71.309    7.357
  140.513    0.253    0.500   71.307    6.355
  140.817    0.253    0.509   74.309    5.553
  141.122    0.274    0.609   73.103    5.952
  141.427    0.290    0.556   70.697    8.151
  141.732    0.284    0.485   65.886   13.350
  142.037    0.303    0.479   59.273   16.549
  142.341    0.323    0.489   54.463   19.748
  142.646    0.299    0.495   49.651   21.147
  142.951    0.294    0.507   49.048   20.946
  143.256    0.307    0.488   49.045   19.544
  143.561    0.304    0.482   50.846   18.742
  143.865    0.291    0.509   54.448   17.140
  144.170    0.309    0.525   56.247   16.739
  144.475    0.308    0.541   56.246   16.137
  144.780    0.293    0.572   55.041   15.736
  145.085    0.300    0.586   54.438   14.334
  145.389    0.305    0.537   59.242   13.132
  145.694    0.326    0.546   61.644   11.930
  145.999    0.315    0.555   64.044   11.729
  146.304    0.316    0.540   64.041   11.928
  146.609    0.302    0.511   63.437   11.726
  146.913    0.294    0.489   62.232   11.124
  147.218    0.297    0.501   61.630   10.323
  147.523    0.310    0.524   63.429    9.522
  147.828    0.276    0.543   71.237    8.720
  148.132    0.259    0.559   73.039    8.318
  148.437    0.266    0.558   74.839    7.917
  148.742    0.264    0.543   70.029    7.715
  149.047    0.245    0.532   68.223    7.513
  149.352    0.243    0.518   75.431    7.512
  149.656    0.263    0.519   76.029    7.710
  149.961    0.270    0.471   77.228    7.710
  150.266    0.236    0.471   79.630    7.307
  150.571    0.242    0.490   83.232    7.106
  150.876    0.253    0.531   83.831    7.104
  151.180    0.263    0.541   80.222    7.303
  151.485    0.271    0.524   77.815    8.101
  151.790    0.231    0.492   77.813    8.700
  152.095    0.246    0.514   76.007    9.099
  152.400    0.261    0.499   69.393    9.098
  152.704    0.269    0.517   65.184    8.496
  153.009    0.262    0.542   72.393    8.095
  153.314    0.248    0.589   77.198    7.493
  153.619    0.292    0.559   77.195    7.692
  153.924    0.313    0.526   68.778    8.890
  154.228    0.304    0.520   63.367   10.689
  154.533    0.310    0.509   56.754   12.288
  154.838    0.332    0.497   53.747   13.886
  155.143    0.339    0.511   58.551   13.885
  155.448    0.326    0.516   60.350   13.283
  155.752    0.319    0.484   60.948   12.482
  156.057    0.309    0.471   60.946   12.480
  156.362    0.299    0.462   62.145   12.879
  156.667    0.276    0.474   64.546   12.678
  156.972    0.279    0.465   68.149   12.076
  157.276    0.290    0.465   72.353   10.874
  157.581    0.275    0.468   78.360    9.673
  157.886    0.252    0.479   82.564    8.071
  158.191    0.233    0.506   87.969    6.469
  158.495    0.238    0.528   89.769    6.268
  158.800    0.257    0.519   90.968    7.466
  159.105    0.266    0.455   89.762    9.665
  159.410    0.269    0.461   86.155   11.064
  159.715    0.272    0.456   83.148   11.862
  160.019    0.272    0.467   78.337   12.661
  160.324    0.267    0.481   72.324   13.060
  160.629    0.278    0.454   71.120   13.259
  160.934    0.258    0.441   71.117   13.457
  161.239    0.256    0.455   74.118   13.656
  161.543    0.274    0.483   75.919   13.654
  161.848    0.298    0.513   76.517   13.852
  162.153    0.326    0.536   76.514   14.051
  162.458    0.293    0.525   78.315   13.449
  162.763    0.249    0.516   84.322   12.448
  163.067    0.234    0.497   89.126   10.046
  163.372    0.227    0.478   93.330    8.444
  163.677    0.249    0.465   92.726    8.242
  163.982    0.250    0.485   81.906    8.441
  164.287    0.254    0.466   78.898    9.039
  164.591    0.254    0.448   76.492    9.438
  164.896    0.238    0.442   75.288    9.837
  165.201    0.226    0.443   81.294   10.035
  165.506    0.209    0.482   85.498    9.634
  165.811    0.185    0.488   89.101    8.632
  166.115    0.205    0.554   92.103    7.431
  166.420    0.200    0.596   92.099    6.029
  166.725    0.181    0.582   90.895    5.027
  167.030    0.175    0.582   91.494    4.625
  167.335    0.177    0.600   98.701    4.624
  167.639    0.188    0.609  101.103    4.823
  167.944    0.196    0.617  101.701    4.822
  168.249    0.210    0.623   99.294    4.819
  168.554    0.222    0.620  106.502    4.618
  168.858    0.238    0.623  107.702    3.617
  169.163    0.250    0.617  108.901    3.415
  169.468    0.265    0.599  107.696    4.213
  169.773    0.284    0.502  103.487    5.612
  170.078    0.281    0.493   93.869    7.011
  170.382    0.249    0.499   89.659    8.210
  170.687    0.214    0.506   90.858    8.608
  170.992    0.233    0.477   95.062    8.407
  171.297    0.238    0.479   97.463    7.605
  171.602    0.223    0.535   95.657    7.204
  171.906    0.223    0.565   94.453    7.202
  172.211    0.234    0.571   95.652    8.001
  172.516    0.274    0.522   94.447    9.199
  172.821    0.301    0.505   85.430    9.798
  173.126    0.309    0.513   83.024   10.597
  173.430    0.325    0.551   82.420   11.595
  173.735    0.337    0.552   81.816   11.794
  174.040    0.348    0.545   80.611   11.993
  174.345    0.360    0.569   77.003   12.191
  174.650    0.342    0.603   67.385   12.790
  174.954    0.319    0.458   51.757   13.389
  175.259    0.308    0.436   45.144   13.787
  175.564    0.328    0.434   43.338   14.386
  175.869    0.328    0.449   45.139   14.984
  176.174    0.323    0.472   50.543   15.183
  176.478    0.324    0.486   51.743   15.182
  176.783    0.339    0.469   52.942   15.180
  177.088    0.336    0.460   52.940   15.578
  177.393    0.341    0.463   52.937   15.576
  177.698    0.348    0.458   51.130   15.375
  178.002    0.351    0.452   52.330   15.375
  178.307    0.346    0.475   54.130   15.372
  178.612    0.339    0.519   52.925   15.371
  178.917    0.335    0.542   49.917   15.170
  179.221    0.334    0.512   46.309   14.568
  179.526    0.333    0.488   45.706   14.566
  179.831    0.331    0.478   46.303   14.765
  180.136    0.334    0.478   49.304   14.963
  180.441    0.336    0.484   50.504   14.762
  180.745    0.333    0.490   51.704   14.761
  181.050    0.323    0.506   52.903   14.559
  181.355    0.328    0.519   52.900   14.158
  181.660    0.335    0.507   55.300   13.556
  181.965    0.325    0.515   56.500   13.554
  182.269    0.310    0.499   58.298   14.153
  182.574    0.293    0.444   58.897   14.952
  182.879    0.264    0.405   58.294   15.151
  183.184    0.195    0.365   54.686   13.549
  183.489    0.255    0.417   54.082   10.747
  183.793    0.299    0.536   57.084    9.545
