~VERSION INFORMATION
 VERS.                 2.0:   CWLS LOG ASCII STANDARD -VERSION 2.0
 WRAP.                  NO:   ONE LINE PER DEPTH STEP
~WELL INFORMATION BLOCK
#MNEM.UNIT           DATA                    DESCRIPTION OF MNEMONIC
#---------    -------------------            -------------------------------
# Generated from Intellog Unique Number	CS_73_76/WELL/3264
WELL.         BOW VALLEY INDUSTRIES LTD      : Well_name    - WELL
LOC .         00/11-18-075-12W4/0            : Location     - LOCATION
UWI .         00/11-18-075-12W4/0            : Uwi          - UNIQUE WELL ID
ENTR.         SP                             : Entered      - ENTERED BY
SRVC.         SCHLUMBERGER                   : Scn          - SERVICE COMPANY
STRT.M        315                            : top_depth    - START DEPTH
STOP.M        534                            : bot_depth    - STOP DEPTH
STEP.M        0.25                           : increment    - STEP LENGTH
 NULL. -999.2500:NULL Value
~CURVE INFORMATION BLOCK
#MNEM UNIT       ERCB CURVE CODE    CURVE DESCRIPTION
#-----------   ------------------   ----------------------------------
DEPT.M        00 001 00 00         : DEPTH        - DEPTH
ILD .OHMM     00 120 00 00         : RESD         - DEEP RESISTIVITY (DIL)
NPHI.V/V      00 330 00 00         : PHIN         - NEUTRON POROSITY (LIMESTONE)
DPHI.V/V      00 890 00 00         : PHID         - DENSITY POROSITY (LIMESTONE)
GR  .API      00 310 00 00         : GR           - GAMMA RAY
~PARAMETER INFORMATION
#MNEM.UNIT           DATA             DESCRIPTION OF MNEMONIC
#---------         -----------     ------------------------------
GL  .M        685.02               : gl           - GROUND LEVEL ELEVATION
EREF.M        688.37               : kb           - ELEVATION OF DEPTH REFERENCE
DATM.M        685.02               : datum        - DATUM ELEVATION
TDD .M        544                  : tdd          - TOTAL DEPTH DRILLER
RUN .         ONE                  : Run          - RUN NUMBER
ENG .         BILL                 : Engineer     - RECORDING ENGINEER
WIT .         JIM                  : Witness      - WITNESSED BY
MUD .         GEL                  : Mud_type     - MUD TYPE
MATR.         LIMESTONE            : Logunit      - NEUTRON MATRIX
TMAX.C        23.9                 : BHT          - MAXIMUM RECORDED TEMPERATURE
BHTD.M        537                  : BHTDEP       - MAXIMUM RECORDED TEMPERATURE
MATR.         1                    : LOGUNIT      - NEUTRON MATRIX
RMT .C        25                   : MDTP         - TEMPERATURE OF MUD
NEUT.         1                    : NEUTRON      - NEUTRON TYPE
RESI.         0                    : RESIST       - RESISTIVITY TYPE
RMC .OHMM     0.25                 : RMC          - RESISTIVITY OF MUD CAKE
RMF .OHMM     0.25                 : RMF          - RESISTIVITY OF MUD FILTRATE
SUFT.C        15                   : SUFT         - SURFACE TEMPERATURE
~A  DEPTH     RESD     PHIN     PHID       GR
# ...
  445.500    5.261    0.442    0.303   85.915
  445.750    5.457    0.447    0.315   82.280
  446.000    5.766    0.454    0.320   75.013
  446.250    6.439    0.413    0.092   71.984
  446.500    7.191    0.300    0.058   67.138
  446.750    8.333    0.244    0.041   62.292
  447.000    9.136    0.228    0.135   61.681
  447.250    9.653    0.326    0.211   69.535
  447.500    7.731    0.384    0.256   73.764
  447.750    6.667    0.422    0.289   78.594
  448.000    5.541    0.453    0.321   77.984
  448.250    5.145    0.468    0.346   77.372
  448.500    4.776    0.477    0.356   74.337
  448.750    4.688    0.485    0.336   74.333
  449.000    4.599    0.488    0.327   75.536
  449.250    4.598    0.477    0.343   75.528
  449.500    4.596    0.462    0.348   74.918
  449.750    4.594    0.450    0.337   76.118
  450.000    4.593    0.444    0.330   77.324
  450.250    4.592    0.451    0.329   79.131
  450.500    4.590    0.458    0.338   80.335
  450.750    4.589    0.471    0.346   77.300
  451.000    4.673    0.478    0.351   76.086
  451.250    4.670    0.451    0.342   75.475
  451.500    4.756    0.461    0.321   78.493
  451.750    4.755    0.447    0.318   78.485
  452.000    4.841    0.436    0.332   77.873
  452.250    4.840    0.458    0.334   78.472
  452.500    4.838    0.470    0.328   77.255
  452.750    4.835    0.478    0.341   78.457
  453.000    4.924    0.473    0.326   79.659
  453.250    4.923    0.455    0.339   78.443
  453.500    5.012    0.446    0.349   77.228
  453.750    5.011    0.446    0.331   77.825
  454.000    5.008    0.451    0.331   77.212
  454.250    5.007    0.438    0.336   75.392
  454.500    5.099    0.426    0.323   72.362
  454.750    5.908    0.253    0.280   66.306
  455.000    6.847    0.205    0.044   61.461
  455.250    8.233    0.213    0.091   60.245
  455.500    9.026    0.282    0.148   66.888
  455.750    9.023    0.345    0.217   70.512
  456.000    7.638    0.399    0.281   76.552
  456.250    6.835    0.433    0.308   80.174
  456.500    6.004    0.441    0.296   80.774
  456.750    5.372    0.433    0.310   80.159
  457.000    5.176    0.423    0.318   78.945
  457.250    5.078    0.448    0.307   80.147
  457.500    4.984    0.457    0.321   83.165
  457.750    4.982    0.451    0.329   83.158
  458.000    4.889    0.440    0.334   84.965
  458.250    4.887    0.445    0.330   89.192
  458.500    4.886    0.435    0.319   94.627
  458.750    4.884    0.426    0.301   97.042
  459.000    4.882    0.434    0.288  102.478
  459.250    4.971    0.456    0.277  110.334
  459.500    5.157    0.468    0.296  115.770
  459.750    5.654    0.482    0.275  108.506
  460.000    6.673    0.276    0.186   97.005
  460.250    7.877    0.263    0.075   89.742
  460.500    9.298    0.300    0.145   78.244
  460.750    9.825    0.343    0.232   72.793
  461.000    8.630    0.382    0.258   76.416
  461.250    7.581    0.419    0.272   78.827
  461.500    6.537    0.432    0.261   79.427
  461.750    6.183    0.437    0.251   81.838
  462.000    5.741    0.450    0.278   83.645
  462.250    5.428    0.461    0.286   82.429
  462.500    5.327    0.471    0.303   81.213
  462.750    5.228    0.460    0.316   83.021
  463.000    5.131    0.445    0.305   84.224
  463.250    5.036    0.438    0.277   81.192
  463.500    5.034    0.439    0.291   83.000
  463.750    4.940    0.445    0.295   87.223
  464.000    4.938    0.454    0.287   87.825
  464.250    4.935    0.452    0.300   84.189
  464.500    4.843    0.439    0.306   84.183
  464.750    4.842    0.435    0.311   87.199
  465.000    4.841    0.441    0.293   90.215
  465.250    4.839    0.443    0.285   91.419
  465.500    4.837    0.429    0.275   92.621
  465.750    4.836    0.424    0.283   93.218
  466.000    4.923    0.437    0.286   92.605
  466.250    4.922    0.449    0.284   92.601
  466.500    4.921    0.441    0.269   90.778
  466.750    4.918    0.442    0.247   90.167
  467.000    4.917    0.448    0.228   90.766
  467.250    4.915    0.457    0.233   91.968
  467.500    5.005    0.448    0.230   93.170
  467.750    5.191    0.438    0.231   92.560
  468.000    5.286    0.453    0.199   90.736
  468.250    5.484    0.430    0.150   88.313
  468.500    5.792    0.363    0.164   84.072
  468.750    5.899    0.398    0.215   91.927
  469.000    5.897    0.423    0.240   93.130
  469.250    5.895    0.443    0.258   94.333
  469.500    5.893    0.459    0.239   96.746
  469.750    5.782    0.446    0.227   98.551
  470.000    5.781    0.426    0.245   97.942
  470.250    5.778    0.423    0.229   99.142
  470.500    5.776    0.414    0.241  101.553
  470.750    5.775    0.423    0.228  103.364
  471.000    5.667    0.429    0.216  106.983
  471.250    5.665    0.441    0.226  108.793
  471.500    5.458    0.430    0.237  109.997
  471.750    5.455    0.418    0.254  112.409
  472.000    5.454    0.429    0.241  114.821
  472.250    5.452    0.442    0.235  116.023
  472.500    5.654    0.423    0.227  112.991
  472.750    5.653    0.407    0.216  111.776
  473.000    5.651    0.397    0.221  110.561
  473.250    5.546    0.397    0.227  108.739
  473.500    5.544    0.402    0.225  104.498
  473.750    5.340    0.412    0.217  100.861
  474.000    5.241    0.418    0.232   98.435
  474.250    4.866    0.430    0.229   95.403
  474.500    4.518    0.438    0.200   94.793
  474.750    4.195    0.434    0.198   95.994
  475.000    3.895    0.427    0.219   97.197
  475.250    3.550    0.434    0.236   98.398
  475.500    3.176    0.447    0.242   99.000
  475.750    2.842    0.479    0.249  100.807
  476.000    2.639    0.511    0.261  102.008
  476.250    2.318    0.553    0.273  101.397
  476.500    2.193    0.555    0.286  100.179
  476.750    2.035    0.520    0.278   99.570
  477.000    2.035    0.513    0.287   97.749
  477.250    2.034    0.520    0.300   96.532
  477.500    2.033    0.535    0.276   97.734
  477.750    2.033    0.530    0.264  101.356
  478.000    2.070    0.519    0.250  104.979
  478.250    2.069    0.535    0.256  107.389
  478.500    2.107    0.531    0.262  106.778
  478.750    2.146    0.524    0.266  105.563
  479.000    2.309    0.528    0.256  103.741
  479.250    2.881    0.535    0.238  100.711
  479.500    3.159    0.511    0.226   98.284
  479.750    3.728    0.489    0.205   98.882
  480.000    4.164    0.435    0.216  101.295
  480.250    4.481    0.437    0.221  102.497
  480.500    4.912    0.444    0.213   99.467
  480.750    5.095    0.460    0.210   95.830
  481.000    5.189    0.450    0.105   90.378
  481.250    5.383    0.394    0.089   87.954
  481.500    5.480    0.395    0.147   92.181
  481.750    5.478    0.412    0.184   98.827
  482.000    5.377    0.427    0.204  104.867
  482.250    4.992    0.427    0.219  106.676
  482.500    4.385    0.432    0.225  107.271
  482.750    3.852    0.440    0.221  106.663
  483.000    3.711    0.444    0.209  104.841
  483.250    3.575    0.457    0.212  104.834
  483.500    3.444    0.472    0.223  101.801
  483.750    3.443    0.468    0.221  103.005
  484.000    3.442    0.455    0.215  105.417
  484.250    3.570    0.471    0.224  104.805
  484.500    3.703    0.454    0.213  104.797
  484.750    3.771    0.456    0.195  106.607
  485.000    3.839    0.464    0.198  112.044
  485.250    3.767    0.476    0.218  109.010
  485.500    3.697    0.490    0.222  107.189
  485.750    3.433    0.500    0.213  108.393
  486.000    3.432    0.500    0.226  110.199
  486.250    3.368    0.487    0.229  112.008
  486.500    3.245    0.506    0.239  113.816
  486.750    3.126    0.511    0.251  115.018
  487.000    3.125    0.501    0.245  113.803
  487.250    3.182    0.510    0.243  110.768
  487.500    3.240    0.512    0.214  109.556
  487.750    3.487    0.486    0.168  103.500
  488.000    3.967    0.453    0.111   98.656
  488.250    4.270    0.431    0.126   96.834
  488.500    4.681    0.421    0.166  100.455
  488.750    4.855    0.440    0.204  102.263
