~VERSION INFORMATION
 VERS.                 2.0:   CWLS LOG ASCII STANDARD -VERSION 2.0
 WRAP.                  NO:   ONE LINE PER DEPTH STEP
~WELL INFORMATION BLOCK
#MNEM.UNIT           DATA                    DESCRIPTION OF MNEMONIC
#---------    -------------------            -------------------------------
# Generated from Intellog Unique Number	CS_73_76/WELL/3273
WELL.         STAR OIL & GAS LTD             : Well_name    - WELL
LOC .         00/12-19-075-09W4/0            : Location     - LOCATION
UWI .         00/12-19-075-09W4/0            : Uwi          - UNIQUE WELL ID
ENTR.         SP                             : Entered      - ENTERED BY
SRVC.         SCHLUMBERGER                   : Scn          - SERVICE COMPANY
STRT.M        285                            : top_depth    - START DEPTH
STOP.M        490                            : bot_depth    - STOP DEPTH
STEP.M        0.25                           : increment    - STEP LENGTH
 NULL. -999.2500:NULL Value
~CURVE INFORMATION BLOCK
#MNEM UNIT       ERCB CURVE CODE    CURVE DESCRIPTION
#-----------   ------------------   ----------------------------------
DEPT.M        00 001 00 00         : DEPTH        - DEPTH
ILD .OHMM     00 120 00 00         : RESD         - DEEP RESISTIVITY (DIL)
DPHI.V/V      00 890 00 00         : PHID         - DENSITY POROSITY (LIMESTONE)
NPHI.V/V      00 330 00 00         : PHIN         - NEUTRON POROSITY (LIMESTONE)
GR  .API      00 310 00 00         : GR           - GAMMA RAY
~PARAMETER INFORMATION
#MNEM.UNIT           DATA             DESCRIPTION OF MNEMONIC
#---------         -----------     ------------------------------
GL  .M        678.87               : gl           - GROUND LEVEL ELEVATION
EREF.M        682                  : kb           - ELEVATION OF DEPTH REFERENCE
DATM.M        678.87               : datum        - DATUM ELEVATION
TDD .M        530                  : tdd          - TOTAL DEPTH DRILLER
RUN .         ONE                  : Run          - RUN NUMBER
ENG .         BILL                 : Engineer     - RECORDING ENGINEER
WIT .         JIM                  : Witness      - WITNESSED BY
MUD .         GEL                  : Mud_type     - MUD TYPE
MATR.         LIMESTONE            : Logunit      - NEUTRON MATRIX
TMAX.C        26                   : BHT          - MAXIMUM RECORDED TEMPERATURE
BHTD.M        530                  : BHTDEP       - MAXIMUM RECORDED TEMPERATURE
MATR.         1                    : LOGUNIT      - NEUTRON MATRIX
RMT .C        25                   : MDTP         - TEMPERATURE OF MUD
NEUT.         1                    : NEUTRON      - NEUTRON TYPE
RESI.         0                    : RESIST       - RESISTIVITY TYPE
RMC .OHMM     0.25                 : RMC          - RESISTIVITY OF MUD CAKE
RMF .OHMM     0.25                 : RMF          - RESISTIVITY OF MUD FILTRATE
SUFT.C        15                   : SUFT         - SURFACE TEMPERATURE
~A  DEPTH     RESD     PHID     PHIN       GR
# ...
  372.000   10.857    0.347    0.442   65.097
  372.250    8.326    0.350    0.437   64.494
  372.500    6.632    0.355    0.430   64.513
  372.750    5.384    0.334    0.427   76.830
  373.000    4.454    0.313    0.448   89.767
  373.250    3.901    0.278    0.491   93.469
  373.500    3.482    0.266    0.521   97.799
  373.750    3.291    0.262    0.510   99.659
  374.000    3.291    0.256    0.493  102.141
  374.250    3.292    0.246    0.497  104.009
  374.500    3.420    0.240    0.507  105.264
  374.750    3.553    0.236    0.504  105.892
  375.000    3.622    0.235    0.500  105.299
  375.250    3.984    0.235    0.495  101.022
  375.500    4.299    0.234    0.505   95.515
  375.750    4.640    0.234    0.501   93.680
  376.000    5.201    0.258    0.492   88.170
  376.250    5.507    0.282    0.484   82.042
  376.500    5.830    0.298    0.469   79.602
  376.750    6.292    0.300    0.464   81.475
  377.000    6.414    0.294    0.456   83.946
  377.250    6.416    0.281    0.452   88.895
  377.500    6.417    0.268    0.448   90.751
  377.750    6.420    0.264    0.434   92.002
  378.000    6.421    0.266    0.430   86.498
  378.250    6.545    0.273    0.431   84.669
  378.500    6.800    0.269    0.439   83.462
  378.750    7.065    0.263    0.442   81.637
  379.000    7.202    0.265    0.452   78.581
  379.250    7.483    0.285    0.441   76.758
  379.500    6.938    0.293    0.436   77.393
  379.750    5.122    0.293    0.446   81.108
  380.000    4.080    0.281    0.464   88.508
  380.250    3.573    0.272    0.479   92.212
  380.500    3.190    0.270    0.495  100.228
  380.750    2.847    0.266    0.512  104.552
  381.000    2.742    0.267    0.525  105.802
  381.250    2.691    0.270    0.536  105.215
  381.500    2.849    0.267    0.553  104.617
  381.750    3.381    0.261    0.563  100.339
  382.000    4.328    0.252    0.576   97.277
  382.250    4.851    0.246    0.532   92.379
  382.500    5.647    0.253    0.469   84.413
  382.750    6.330    0.263    0.456   83.823
  383.000    6.577    0.268    0.459   86.298
  383.250    6.579    0.261    0.474   88.784
  383.500    6.581    0.254    0.470   90.643
  383.750    6.459    0.246    0.460   92.507
  384.000    6.711    0.241    0.469   93.755
  384.250    6.841    0.256    0.480   91.937
  384.500    6.973    0.264    0.498   89.504
  384.750    7.108    0.262    0.481   88.287
  385.000    7.385    0.260    0.454   88.312
  385.250    7.387    0.266    0.436   88.335
  385.500    7.389    0.278    0.449   87.735
  385.750    7.392    0.284    0.460   81.609
  386.000    7.394    0.290    0.464   83.481
  386.250    7.395    0.282    0.468   86.568
  386.500    7.397    0.279    0.467   90.276
  386.750    7.399    0.279    0.468   87.845
  387.000    7.401    0.279    0.472   89.094
  387.250    7.544    0.267    0.467   90.342
  387.500    7.691    0.260    0.457   90.975
  387.750    8.143    0.256    0.459   87.921
  388.000    9.128    0.267    0.458   85.493
  388.250    9.850    0.278    0.449   84.282
  388.500   10.630    0.284    0.450   83.686
  388.750   10.632    0.284    0.449   82.474
  389.000   10.634    0.194    0.396   76.960
  389.250   10.241    0.083    0.294   66.530
  389.500    9.141    0.058    0.252   60.408
  389.750    8.160    0.050    0.274   69.037
  390.000    7.423    0.117    0.301   80.739
  390.250    7.285    0.188    0.354   90.594
  390.500    7.287    0.252    0.404   91.854
  390.750    7.290    0.253    0.422   91.258
  391.000    7.291    0.251    0.430   91.276
  391.250    7.293    0.258    0.447   91.294
  391.500    7.296    0.263    0.441   91.312
  391.750    7.160    0.254    0.429   91.951
  392.000    7.027    0.250    0.437   92.583
  392.250    7.028    0.247    0.450   90.760
  392.500    6.769    0.247    0.456   86.476
  392.750    6.642    0.244    0.469   87.740
  393.000    6.520    0.242    0.489   87.756
  393.250    6.399    0.238    0.498   88.383
  393.500    6.280    0.234    0.510   93.333
  393.750    6.281    0.230    0.496   95.188
  394.000    6.283    0.233    0.482   97.668
  394.250    6.166    0.240    0.477   94.615
  394.500    6.052    0.245    0.475   93.408
  394.750    5.402    0.243    0.472   95.890
  395.000    4.642    0.240    0.459   96.526
  395.250    4.223    0.240    0.443   95.313
  395.500    3.429    0.242    0.437   94.720
  395.750    3.119    0.240    0.448   95.981
  396.000    2.784    0.240    0.458   97.225
  396.250    2.485    0.248    0.476  100.930
  396.500    2.261    0.264    0.507  105.257
  396.750    2.304    0.278    0.524  107.735
  397.000    2.734    0.289    0.544  106.527
  397.250    3.245    0.290    0.548  103.477
  397.500    3.501    0.293    0.556   98.576
  397.750    4.154    0.284    0.554   94.911
  398.000    4.746    0.282    0.533   92.473
  398.250    5.421    0.280    0.508   90.654
  398.500    6.077    0.269    0.502   88.838
  398.750    6.313    0.265    0.487   87.620
  399.000    6.436    0.259    0.471   85.178
  399.250    6.561    0.271    0.449   75.977
  399.500    6.439    0.287    0.439   66.781
  399.750    6.442    0.306    0.443   62.492
  400.000    6.443    0.327    0.439   56.980
  400.250    6.445    0.333    0.417   57.620
  400.500    6.446    0.340    0.411   58.250
  400.750    6.447    0.345    0.405   55.813
  401.000    6.450    0.349    0.399   53.374
  401.250    6.451    0.349    0.395   55.241
  401.500    6.452    0.341    0.409   56.501
  401.750    6.455    0.333    0.422   56.513
  402.000    6.457    0.341    0.423   55.920
  402.250    6.458    0.346    0.427   54.100
  402.500    6.460    0.346    0.432   52.274
  402.750    6.461    0.350    0.419   52.912
  403.000    6.587    0.353    0.400   53.542
  403.250    6.588    0.347    0.393   54.800
  403.500    6.590    0.345    0.388   54.816
  403.750    6.592    0.345    0.391   54.836
  404.000    6.594    0.343    0.403   53.631
  404.250    6.471    0.347    0.417   53.648
  404.500    6.472    0.354    0.417   54.907
  404.750    6.598    0.358    0.406   55.536
  405.000    6.600    0.358    0.401   55.562
  405.250    6.602    0.357    0.404   55.578
  405.500    6.603    0.354    0.408   55.598
  405.750    6.604    0.351    0.412   56.237
  406.000    6.734    0.349    0.418   57.492
  406.250    6.735    0.348    0.416   57.505
  406.500    6.865    0.350    0.415   56.299
  406.750    6.867    0.354    0.424   56.933
  407.000    7.001    0.358    0.427   58.182
  407.250    7.137    0.361    0.415   57.589
  407.500    7.138    0.355    0.408   56.388
  407.750    7.140    0.350    0.421   57.639
  408.000    7.141    0.349    0.428   58.882
  408.250    7.144    0.353    0.433   60.747
  408.500    7.146    0.353    0.431   61.381
  408.750    7.147    0.352    0.409   62.019
  409.000    7.149    0.352    0.402   65.119
  409.250    7.288    0.351    0.421   67.593
  409.500    7.289    0.350    0.437   70.076
  409.750    7.155    0.345    0.444   72.553
  410.000    7.156    0.337    0.445   74.422
  410.250    7.024    0.331    0.444   76.288
  410.500    6.764    0.325    0.443   78.151
  410.750    6.513    0.318    0.439   78.172
  411.000    6.392    0.306    0.434   78.193
  411.250    6.274    0.294    0.430   80.059
  411.500    6.275    0.284    0.425   81.920
  411.750    6.277    0.274    0.425   84.405
  412.000    6.399    0.270    0.429   83.807
  412.250    6.401    0.269    0.438   81.372
  412.500    6.402    0.265    0.436   82.622
  412.750    6.283    0.269    0.435   83.257
  413.000    6.285    0.281    0.442   82.663
  413.250    6.169    0.296    0.451   78.999
  413.500    6.171    0.315    0.461   76.555
  413.750    6.172    0.336    0.457   73.506
  414.000    6.174    0.342    0.450   72.293
  414.250    6.059    0.344    0.442   71.084
  414.500    6.060    0.349    0.436   69.268
  414.750    6.063    0.350    0.437   72.981
  415.000    6.064    0.350    0.449   74.225
  415.250    6.182    0.349    0.462   68.723
