~VERSION INFORMATION
 VERS.                 2.0:   CWLS LOG ASCII STANDARD -VERSION 2.0
 WRAP.                  NO:   ONE LINE PER DEPTH STEP
~WELL INFORMATION BLOCK
#MNEM.UNIT           DATA                    DESCRIPTION OF MNEMONIC
#---------    -------------------            -------------------------------
# Generated from Intellog Unique Number	CW_70_72/WELL/3021
NULL.         -999.25                        : NULL_VALUE
WELL.         MANNVILLE ET AL HONDO 10-11    : Well_name    - WELL              
LOC .         10-11-070-02W5                 : Location     - LOCATION          
UWI .         00/10-11-070-02W5/0            : Uwi          - UNIQUE WELL ID    
ENTR.         JAYE                           : Entered      - ENTERED BY        
SRVC.         SCHLUMBERGER                   : Scn          - SERVICE COMPANY   
DATE.         26 MAR 80                      : Date         - LOG DATE          
STRT.M        440                            : top_depth    - START DEPTH       
STOP.M        655                            : bot_depth    - STOP DEPTH        
STEP.M        0.25                           : increment    - STEP LENGTH       
~CURVE INFORMATION BLOCK
#MNEM UNIT       ERCB CURVE CODE    CURVE DESCRIPTION
#-----------   ------------------   ----------------------------------
DEPT.M        00 001 00 00         : DEPTH        - DEPTH                       
ILD .OHMM     00 120 00 00         : RESD         - DEEP RESISTIVITY (DIL)      
CALI.MM       00 280 01 00         : CAL          - CALIPER                     
GR  .API      00 310 00 00         : GR           - GAMMA RAY                   
NPHI.V/V      00 330 00 00         : PHIN         - NEUTRON POROSITY (SANDSTONE)
DPHI.V/V      00 890 00 00         : PHID         - DENSITY POROSITY (SANDSTONE)
~PARAMETER INFORMATION       
#MNEM.UNIT           DATA             DESCRIPTION OF MNEMONIC
#---------         -----------     ------------------------------
GL  .M        593.3                : gl           - GROUND LEVEL ELEVATION      
EREF.M        598.2                : kb           - ELEVATION OF DEPTH REFERENCE
DATM.M        593.3                : datum        - DATUM ELEVATION             
TDD .M        669                  : tdd          - TOTAL DEPTH DRILLER         
RUN .         ONE                  : Run          - RUN NUMBER                  
ENG .         DECKER/MCEWEN        : Engineer     - RECORDING ENGINEER          
WIT .         CONLEY               : Witness      - WITNESSED BY                
BASE.         EDM                  : Branch       - HOME BASE OF LOGGING UNIT   
MUD .         GEL CHEM             : Mud_type     - MUD TYPE                    
MATR.         SANDSTONE            : Logunit      - NEUTRON MATRIX              
TMAX.C        23.3                 : BHT          - MAXIMUM RECORDED TEMPERATURE
BHTD.M        666.5                : BHTDEP       - MAXIMUM RECORDED TEMPERATURE
RMT .C        14.4                 : MDTP         - TEMPERATURE OF MUD          
MUDD.KG/M     1095                 : MWT          - MUD DENSITY                 
NEUT.         1                    : NEUTRON      - NEUTRON TYPE                
RESI.         0                    : RESIST       - RESISTIVITY TYPE            
RM  .OHMM     3.21                 : RM           - RESISTIVITY OF MUD          
RMC .OHMM     0.25                 : RMC          - RESISTIVITY OF MUD CAKE     
RMF .OHMM     3.02                 : RMF          - RESISTIVITY OF MUD FILTRATE 
SUFT.C        0                    : SUFT         - SURFACE TEMPERATURE         
~A  DEPTH     RESD      CAL       GR     PHIN     PHID
# ...
  476.500    1.704  158.314   49.767    0.389    0.298
  476.750    1.704  158.303   50.003    0.395    0.299
  477.000    1.726  158.279   50.989    0.403    0.293
  477.250    1.768  157.946   52.659    0.408    0.285
  477.500    1.859  157.611   54.890    0.406    0.283
  477.750    1.955  157.693   57.991    0.412    0.293
  478.000    2.107  157.887   60.471    0.416    0.288
  478.250    2.254  158.902   63.508    0.412    0.270
  478.500    2.344  160.436   66.737    0.403    0.247
  478.750    2.287  161.457   71.270    0.414    0.226
  479.000    2.164  163.412   73.752    0.428    0.215
  479.250    2.111  168.163   76.354    0.442    0.211
  479.500    2.048  168.654   74.475    0.455    0.216
  479.750    2.020  163.244   66.738    0.444    0.226
  480.000    2.008  159.483   68.781    0.427    0.251
  480.250    1.992  159.363   74.311    0.432    0.243
  480.500    1.995  159.965   75.795    0.437    0.239
  480.750    1.994  160.463   69.117    0.436    0.245
  481.000    2.005  160.752   63.559    0.432    0.269
  481.250    2.031  161.148   62.740    0.424    0.279
  481.500    2.026  161.855   63.163    0.411    0.273
  481.750    1.918  162.976   65.205    0.406    0.265
  482.000    1.832  164.199   67.001    0.406    0.248
  482.250    1.825  163.764   67.798    0.419    0.246
  482.500    1.869  161.458   64.047    0.428    0.267
  482.750    2.034  159.676   60.483    0.423    0.280
  483.000    2.175  158.406   57.544    0.411    0.263
  483.250    2.318  159.841   54.293    0.402    0.228
  483.500    2.236  162.207   54.654    0.345    0.196
  483.750    2.148  163.326   56.759    0.335    0.173
  484.000    2.147  161.024   59.301    0.378    0.203
  484.250    2.183  158.096   62.030    0.401    0.275
  484.500    2.279  158.178   63.700    0.428    0.282
  484.750    2.326  159.922   65.992    0.453    0.287
  485.000    2.201  161.255   69.219    0.478    0.309
  485.250    2.068  161.960   72.072    0.510    0.328
  485.500    1.991  160.173   73.305    0.427    0.319
  485.750    1.924  158.699   70.237    0.415    0.281
  486.000    1.883  157.954   67.674    0.416    0.281
  486.250    1.883  157.515   63.924    0.419    0.288
  486.500    1.886  157.491   59.552    0.404    0.297
  486.750    1.853  157.475   55.239    0.407    0.306
  487.000    1.787  157.560   55.790    0.412    0.301
  487.250    1.724  157.846   58.579    0.411    0.301
  487.500    1.644  157.933   56.822    0.420    0.304
  487.750    1.574  157.805   52.575    0.421    0.307
  488.000    1.490  157.477   48.886    0.401    0.327
  488.250    1.478  157.457   46.941    0.393    0.328
  488.500    1.569  157.538   45.934    0.393    0.321
  488.750    1.720  157.517   45.672    0.407    0.318
  489.000    1.914  157.184   45.847    0.409    0.316
  489.250    1.957  157.475   46.833    0.410    0.314
  489.500    1.863  159.112   45.386    0.373    0.313
  489.750    1.770  160.032   43.816    0.305    0.295
  490.000    1.656  160.944   43.930    0.300    0.265
  490.250    1.574  158.952   46.096    0.326    0.274
  490.500    1.515  156.125   47.829    0.363    0.322
  490.750    1.500  154.964   49.311    0.422    0.326
  491.000    1.522  155.354   50.605    0.408    0.327
  491.250    1.580  155.958   51.032    0.416    0.325
  491.500    1.652  157.076   52.013    0.409    0.312
  491.750    1.787  157.885   52.502    0.425    0.319
  492.000    1.845  158.589   53.234    0.427    0.313
  492.250    1.800  158.890   53.349    0.407    0.303
  492.500    1.752  159.074   51.841    0.399    0.296
  492.750    1.712  159.359   50.895    0.404    0.283
  493.000    1.670  159.243   50.133    0.421    0.289
  493.250    1.638  159.221   50.122    0.415    0.307
  493.500    1.629  158.993   51.106    0.396    0.316
  493.750    1.604  159.072   53.895    0.391    0.305
  494.000    1.573  159.161   55.381    0.397    0.303
  494.250    1.555  159.346   55.679    0.420    0.305
  494.500    1.540  159.848   55.417    0.424    0.311
  494.750    1.560  160.242   55.280    0.424    0.319
  495.000    1.665  160.636   56.886    0.409    0.329
  495.250    1.818  160.822   55.568    0.416    0.329
  495.500    1.960  160.803   56.116    0.414    0.306
  495.750    2.160  160.676   58.969    0.411    0.288
  496.000    2.268  161.071   63.317    0.416    0.269
  496.250    2.340  162.298   67.416    0.421    0.260
  496.500    2.340  163.107   71.328    0.427    0.258
  496.750    2.286  163.916   72.374    0.433    0.247
  497.000    2.230  162.754   69.122    0.430    0.233
  497.250    2.233  160.763   68.362    0.410    0.255
  497.500    2.241  159.702   69.410    0.389    0.275
  497.750    2.253  159.681   68.960    0.396    0.287
  498.000    2.256  159.245   70.193    0.402    0.281
  498.250    2.298  159.019   73.046    0.393    0.274
  498.500    2.390  158.791   74.530    0.406    0.271
  498.750    2.571  159.393   76.636    0.404    0.264
  499.000    2.954  160.616   81.169    0.414    0.250
  499.250    3.975  164.438   83.401    0.440    0.280
  499.500    5.279  173.762   78.966    0.472    0.355
  499.750    6.515  167.408   65.871    0.502    0.411
  500.000    4.957  157.106   58.821    0.536    0.503
  500.250    3.946  158.126   51.956    0.584    0.599
  500.500    2.497  158.314   53.315    0.607    0.673
  500.750    1.851  158.390   58.035    0.552    0.573
  501.000    1.802  158.681   59.893    0.433    0.611
  501.250    2.032  158.871   53.401    0.392    0.330
  501.500    2.964  158.956   51.519    0.413    0.352
  501.750    3.952  159.246   51.882    0.450    0.384
  502.000    4.804  159.435   47.447    0.501    0.436
  502.250    4.731  159.409   41.143    0.573    0.486
  502.500    4.114  159.705   46.861    0.600    0.550
  502.750    3.407  160.203   60.117    0.525    0.624
  503.000    3.042  160.596   67.516    0.461    0.270
  503.250    2.773  160.889   69.808    0.413    0.238
  503.500    2.746  160.454   71.168    0.401    0.238
  503.750    2.797  159.809   73.271    0.405    0.247
  504.000    2.892  159.478   74.817    0.411    0.240
  504.250    3.036  159.455   80.036    0.400    0.240
  504.500    3.134  159.955   83.078    0.390    0.242
  504.750    3.228  160.350   86.926    0.393    0.231
  505.000    3.350  160.844   87.850    0.400    0.217
  505.250    3.432  161.551   88.460    0.414    0.213
  505.500    3.502  162.054   89.070    0.417    0.207
  505.750    3.528  162.242   89.992    0.422    0.201
  506.000    3.553  162.634   90.166    0.429    0.209
  506.250    3.612  163.341   91.090    0.425    0.218
  506.500    3.666  164.463   91.139    0.412    0.207
  506.750    3.755  165.677   88.448    0.407    0.186
  507.000    3.832  165.875   85.445    0.414    0.193
  507.250    3.896  166.268   82.817    0.413    0.209
  507.500    3.946  166.871   86.043    0.406    0.215
  507.750    3.959  167.993   91.451    0.417    0.197
  508.000    3.972  168.179   95.177    0.423    0.172
  508.250    3.971  168.366   96.534    0.428    0.156
  508.500    3.992  169.691   96.085    0.431    0.153
  508.750    3.998  170.502   95.076    0.439    0.160
  509.000    4.011  170.900   94.689    0.436    0.154
  509.250    4.086  171.598   94.240    0.436    0.152
  509.500    4.241  171.787   94.353    0.456    0.151
  509.750    4.418  171.663   94.154    0.459    0.152
  510.000    4.500  171.753   92.772    0.445    0.153
  510.250    4.516  173.186   91.140    0.452    0.171
  510.500    4.323  173.476   88.509    0.441    0.164
  510.750    3.955  169.197   86.068    0.431    0.171
  511.000    3.592  164.921   82.755    0.419    0.181
  511.250    3.268  161.268   78.383    0.421    0.196
  511.500    3.013  158.337   74.322    0.430    0.208
  511.750    2.783  156.865   68.766    0.426    0.229
  512.000    2.604  156.426   66.760    0.433    0.252
  512.250    2.484  156.513   68.053    0.448    0.251
  512.500    2.329  156.804   68.230    0.439    0.256
  512.750    2.200  157.612   67.159    0.433    0.268
