~VERSION INFORMATION
 VERS.                 2.0:   CWLS LOG ASCII STANDARD -VERSION 2.0
 WRAP.                  NO:   ONE LINE PER DEPTH STEP
~WELL INFORMATION BLOCK
#MNEM.UNIT           DATA                    DESCRIPTION OF MNEMONIC
#---------    -------------------            -------------------------------
# Generated from Intellog Unique Number	CS_67_68/WELL/2190
WELL.         10-03-067-08W4                 : Well_name    - WELL
LOC .         00/10-03-067-08W4/0            : Location     - LOCATION
UWI .         00/10-03-067-08W4/0            : Uwi          - UNIQUE WELL ID
ENTR.         SP                             : Entered      - ENTERED BY
SRVC.         SCHLUMBERGER                   : Scn          - SERVICE COMPANY
STRT.M        305                            : top_depth    - START DEPTH
STOP.M        545                            : bot_depth    - STOP DEPTH
STEP.M        0.25                           : increment    - STEP LENGTH
 NULL. -999.2500:NULL Value
~CURVE INFORMATION BLOCK
#MNEM UNIT       ERCB CURVE CODE    CURVE DESCRIPTION
#-----------   ------------------   ----------------------------------
DEPT.M        00 001 00 00         : DEPTH        - DEPTH
ILD .OHMM     00 120 00 00         : RESD         - DEEP RESISTIVITY (DIL)
DPHI.V/V      00 890 00 00         : PHID         - DENSITY POROSITY (LIMESTONE)
NPHI.V/V      00 330 00 00         : PHIN         - NEUTRON POROSITY (LIMESTONE)
GR  .API      00 310 00 00         : GR           - GAMMA RAY
CALI.MM       00 280 01 00         : CAL          - CALIPER
~PARAMETER INFORMATION
#MNEM.UNIT           DATA             DESCRIPTION OF MNEMONIC
#---------         -----------     ------------------------------
GL  .M        609.7                : gl           - GROUND LEVEL ELEVATION
EREF.M        613.4                : kb           - ELEVATION OF DEPTH REFERENCE
DATM.M        613.4                : datum        - DATUM ELEVATION
TDD .M        550                  : tdd          - TOTAL DEPTH DRILLER
RUN .         ONE                  : Run          - RUN NUMBER
ENG .         BILL                 : Engineer     - RECORDING ENGINEER
WIT .         JIM                  : Witness      - WITNESSED BY
MUD .         GEL                  : Mud_type     - MUD TYPE
MATR.         LIMESTONE            : Logunit      - NEUTRON MATRIX
TMAX.C        25                   : BHT          - MAXIMUM RECORDED TEMPERATURE
BHTD.M        554.5                : BHTDEP       - MAXIMUM RECORDED TEMPERATURE
MATR.         1                    : LOGUNIT      - NEUTRON MATRIX
RMT .C        25                   : MDTP         - TEMPERATURE OF MUD
NEUT.         1                    : NEUTRON      - NEUTRON TYPE
RESI.         0                    : RESIST       - RESISTIVITY TYPE
RMC .OHMM     0.25                 : RMC          - RESISTIVITY OF MUD CAKE
RMF .OHMM     0.25                 : RMF          - RESISTIVITY OF MUD FILTRATE
SUFT.C        15                   : SUFT         - SURFACE TEMPERATURE
~A  DEPTH     RESD     PHID     PHIN       GR      CAL
# ...
  524.000    4.100    0.321    0.392   37.730  150.344
  524.250    4.023    0.303    0.374   41.836  149.948
  524.500    4.038    0.280    0.367   47.642  149.872
  524.750    4.217    0.262    0.369   55.146  149.902
  525.000    3.944    0.231    0.375   66.336  150.207
  525.250    4.286    0.220    0.366   68.208  150.062
  525.500    4.613    0.203    0.361   74.489  149.926
  525.750    5.217    0.187    0.365   78.998  149.784
  526.000    5.002    0.196    0.369   75.452  149.326
  526.250    4.661    0.224    0.362   65.163  149.184
  526.500    4.230    0.260    0.367   52.540  149.995
  526.750    3.994    0.288    0.360   37.401  151.637
  527.000    3.986    0.270    0.341   69.129  151.078
  527.250    4.084    0.203    0.325   79.188  149.895
  527.500    4.734    0.153    0.439   87.734  149.327
  527.750    6.659    0.102    0.384   77.259  151.288
  528.000    7.957    0.072    0.281   66.715  153.459
  528.250    9.068    0.119    0.257   56.992  155.949
  528.500    9.910    0.144    0.270   57.350  159.266
  528.750    9.684    0.146    0.282   60.226  161.540
  529.000    7.622    0.152    0.323   72.049  152.375
  529.250    6.812    0.158    0.449   94.265  141.632
  529.500    6.300    0.155    0.388   93.111  137.392
  529.750    6.133    0.142    0.332   69.784  140.612
  530.000    6.478    0.144    0.314   50.610  149.400
  530.250    7.368    0.157    0.309   58.786  154.827
  530.500    7.841    0.140    0.310   68.080  157.834
  530.750    8.095    0.103    0.307   76.316  159.480
  531.000    8.295    0.079    0.298   79.255  159.668
  531.250    8.245    0.071    0.285   82.633  159.731
  531.500    7.996    0.083    0.310   74.489  159.591
  531.750    7.784    0.149    0.331   58.653  159.247
  532.000    7.549    0.186    0.341   43.260  158.883
  532.250    6.520    0.214    0.326   26.104  157.065
  532.500    5.707    0.242    0.337   25.013  155.353
  532.750    5.228    0.264    0.352   26.694  154.589
  533.000    5.714    0.185    0.365   28.246  154.651
  533.250    6.512    0.084    0.359   24.078  154.407
  533.500    7.885    0.019    0.244   22.660  154.801
  533.750    8.783    0.000    0.196   34.427  155.817
  534.000    9.154    0.000    0.292   49.079  157.248
  534.250    8.515    0.000    0.335   77.090  159.316
  534.500    7.094    0.048    0.358   95.149  161.683
  534.750    6.524    0.085    0.374  100.169  165.220
  535.000    6.302    0.085    0.356   97.755  165.515
  535.250    6.241    0.077    0.340   97.231  165.781
  535.500    6.203    0.077    0.338   97.837  166.062
  535.750    6.320    0.083    0.350   98.194  166.138
  536.000    6.451    0.093    0.354   99.309  165.779
  536.250    6.292    0.093    0.354  101.561  164.908
  536.500    5.964    0.078    0.343  103.176  163.825
  536.750    5.850    0.063    0.334  104.476  162.946
  537.000    5.804    0.078    0.347  105.841  162.078
  537.250    5.813    0.086    0.352  107.142  161.410
  537.500    5.867    0.090    0.357  105.859  161.058
  537.750    5.977    0.084    0.361  102.438  160.812
  538.000    6.230    0.082    0.368   97.945  160.779
  538.250    6.481    0.079    0.377   98.743  160.644
  538.500    6.641    0.078    0.368   97.775  160.291
  538.750    6.779    0.083    0.360   92.401  160.050
  539.000    6.841    0.087    0.355   87.089  159.906
  539.250    6.891    0.090    0.361   87.264  159.767
  539.500    6.968    0.084    0.362   88.117  159.522
  539.750    7.207    0.077    0.356   85.386  159.482
  540.000    7.469    0.069    0.346   79.885  159.342
  540.250    7.639    0.078    0.332   76.212  159.204
  540.500    7.798    0.087    0.321   73.924  158.966
  540.750    8.522    0.073    0.311   71.947  158.711
  541.000   10.241    0.060    0.289   68.528  158.156
  541.250   11.782    0.051    0.268   66.361  157.805
  541.500   12.707    0.040    0.258   64.199  157.669
  541.750   12.775    0.032    0.252   66.635  157.420
  542.000   12.041    0.037    0.263   71.906  157.492
  542.250   12.503    0.047    0.287   70.436  156.931
  542.500   18.199    0.039    0.293   56.240  156.163
  542.750   24.554    0.004    0.227   46.896  155.397
  543.000   30.825    0.000    0.191   36.796  154.618
  543.250   52.922    0.000    0.167   27.641  153.850
  543.500   62.877    0.000    0.148   20.438  153.396
  543.750   69.378    0.000    0.124   16.199  153.147
  544.000   75.249    0.011    0.110   14.728  153.112
  544.250   75.084    0.015    0.113   15.782  153.078
  544.500   68.785    0.020    0.127   16.574  153.358
  544.750   60.896    0.028    0.133   15.797  153.953
  545.000   55.576    0.033    0.136   14.394  154.234
