~VERSION INFORMATION
 VERS.                 2.0:   CWLS LOG ASCII STANDARD -VERSION 2.0
 WRAP.                  NO:   ONE LINE PER DEPTH STEP
~WELL INFORMATION BLOCK
#MNEM.UNIT           DATA                    DESCRIPTION OF MNEMONIC
#---------    -------------------            -------------------------------
# Generated from Intellog Unique Number	CW_76_78/WELL/2819
NULL.         -999.25                        : NULL_VALUE
WELL.         ATKINSON MARTEN HILLS 11-30    : Well_name    - WELL              
LOC .         00/11-30-078-22W4/0            : Location     - LOCATION          
UWI .         00/11-30-078-22W4/0            : Uwi          - UNIQUE WELL ID    
ENTR.         JJ                             : Entered      - ENTERED BY        
SRVC.         SCHLUMBERGER                   : Scn          - SERVICE COMPANY   
DATE.         23 JAN 73                      : Date         - LOG DATE          
STRT.M        335.28                         : top_depth    - START DEPTH       
STOP.M        463.28                         : bot_depth    - STOP DEPTH        
STEP.M        0.25                           : increment    - STEP LENGTH       
~CURVE INFORMATION BLOCK
#MNEM UNIT       ERCB CURVE CODE    CURVE DESCRIPTION
#-----------   ------------------   ----------------------------------
DEPT.M        00 001 00 00         : DEPTH        - DEPTH                       
ILD .OHMM     00 120 00 00         : RESD         - DEEP RESISTIVITY (DIL)      
GR  .API      00 310 00 00         : GR           - GAMMA RAY                   
DPHI.V/V      00 890 00 00         : PHID         - DENSITY POROSITY (SANDSTONE)
~PARAMETER INFORMATION       
#MNEM.UNIT           DATA             DESCRIPTION OF MNEMONIC
#---------         -----------     ------------------------------
GL  .M        565.099              : gl           - GROUND LEVEL ELEVATION      
EREF.M        569.062              : kb           - ELEVATION OF DEPTH REFERENCE
DATM.M        565.099              : datum        - DATUM ELEVATION             
TDD .M        467.868              : tdd          - TOTAL DEPTH DRILLER         
RUN .         ONE                  : Run          - RUN NUMBER                  
ENG .         MACIJUK              : Engineer     - RECORDING ENGINEER          
WIT .         DEAN                 : Witness      - WITNESSED BY                
BASE.         EDM                  : Branch       - HOME BASE OF LOGGING UNIT   
MUD .         GEL                  : Mud_type     - MUD TYPE                    
MATR.         SANDSTONE            : Logunit      - NEUTRON MATRIX              
TMAX.C        18.8889              : BHT          - MAXIMUM RECORDED TEMPERATURE
BHTD.M        468.478              : BHTDEP       - MAXIMUM RECORDED TEMPERATURE
RMT .C        16.6667              : MDTP         - TEMPERATURE OF MUD          
MUDD.KG/M     1068                 : MWT          - MUD DENSITY                 
NEUT.         1                    : NEUTRON      - NEUTRON TYPE                
RESI.         0                    : RESIST       - RESISTIVITY TYPE            
RM  .OHMM     2.43                 : RM           - RESISTIVITY OF MUD          
RMC .OHMM     0                    : RMC          - RESISTIVITY OF MUD CAKE     
RMF .OHMM     0                    : RMF          - RESISTIVITY OF MUD FILTRATE 
SUFT.C        5                    : SUFT         - SURFACE TEMPERATURE         
~A  DEPTH     RESD       GR     PHID
  335.280   12.203   60.490    0.253
  335.530   12.161   64.048    0.247
  335.780   11.824   65.097    0.243
  336.030   11.123   68.716    0.253
  336.280   10.342   70.008    0.265
  336.530    9.503   67.017    0.269
  336.780    8.899   69.474    0.254
  337.030    8.191   73.092    0.256
  337.280    6.871   78.610    0.275
  337.530    6.227   79.597    0.279
  337.780    5.741   78.809    0.266
  338.030    5.280   78.999    0.254
  338.280    5.186   77.721    0.246
  338.530    5.448   74.056    0.240
  338.780    6.196   76.941    0.213
  339.030    7.386   79.519    0.174
  339.280    9.096   73.465    0.110
  339.530   11.134   63.432    0.110
  339.780   12.744   56.583    0.192
  340.030   14.722   54.631    0.190
  340.280   16.034   61.801    0.153
  340.530   16.817   68.298    0.143
  340.780   16.417   63.163    0.187
  341.030   14.771   67.090    0.213
  341.280   12.859   70.709    0.235
  341.530   10.870   74.206    0.247
  341.780    9.923   76.968    0.264
  342.030    9.262   78.934    0.247
  342.280    9.413   79.187    0.251
  342.530    9.370   79.501    0.259
  342.780    9.033   78.283    0.243
  343.030    8.731   76.576    0.224
  343.280    8.588   80.749    0.210
  343.530    8.579   82.775    0.211
  343.780    8.698   79.109    0.234
  344.030    8.822   83.770    0.230
  344.280    8.944   85.797    0.212
  344.530    8.946   86.847    0.216
  344.780    8.968   86.608    0.220
  345.030    8.926   86.921    0.211
  345.280    8.672   89.868    0.200
  345.530    8.447   93.243    0.187
  345.780    8.231   87.005    0.181
  346.030    8.131   83.278    0.206
  346.280    8.011   83.897    0.239
  346.530    7.838   79.986    0.232
  346.780    7.859   83.729    0.218
  347.030    7.906   89.552    0.217
  347.280    7.947   91.029    0.220
  347.530    7.987   82.465    0.219
  347.780    8.025   86.574    0.227
  348.030    7.891   87.377    0.228
  348.280    7.673   79.793    0.220
  348.530    7.569   78.025    0.212
  348.780    7.675   80.972    0.200
  349.030    8.104   81.774    0.211
  349.280    8.548   82.639    0.222
  349.530    9.149   81.545    0.204
  349.780   10.700   86.634    0.178
  350.030   13.781   87.069    0.166
  350.280   17.591   80.097    0.165
  350.530   20.251   78.513    0.163
  350.780   21.519   74.848    0.167
  351.030   20.031   71.793    0.213
  351.280   16.169   71.128    0.153
  351.530   14.662   72.666    0.117
  351.780   13.759   71.632    0.069
  352.030   14.103   65.272    0.071
  352.280   15.251   58.055    0.124
  352.530   17.288   59.899    0.163
  352.780   19.526   64.927    0.188
  353.030   17.150   72.710    0.186
  353.280   14.357   78.227    0.176
  353.530   12.908   78.603    0.182
  353.780   10.980   77.263    0.181
  354.030   10.095   82.229    0.185
  354.280    9.396   82.665    0.179
  354.530    9.096   84.816    0.186
  354.780    8.959   87.762    0.179
  355.030    9.263   84.035    0.171
  355.280    9.501   80.001    0.161
  355.530    9.786   85.029    0.144
  355.780   10.115   87.179    0.143
  356.030    9.794   87.064    0.178
  356.280    9.390   86.644    0.190
  356.530    9.154   86.528    0.197
  356.780    9.175   83.535    0.204
  357.030    9.281   85.441    0.211
  357.280    9.398   89.734    0.210
  357.530    9.627   89.742    0.202
  357.780    9.828   85.646    0.195
  358.030   10.016   85.716    0.184
  358.280   10.182   86.029    0.178
  358.530   10.244   88.608    0.198
  358.780   10.161   88.676    0.202
  359.030    9.822   86.419    0.193
  359.280    9.302   89.303    0.202
  359.530    8.896   86.249    0.194
  359.780    8.114   86.074    0.185
  360.030    7.212   89.754    0.175
  360.280    6.709   91.292    0.163
  360.530    6.231   91.544    0.170
  360.780    6.211   89.655    0.189
  361.030    6.453   91.926    0.194
  361.280    7.566   90.465    0.168
  361.530    9.058   84.043    0.134
  361.780   10.487   75.909    0.155
  362.030   12.282   77.875    0.175
  362.280   14.134   81.678    0.168
  362.530   16.654   80.338    0.073
  362.780   18.627   78.694    0.032
  363.030   21.732   73.252    0.014
  363.280   25.941   61.626    0.048
  363.530   28.598   53.430    0.091
  363.780   30.575   56.438    0.131
  364.030   28.724   61.527    0.155
  364.280   23.451   68.391    0.170
  364.530   20.075   73.481    0.169
  364.780   17.297   75.875    0.164
  365.030   15.651   76.372    0.157
  365.280   14.563   77.850    0.169
  365.530   13.221   79.632    0.196
  365.780   12.498   81.169    0.195
  366.030   11.861   84.544    0.201
  366.280   11.516   81.552    0.189
  366.530   11.077   79.846    0.183
  366.780   10.893   82.608    0.188
  367.030   10.755   84.942    0.183
  367.280   10.838   86.847    0.176
  367.530   11.229   87.650    0.159
  367.780   11.690   83.984    0.147
  368.030   12.762   80.808    0.134
  368.280   14.393   78.061    0.172
  368.530   15.157   74.088    0.206
  368.780   15.444   76.116    0.197
  369.030   15.405   79.246    0.188
  369.280   14.741   77.171    0.192
  369.530   13.579   78.526    0.191
  369.780   13.280   81.533    0.181
  370.030   13.623   79.398    0.173
  370.280   14.067   77.323    0.191
  370.530   14.293   76.291    0.181
  370.780   14.211   75.012    0.187
  371.030   13.810   77.041    0.204
  371.280   13.177   79.803    0.211
  371.530   12.893   82.320    0.201
  371.780   12.476   80.062    0.193
  372.030   12.272   83.866    0.190
  372.280   12.135   82.649    0.198
  372.530   11.879   80.513    0.191
  372.780   11.617   80.521    0.203
  373.030   11.553   81.630    0.197
  373.280   11.737   85.005    0.182
  373.530   12.042   88.074    0.179
  373.780   12.228   87.407    0.195
  374.030   12.235   84.108    0.199
  374.280   12.153   87.974    0.201
  374.530   12.071   92.144    0.189
  374.780   12.017   92.336    0.186
  375.030   11.955   90.751    0.194
  375.280   11.938   89.961    0.203
  375.530   12.001   87.827    0.189
  375.780   12.004   86.487    0.183
  376.030   11.868   80.800    0.169
  376.280   11.669   80.380    0.187
  376.530   11.525   83.693    0.182
  376.780   11.027   86.762    0.165
  377.030   10.647   90.321    0.170
  377.280   10.609   90.021    0.186
  377.530   10.935   87.273    0.196
  377.780   11.338   86.974    0.199
  378.030   11.864   86.064    0.187
  378.280   12.387   87.112    0.176
  378.530   12.914   89.263    0.184
  378.780   12.938   85.230    0.179
  379.030   12.393   84.685    0.168
  379.280   11.190   88.000    0.191
  379.530   10.207   92.108    0.189
  379.780    9.505   96.647    0.185
  380.030    8.982  100.204    0.180
  380.280    8.805   96.845    0.177
  380.530    8.924   93.118    0.174
  380.780    9.513   89.390    0.163
  381.030    9.877   88.725    0.178
  381.280   10.140   90.997    0.177
  381.530   10.325   92.352    0.169
  381.780   10.607   92.359    0.181
  382.030   11.717   89.612    0.160
  382.280   12.824   85.394    0.135
  382.530   15.343   75.299    0.128
  382.780   17.823   62.695    0.229
  383.030   20.743   64.845    0.252
  383.280   25.054   70.118    0.239
  383.530   24.292   75.574    0.218
  383.780   22.083   78.459    0.188
  384.030   20.170   81.711    0.153
  384.280   18.017   77.433    0.115
  384.530   16.428   69.910    0.088
  384.780   15.585   72.857    0.171
  385.030   16.151   74.822    0.208
  385.280   16.617   72.137    0.235
  385.530   16.722   71.838    0.241
  385.780   16.602   69.028    0.235
  386.030   16.483   64.322    0.224
  386.280   16.670   60.901    0.224
  386.530   16.951   60.602    0.226
  386.780   17.135   62.507    0.234
  387.030   17.001   62.637    0.251
  387.280   16.936   63.687    0.254
  387.530   17.000   65.836    0.224
  387.780   17.062   64.986    0.203
  388.030   17.004   64.136    0.185
  388.280   16.965   65.613    0.165
  388.530   16.827   62.681    0.174
  388.780   16.552   66.792    0.242
  389.030   16.452   69.555    0.245
  389.280   16.393   71.153    0.227
