~VERSION INFORMATION
 VERS.                 2.0:   CWLS LOG ASCII STANDARD -VERSION 2.0
 WRAP.                  NO:   ONE LINE PER DEPTH STEP
~WELL INFORMATION BLOCK
#MNEM.UNIT           DATA                    DESCRIPTION OF MNEMONIC
#---------    -------------------            -------------------------------
# Generated from Intellog Unique Number	CW_79_81/WELL/2488
WELL.         13-10-081-21W4                 : Well_name    - WELL
LOC .         00/13-10-081-21W4/0            : Location     - LOCATION
UWI .         00/13-10-081-21W4/0            : Uwi          - UNIQUE WELL ID
ENTR.         MAX                            : Entered      - ENTERED BY
SRVC.         SCHLUMBERGER                   : Scn          - SERVICE COMPANY
STRT.M        215                            : top_depth    - START DEPTH
STOP.M        440                            : bot_depth    - STOP DEPTH
STEP.M        0.25                           : increment    - STEP LENGTH
 NULL. -999.2500:NULL Value
~CURVE INFORMATION BLOCK
#MNEM UNIT       ERCB CURVE CODE    CURVE DESCRIPTION
#-----------   ------------------   ----------------------------------
DEPT.M        00 001 00 00         : DEPTH        - DEPTH
ILD .OHMM     00 120 00 00         : RESD         - DEEP RESISTIVITY (DIL)
NPHI.V/V      00 330 00 00         : PHIN         - NEUTRON POROSITY (SANDSTONE)
DPHI.V/V      00 890 00 00         : PHID         - DENSITY POROSITY (SANDSTONE)
GR  .API      00 310 00 00         : GR           - GAMMA RAY
CALI.MM       00 280 01 00         : CAL          - CALIPER
~PARAMETER INFORMATION
#MNEM.UNIT           DATA             DESCRIPTION OF MNEMONIC
#---------         -----------     ------------------------------
GL  .M        599.6                : gl           - GROUND LEVEL ELEVATION
EREF.M        603.9                : kb           - ELEVATION OF DEPTH REFERENCE
DATM.M        599.6                : datum        - DATUM ELEVATION
TDD .M        448.25               : tdd          - TOTAL DEPTH DRILLER
RUN .         ONE                  : Run          - RUN NUMBER
ENG .         BILL                 : Engineer     - RECORDING ENGINEER
WIT .         JIM                  : Witness      - WITNESSED BY
MUD .         GEL                  : Mud_type     - MUD TYPE
MATR.         SANDSTONE            : Logunit      - NEUTRON MATRIX
TMAX.C        28.6                 : BHT          - MAXIMUM RECORDED TEMPERATURE
BHTD.M        448.25               : BHTDEP       - MAXIMUM RECORDED TEMPERATURE
MATR.         1                    : LOGUNIT      - NEUTRON MATRIX
RMT .C        15                   : MDTP         - TEMPERATURE OF MUD
NEUT.         1                    : NEUTRON      - NEUTRON TYPE
RESI.         0                    : RESIST       - RESISTIVITY TYPE
RMC .OHMM     9.82                 : RMC          - RESISTIVITY OF MUD CAKE
RMF .OHMM     4.93                 : RMF          - RESISTIVITY OF MUD FILTRATE
SUFT.C        -15                  : SUFT         - SURFACE TEMPERATURE
~A  DEPTH     RESD     PHIN     PHID       GR      CAL
# ...
  251.500    7.115    0.504    0.350   65.644  233.707
  251.750    7.538    0.493    0.355   60.383  226.934
  252.000    8.877    0.471    0.353   57.042  221.864
  252.250   14.430    0.441    0.350   57.349  219.248
  252.500   20.252    0.437    0.353   57.612  218.021
  252.750   24.751    0.444    0.353   57.628  217.651
  253.000   30.188    0.439    0.353   57.825  218.178
  253.250   35.547    0.430    0.355   58.322  219.004
  253.500   39.519    0.424    0.358   58.937  219.630
  253.750   42.486    0.425    0.358   59.193  219.659
  254.000   45.226    0.429    0.357   59.212  219.684
  254.250   48.685    0.433    0.357   59.466  219.713
  254.500   52.145    0.435    0.358   59.360  219.439
  254.750   56.340    0.443    0.358   59.256  219.264
  255.000   60.116    0.456    0.358   59.393  219.191
  255.250   57.617    0.472    0.359   60.193  218.825
  255.500   50.389    0.483    0.369   61.709  218.847
  255.750   42.822    0.464    0.362   61.961  218.877
  256.000   42.445    0.449    0.356   61.317  218.902
  256.250   45.475    0.440    0.354   60.853  218.926
  256.500   48.809    0.438    0.355   61.049  218.951
  256.750   46.241    0.436    0.348   61.639  218.985
  257.000   42.286    0.432    0.340   60.903  219.007
  257.250   39.626    0.427    0.331   59.241  219.037
  257.500   38.200    0.434    0.323   58.836  219.064
  257.750   37.417    0.439    0.318   59.092  219.089
  258.000   37.048    0.438    0.320   59.647  219.115
  258.250   37.276    0.438    0.332   60.585  219.149
  258.500   38.190    0.440    0.343   61.603  219.174
  258.750   38.796    0.442    0.342   61.619  219.195
  259.000   38.560    0.442    0.336   61.632  219.223
  259.250   37.484    0.441    0.328   61.649  219.249
  259.500   34.927    0.440    0.317   61.487  219.274
  259.750   29.473    0.442    0.296   60.282  219.307
  260.000   25.967    0.440    0.272   57.800  219.337
  260.250   24.151    0.436    0.263   57.574  219.364
  260.500   23.625    0.430    0.275   58.430  219.387
  260.750   23.739    0.429    0.289   59.285  219.412
  261.000   24.120    0.435    0.304   59.721  219.341
  261.250   24.479    0.440    0.340   60.129  218.973
  261.500   24.322    0.438    0.337   60.895  219.001
  261.750   23.651    0.433    0.333   61.874  218.625
  262.000   22.993    0.428    0.337   62.489  218.547
  262.250   22.272    0.432    0.342   62.624  218.774
  262.500   21.459    0.439    0.344   62.100  219.103
  262.750   20.315    0.429    0.342   60.678  219.130
  263.000   19.148    0.430    0.341   60.695  219.161
  263.250   18.615    0.438    0.347   60.228  219.187
  263.500   17.899    0.451    0.348   58.685  219.512
  263.750   17.281    0.461    0.349   57.501  219.738
  264.000   16.773    0.466    0.353   57.156  219.766
  264.250   16.045    0.466    0.360   57.374  219.792
  264.500   15.351    0.461    0.358   58.392  219.817
  264.750   14.816    0.457    0.350   58.888  219.447
  265.000   14.299    0.451    0.347   59.203  219.070
  265.250   13.751    0.446    0.348   59.460  218.297
  265.500   13.304    0.444    0.350   59.716  217.127
  265.750   13.225    0.447    0.351   59.971  215.705
  266.000   13.241    0.445    0.351   59.987  214.486
  266.250   13.354    0.445    0.342   60.483  214.507
  266.500   13.543    0.443    0.337   61.159  215.734
  266.750   13.761    0.439    0.331   61.895  216.961
  267.000   13.931    0.436    0.326   62.690  217.688
  267.250   13.949    0.434    0.329   64.017  218.119
  267.500   13.969    0.438    0.334   65.785  218.141
  267.750   13.983    0.441    0.329   67.478  218.573
  268.000   13.923    0.440    0.328   68.814  218.699
  268.250   13.687    0.436    0.326   69.190  218.723
  268.500   13.286    0.433    0.319   68.364  218.247
  268.750   12.711    0.431    0.297   65.565  216.112
  269.000   12.161    0.407    0.263   61.083  215.312
  269.250   12.175    0.381    0.242   59.658  217.735
  269.500   12.323    0.382    0.252   59.132  218.957
  269.750   12.654    0.398    0.281   58.789  218.983
  270.000   13.121    0.417    0.315   58.267  218.314
  270.250   13.615    0.433    0.341   57.614  217.942
  270.500   14.054    0.440    0.343   57.882  217.964
  270.750   14.277    0.445    0.340   57.896  217.991
  271.000   14.426    0.440    0.339   57.912  218.318
  271.250   14.391    0.438    0.338   57.929  218.945
  271.500   14.200    0.438    0.334   57.945  219.473
  271.750   13.951    0.424    0.323   57.961  219.016
  272.000   13.656    0.411    0.341   57.978  218.628
  272.250   13.177    0.421    0.338   57.994  218.257
  272.500   12.789    0.420    0.347   58.009  218.480
  272.750   12.621    0.421    0.354   57.784  218.905
  273.000   12.637    0.427    0.356   57.380  219.234
  273.250   12.656    0.431    0.369   57.160  219.266
  273.500   12.671    0.431    0.383   57.178  219.294
  273.750   12.502    0.441    0.380   57.191  219.321
  274.000   12.270    0.463    0.383   57.025  218.746
  274.250   12.063    0.488    0.389   56.921  218.370
  274.500   11.879    0.502    0.392   56.938  218.693
  274.750   11.620    0.477    0.377   56.956  220.007
  275.000   11.547    0.450    0.355   56.974  220.457
  275.250   12.077    0.437    0.338   56.989  220.481
  275.500   12.431    0.430    0.329   57.184  220.805
  275.750   12.585    0.427    0.321   57.438  221.430
  276.000   12.552    0.426    0.315   57.633  222.056
  276.250   12.332    0.432    0.315   57.655  222.089
  276.500   12.069    0.436    0.319   57.668  222.116
  276.750   11.907    0.429    0.319   57.682  222.143
  277.000   11.880    0.420    0.323   57.878  222.765
  277.250   12.154    0.411    0.326   58.254  223.389
  277.500   12.670    0.407    0.325   58.750  223.916
  277.750   13.066    0.425    0.329   59.349  224.331
  278.000   13.083    0.445    0.333   59.867  222.273
  278.250   13.197    0.451    0.344   60.600  215.102
  278.500   13.311    0.445    0.342   61.697  212.734
  278.750   13.376    0.435    0.338   62.554  212.559
  279.000   13.391    0.426    0.332   62.809  213.281
  279.250   13.411    0.424    0.319   62.094  214.917
  279.500   13.432    0.431    0.318   60.861  214.942
  279.750   13.447    0.436    0.329   60.159  215.369
  280.000   13.536    0.434    0.341   59.993  215.793
  280.250   13.651    0.436    0.348   60.368  216.018
  280.500   13.792    0.441    0.349   61.105  216.144
  280.750   14.061    0.435    0.346   61.894  216.657
  281.000   14.296    0.427    0.344   62.160  217.101
  281.250   14.311    0.428    0.338   61.695  217.525
  281.500   14.485    0.429    0.334   61.589  218.251
  281.750   14.717    0.427    0.335   61.365  218.879
  282.000   14.980    0.424    0.339   60.843  219.106
  282.250   15.383    0.434    0.339   60.090  218.734
  282.500   15.640    0.430    0.337   59.857  218.764
  282.750   15.543    0.434    0.345   60.355  218.391
  283.000   15.195    0.431    0.349   60.670  218.316
  283.250   14.776    0.429    0.348   60.803  218.140
  283.500   14.423    0.429    0.344   60.638  217.765
  283.750   14.191    0.427    0.340   59.740  217.398
  284.000   13.997    0.427    0.334   58.756  217.431
  284.250   14.012    0.422    0.322   57.570  217.450
  284.500   14.030    0.421    0.324   57.287  217.774
  284.750   14.201    0.424    0.329   58.142  218.201
  285.000   14.456    0.429    0.332   59.716  218.629
  285.250   14.476    0.431    0.332   60.886  219.148
  285.500   14.497    0.428    0.332   60.651  219.584
  285.750   14.409    0.428    0.333   60.425  219.611
  286.000   14.322    0.434    0.336   60.201  219.937
  286.250   14.234    0.441    0.337   59.856  220.364
  286.500   14.145    0.445    0.333   59.272  220.891
  286.750   14.042    0.437    0.324   58.332  221.728
  287.000   13.954    0.423    0.332   58.352  221.750
  287.250   13.766    0.411    0.329   58.844  222.174
  287.500   13.733    0.406    0.324   58.618  222.300
  287.750   13.950    0.392    0.304   57.076  222.325
