~VERSION INFORMATION
 VERS.                 2.0:   CWLS LOG ASCII STANDARD -VERSION 2.0
 WRAP.                  NO:   ONE LINE PER DEPTH STEP
~WELL INFORMATION BLOCK
#MNEM.UNIT           DATA                    DESCRIPTION OF MNEMONIC
#---------    -------------------            -------------------------------
# Generated from Intellog Unique Number	CS_71_72/WELL/919
WELL.         AMOCO AEC IPIATIK              : Well_name    - WELL
LOC .         00/12-26-072-05W4/0            : Location     - LOCATION
UWI .         00/12-26-072-05W4/0            : Uwi          - UNIQUE WELL ID
ENTR.         SP                             : Entered      - ENTERED BY
SRVC.         SCHLUMBERGER                   : Scn          - SERVICE COMPANY
STRT.M        315                            : top_depth    - START DEPTH
STOP.M        525                            : bot_depth    - STOP DEPTH
STEP.M        0.25                           : increment    - STEP LENGTH
 NULL. -999.2500:NULL Value
~CURVE INFORMATION BLOCK
#MNEM UNIT       ERCB CURVE CODE    CURVE DESCRIPTION
#-----------   ------------------   ----------------------------------
DEPT.M        00 001 00 00         : DEPTH        - DEPTH
ILD .OHMM     00 120 00 00         : RESD         - DEEP RESISTIVITY (DIL)
DPHI.V/V      00 890 00 00         : PHID         - DENSITY POROSITY (LIMESTONE)
NPHI.V/V      00 330 00 00         : PHIN         - NEUTRON POROSITY (LIMESTONE)
GR  .API      00 310 00 00         : GR           - GAMMA RAY
~PARAMETER INFORMATION
#MNEM.UNIT           DATA             DESCRIPTION OF MNEMONIC
#---------         -----------     ------------------------------
GL  .M        693.7                : gl           - GROUND LEVEL ELEVATION
EREF.M        697.8                : kb           - ELEVATION OF DEPTH REFERENCE
DATM.M        693.7                : datum        - DATUM ELEVATION
TDD .M        628                  : tdd          - TOTAL DEPTH DRILLER
RUN .         ONE                  : Run          - RUN NUMBER
ENG .         BILL                 : Engineer     - RECORDING ENGINEER
WIT .         JIM                  : Witness      - WITNESSED BY
MUD .         GEL                  : Mud_type     - MUD TYPE
MATR.         LIMESTONE            : Logunit      - NEUTRON MATRIX
TMAX.C        15                   : BHT          - MAXIMUM RECORDED TEMPERATURE
BHTD.M        628                  : BHTDEP       - MAXIMUM RECORDED TEMPERATURE
MATR.         1                    : LOGUNIT      - NEUTRON MATRIX
RMT .C        25                   : MDTP         - TEMPERATURE OF MUD
NEUT.         1                    : NEUTRON      - NEUTRON TYPE
RESI.         0                    : RESIST       - RESISTIVITY TYPE
RMC .OHMM     0.25                 : RMC          - RESISTIVITY OF MUD CAKE
RMF .OHMM     0.25                 : RMF          - RESISTIVITY OF MUD FILTRATE
SUFT.C        15                   : SUFT         - SURFACE TEMPERATURE
~A  DEPTH     RESD     PHID     PHIN       GR
# ...
  445.500    5.005    0.242    0.483   88.369
  445.750    5.005    0.231    0.476   86.560
  446.000    5.006    0.234    0.469   86.562
  446.250    4.915    0.242    0.463   87.776
  446.500    4.649    0.242    0.457   89.594
  446.750    4.480    0.248    0.443   90.808
  447.000    4.238    0.255    0.438   91.415
  447.250    4.084    0.259    0.445   90.814
  447.500    4.009    0.248    0.441   90.213
  447.750    3.936    0.240    0.449   87.194
  448.000    3.937    0.261    0.453   85.381
  448.250    3.937    0.284    0.441   82.361
  448.500    3.865    0.284    0.432   80.549
  448.750    3.866    0.269    0.428   79.948
  449.000    3.866    0.260    0.420   79.953
  449.250    3.796    0.243    0.425   81.166
  449.500    3.726    0.221    0.448   83.588
  449.750    3.658    0.221    0.455   86.012
  450.000    3.460    0.256    0.453   87.225
  450.250    3.213    0.263    0.459   86.624
  450.500    2.929    0.260    0.464   84.207
  450.750    2.620    0.251    0.476   80.582
  451.000    2.433    0.261    0.516   81.795
  451.250    2.301    0.266    0.534   83.009
  451.500    2.177    0.265    0.529   82.407
  451.750    2.137    0.262    0.534   80.597
  452.000    2.138    0.259    0.555   79.392
  452.250    2.138    0.256    0.555   78.790
  452.500    2.178    0.244    0.529   78.792
  452.750    2.303    0.239    0.533   79.403
  453.000    2.347    0.233    0.532   79.405
  453.250    2.673    0.237    0.530   78.805
  453.500    2.826    0.240    0.530   78.202
  453.750    3.219    0.232    0.539   76.392
  454.000    3.533    0.221    0.521   75.185
  454.250    3.736    0.213    0.487   71.561
  454.500    4.100    0.210    0.471   69.146
  454.750    4.255    0.213    0.489   68.543
  455.000    4.101    0.229    0.512   66.732
  455.250    4.101    0.242    0.516   64.317
  455.500    4.418    0.254    0.522   61.295
  455.750    5.320    0.268    0.518   57.669
  456.000    6.527    0.286    0.504   53.439
  456.250    8.310    0.301    0.488   52.840
  456.500    8.952    0.301    0.482   54.051
  456.750   10.196    0.280    0.488   54.660
  457.000   12.508    0.254    0.485   54.665
  457.250   15.344    0.209    0.473   55.273
  457.500   14.516    0.205    0.465   57.090
  457.750   13.730    0.227    0.464   59.514
  458.000   11.837    0.248    0.472   60.727
  458.250   10.395    0.255    0.488   62.545
  458.500    8.796    0.263    0.482   65.573
  458.750    6.784    0.258    0.487   68.602
  459.000    5.531    0.256    0.497   70.418
  459.250    4.680    0.239    0.518   74.657
  459.500    3.677    0.222    0.529   75.264
  459.750    3.414    0.221    0.534   75.874
  460.000    2.998    0.227    0.540   76.481
  460.250    2.889    0.232    0.549   76.484
  460.500    2.785    0.227    0.558   75.886
  460.750    2.785    0.220    0.556   74.074
  461.000    2.837    0.218    0.534   72.262
  461.250    3.172    0.241    0.526   66.822
  461.500    3.417    0.249    0.517   65.617
  461.750    3.892    0.256    0.495   65.620
  462.000    4.433    0.261    0.476   65.623
  462.250    5.858    0.283    0.482   63.208
  462.500    7.186    0.300    0.489   60.791
  462.750    8.816    0.312    0.479   57.771
  463.000   10.617    0.325    0.476   57.170
  463.250   13.024    0.331    0.488   57.779
  463.500   16.584    0.322    0.482   58.992
  463.750   17.535    0.318    0.495   59.599
  464.000   18.889    0.319    0.485   60.209
  464.250   19.975    0.318    0.468   60.211
  464.500   20.733    0.309    0.461   58.402
  464.750   21.124    0.297    0.453   56.590
  465.000   21.928    0.283    0.422   54.779
  465.250   21.931    0.222    0.387   52.364
  465.500   22.345    0.169    0.312   49.948
  465.750   22.348    0.142    0.294   49.346
  466.000   22.349    0.176    0.369   53.584
  466.250   22.771    0.272    0.425   56.006
  466.500   22.774    0.306    0.455   59.034
  466.750   22.358    0.312    0.468   56.619
  467.000   21.951    0.315    0.482   54.203
  467.250   21.549    0.316    0.502   52.393
  467.500   21.552    0.315    0.474   51.791
  467.750   21.158    0.315    0.478   51.794
  468.000   20.391    0.316    0.491   52.402
  468.250   20.018    0.314    0.489   53.617
  468.500   19.652    0.304    0.486   54.830
  468.750   19.293    0.297    0.474   55.438
  469.000   18.939    0.295    0.463   55.442
  469.250   18.593    0.292    0.462   56.654
  469.500   18.255    0.289    0.460   57.264
  469.750   17.920    0.286    0.474   56.663
  470.000   17.923    0.301    0.480   56.665
  470.250   17.595    0.308    0.468   57.275
  470.500   17.274    0.315    0.478   57.884
  470.750   17.600    0.318    0.463   57.886
  471.000   17.933    0.309    0.452   57.286
  471.250   17.934    0.291    0.465   57.288
  471.500   17.937    0.285    0.456   56.688
  471.750   17.940    0.280    0.445   56.692
  472.000   17.942    0.273    0.437   56.695
  472.250   17.291    0.266    0.438   56.698
  472.500   16.974    0.275    0.455   56.701
  472.750   15.472    0.284    0.457   56.706
  473.000   14.909    0.292    0.452   56.708
  473.250   13.843    0.298    0.449   57.923
  473.500   13.341    0.303    0.438   58.530
  473.750   13.342    0.309    0.431   61.559
  474.000   13.594    0.309    0.437   62.771
  474.250   13.851    0.309    0.434   60.960
  474.500   13.853    0.307    0.422   57.335
  474.750   13.599    0.297    0.410   56.128
  475.000   11.296    0.286    0.397   60.367
  475.250    9.738    0.265    0.386   63.999
  475.500    8.395    0.247    0.398   67.027
  475.750    7.511    0.233    0.392   68.846
  476.000    7.512    0.213    0.388   70.059
  476.250    7.653    0.215    0.382   70.062
  476.500    8.557    0.234    0.377   68.855
  476.750    9.567    0.253    0.369   65.232
  477.000   10.896    0.246    0.359   64.025
  477.250   12.880    0.232    0.353   62.215
  477.500   15.510    0.247    0.388   61.007
  477.750   18.334    0.268    0.377   57.382
  478.000   21.274    0.287    0.376   54.361
  478.250   22.494    0.302    0.380   47.711
  478.500   25.621    0.304    0.385   42.876
  478.750   27.092    0.299    0.378   39.251
  479.000   28.648    0.290    0.377   35.021
  479.250   28.125    0.270    0.383   33.815
  479.500   26.604    0.265    0.388   35.028
  479.750   22.934    0.271    0.394   37.452
  480.000   17.362    0.285    0.405   39.268
  480.250   15.533    0.268    0.395   45.926
  480.500   12.665    0.251    0.357   54.397
  480.750   11.122    0.213    0.354   60.449
  481.000    9.588    0.187    0.362   64.686
  481.250    7.674    0.175    0.377   72.553
  481.500    6.866    0.164    0.406   79.209
  481.750    5.919    0.155    0.424   87.077
  482.000    5.599    0.154    0.436   89.499
  482.250    5.103    0.165    0.455   91.317
  482.500    5.010    0.178    0.452   89.506
  482.750    4.919    0.186    0.444   87.695
  483.000    4.919    0.177    0.459   88.306
  483.250    4.920    0.176    0.458   89.519
  483.500    4.920    0.176    0.453   90.731
  483.750    4.921    0.184    0.474   93.155
  484.000    5.014    0.188    0.486   94.368
  484.250    5.108    0.198    0.470   94.975
  484.500    5.205    0.188    0.450   96.795
  484.750    5.205    0.183    0.475   98.007
  485.000    4.924    0.178    0.464   99.221
  485.250    4.834    0.165    0.461  100.433
  485.500    4.835    0.160    0.473   99.832
  485.750    5.018    0.152    0.484   96.811
  486.000    5.406    0.137    0.475   93.791
  486.250    6.044    0.120    0.419   89.560
  486.500    6.884    0.108    0.375   85.330
  486.750    7.416    0.153    0.378   82.309
  487.000    7.841    0.199    0.376   84.127
  487.250    7.843    0.188    0.380   88.971
  487.500    7.844    0.193    0.402   91.393
  487.750    7.845    0.222    0.470   84.138
  488.000    8.143    0.239    0.487   70.836
  488.250    9.448    0.244    0.464   66.000
  488.500   11.168    0.242    0.427   60.560
  488.750   13.957    0.271    0.412   49.677
