~VERSION INFORMATION
 VERS.                 2.0:   CWLS LOG ASCII STANDARD -VERSION 2.0
 WRAP.                  NO:   ONE LINE PER DEPTH STEP
~WELL INFORMATION BLOCK
#MNEM.UNIT           DATA                    DESCRIPTION OF MNEMONIC
#---------    -------------------            -------------------------------
# Generated from Intellog Unique Number	CS_71_72/WELL/888
WELL.         MAYNARD ET AL TWEEDIE          : Well_name    - WELL
LOC .         00/11-06-072-12W4/0            : Location     - LOCATION
UWI .         00/11-06-072-12W4/0            : Uwi          - UNIQUE WELL ID
ENTR.         SP                             : Entered      - ENTERED BY
SRVC.         SCHLUMBERGER                   : Scn          - SERVICE COMPANY
STRT.M        290                            : top_depth    - START DEPTH
STOP.M        525                            : bot_depth    - STOP DEPTH
STEP.M        0.25                           : increment    - STEP LENGTH
 NULL. -999.2500:NULL Value
~CURVE INFORMATION BLOCK
#MNEM UNIT       ERCB CURVE CODE    CURVE DESCRIPTION
#-----------   ------------------   ----------------------------------
DEPT.M        00 001 00 00         : DEPTH        - DEPTH
ILD .OHMM     00 120 00 00         : RESD         - DEEP RESISTIVITY (DIL)
DPHI.V/V      00 890 00 00         : PHID         - DENSITY POROSITY (LIMESTONE)
NPHI.V/V      00 330 00 00         : PHIN         - NEUTRON POROSITY (LIMESTONE)
GR  .API      00 310 00 00         : GR           - GAMMA RAY
~PARAMETER INFORMATION
#MNEM.UNIT           DATA             DESCRIPTION OF MNEMONIC
#---------         -----------     ------------------------------
GL  .M        620.85               : gl           - GROUND LEVEL ELEVATION
EREF.M        624.2                : kb           - ELEVATION OF DEPTH REFERENCE
DATM.M        620.85               : datum        - DATUM ELEVATION
TDD .M        540                  : tdd          - TOTAL DEPTH DRILLER
RUN .         ONE                  : Run          - RUN NUMBER
ENG .         BILL                 : Engineer     - RECORDING ENGINEER
WIT .         JIM                  : Witness      - WITNESSED BY
MUD .         GEL                  : Mud_type     - MUD TYPE
MATR.         LIMESTONE            : Logunit      - NEUTRON MATRIX
TMAX.C        20                   : BHT          - MAXIMUM RECORDED TEMPERATURE
BHTD.M        540                  : BHTDEP       - MAXIMUM RECORDED TEMPERATURE
MATR.         1                    : LOGUNIT      - NEUTRON MATRIX
RMT .C        25                   : MDTP         - TEMPERATURE OF MUD
NEUT.         1                    : NEUTRON      - NEUTRON TYPE
RESI.         0                    : RESIST       - RESISTIVITY TYPE
RMC .OHMM     0.25                 : RMC          - RESISTIVITY OF MUD CAKE
RMF .OHMM     0.25                 : RMF          - RESISTIVITY OF MUD FILTRATE
SUFT.C        15                   : SUFT         - SURFACE TEMPERATURE
~A  DEPTH     RESD     PHID     PHIN       GR
  290.000    2.673    0.246    0.540  103.852
  290.250    2.675    0.247    0.541  105.689
  290.500    2.677    0.238    0.541  109.341
  290.750    2.679    0.241    0.542  112.390
  291.000    2.682    0.235    0.543  110.582
  291.250    2.765    0.226    0.533  111.809
  291.500    2.850    0.218    0.533  114.855
  291.750    2.851    0.226    0.542  117.300
  292.000    2.935    0.228    0.550  115.488
  292.250    3.100    0.211    0.553  111.250
  292.500    3.264    0.211    0.544  110.654
  292.750    3.347    0.223    0.541  110.666
  293.000    3.674    0.217    0.537  108.253
  293.250    3.756    0.199    0.524  107.048
  293.500    4.003    0.206    0.514  105.844
  293.750    4.167    0.223    0.508  107.679
  294.000    4.169    0.231    0.507  103.444
  294.250    4.171    0.236    0.519  105.885
  294.500    3.930    0.247    0.531  108.322
  294.750    3.692    0.246    0.549  110.764
  295.000    3.532    0.228    0.564  113.813
  295.250    3.453    0.224    0.539  112.005
  295.500    3.292    0.232    0.531  110.800
  295.750    3.214    0.235    0.527  109.600
  296.000    3.217    0.243    0.527  110.830
  296.250    3.218    0.246    0.533  113.878
  296.500    3.302    0.236    0.533  114.499
  296.750    3.385    0.231    0.529  113.900
  297.000    3.389    0.242    0.529  113.304
  297.250    3.390    0.249    0.536  115.143
  297.500    3.394    0.253    0.542  114.542
  297.750    3.395    0.254    0.550  110.911
  298.000    3.317    0.255    0.535  104.852
  298.250    3.399    0.256    0.521  102.433
  298.500    3.403    0.259    0.505  103.660
  298.750    3.406    0.249    0.498  110.963
  299.000    3.408    0.224    0.494  109.152
  299.250    3.491    0.205    0.490  104.304
  299.500    3.574    0.207    0.496   97.032
  299.750    3.738    0.217    0.478   90.971
  300.000    3.902    0.220    0.442   86.730
  300.250    4.309    0.216    0.444   84.919
  300.500    5.122    0.233    0.448   91.009
  300.750    5.855    0.249    0.446   91.628
  301.000    6.099    0.266    0.443   95.281
  301.250    6.588    0.292    0.447   95.902
  301.500    6.751    0.325    0.448   85.588
  301.750    7.159    0.371    0.456   77.099
  302.000    7.242    0.403    0.470   68.610
  302.250    7.244    0.438    0.465   61.333
  302.500    7.247    0.428    0.424   47.382
  302.750    7.087    0.298    0.379   41.927
  303.000    6.766    0.284    0.368   38.900
  303.250    6.606    0.281    0.368   38.306
  303.500    6.446    0.280    0.369   41.353
  303.750    6.287    0.290    0.381   55.943
  304.000    6.128    0.298    0.404   64.456
  304.250    6.050    0.305    0.416   71.755
  304.500    6.051    0.303    0.420   76.628
  304.750    5.973    0.289    0.426   76.032
  305.000    5.975    0.282    0.428   74.831
  305.250    6.060    0.272    0.429   77.811
  305.500    6.142    0.254    0.431   79.713
  305.750    6.226    0.243    0.434   85.802
  306.000    6.308    0.233    0.439   92.491
  306.250    6.474    0.229    0.445   99.184
  306.500    6.476    0.239    0.447  104.059
  306.750    6.478    0.237    0.450  105.282
  307.000    6.480    0.230    0.450  107.728
  307.250    6.484    0.226    0.450  108.950
  307.500    6.486    0.230    0.452  110.786
  307.750    6.487    0.237    0.458  112.012
  308.000    6.409    0.226    0.453  112.632
  308.250    6.330    0.230    0.454  113.250
  308.500    6.090    0.240    0.464  112.049
  308.750    5.930    0.249    0.471  110.845
  309.000    5.771    0.261    0.480  108.429
  309.250    5.612    0.278    0.483  109.047
  309.500    5.533    0.272    0.474  107.237
  309.750    5.535    0.284    0.466  101.177
  310.000    5.780    0.289    0.454   93.296
  310.250    6.026    0.288    0.448   89.665
  310.500    6.515    0.280    0.453   97.570
  310.750    6.678    0.277    0.457  107.301
  311.000    7.086    0.273    0.464  109.739
  311.250    7.250    0.269    0.467  101.254
  311.500    7.414    0.272    0.455   98.227
  311.750    7.416    0.275    0.450   95.811
  312.000    7.420    0.308    0.452   93.394
  312.250    7.341    0.319    0.467   87.332
  312.500    7.262    0.330    0.484   79.450
  312.750    7.264    0.354    0.491   75.209
  313.000    7.104    0.374    0.502   73.400
  313.250    7.107    0.425    0.511   75.233
  313.500    7.110    0.402    0.491   75.853
  313.750    7.112    0.391    0.486   72.221
  314.000    7.115    0.454    0.524   83.773
  314.250    7.116    0.480    0.550   98.968
  314.500    7.038    0.483    0.572  103.235
  314.750    6.959    0.244    0.519  102.032
  315.000    7.044    0.242    0.491   99.007
  315.250    7.127    0.257    0.472   94.160
  315.500    7.291    0.262    0.454   90.528
  315.750    7.536    0.258    0.448   88.717
  316.000    7.700    0.247    0.439   87.514
  316.250    8.513    0.239    0.436   88.744
  316.500    8.920    0.234    0.451   91.793
  316.750    9.165    0.237    0.450   96.058
  317.000    8.763    0.237    0.449  100.319
  317.250    8.279    0.228    0.462  103.973
  317.500    7.553    0.222    0.472  105.810
  317.750    7.312    0.228    0.475  105.824
  318.000    7.071    0.234    0.490  105.833
  318.250    6.993    0.228    0.490  104.631
  318.500    6.996    0.223    0.485   99.176
  318.750    7.079    0.238    0.475   94.937
  319.000    7.081    0.234    0.468   99.201
  319.250    7.003    0.218    0.464  105.893
  319.500    6.762    0.195    0.477  114.411
  319.750    6.359    0.185    0.504  121.711
  320.000    5.714    0.189    0.515  126.582
  320.250    5.069    0.188    0.527  130.239
  320.500    4.667    0.179    0.530  131.464
  320.750    4.264    0.178    0.524  132.692
  321.000    4.105    0.192    0.522  130.884
  321.250    4.188    0.203    0.517  129.072
  321.500    4.433    0.213    0.499  127.260
  321.750    5.003    0.219    0.489  123.636
  322.000    5.491    0.224    0.482  123.037
  322.250    5.817    0.237    0.477  120.016
  322.500    6.062    0.244    0.480  118.200
  322.750    6.632    0.248    0.449  114.569
  323.000    6.959    0.260    0.437  116.407
  323.250    7.122    0.268    0.437  116.414
  323.500    7.450    0.275    0.438  109.141
  323.750    7.451    0.275    0.438  103.085
  324.000    7.372    0.271    0.440  100.061
  324.250    7.213    0.267    0.446   98.248
  324.500    6.892    0.254    0.449   96.433
  324.750    6.489    0.249    0.459   99.486
  325.000    6.168    0.245    0.471  109.213
  325.250    5.927    0.241    0.467  115.904
  325.500    5.849    0.243    0.467  115.918
  325.750    5.851    0.250    0.468  112.285
  326.000    5.935    0.251    0.459  109.263
  326.250    6.018    0.257    0.453  106.237
  326.500    6.182    0.265    0.451   98.965
  326.750    6.428    0.250    0.462  100.191
  327.000    6.511    0.232    0.456  106.883
  327.250    6.675    0.227    0.449  112.970
  327.500    6.841    0.232    0.445  113.591
  327.750    6.925    0.233    0.445  112.387
  328.000    6.926    0.229    0.433  114.833
  328.250    6.847    0.227    0.439  116.664
  328.500    6.850    0.224    0.446  118.495
  328.750    6.771    0.224    0.451  120.941
  329.000    6.692    0.231    0.455  121.555
  329.250    6.694    0.236    0.458  117.316
  329.500    6.940    0.243    0.455  110.647
  329.750    7.023    0.234    0.451  105.805
  330.000    7.350    0.228    0.453  103.387
  330.250    7.513    0.214    0.459  102.183
  330.500    7.922    0.208    0.461  100.375
  330.750    8.167    0.201    0.461   99.169
  331.000    8.331    0.206    0.462  105.865
  331.250    8.414    0.225    0.467  113.172
  331.500    8.416    0.242    0.476  115.002
  331.750    7.852    0.242    0.482  115.616
  332.000    7.368    0.250    0.492  113.807
  332.250    6.885    0.258    0.489  107.745
  332.500    6.644    0.261    0.485  102.902
  332.750    6.081    0.261    0.474  106.557
  333.000    5.841    0.259    0.471  113.856
  333.250    5.600    0.255    0.466  119.941
