~VERSION INFORMATION
 VERS.                 2.0:   CWLS LOG ASCII STANDARD -VERSION 2.0
 WRAP.                  NO:   ONE LINE PER DEPTH STEP
~WELL INFORMATION BLOCK
#MNEM.UNIT           DATA                    DESCRIPTION OF MNEMONIC
#---------    -------------------            -------------------------------
# Generated from Intellog Unique Number	CW_76_78/WELL/2575
WELL.         10-09-078-26W4                 : Well_name    - WELL
LOC .         00/10-09-078-26W4/0            : Location     - LOCATION
UWI .         00/10-09-078-26W4/0            : Uwi          - UNIQUE WELL ID
ENTR.         MAX                            : Entered      - ENTERED BY
SRVC.         COMPUTALOG                     : Scn          - SERVICE COMPANY
STRT.M        300                            : top_depth    - START DEPTH
STOP.M        525                            : bot_depth    - STOP DEPTH
STEP.M        0.25                           : increment    - STEP LENGTH
 NULL. -999.2500:NULL Value
~CURVE INFORMATION BLOCK
#MNEM UNIT       ERCB CURVE CODE    CURVE DESCRIPTION
#-----------   ------------------   ----------------------------------
DEPT.M        00 001 00 00         : DEPTH        - DEPTH
ILD .OHMM     00 120 00 00         : RESD         - DEEP RESISTIVITY (DIL)
NPHI.V/V      00 330 00 00         : PHIN         - NEUTRON POROSITY (SANDSTONE)
DPHI.V/V      00 890 00 00         : PHID         - DENSITY POROSITY (SANDSTONE)
CALI.MM       00 280 01 00         : CAL          - CALIPER
GR  .API      00 310 00 00         : GR           - GAMMA RAY
~PARAMETER INFORMATION
#MNEM.UNIT           DATA             DESCRIPTION OF MNEMONIC
#---------         -----------     ------------------------------
GL  .M        595                  : gl           - GROUND LEVEL ELEVATION
EREF.M        598.9                : kb           - ELEVATION OF DEPTH REFERENCE
DATM.M        595                  : datum        - DATUM ELEVATION
TDD .M        524                  : tdd          - TOTAL DEPTH DRILLER
RUN .         ONE                  : Run          - RUN NUMBER
ENG .         BILL                 : Engineer     - RECORDING ENGINEER
WIT .         JIM                  : Witness      - WITNESSED BY
MUD .         GEL                  : Mud_type     - MUD TYPE
MATR.         SANDSTONE            : Logunit      - NEUTRON MATRIX
TMAX.C        18                   : BHT          - MAXIMUM RECORDED TEMPERATURE
BHTD.M        524                  : BHTDEP       - MAXIMUM RECORDED TEMPERATURE
RMT .C        15                   : MDTP         - TEMPERATURE OF MUD
MUDD.KG/M     1090                 : MWT          - MUD DENSITY
NEUT.         1                    : NEUTRON      - NEUTRON TYPE
RESI.         0                    : RESIST       - RESISTIVITY TYPE
RM  .OHMM     7                    : RM           - RESISTIVITY OF MUD
RMC .OHMM     0                    : RMC          - RESISTIVITY OF MUD CAKE
RMF .OHMM     8                    : RMF          - RESISTIVITY OF MUD FILTRATE
SUFT.C        -20                  : SUFT         - SURFACE TEMPERATURE
~A  DEPTH     RESD     PHIN     PHID      CAL       GR
# ...
  409.500   14.200    0.381    0.230  194.924   59.386
  409.750   15.532    0.331    0.202  194.904   55.804
  410.000   17.770    0.183    0.133  195.378   52.815
  410.250   20.515    0.140    0.061  196.846   49.531
  410.500   23.683    0.126    0.043  198.314   48.030
  410.750   24.988    0.131    0.041  198.292   49.209
  411.000   25.208    0.131    0.041  197.281   51.279
  411.250   24.090    0.126    0.042  197.264   51.565
  411.500   23.025    0.122    0.047  196.746   50.366
  411.750   21.230    0.122    0.054  196.727   47.377
  412.000   18.882    0.127    0.068  197.701   45.878
  412.250   16.494    0.142    0.092  198.178   48.246
  412.500   14.024    0.180    0.121  199.646   52.698
  412.750   12.032    0.229    0.183  200.618   60.422
  413.000   11.397    0.341    0.213  201.092   64.872
  413.250   10.795    0.378    0.248  197.105   58.910
  413.500   10.504    0.428    0.259  193.614   56.220
  413.750   10.502    0.401    0.258  192.603   55.615
  414.000   10.499    0.393    0.257  192.566   55.601
  414.250   10.496    0.389    0.260  192.559   55.294
  414.500   10.305    0.381    0.267  192.544   56.770
  414.750    9.850    0.400    0.274  193.006   60.922
  415.000    8.682    0.422    0.282  193.497   68.350
  415.250    7.653    0.408    0.284  194.960   73.694
  415.500    6.868    0.426    0.271  195.935   80.823
  415.750    6.623    0.426    0.257  197.902   84.382
  416.000    6.621    0.405    0.241  198.871   82.882
  416.250    6.679    0.423    0.238  197.863   83.167
  416.500    6.921    0.417    0.235  196.851   77.801
  416.750    7.045    0.407    0.240  194.843   71.834
  417.000    7.045    0.410    0.243  194.333   73.015
  417.250    7.105    0.402    0.230  193.815   73.301
  417.500    7.039    0.406    0.208  193.798   76.562
  417.750    6.974    0.386    0.195  193.766   76.252
  418.000    6.972    0.399    0.184  193.751   68.802
  418.250    7.161    0.411    0.185  193.734   60.756
  418.500    7.488    0.392    0.211  193.717   56.283
  418.750    8.117    0.371    0.198  193.697   54.781
  419.000    8.719    0.303    0.188  194.174   55.961
  419.250    8.876    0.290    0.181  195.146   58.628
  419.500    8.953    0.328    0.195  195.622   60.104
  419.750    8.712    0.355    0.210  195.600   59.496
  420.000    8.712    0.391    0.220  195.085   59.779
  420.250    8.323    0.399    0.230  195.065   61.851
  420.500    8.028    0.403    0.238  194.552   66.304
  420.750    7.742    0.408    0.245  194.032   69.564
  421.000    7.740    0.416    0.245  194.017   68.064
  421.250    7.807    0.424    0.240  194.489   68.350
  421.500    7.805    0.438    0.226  197.442   70.420
  421.750    7.664    0.436    0.225  198.419   71.303
  422.000    7.662    0.435    0.232  197.406   73.373
  422.250    7.799    0.417    0.241  196.893   75.446
  422.500    8.082    0.379    0.234  196.375   84.657
  422.750    8.604    0.346    0.228  195.859   82.560
  423.000    9.161    0.406    0.228  195.842   78.088
  423.250    9.494    0.418    0.224  196.314   76.885
  423.500   10.199    0.403    0.206  196.297   74.789
  423.750   10.762    0.374    0.173  196.280   72.102
  424.000   11.254    0.340    0.165  196.756   62.865
  424.250   11.352    0.308    0.164  197.723   55.116
  424.500   11.146    0.291    0.180  198.698   55.698
  424.750   10.847    0.277    0.194  198.681   56.284
  425.000   10.269    0.392    0.268  196.771   55.528
  425.250   11.348    0.359    0.239  196.299   55.838
  425.500   12.095    0.417    0.197  195.839   57.924
  425.750   12.322    0.373    0.162  195.867   59.122
  426.000   11.785    0.338    0.136  196.383   59.137
  426.250   11.069    0.271    0.115  197.399   60.339
  426.500   10.397    0.236    0.132  197.923   62.714
  426.750    9.765    0.237    0.160  197.947   65.391
  427.000    9.091    0.253    0.228  196.991   70.428
  427.250    8.852    0.293    0.252  196.038   71.922
  427.500    8.699    0.361    0.254  194.589   77.254
  427.750    8.625    0.419    0.240  193.140   81.701
  428.000    8.707    0.429    0.232  192.181   82.899
  428.250    9.116    0.384    0.227  192.701   78.781
  428.500    9.285    0.349    0.212  194.209   75.845
  428.750    9.546    0.346    0.207  195.710   75.864
  429.000    9.638    0.371    0.208  197.707   77.946
  429.250    9.558    0.366    0.194  198.230   80.916
  429.500    9.649    0.365    0.191  197.766   83.888
  429.750    9.831    0.391    0.186  196.817   82.428
  430.000   10.014    0.406    0.180  196.345   79.198
  430.250   10.202    0.409    0.173  196.377   79.804
  430.500   10.117    0.417    0.178  196.897   80.707
  430.750    9.675    0.360    0.189  197.414   80.432
  431.000    9.170    0.335    0.192  197.445   77.496
  431.250    8.849    0.316    0.198  198.454   75.148
  431.500    8.695    0.363    0.208  198.981   75.757
  431.750    8.700    0.396    0.217  199.009   77.544
  432.000    8.784    0.413    0.218  199.030   80.809
  432.250    8.950    0.432    0.208  199.062   84.368
  432.500    9.117    0.397    0.198  199.582   90.587
  432.750    9.630    0.424    0.200  200.098   92.675
  433.000    9.990    0.411    0.212  200.130   87.667
  433.250   10.177    0.432    0.224  200.154   85.321
  433.500   10.367    0.451    0.225  199.694   83.270
  433.750   10.280    0.468    0.221  199.226   79.743
  434.000    9.921    0.455    0.229  199.257   77.693
  434.250    9.234    0.428    0.233  199.285   76.237
  434.500    7.925    0.388    0.230  199.310   75.661
  434.750    6.560    0.356    0.220  199.338   77.154
  435.000    6.505    0.350    0.246  199.373   80.715
  435.250    7.123    0.394    0.272  199.397   89.299
  435.500    8.852    0.436    0.284  198.936   94.924
  435.750    9.869    0.442    0.269  198.961  100.552
  436.000   12.487    0.456    0.241  198.496   92.300
  436.250   13.189    0.462    0.229  198.032   79.618
  436.500   14.974    0.477    0.204  197.571   76.685
  436.750   15.960    0.413    0.174  196.611   79.356
  437.000   15.129    0.365    0.217  196.151   84.098
  437.250   15.411    0.378    0.246  196.179   83.822
  437.500   17.183    0.406    0.262  196.210   81.769
  437.750   20.970    0.400    0.262  195.742   78.837
  438.000   21.754    0.422    0.228  195.767   77.373
  438.250   22.975    0.422    0.221  195.798   75.617
  438.500   25.160    0.410    0.212  195.826   73.862
  438.750   28.055    0.397    0.199  195.851   71.516
  439.000   33.627    0.384    0.182  195.879   66.513
  439.250   36.823    0.388    0.175  195.907   60.623
  439.500   39.246    0.366    0.165  195.942   60.935
  439.750   35.236    0.366    0.139  200.895   65.974
  440.000   27.379    0.316    0.134  199.932   65.993
  440.250   20.707    0.271    0.169  198.975   69.847
  440.500   18.931    0.280    0.204  197.530   78.428
  440.750   19.460    0.368    0.224  196.570   82.877
  441.000   19.649    0.414    0.229  196.109   80.529
  441.250   19.133    0.435    0.231  197.122   77.002
  441.500   20.030    0.396    0.234  197.659   79.677
  441.750   19.860    0.347    0.241  198.162   83.535
  442.000   18.484    0.363    0.246  198.686   82.368
  442.250   16.447    0.382    0.242  198.218   80.318
  442.500   15.730    0.361    0.226  197.261   76.200
  442.750   15.739    0.391    0.215  196.797   72.970
  443.000   16.325    0.447    0.221  196.333   74.759
  443.250   16.633    0.488    0.230  195.869   79.503
  443.500   15.764    0.457    0.241  195.408   79.225
  443.750   14.153    0.438    0.245  194.944   83.964
  444.000   13.784    0.403    0.235  194.972   90.185
  444.250   14.170    0.379    0.223  195.000   88.725
  444.500   14.050    0.392    0.229  195.031   85.196
  444.750   13.930    0.394    0.236  195.076   83.145
  445.000   13.085    0.415    0.234  195.579   84.048
  445.250   12.628    0.389    0.218  196.092   87.316
  445.500   12.527    0.378    0.211  196.127   87.330
  445.750   12.416    0.357    0.192  196.148   84.985
