~VERSION INFORMATION
 VERS.                 2.0:   CWLS LOG ASCII STANDARD -VERSION 2.0
 WRAP.                  NO:   ONE LINE PER DEPTH STEP
~WELL INFORMATION BLOCK
#MNEM.UNIT           DATA                    DESCRIPTION OF MNEMONIC
#---------    -------------------            -------------------------------
# Generated from Intellog Unique Number	CW_73_75/WELL/3022
WELL.         HOME ALMINEX KCL MARTEN H 11-0 : Well_name    - WELL
LOC .         00/11-05-074-25W4/0            : Location     - LOCATION
UWI .         00/11-05-074-25W4/0            : Uwi          - UNIQUE WELL ID
ENTR.         JJ                             : Entered      - ENTERED BY
SRVC.         SCHLUMBERGER                   : Scn          - SERVICE COMPANY
DATE.         20 FEB 66                      : Date         - LOG DATE
STRT.M        460.248                        : top_depth    - START DEPTH
STOP.M        588.248                        : bot_depth    - STOP DEPTH
STEP.M        0.25                           : increment    - STEP LENGTH
 NULL. -999.2500:NULL Value
~CURVE INFORMATION BLOCK
#MNEM UNIT       ERCB CURVE CODE    CURVE DESCRIPTION
#-----------   ------------------   ----------------------------------
DEPT.M        00 001 00 00         : DEPTH        - DEPTH
DELT.US/F     00 520 00 00         : DELT         - SONIC TRAVEL TIME
GR  .API      00 310 00 00         : GR           - GAMMA RAY
ILD .OHMM     00 120 00 00         : RESD         - DEEP RESISTIVITY (DIL)
~PARAMETER INFORMATION
#MNEM.UNIT           DATA             DESCRIPTION OF MNEMONIC
#---------         -----------     ------------------------------
GL  .M        656.722              : gl           - GROUND LEVEL ELEVATION
EREF.M        660.014              : kb           - ELEVATION OF DEPTH REFERENCE
DATM.M        656.722              : datum        - DATUM ELEVATION
TDD .M        596.189              : tdd          - TOTAL DEPTH DRILLER
RUN .         ONE                  : Run          - RUN NUMBER
ENG .         SWINARTON            : Engineer     - RECORDING ENGINEER
WIT .         DAWSON-GROVE         : Witness      - WITNESSED BY
BASE.         EDM                  : Branch       - HOME BASE OF LOGGING UNIT
MUD .         GEL CHEM             : Mud_type     - MUD TYPE
MATR.         SANDSTONE            : Logunit      - NEUTRON MATRIX
TMAX.C        18.3333              : BHT          - MAXIMUM RECORDED TEMPERATURE
BHTD.M        594.665              : BHTDEP       - MAXIMUM RECORDED TEMPERATURE
RMT .C        14.4444              : MDTP         - TEMPERATURE OF MUD
MUDD.KG/M     1020                 : MWT          - MUD DENSITY
NEUT.         1                    : NEUTRON      - NEUTRON TYPE
RESI.         0                    : RESIST       - RESISTIVITY TYPE
RM  .OHMM     3.49                 : RM           - RESISTIVITY OF MUD
RMC .OHMM     2.96                 : RMC          - RESISTIVITY OF MUD CAKE
RMF .OHMM     3.13                 : RMF          - RESISTIVITY OF MUD FILTRATE
SUFT.C        5                    : SUFT         - SURFACE TEMPERATURE
~A  DEPTH     DELT       GR     RESD
  460.248  386.020   48.120    3.665
  460.498  378.970   56.375    4.894
  460.748  306.190   58.541    5.838
  460.998  245.523   59.909    7.110
  461.248  260.559   55.729    7.848
  461.498  224.593   52.350    8.671
  461.748  278.388   55.414    7.944
  461.998  334.055   64.576    7.015
  462.248  376.604   66.241    5.964
  462.498  386.083   67.460    5.198
  462.748  383.654   70.523    4.716
  462.998  388.179   64.547    4.319
  463.248  384.544   61.621    4.286
  463.498  388.806   66.184    4.294
  463.748  382.355   68.796    4.382
  463.998  377.851   65.368    4.469
  464.248  379.902   63.637    4.638
  464.498  385.369   66.104    4.767
  464.748  384.139   69.168    4.940
  464.998  375.684   71.237    4.989
  465.248  378.201   72.853    4.998
  465.498  383.534   74.719    5.002
  465.748  384.921   74.936    4.970
  465.998  383.423   75.802    4.815
  466.248  388.022   79.618    4.578
  466.498  391.811   75.687    4.341
  466.748  394.466   75.005    4.185
  466.998  395.115   78.271    4.030
  467.248  388.199   75.392    3.995
  467.498  378.469   78.058    3.841
  467.748  378.850   80.074    3.684
  467.998  387.059   79.046    3.568
  468.248  392.322   77.864    3.335
  468.498  396.987   76.380    3.179
  468.748  396.692   72.750    3.186
  468.998  392.524   68.972    3.233
  469.248  384.469   69.292    3.484
  469.498  387.124   71.458    3.737
  469.748  392.655   74.021    4.068
  469.998  387.414   67.944    4.648
  470.248  378.488   57.871    4.980
  470.498  366.886   50.693    5.394
  470.748  359.093   46.215    5.604
  470.998  353.784   42.587    5.531
  471.248  350.013   40.806    5.255
  471.498  347.376   37.877    5.099
  471.748  346.757   35.746    4.944
  471.998  346.866   35.562    4.869
  472.248  347.776   37.778    4.713
  472.498  348.096   39.995    4.720
  472.748  346.461   40.812    4.686
  472.998  344.767   44.378    4.571
  473.248  345.686   43.247    4.539
  473.498  350.214   43.215    4.505
  473.748  354.343   47.728    4.716
  473.998  358.202   54.390    4.928
  474.248  359.518   56.257    5.220
  474.498  352.801   54.327    5.553
  474.748  345.480   53.297    5.805
  474.998  342.914   53.914    5.731
  475.248  347.511   53.931    5.576
  475.498  353.446   50.650    5.380
  475.748  352.079   47.925    5.305
  475.998  350.321   48.089    5.190
  476.248  348.827   46.461    5.076
  476.498  349.069   46.476    4.922
  476.748  350.522   46.946    4.885
  476.998  352.575   46.912    4.730
  477.248  354.289   49.576    4.656
  477.498  354.667   52.443    4.582
  477.748  353.172   55.808    4.713
  477.998  352.282   55.276    4.681
  478.248  355.205   52.795    4.606
  478.498  358.794   50.070    4.571
  478.748  359.846   48.334    4.662
  478.998  360.958   49.702    4.993
  479.248  362.143   53.219    5.857
  479.498  350.875   53.885    6.393
  479.748  291.746   52.207    6.603
  479.998  270.507   53.172    6.529
  480.248  321.219   57.086    5.763
  480.498  336.527   62.748    4.673
  480.748  361.605   70.114    4.354
  480.998  378.785   74.226    4.278
  481.248  389.673   68.649    4.530
  481.498  386.235   64.620    4.823
  481.748  382.263   65.185    5.156
  481.998  387.931   69.599    5.327
  482.248  381.415   71.715    5.416
  482.498  377.240   67.089    5.384
  482.748  379.630   65.462    5.348
  482.998  382.347   66.376    5.398
  483.248  382.058   68.546    5.406
  483.498  379.959   70.856    5.494
  483.748  377.063   74.923    5.541
  483.998  374.492   76.540    5.548
  484.248  367.312   68.911    5.718
  484.498  359.055   65.432    5.807
  484.748  349.127   69.251    5.694
  484.998  351.111   71.214    5.578
  485.248  350.419   73.680    5.342
  485.498  363.718   75.797    5.104
  485.748  373.602   74.564    5.030
  485.998  380.472   73.886    4.875
  486.248  380.851   76.050    4.841
  486.498  381.563   78.766    4.688
  486.748  385.622   79.981    4.693
  486.998  388.951   80.203    4.619
  487.248  394.076   79.868    4.588
  487.498  396.667   78.986    4.594
  487.748  397.717   77.208    4.561
  487.998  393.073   75.526    4.609
  488.248  387.226   72.743    4.617
  488.498  383.726   63.870    4.746
  488.748  382.833   54.995    4.834
  488.998  385.420   50.215    4.841
  489.248  379.040   51.082    4.932
  489.498  378.615   54.101    5.018
  489.748  378.928   56.613    5.108
  489.998  354.741   59.381    5.075
  490.248  344.411   57.099    5.000
  490.498  348.001   53.671    5.009
  490.748  361.501   51.891    5.056
  490.998  367.101   50.712    5.267
  491.248  349.805   50.229    5.724
  491.498  330.777   49.646    6.381
  491.748  302.641   48.615    7.691
  491.998  262.657   47.632    9.654
  492.248  252.126   46.451   11.370
  492.498  245.810   44.922   13.291
  492.748  241.569   43.091   15.988
  492.998  237.935   42.058   17.989
  493.248  233.629   43.475   18.080
  493.498  228.250   44.093   17.596
  493.748  220.731   44.310   15.610
  493.998  209.395   46.230   13.742
  494.248  218.541   48.944   11.146
  494.498  230.436   52.209    9.443
  494.748  281.617   52.727    8.350
  494.998  312.854   48.345    7.299
  495.248  304.263   46.215    6.817
  495.498  294.535   47.436    6.418
  495.748  298.861   49.753    5.937
  495.998  316.580   52.818    5.578
  496.248  349.824   56.132    5.220
  496.498  358.435   59.148    4.982
  496.748  364.371   62.113    4.786
  496.998  373.250   64.376    4.712
  497.248  377.244   65.796    4.638
  497.498  373.606   67.212    4.484
  497.748  371.241   68.478    4.448
  497.998  380.187   69.544    4.417
  498.248  380.968   68.312    4.381
  498.498  376.863   71.677    4.310
  498.748  386.340   65.700    4.318
  498.998  393.482   68.468    4.365
  499.248  399.617   71.282    4.492
  499.498  401.940   69.652    4.462
  499.748  394.086   66.324    4.306
  499.998  382.949   63.293    3.987
  500.248  383.191   57.014    3.709
  500.498  384.779   53.984    3.634
  500.748  385.959   56.999    3.561
  500.998  383.461   59.715    3.528
  501.248  383.305   60.132    3.533
  501.498  390.108   55.903    3.502
  501.748  380.383   53.123    3.550
  501.998  346.222   56.239    3.639
  502.248  342.585   62.354    3.727
  502.498  351.930   66.917    3.734
  502.748  358.067   69.532    3.702
  502.998  360.452   70.599    3.789
  503.248  359.090   73.864    4.122
  503.498  358.470   69.788    6.125
  503.748  357.509   64.108    8.046
  503.998  291.621   54.085   10.374
  504.248  245.549   48.906   12.866
  504.498  255.500   50.971   14.542
  504.748  250.323   55.786   14.468
  504.998  214.222   57.205   12.074
  505.248  208.241   58.071   10.046
  505.498  286.599   61.637    9.033
  505.748  295.681   66.601    7.536
  505.998  293.248   70.865    6.605
  506.248  303.467   74.178    5.719
  506.498  317.703   73.896    5.318
  506.748  321.429   67.421    5.121
  506.998  310.696   65.189    5.089
  507.248  316.629   68.806    5.301
  507.498  328.389   64.127    5.349
  507.748  318.927   64.544    5.437
  507.998  303.442   67.109    5.606
  508.248  310.984   71.725    5.818
  508.498  349.515   74.090    5.948
  508.748  337.445   68.512    6.077
  508.998  334.946   70.078    6.124
  509.248  351.992   75.744    6.094
  509.498  349.089   78.109    6.100
  509.748  344.582   76.480    6.066
  509.998  350.853   76.597    5.991
  510.248  359.465   77.916    5.917
  510.498  361.577   78.879    5.764
  510.748  361.223   79.947    5.690
  510.998  359.730   80.164    5.697
  511.248  358.635   78.883    5.583
  511.498  358.949   70.957    5.508
  511.748  359.461   72.573    5.434
  511.998  356.093   73.090    5.401
  512.248  352.187   71.063    5.448
  512.498  357.517   73.625    5.576
  512.748  361.179   78.190    5.504
  512.998  350.714   78.209    5.510
  513.248  344.467   78.277    5.478
  513.498  352.071   78.894    5.484
  513.748  360.218   79.363    5.452
  513.998  350.353   79.478    5.458
  514.248  344.376   78.098    5.792
