~VERSION INFORMATION
 VERS.                 2.0:   CWLS LOG ASCII STANDARD -VERSION 2.0
 WRAP.                  NO:   ONE LINE PER DEPTH STEP
~WELL INFORMATION BLOCK
#MNEM.UNIT           DATA                    DESCRIPTION OF MNEMONIC
#---------    -------------------            -------------------------------
# Generated from Intellog Unique Number	CW_76_78/WELL/2585
NULL.         -999.25                        : NULL_VALUE
WELL.         SOBC ET AL SANDY LAKE          : Well_name    - WELL              
LOC .         11-36-078-22W4                 : Location     - LOCATION          
UWI .         00/11-36-078-22W4/0            : Uwi          - UNIQUE WELL ID    
ENTR.         MAX                            : Entered      - ENTERED BY        
SRVC.         SCHLUMBERGER                   : Scn          - SERVICE COMPANY   
DATE.         02 MAR 74                      : Date         - LOG DATE
STRT.M        213.36                         : top_depth    - START DEPTH       
STOP.M        429.86                         : bot_depth    - STOP DEPTH        
STEP.M        0.25                           : increment    - STEP LENGTH       
~CURVE INFORMATION BLOCK
#MNEM UNIT       ERCB CURVE CODE    CURVE DESCRIPTION
#-----------   ------------------   ----------------------------------
DEPT.M        00 001 00 00         : DEPTH        - DEPTH                       
ILD .OHMM     00 120 00 00         : RESD         - DEEP RESISTIVITY (DIL)      
NPHI.V/V      00 330 00 00         : PHIN         - NEUTRON POROSITY (SANDSTONE)
DPHI.V/V      00 890 00 00         : PHID         - DENSITY POROSITY (SANDSTONE)
CALI.MM       00 280 01 00         : CAL          - CALIPER                     
GR  .API      00 310 00 00         : GR           - GAMMA RAY                   
~PARAMETER INFORMATION       
#MNEM.UNIT           DATA             DESCRIPTION OF MNEMONIC
#---------         -----------     ------------------------------
GL  .M        562.966              : gl           - GROUND LEVEL ELEVATION      
EREF.M        565.404              : kb           - ELEVATION OF DEPTH REFERENCE
DATM.M        562.966              : datum        - DATUM ELEVATION             
TDD .M        434.34               : tdd          - TOTAL DEPTH DRILLER         
RUN .         ONE                  : Run          - RUN NUMBER                  
ENG .         BILL                 : Engineer     - RECORDING ENGINEER          
WIT .         JIM                  : Witness      - WITNESSED BY                
MUD .         GEL                  : Mud_type     - MUD TYPE                    
MATR.         SANDSTONE            : Logunit      - NEUTRON MATRIX              
TMAX.C        75                   : BHT          - MAXIMUM RECORDED TEMPERATURE
BHTD.M        434.34               : BHTDEP       - MAXIMUM RECORDED TEMPERATURE
RMT .C        14.4444              : MDTP         - TEMPERATURE OF MUD          
MUDD.KG/M     9200                 : MWT          - MUD DENSITY                 
NEUT.         1                    : NEUTRON      - NEUTRON TYPE                
RESI.         0                    : RESIST       - RESISTIVITY TYPE            
RM  .OHMM     7                    : RM           - RESISTIVITY OF MUD          
RMC .OHMM     0                    : RMC          - RESISTIVITY OF MUD CAKE     
RMF .OHMM     8.51                 : RMF          - RESISTIVITY OF MUD FILTRATE 
SUFT.C        -20.5556             : SUFT         - SURFACE TEMPERATURE         
~A  DEPTH     RESD     PHIN     PHID      CAL       GR
# ...
  395.860   51.797    0.378    0.288  204.501   42.236
  396.110   51.770    0.385    0.278  204.430   43.080
  396.360   54.129    0.384    0.276  204.385   44.233
  396.610   55.587    0.379    0.273  204.327   45.673
  396.860   53.105    0.387    0.271  203.286   46.815
  397.110   53.074    0.398    0.275  203.216   49.431
  397.360   58.582    0.399    0.270  203.675   51.164
  397.610   54.475    0.398    0.276  202.123   51.722
  397.860   43.051    0.416    0.272  199.589   54.330
  398.110   34.334    0.444    0.278  199.027   56.950
  398.360   21.264    0.417    0.280  202.460   61.624
  398.610   17.111    0.386    0.280  203.411   67.180
  398.860   14.669    0.387    0.279  204.342   67.443
  399.110   11.698    0.362    0.270  204.802   68.883
  399.360    9.672    0.362    0.243  207.240   77.379
  399.610    8.912    0.397    0.208  206.677   85.283
  399.860    8.826    0.436    0.178  205.139   90.549
  400.110   10.761    0.453    0.194  199.598   91.984
  400.360   11.666    0.439    0.201  202.534   91.370
  400.610   13.843    0.407    0.203  205.974   81.927
  400.860   19.674    0.378    0.187  205.424   72.191
  401.110   20.022    0.354    0.178  204.377   68.044
  401.360   16.555    0.311    0.163  203.821   70.366
  401.610   15.533    0.297    0.141  204.268   79.450
  401.860   14.441    0.350    0.101  204.714   90.886
  402.110   14.965    0.422    0.111  204.158  104.086
  402.360   15.230    0.412    0.176  203.609  101.704
  402.610   14.034    0.392    0.200  203.519   90.489
  402.860   12.249    0.362    0.190  202.510   87.817
  403.110   13.522    0.369    0.185  202.937   87.198
  403.360   17.091    0.406    0.186  203.384   85.698
  403.610   24.732    0.412    0.210  203.332   77.137
  403.860   31.263    0.402    0.221  203.785   66.228
  404.110   41.715    0.388    0.247  203.734   53.845
  404.360   49.048    0.363    0.267  204.180   52.341
  404.610   49.022    0.357    0.252  204.129   55.545
  404.860   45.579    0.376    0.242  203.573   58.745
  405.110   41.623    0.379    0.232  204.013   59.600
  405.360   37.668    0.375    0.239  203.961   61.334
  405.610   31.428    0.365    0.233  203.961   63.652
  405.860   28.182    0.370    0.227  203.833   64.500
  406.110   26.926    0.364    0.220  203.303   66.230
  406.360   28.664    0.360    0.202  203.251   67.971
  406.610   33.102    0.363    0.186  203.206   70.289
  406.860   35.888    0.369    0.183  203.142   69.079
  407.110   29.943    0.331    0.166  203.594   66.700
  407.360   19.226    0.325    0.144  203.045   52.847
  407.610   12.684    0.322    0.151  203.479   43.698
  407.860    8.521    0.296    0.171  203.932   50.717
  408.110    7.174    0.278    0.201  203.880   62.160
  408.360    6.792    0.274    0.210  204.811   75.364
  408.610    7.231    0.334    0.223  207.256   82.978
  408.860    8.658    0.477    0.226  213.172   93.823
  409.110   11.345    0.586    0.221  210.631   92.032
  409.360   13.101    0.571    0.215  207.599   89.650
  409.610   14.460    0.516    0.199  200.067   88.436
  409.860   15.258    0.441    0.206  197.532   87.233
  410.110   16.244    0.426    0.209  199.964   84.258
  410.360   16.682    0.401    0.209  198.910   81.872
  410.610   16.823    0.386    0.213  197.863   80.963
  410.860   16.074    0.362    0.221  197.812   78.868
  411.110   14.810    0.350    0.186  198.258   76.783
  411.360   13.895    0.341    0.147  199.694   72.636
  411.610   13.274    0.339    0.125  200.631   65.840
  411.860   13.387    0.343    0.119  200.580   66.394
  412.110   13.140    0.349    0.116  200.580   69.597
  412.360   10.768    0.368    0.125  200.969   68.971
  412.610    9.744    0.384    0.146  201.421   70.713
  412.860    7.985    0.455    0.156  201.868   74.210
  413.110    6.483    0.431    0.158  202.812   80.644
  413.360    6.483    0.406    0.160  202.256   79.736
  413.610    6.024    0.410    0.193  202.205   83.528
  413.860    5.756    0.475    0.237  202.147   93.200
  414.110    5.753    0.542    0.289  202.102   99.928
  414.360    6.180    0.642    0.324  202.012   99.011
  414.610    7.268    0.619    0.320  201.999  108.393
  414.860    8.860    0.673    0.324  202.432  118.951
  415.110   10.513    0.672    0.329  202.381  123.621
  415.360   10.795    0.649    0.286  202.336  112.709
  415.610   10.887    0.450    0.233  202.278  105.328
  415.860   11.281    0.425    0.247  202.226   94.713
  416.110   12.121    0.448    0.256  202.169   96.733
  416.360   16.466    0.464    0.264  202.124   96.706
  416.610   29.868    0.469    0.272  202.066   94.030
  416.860   46.462    0.454    0.250  202.014   75.179
  417.110   56.645    0.491    0.227  202.461   50.738
  417.360   74.225    0.468    0.206  203.903   47.763
  417.610   89.680    0.400    0.280  203.845   48.027
  417.860   98.084    0.404    0.311  203.295   47.405
  418.110   87.187    0.404    0.322  203.729   47.966
  418.360   64.098    0.387    0.322  205.171   48.520
  418.610   46.286    0.366    0.321  206.115   48.482
  418.860   36.578    0.378    0.324  206.070   49.047
  419.110   34.015    0.412    0.343  206.006   47.837
  419.360   31.913    0.448    0.370  206.465   45.748
  419.610   31.322    0.574    0.405  206.407   44.836
  419.860   31.880    0.611    0.545  206.349   49.506
  420.110   31.880    0.575    0.530  206.796   56.536
  420.360   38.140    0.427    0.317  206.744   61.206
  420.610   44.453    0.420    0.300  206.189   62.351
  420.860   49.069    0.436    0.301  206.189   64.673
  421.110   48.166    0.436    0.306  205.575   71.405
  421.360   37.723    0.439    0.305  206.028   78.137
  421.610   24.889    0.434    0.303  206.468   80.459
  421.860   17.024    0.429    0.302  205.918   86.018
  422.110   15.826    0.431    0.291  205.880   90.685
  422.360   15.826    0.434    0.287  205.815   95.950
  422.610   16.093    0.469    0.277  205.272   96.210
  422.860   16.682    0.479    0.269  205.202   93.537
  423.110   18.250    0.458    0.265  205.163   91.445
  423.360   19.079    0.465    0.284  204.614   89.063
  423.610   18.230    0.431    0.301  204.562   85.504
  423.860   16.498    0.398    0.298  204.007   93.992
  424.110   12.805    0.387    0.284  203.955   99.846
  424.360   12.233    0.411    0.263  203.904  106.284
  424.610   12.789    0.434    0.241  203.846  110.374
  424.860   13.741    0.467    0.223  203.794  115.929
  425.110   15.032    0.546    0.232  203.743  115.009
  425.360   17.516    0.586    0.281  203.685   95.868
  425.610   18.481    0.594    0.289  203.633   82.015
  425.860   19.323    0.534    0.277  203.575   61.988
  426.110   18.799    0.434    0.279  203.518   46.073
  426.360   17.480    0.412    0.279  203.479   48.987
  426.610   14.452    0.392    0.274  203.919   58.659
  426.860   13.078    0.379    0.264  203.855   57.746
  427.110   11.942    0.392    0.247  203.305   56.823
  427.360   11.513    0.405    0.242  203.260   57.682
  427.610   11.611    0.408    0.239  203.700   57.358
  427.860   12.473    0.394    0.234  205.136   54.085
  428.110   13.400    0.347    0.227  206.080   52.589
  428.360   14.268    0.351    0.217  206.035   51.676
  428.610   15.328    0.312    0.210  205.984   53.700
  428.860   16.617    0.306    0.225  204.936   55.140
  429.110   18.674    0.377    0.225  204.381   56.873
  429.360   19.528    0.419    0.281  204.821   59.489
  429.610   20.234    0.424    0.275  205.273   62.987
  429.860   20.042    0.426    0.268  205.720   67.069
