~VERSION INFORMATION
 VERS.                 2.0:   CWLS LOG ASCII STANDARD -VERSION 2.0
 WRAP.                  NO:   ONE LINE PER DEPTH STEP
~WELL INFORMATION BLOCK
#MNEM.UNIT           DATA                    DESCRIPTION OF MNEMONIC
#---------    -------------------            -------------------------------
# Generated from Intellog Unique Number	CS_71_72/WELL/906
WELL.         PETRO-CANADA EXPLORATION       : Well_name    - WELL
LOC .         00/11-26-072-08W4/0            : Location     - LOCATION
UWI .         00/11-26-072-08W4/0            : Uwi          - UNIQUE WELL ID
ENTR.         SP                             : Entered      - ENTERED BY
SRVC.         SCHLUMBERGER                   : Scn          - SERVICE COMPANY
STRT.M        305                            : top_depth    - START DEPTH
STOP.M        543                            : bot_depth    - STOP DEPTH
STEP.M        0.25                           : increment    - STEP LENGTH
 NULL. -999.2500:NULL Value
~CURVE INFORMATION BLOCK
#MNEM UNIT       ERCB CURVE CODE    CURVE DESCRIPTION
#-----------   ------------------   ----------------------------------
DEPT.M        00 001 00 00         : DEPTH        - DEPTH
ILD .OHMM     00 120 00 00         : RESD         - DEEP RESISTIVITY (DIL)
DPHI.V/V      00 890 00 00         : PHID         - DENSITY POROSITY (LIMESTONE)
NPHI.V/V      00 330 00 00         : PHIN         - NEUTRON POROSITY (LIMESTONE)
GR  .API      00 310 00 00         : GR           - GAMMA RAY
~PARAMETER INFORMATION
#MNEM.UNIT           DATA             DESCRIPTION OF MNEMONIC
#---------         -----------     ------------------------------
GL  .M        680.2                : gl           - GROUND LEVEL ELEVATION
EREF.M        683.7                : kb           - ELEVATION OF DEPTH REFERENCE
DATM.M        680.2                : datum        - DATUM ELEVATION
TDD .M        545                  : tdd          - TOTAL DEPTH DRILLER
RUN .         ONE                  : Run          - RUN NUMBER
ENG .         BILL                 : Engineer     - RECORDING ENGINEER
WIT .         JIM                  : Witness      - WITNESSED BY
MUD .         GEL                  : Mud_type     - MUD TYPE
MATR.         LIMESTONE            : Logunit      - NEUTRON MATRIX
TMAX.C        24                   : BHT          - MAXIMUM RECORDED TEMPERATURE
BHTD.M        545                  : BHTDEP       - MAXIMUM RECORDED TEMPERATURE
MATR.         1                    : LOGUNIT      - NEUTRON MATRIX
RMT .C        25                   : MDTP         - TEMPERATURE OF MUD
NEUT.         1                    : NEUTRON      - NEUTRON TYPE
RESI.         0                    : RESIST       - RESISTIVITY TYPE
RMC .OHMM     0.25                 : RMC          - RESISTIVITY OF MUD CAKE
RMF .OHMM     0.25                 : RMF          - RESISTIVITY OF MUD FILTRATE
SUFT.C        15                   : SUFT         - SURFACE TEMPERATURE
~A  DEPTH     RESD     PHID     PHIN       GR
# ...
  392.000   15.381    0.360    0.438   51.669
  392.250   15.271    0.359    0.434   51.243
  392.500   15.218    0.357    0.447   57.681
  392.750   15.249    0.347    0.465   62.115
  393.000   16.067    0.348    0.463   64.970
  393.250   19.210    0.347    0.462   58.043
  393.500   22.418    0.344    0.447   51.906
  393.750   28.498    0.343    0.437   48.199
  394.000   41.568    0.344    0.434   46.862
  394.250   57.665    0.304    0.316   46.314
  394.500   66.553    0.068    0.220   45.280
  394.750   69.862    0.040    0.166   43.456
  395.000   69.489    0.046    0.150   41.511
  395.250   64.884    0.048    0.149   40.295
  395.500   39.881    0.009    0.145   39.991
  395.750   29.137   -0.001    0.163   42.541
  396.000   21.890    0.055    0.202   46.672
  396.250   17.616    0.133    0.275   50.863
  396.500   14.415    0.280    0.387   53.717
  396.750   13.286    0.333    0.428   54.324
  397.000   12.757    0.347    0.458   54.627
  397.250   11.802    0.352    0.474   55.355
  397.500   10.817    0.346    0.454   54.321
  397.750    9.696    0.342    0.439   55.353
  398.000    8.804    0.344    0.425   59.179
  398.250    7.533    0.359    0.467   61.365
  398.500    6.715    0.370    0.491   63.612
  398.750    6.423    0.362    0.514   64.340
  399.000    6.521    0.357    0.491   62.334
  399.250    6.833    0.358    0.472   64.278
  399.500    6.898    0.362    0.488   65.492
  399.750    6.417    0.370    0.505   64.944
  400.000    5.656    0.362    0.518   64.518
  400.250    4.885    0.342    0.472   65.793
  400.500    4.141    0.318    0.457   69.558
  400.750    3.345    0.303    0.487   78.306
  401.000    2.921    0.296    0.529   84.016
  401.250    2.604    0.286    0.561   88.936
  401.500    2.422    0.274    0.546   91.972
  401.750    2.383    0.260    0.576   93.429
  402.000    2.539    0.254    0.598   93.064
  402.250    2.818    0.259    0.585   90.268
  402.500    3.276    0.284    0.565   87.412
  402.750    3.795    0.276    0.554   84.920
  403.000    4.571    0.278    0.551   82.064
  403.250    5.140    0.300    0.561   79.632
  403.500    5.674    0.292    0.537   77.323
  403.750    6.147    0.283    0.513   75.621
  404.000    6.346    0.276    0.495   76.167
  404.250    6.324    0.263    0.472   78.049
  404.500    6.255    0.254    0.455   79.020
  404.750    6.164    0.253    0.439   78.412
  405.000    6.119    0.262    0.441   77.499
  405.250    6.155    0.256    0.446   79.200
  405.500    6.237    0.247    0.436   81.203
  405.750    6.297    0.253    0.430   81.020
  406.000    6.263    0.263    0.431   78.346
  406.250    6.206    0.267    0.450   78.345
  406.500    6.059    0.274    0.462   78.223
  406.750    5.960    0.277    0.473   77.736
  407.000    5.820    0.261    0.473   76.034
  407.250    5.745    0.251    0.456   75.790
  407.500    5.662    0.244    0.450   76.396
  407.750    5.477    0.249    0.464   75.727
  408.000    5.229    0.240    0.478   73.357
  408.250    4.874    0.235    0.478   75.057
  408.500    4.344    0.265    0.492   78.276
  408.750    3.865    0.341    0.526   82.345
  409.000    3.477    0.282    0.511   86.354
  409.250    3.169    0.250    0.494   90.484
  409.500    2.768    0.258    0.520   95.526
  409.750    2.490    0.271    0.548   98.623
  410.000    2.304    0.274    0.569   98.926
  410.250    2.155    0.268    0.575   96.677
  410.500    2.216    0.274    0.577   90.722
  410.750    2.645    0.295    0.614   86.043
  411.000    3.270    0.318    0.612   81.729
  411.250    4.165    0.320    0.475   78.933
  411.500    4.788    0.290    0.472   78.568
  411.750    5.506    0.271    0.473   77.716
  412.000    6.261    0.271    0.479   75.893
  412.250    6.633    0.284    0.485   74.191
  412.500    6.734    0.293    0.472   72.914
  412.750    6.786    0.300    0.459   70.969
  413.000    6.775    0.291    0.451   69.449
  413.250    6.827    0.293    0.458   67.930
  413.500    6.828    0.303    0.473   70.480
  413.750    6.830    0.310    0.471   75.582
  414.000    6.831    0.298    0.455   74.609
  414.250    6.757    0.280    0.446   75.945
  414.500    6.696    0.268    0.443   77.463
  414.750    6.611    0.254    0.460   77.037
  415.000    6.527    0.243    0.459   75.699
  415.250    6.480    0.241    0.450   77.582
  415.500    6.398    0.252    0.447   78.006
  415.750    6.269    0.262    0.447   73.813
  416.000    6.053    0.274    0.453   71.929
  416.250    5.833    0.254    0.464   75.087
  416.500    5.706    0.241    0.472   79.581
  416.750    5.676    0.233    0.477   82.375
  417.000    5.645    0.222    0.468   82.799
  417.250    5.763    0.237    0.482   81.340
  417.500    6.163    0.260    0.495   79.517
  417.750    6.715    0.161    0.512   78.362
  418.000    7.551    0.098    0.481   72.711
  418.250    8.350    0.034    0.473   59.830
  418.500    8.716   -0.002    0.206   54.422
  418.750    8.881   -0.007    0.198   50.715
  419.000    8.201    0.015    0.218   76.291
  419.250    7.420    0.099    0.359   83.763
  419.500    6.877    0.149    0.434   82.790
  419.750    6.481    0.167    0.453   79.933
  420.000    6.269    0.186    0.456   80.965
  420.250    6.098    0.222    0.455   81.997
  420.500    5.965    0.224    0.463   83.211
  420.750    5.695    0.220    0.467   84.365
  421.000    5.115    0.222    0.472   83.027
  421.250    4.679    0.207    0.478   81.811
  421.500    4.257    0.201    0.486   82.843
  421.750    3.931    0.226    0.493   81.931
  422.000    3.439    0.252    0.500   77.373
  422.250    3.164    0.279    0.522   76.765
  422.500    2.954    0.321    0.554   77.614
  422.750    2.759    0.298    0.593   78.282
  423.000    2.698    0.297    0.567   77.187
  423.250    2.833    0.318    0.554   75.728
  423.500    2.979    0.317    0.580   77.428
  423.750    3.145    0.280    0.576   81.376
  424.000    3.326    0.255    0.562   82.165
  424.250    3.452    0.292    0.563   78.823
  424.500    3.492    0.358    0.576   75.906
  424.750    3.578    0.404    0.585   77.666
  425.000    3.756    0.407    0.572   79.488
  425.250    4.039    0.257    0.545   81.067
  425.500    4.154    0.261    0.494   80.033
  425.750    4.452    0.283    0.490   77.055
  426.000    4.477    0.313    0.499   74.259
  426.250    4.562    0.319    0.514   71.524
  426.500    4.657    0.289    0.535   68.364
  426.750    4.798    0.276    0.510   67.817
  427.000    4.963    0.267    0.477   68.362
  427.250    5.143    0.276    0.466   70.549
  427.500    5.211    0.277    0.463   72.431
  427.750    5.290    0.259    0.472   74.131
  428.000    5.331    0.251    0.476   74.981
  428.250    5.392    0.256    0.483   73.279
  428.500    5.474    0.274    0.487   70.422
  428.750    5.661    0.291    0.483   69.814
  429.000    5.998    0.316    0.477   68.294
  429.250    6.331    0.322    0.487   66.045
  429.500    5.308    0.324    0.503   62.460
  429.750    5.058    0.329    0.510   62.216
  430.000    4.966    0.324    0.482   62.762
  430.250    4.968    0.318    0.479   63.733
  430.500    5.015    0.312    0.496   66.283
  430.750    5.063    0.305    0.507   72.601
  431.000    5.102    0.297    0.511   74.119
  431.250    5.141    0.282    0.464   70.898
  431.500    5.161    0.253    0.443   69.135
  431.750    5.211    0.267    0.438   67.251
  432.000    5.221    0.286    0.441   65.427
  432.250    5.321    0.297    0.450   66.641
  432.500    5.362    0.293    0.460   66.154
  432.750    5.382    0.290    0.462   64.148
  433.000    5.334    0.297    0.467   62.325
  433.250    5.276    0.309    0.479   61.777
  433.500    5.219    0.317    0.491   61.898
  433.750    5.171    0.304    0.497   64.630
  434.000    5.106    0.299    0.494   65.905
  434.250    5.050    0.305    0.500   63.170
  434.500    5.061    0.308    0.508   68.151
  434.750    5.062    0.308    0.502   72.524
  435.000    5.053    0.296    0.485   75.865
  435.250    5.093    0.280    0.480   78.658
