~VERSION INFORMATION
 VERS.                 2.0:   CWLS LOG ASCII STANDARD -VERSION 2.0
 WRAP.                  NO:   ONE LINE PER DEPTH STEP
~WELL INFORMATION BLOCK
#MNEM.UNIT           DATA                    DESCRIPTION OF MNEMONIC
#---------    -------------------            -------------------------------
# Generated from Intellog Unique Number	CX_WELLS/WELL/3301
WELL.         ANDERSON ET AL NEWBY           : Well_name    - WELL
LOC .         00/10-35-084-05W4/0            : Location     - LOCATION
UWI .         00/10-35-084-05W400            : Uwi          - UNIQUE WELL ID
ENTR.         T                              : Entered      - ENTERED BY
SRVC.         SCHLUMBERGER                   : Scn          - SERVICE COMPANY
STRT.M        80                             : top_depth    - START DEPTH
STOP.M        330                            : bot_depth    - STOP DEPTH
STEP.M        0.25                           : increment    - STEP LENGTH
 NULL. -999.2500:NULL Value
~CURVE INFORMATION BLOCK
#MNEM UNIT       ERCB CURVE CODE    CURVE DESCRIPTION
#-----------   ------------------   ----------------------------------
DEPT.M        00 001 00 00         : DEPTH        - DEPTH
GR  .API      00 310 00 00         : GR           - GAMMA RAY
NPHI.V/V      00 330 00 00         : PHIN         - NEUTRON POROSITY (SANDSTONE)
DPHI.V/V      00 890 00 00         : PHID         - DENSITY POROSITY (SANDSTONE)
ILD .OHMM     00 120 00 00         : RESD         - DEEP RESISTIVITY (DIL)
~PARAMETER INFORMATION
#MNEM.UNIT           DATA             DESCRIPTION OF MNEMONIC
#---------         -----------     ------------------------------
GL  .M        470                  : gl           - GROUND LEVEL ELEVATION
EREF.M        474                  : kb           - ELEVATION OF DEPTH REFERENCE
DATM.M        474                  : datum        - DATUM ELEVATION
TDD .M        345                  : tdd          - TOTAL DEPTH DRILLER
RUN .         ONE                  : Run          - RUN NUMBER
ENG .         BILL                 : Engineer     - RECORDING ENGINEER
WIT .         JIM                  : Witness      - WITNESSED BY
MUD .         GEL                  : Mud_type     - MUD TYPE
MATR.         SANDSTONE            : Logunit      - NEUTRON MATRIX
TMAX.C        21                   : BHT          - MAXIMUM RECORDED TEMPERATURE
BHTD.M        345                  : BHTDEP       - MAXIMUM RECORDED TEMPERATURE
MATR.         1                    : LOGUNIT      - NEUTRON MATRIX
RMT .C        20                   : MDTP         - TEMPERATURE OF MUD
NEUT.         1                    : NEUTRON      - NEUTRON TYPE
RESI.         4                    : RESIST       - RESISTIVITY TYPE
RMC .OHMM     3.3                  : RMC          - RESISTIVITY OF MUD CAKE
RMF .OHMM     3.3                  : RMF          - RESISTIVITY OF MUD FILTRATE
SUFT.C        4                    : SUFT         - SURFACE TEMPERATURE
~A  DEPTH       GR     PHIN     PHID     RESD
# ...
  167.000  100.951    0.433    0.245    6.451
  167.250  100.975    0.431    0.253    6.459
  167.500   99.804    0.444    0.266    6.113
  167.750   98.018    0.461    0.285    5.677
  168.000   97.439    0.492    0.292    5.079
  168.250   96.859    0.510    0.293    4.061
  168.500   95.676    0.522    0.290    3.565
  168.750   94.494    0.522    0.280    3.248
  169.000   92.708    0.522    0.278    3.018
  169.250   92.129    0.482    0.273    3.197
  169.500   91.584    0.470    0.268    3.518
  169.750   91.004    0.466    0.261    3.655
  170.000   90.448    0.464    0.258    3.871
  170.250   89.868    0.460    0.251    4.100
  170.500   88.698    0.456    0.241    4.345
  170.750   88.130    0.446    0.233    4.431
  171.000   88.791    0.437    0.237    4.608
  171.250   90.682    0.441    0.244    4.612
  171.500   93.187    0.447    0.250    4.620
  171.750   96.295    0.457    0.260    4.540
  172.000  102.523    0.471    0.267    4.461
  172.250  105.017    0.485    0.262    4.222
  172.500  106.293    0.496    0.256    3.848
  172.750  104.496    0.485    0.255    3.574
  173.000   99.614    0.468    0.256    3.447
  173.250   98.431    0.508    0.261    3.386
  173.500   94.802    0.508    0.265    3.327
  173.750   94.837    0.505    0.268    3.331
  174.000   99.800    0.504    0.263    3.335
  174.250  102.317    0.500    0.257    3.340
  174.500   99.906    0.496    0.250    3.343
  174.750   99.952    0.489    0.245    3.349
  175.000  101.252    0.486    0.251    3.416
  175.250  101.890    0.485    0.255    3.487
  175.500  101.948    0.483    0.256    3.490
  175.750  101.983    0.485    0.253    3.560
  176.000  101.427    0.487    0.252    3.566
  176.250  101.473    0.494    0.252    3.571
  176.500  101.544    0.500    0.253    3.576
  176.750  101.579    0.506    0.253    3.513
  177.000  101.614    0.503    0.252    3.518
  177.250  101.660    0.489    0.249    3.520
  177.500  101.092    0.470    0.248    3.526
  177.750   99.295    0.458    0.239    3.530
  178.000   97.510    0.453    0.222    3.602
  178.250   97.568    0.450    0.198    3.605
  178.500   97.603    0.443    0.181    3.610
  178.750   97.638    0.435    0.159    3.684
  179.000   97.685    0.431    0.138    3.686
  179.250   96.514    0.435    0.179    3.907
  179.500   95.957    0.432    0.233    4.217
  179.750   96.004    0.426    0.252    4.553
  180.000   96.051    0.398    0.284    4.730
  180.250   94.254    0.355    0.310    5.300
  180.500   87.528    0.326    0.330    5.940
  180.750   75.896    0.242    0.370    6.913
  181.000   66.711    0.156    0.383    8.195
  181.250   59.382    0.136    0.401    9.358
  181.500   52.668    0.114    0.412   11.304
  181.750   49.642    0.095    0.427   17.110
  182.000   47.844    0.074    0.438   24.474
  182.250   46.673    0.059    0.445   29.582
  182.500   44.250    0.052    0.447   29.618
  182.750   41.838    0.052    0.451   28.030
  183.000   41.282    0.055    0.449   25.075
  183.250   43.799    0.060    0.416   22.431
  183.500   47.545    0.096    0.353   18.609
  183.750   51.268    0.134    0.352   14.601
  184.000   56.835    0.152    0.368   13.309
  184.250   68.571    0.139    0.402   11.903
  184.500   63.701    0.141    0.359    9.877
  184.750   58.830    0.214    0.336    7.745
  185.000   66.867    0.247    0.312    5.531
  185.250   76.134    0.280    0.292    4.258
  185.500   79.892    0.310    0.280    4.106
  185.750   80.553    0.342    0.275    4.190
  186.000   81.215    0.358    0.270    4.610
  186.250   82.479    0.376    0.264    4.974
  186.500   86.225    0.390    0.256    5.574
  186.750   89.971    0.400    0.248    6.246
  187.000   93.091    0.391    0.242    7.001
  187.250   96.826    0.388    0.240    7.143
  187.500   98.705    0.397    0.236    6.760
  187.750  101.825    0.413    0.234    6.397
  188.000  104.342    0.431    0.229    6.171
  188.250  107.473    0.449    0.222    6.062
  188.500  108.749    0.445    0.220    5.527
  188.750  108.784    0.441    0.218    5.135
  189.000  107.602    0.441    0.217    4.951
  189.250  106.431    0.441    0.217    4.774
  189.500  105.248    0.437    0.216    4.691
  189.750  104.680    0.434    0.216    4.608
  190.000  103.486    0.430    0.215    4.615
  190.250  101.712    0.429    0.217    4.533
  190.500  101.736    0.432    0.219    4.539
  190.750  101.168    0.433    0.234    4.460
  191.000   97.538    0.428    0.241    4.385
  191.250   95.729    0.424    0.236    4.389
  191.500   95.173    0.416    0.230    4.397
  191.750   93.990    0.408    0.223    4.401
  192.000   89.132    0.393    0.228    4.405
  192.250   86.093    0.385    0.237    4.412
  192.500   86.152    0.384    0.239    4.254
  192.750   88.042    0.386    0.236    4.026
  193.000   89.933    0.384    0.236    3.955
  193.250   91.197    0.380    0.236    3.961
  193.500   86.942    0.375    0.236    3.891
  193.750   81.457    0.372    0.243    3.826
  194.000   82.118    0.371    0.257    3.759
  194.250   86.467    0.368    0.244    3.763
  194.500   91.454    0.372    0.229    3.767
  194.750   89.669    0.380    0.231    3.845
  195.000   86.631    0.384    0.233    3.848
  195.250   84.207    0.383    0.234    4.080
  195.500   79.951    0.382    0.230    4.081
  195.750   76.310    0.380    0.229    4.163
  196.000   75.742    0.380    0.230    4.332
  196.250   78.862    0.381    0.232    4.335
  196.500   82.597    0.382    0.231    4.344
  196.750   85.728    0.383    0.227    4.347
  197.000   85.775    0.386    0.220    4.352
  197.250   87.051    0.388    0.206    4.357
  197.500   89.556    0.390    0.209    4.363
  197.750   93.291    0.390    0.235    4.207
  198.000   94.590    0.389    0.243    3.906
  198.250   91.540    0.385    0.250    3.430
  198.500   84.826    0.374    0.265    3.127
  198.750   78.123    0.361    0.283    2.797
  199.000   78.796    0.345    0.283    2.598
  199.250   78.820    0.333    0.283    2.505
  199.500   77.649    0.338    0.283    2.416
  199.750   74.610    0.341    0.287    2.331
  200.000   69.740    0.337    0.291    2.248
  200.250   66.713    0.331    0.297    2.208
  200.500   66.157    0.336    0.299    2.210
  200.750   66.192    0.346    0.301    2.172
  201.000   65.636    0.354    0.300    2.217
  201.250   65.068    0.364    0.300    2.260
  201.500   63.909    0.364    0.299    2.351
  201.750   63.932    0.363    0.288    2.398
  202.000   63.990    0.365    0.271    2.446
  202.250   65.255    0.371    0.268    2.497
  202.500   67.772    0.378    0.284    2.500
  202.750   69.662    0.374    0.298    2.502
  203.000   68.480    0.343    0.296    2.459
  203.250   64.827    0.336    0.292    2.464
  203.500   58.739    0.341    0.293    2.465
  203.750   56.315    0.353    0.288    2.469
  204.000   57.615    0.354    0.283    2.471
  204.250   60.120    0.356    0.287    2.474
  204.500   61.384    0.358    0.292    2.478
  204.750   60.816    0.361    0.296    2.481
  205.000   60.886    0.366    0.290    2.438
  205.250   60.922    0.362    0.288    2.396
  205.500   61.571    0.355    0.289    2.398
  205.750   62.871    0.353    0.290    2.401
  206.000   63.520    0.353    0.288    2.404
  206.250   64.820    0.354    0.286    2.407
  206.500   64.855    0.356    0.283    2.456
  206.750   65.504    0.353    0.281    2.459
  207.000   66.815    0.350    0.277    2.462
  207.250   68.080    0.353    0.277    2.466
  207.500   69.959    0.363    0.283    2.470
  207.750   73.717    0.367    0.290    2.472
  208.000   74.969    0.367    0.288    2.428
  208.250   79.933    0.362    0.283    2.341
  208.500   85.512    0.354    0.283    2.217
  208.750   90.499    0.356    0.287    2.138
  209.000   89.931    0.358    0.301    2.100
  209.250   89.978    0.348    0.317    2.063
  209.500   87.554    0.347    0.324    2.027
  209.750   68.547    0.353    0.315    2.030
  210.000   59.977    0.360    0.302    2.072
  210.250   55.733    0.340    0.288    2.154
