~VERSION INFORMATION
 VERS.                 2.0:   CWLS LOG ASCII STANDARD -VERSION 2.0
 WRAP.                  NO:   ONE LINE PER DEPTH STEP
~WELL INFORMATION BLOCK
#MNEM.UNIT           DATA                    DESCRIPTION OF MNEMONIC
#---------    -------------------            -------------------------------
# Generated from Intellog Unique Number	CS_77_79/WELL/1022
WELL.         C.W.W.E. HARDY                 : Well_name    - WELL
LOC .         00/15-07-078-04W4/0            : Location     - LOCATION
UWI .         00/15-07-078-04W4/0            : Uwi          - UNIQUE WELL ID
ENTR.         JHS                            : Entered      - ENTERED BY
SRVC.         SCHLUMBERGER                   : Scn          - SERVICE COMPANY
STRT.M        165                            : top_depth    - START DEPTH
STOP.M        420                            : bot_depth    - STOP DEPTH
STEP.M        0.25                           : increment    - STEP LENGTH
 NULL. -999.2500:NULL Value
~CURVE INFORMATION BLOCK
#MNEM UNIT       ERCB CURVE CODE    CURVE DESCRIPTION
#-----------   ------------------   ----------------------------------
DEPT.M        00 001 00 00         : DEPTH        - DEPTH
DPHI.V/V      00 890 00 00         : PHID         - DENSITY POROSITY (LIMESTONE)
NPHI.V/V      00 330 00 00         : PHIN         - NEUTRON POROSITY (LIMESTONE)
GR  .API      00 310 00 00         : GR           - GAMMA RAY
ILD .OHMM     00 120 00 00         : RESD         - DEEP RESISTIVITY (DIL)
RHOB.KG/M3    00 350 00 00         : DENS         - BULK DENSITY
~PARAMETER INFORMATION
#MNEM.UNIT           DATA             DESCRIPTION OF MNEMONIC
#---------         -----------     ------------------------------
GL  .M        579.2                : gl           - GROUND LEVEL ELEVATION
EREF.M        583.1                : kb           - ELEVATION OF DEPTH REFERENCE
DATM.M        583.1                : datum        - DATUM ELEVATION
TDD .M        425.3                : tdd          - TOTAL DEPTH DRILLER
RUN .         ONE                  : Run          - RUN NUMBER
ENG .         BILL                 : Engineer     - RECORDING ENGINEER
WIT .         JIM                  : Witness      - WITNESSED BY
MUD .         GEL                  : Mud_type     - MUD TYPE
MATR.         LIMESTONE            : Logunit      - NEUTRON MATRIX
TMAX.C        20                   : BHT          - MAXIMUM RECORDED TEMPERATURE
BHTD.M        425.3                : BHTDEP       - MAXIMUM RECORDED TEMPERATURE
MATR.         1                    : LOGUNIT      - NEUTRON MATRIX
RMT .C        25                   : MDTP         - TEMPERATURE OF MUD
NEUT.         1                    : NEUTRON      - NEUTRON TYPE
RESI.         0                    : RESIST       - RESISTIVITY TYPE
RMC .OHMM     0.25                 : RMC          - RESISTIVITY OF MUD CAKE
RMF .OHMM     0.25                 : RMF          - RESISTIVITY OF MUD FILTRATE
SUFT.C        15                   : SUFT         - SURFACE TEMPERATURE
~A  DEPTH     PHID     PHIN       GR     RESD     DENS
# ...
  311.000    0.203    0.478  100.994    4.412    0.000
  311.250    0.207    0.534  102.860    4.011    0.000
  311.500    0.226    0.551  104.726    3.647    0.000
  311.750    0.242    0.562  101.680    3.443    0.000
  312.000    0.256    0.581   98.014    3.441    0.000
  312.250    0.259    0.551   99.263    3.571    0.000
  312.500    0.263    0.528   98.668    4.074    0.000
  312.750    0.265    0.511   93.773    4.561    0.000
  313.000    0.269    0.487   87.651    5.302 2250.070
  313.250    0.271    0.471   91.358    5.824 2245.910
  313.500    0.271    0.468  109.210    6.279 2245.980
  313.750    0.249    0.454  120.297    6.897 2284.120
  314.000    0.131    0.430  118.475    7.576 2485.160
  314.250    0.089    0.404   86.530    8.014 2557.170
  314.500    0.087    0.355   66.265    8.477 2561.470
  314.750    0.217    0.371   76.126    8.633 2339.430
  315.000    0.297    0.443   82.293    8.466 2202.010
  315.250    0.306    0.479   78.629    7.992 2187.290
  315.500    0.302    0.480   73.119    7.546 2193.700
  315.750    0.283    0.479   72.525    7.262 2225.510
  316.000    0.252    0.484   81.774    7.121 2278.480
  316.250    0.230    0.501   83.639    6.982 2316.620
  316.500    0.203    0.511   84.281    6.977 2363.240
  316.750    0.195    0.514   84.295    7.106 2376.010
  317.000    0.201    0.495   88.625    7.237 2365.530
  317.250    0.209    0.479   89.875    7.231 2352.910
  317.500    0.220    0.474   89.285    7.226 2333.970
  317.750    0.225    0.469   86.236    7.224 2325.570
  318.000    0.231    0.459   87.484    7.082 2315.070
  318.250    0.231    0.455   88.122    6.945 2315.140
  318.500    0.227    0.472   86.920    6.939 2321.560
  318.750    0.228    0.473   87.552    6.936 2319.520
  319.000    0.232    0.467   88.191    6.930 2313.240
  319.250    0.231    0.473   87.596    6.927 2315.440
  319.500    0.233    0.465   86.388    7.055 2311.300
  319.750    0.249    0.451   82.725    7.050 2283.870
  320.000    0.255    0.446   82.134    7.045 2273.370
  320.250    0.244    0.458   84.610    7.040 2292.490
  320.500    0.235    0.464   87.709    6.904 2307.360
  320.750    0.234    0.448   84.041    6.643 2309.570
  321.000    0.263    0.444   76.687    6.272 2260.980
  321.250    0.290    0.443   73.633    5.810 2214.510
  321.500    0.263    0.448   82.879    5.183 2261.120
  321.750    0.239    0.452   89.047    4.624 2301.410
  322.000    0.227    0.449   90.921    3.898 2322.630
  322.250    0.217    0.459   87.865    3.224 2339.630
  322.500    0.215    0.495   86.040    2.822 2341.820
  322.750    0.233    0.537   87.293    2.470 2312.280
  323.000    0.262    0.562   89.774    2.289 2261.590
  323.250    0.277    0.568   87.958    2.161 2236.290
  323.500    0.265    0.537   86.747    2.159 2257.530
  323.750    0.271    0.527   87.386    2.199 2247.040
  324.000    0.276    0.527   86.793    2.240 2238.640
  324.250    0.267    0.537   84.359    2.324 2253.520
  324.500    0.257    0.560   86.221    2.412 2270.530
  324.750    0.252    0.572   92.389    2.552 2279.050
  325.000    0.256    0.562   95.487    2.751 2272.790
  325.250    0.249    0.529   91.208    2.965 2283.450
  325.500    0.236    0.503   89.383    3.447 2306.810
  325.750    0.230    0.491   87.565    3.932 2317.450
  326.000    0.225    0.477   90.047    4.403 2325.980
  326.250    0.223    0.473   90.683    5.022 2328.170
  326.500    0.220    0.481   87.016    5.517 2334.600
  326.750    0.221    0.456   83.356    5.836 2332.570
  327.000    0.218    0.430   83.986    5.943 2336.880
  327.250    0.209    0.421   84.624    5.940 2351.780
  327.500    0.208    0.436   85.260    5.825 2353.950
  327.750    0.221    0.437   87.129    5.395 2332.860
  328.000    0.232    0.437   89.606    5.095 2313.910
  328.250    0.238    0.462   95.166    4.721 2303.420
  328.500    0.225    0.479   98.257    4.373 2324.660
  328.750    0.218    0.479   96.435    4.052 2337.420
  329.000    0.212    0.468   92.156    3.899 2348.070
  329.250    0.215    0.465   92.177    3.751 2341.810
  329.500    0.215    0.461   95.895    3.749 2341.880
  329.750    0.212    0.465   96.529    3.607 2348.290
  330.000    0.205    0.465   95.935    3.537 2358.970
  330.250    0.203    0.480   97.189    3.469 2363.260
  330.500    0.201    0.519   95.981    3.338 2365.450
  330.750    0.209    0.521   93.543    3.273 2352.830
  331.000    0.222    0.511   97.252    3.271 2329.640
  331.250    0.230    0.502  101.578    3.459 2317.040
  331.500    0.231    0.498   97.912    3.728 2314.990
  331.750    0.233    0.493   92.409    4.096 2310.830
  332.000    0.241    0.478   89.350    4.416 2298.240
  332.250    0.244    0.457   85.687    4.943 2291.960
  332.500    0.247    0.455   85.094    5.533 2287.790
  332.750    0.233    0.460   85.115    5.853 2311.150
  333.000    0.223    0.466   88.221    5.850 2328.150
  333.250    0.213    0.461   90.080    5.957 2345.160
  333.500    0.207    0.410   90.100    6.182 2355.800
  333.750    0.159    0.368   83.973    6.791 2438.370
  334.000    0.097    0.351   72.318    7.321 2544.220
  334.250    0.071    0.342   67.423    8.673 2588.720
  334.500    0.073    0.338   73.594    9.175 2584.580
  334.750    0.208    0.353   78.535    9.705 2354.060
  335.000    0.219    0.366   81.627   10.072 2335.100
  335.250    0.204    0.350   79.807   10.065 2360.580
  335.500    0.209    0.338   69.992   10.447 2352.190
  335.750    0.238    0.328   66.942   11.473 2303.610
  336.000    0.290    0.325   72.502   11.685 2214.830
  336.250    0.330    0.329   73.748   11.034 2145.090
  336.500    0.335    0.335   71.935    9.300 2136.720
  336.750    0.302    0.340   73.182    7.406 2193.900
  337.000    0.270    0.354   72.590    5.573 2248.990
  337.250    0.246    0.404   72.607    4.192 2289.260
  337.500    0.251    0.437   81.239    4.269 2280.890
  337.750    0.272    0.424   84.951    4.516 2244.990
  338.000    0.298    0.388   81.901    5.152 2200.650
  338.250    0.290    0.371   86.837    5.989 2213.420
  338.500    0.273    0.377   91.776    6.579 2243.110
  338.750    0.252    0.434   96.717    6.959 2279.160
  339.000    0.238    0.454   97.360    6.954 2302.500
  339.250    0.236    0.463   99.227    6.819 2306.810
  339.500    0.241    0.446  101.702    6.689 2298.410
  339.750    0.227    0.429  100.498    6.558 2321.770
  340.000    0.231    0.415   90.682    6.806 2315.510
  340.250    0.244    0.406   83.947    6.932 2292.300
  340.500    0.234    0.398   87.653    7.194 2309.310
  340.750    0.222    0.389   90.135    7.190 2330.540
  341.000    0.221    0.381   87.085    7.322 2332.720
  341.250    0.228    0.360   79.117    7.181 2320.110
  341.500    0.221    0.350   74.833    7.312 2332.880
  341.750    0.214    0.360   79.772    7.448 2343.540
  342.000    0.220    0.363   82.257    7.583 2333.030
  342.250    0.243    0.355   78.594    7.579 2295.040
  342.500    0.238    0.354   72.463    7.155 2303.580
  342.750    0.243    0.358   63.264    7.018 2295.190
  343.000    0.260    0.353   60.830    6.501 2265.650
  343.250    0.278    0.341   62.700    6.254 2234.000
  343.500    0.246    0.338   70.097    6.250 2289.080
  343.750    0.231    0.339   75.650    6.367 2314.530
  344.000    0.219    0.335   78.131    6.609 2335.760
  344.250    0.220    0.329   73.851    6.858 2333.750
  344.500    0.215    0.324   70.805    7.118 2342.280
  344.750    0.208    0.320   68.978    7.114 2355.040
  345.000    0.215    0.329   63.469    6.844 2342.420
  345.250    0.233    0.326   65.335    6.586 2310.760
  345.500    0.252    0.319   67.817    6.337 2279.120
  345.750    0.268    0.315   65.993    6.097 2251.690
  346.000    0.282    0.321   60.482    5.981 2228.500
  346.250    0.267    0.332   59.891    5.754 2253.960
  346.500    0.256    0.341   66.061    5.536 2273.070
  346.750    0.252    0.343   67.320    5.327 2279.510
  347.000    0.244    0.346   64.877    5.223 2292.290
  347.250    0.238    0.347   60.600    5.221 2302.950
