~VERSION INFORMATION
 VERS.                 2.0:   CWLS LOG ASCII STANDARD -VERSION 2.0
 WRAP.                  NO:   ONE LINE PER DEPTH STEP
~WELL INFORMATION BLOCK
#MNEM.UNIT           DATA                    DESCRIPTION OF MNEMONIC
#---------    -------------------            -------------------------------
# Generated from Intellog Unique Number	CW_76_78/WELL/1033
WELL.         SUNCOR DROWNED 12-29           : Well_name    - WELL
LOC .         00/12-29-076-22W4/0            : Location     - LOCATION
UWI .         00/12-29-076-22W4/0            : Uwi          - UNIQUE WELL ID
ENTR.         JAYE                           : Entered      - ENTERED BY
SRVC.         SCHLUMBERGER                   : Scn          - SERVICE COMPANY
DATE.         25 FEB 83                      : Date         - LOG DATE
STRT.M        470                            : top_depth    - START DEPTH
STOP.M        690                            : bot_depth    - STOP DEPTH
STEP.M        0.25                           : increment    - STEP LENGTH
 NULL. -999.2500:NULL Value
~CURVE INFORMATION BLOCK
#MNEM UNIT       ERCB CURVE CODE    CURVE DESCRIPTION
#-----------   ------------------   ----------------------------------
DEPT.M        00 001 00 00         : DEPTH        - DEPTH
ILD .OHMM     00 120 00 00         : RESD         - DEEP RESISTIVITY (DIL)
NPHI.V/V      00 330 00 00         : PHIN         - NEUTRON POROSITY (SANDSTONE)
DPHI.V/V      00 890 00 00         : PHID         - DENSITY POROSITY (SANDSTONE)
GR  .API      00 310 00 00         : GR           - GAMMA RAY
CALI.MM       00 280 01 00         : CAL          - CALIPER
~PARAMETER INFORMATION
#MNEM.UNIT           DATA             DESCRIPTION OF MNEMONIC
#---------         -----------     ------------------------------
GL  .M        748.9                : gl           - GROUND LEVEL ELEVATION
EREF.M        752.9                : kb           - ELEVATION OF DEPTH REFERENCE
DATM.M        748.9                : datum        - DATUM ELEVATION
TDD .M        1180                 : tdd          - TOTAL DEPTH DRILLER
RUN .         ONE                  : Run          - RUN NUMBER
ENG .         GAGGING              : Engineer     - RECORDING ENGINEER
WIT .         LYSZKIEWICH          : Witness      - WITNESSED BY
BASE.         EDM                  : Branch       - HOME BASE OF LOGGING UNIT
MUD .         GEL CHEM             : Mud_type     - MUD TYPE
MATR.         SANDSTONE            : Logunit      - NEUTRON MATRIX
TMAX.C        34.4                 : BHT          - MAXIMUM RECORDED TEMPERATURE
BHTD.M        1177                 : BHTDEP       - MAXIMUM RECORDED TEMPERATURE
RMT .C        16.6                 : MDTP         - TEMPERATURE OF MUD
MUDD.KG/M     9.5                  : MWT          - MUD DENSITY
NEUT.         1                    : NEUTRON      - NEUTRON TYPE
RESI.         0                    : RESIST       - RESISTIVITY TYPE
RM  .OHMM     3.648                : RM           - RESISTIVITY OF MUD
RMC .OHMM     0                    : RMC          - RESISTIVITY OF MUD CAKE
RMF .OHMM     2.673                : RMF          - RESISTIVITY OF MUD FILTRATE
SUFT.C        0                    : SUFT         - SURFACE TEMPERATURE
~A  DEPTH     RESD     PHIN     PHID       GR      CAL
# ...
  652.500   12.451    0.405    0.300   48.962  211.547
  652.750   14.402    0.415    0.294   47.556  213.429
  653.000   15.895    0.393    0.353   44.543  213.868
  653.250   16.216    0.445    0.387   41.469  215.648
  653.500   15.700    0.596    0.540   46.987  218.042
  653.750   14.723    0.594    0.491   58.190  218.690
  654.000   13.577    0.442    0.426   62.410  218.716
  654.250   12.613    0.427    0.305   53.650  218.124
  654.500   11.940    0.413    0.294   46.867  217.226
  654.750   11.626    0.408    0.304   47.442  217.047
  655.000   11.705    0.421    0.307   49.496  216.969
  655.250   11.920    0.422    0.304   52.541  217.000
  655.500   12.276    0.418    0.296   55.586  217.954
  655.750   12.642    0.410    0.293   59.064  218.906
  656.000   12.753    0.386    0.291   64.271  220.375
  656.250   12.254    0.385    0.296   74.177  225.244
  656.500   11.030    0.419    0.307   84.516  238.973
  656.750    9.778    0.410    0.326   87.931  256.408
  657.000    8.492    0.377    0.318   83.868  257.982
  657.250    7.486    0.385    0.210   76.962  240.497
  657.500    6.827    0.373    0.161   78.896  240.008
  657.750    6.523    0.400    0.138   83.608  243.747
  658.000    6.338    0.410    0.173   85.479  246.555
  658.250    6.252    0.417    0.198   82.777  246.897
  658.500    6.167    0.433    0.211   86.377  246.508
  658.750    6.119    0.500    0.289   91.833  246.325
  659.000    6.070    0.526    0.376   86.286  245.632
  659.250    6.076    0.549    0.419   79.936  243.598
  659.500    6.248    0.562    0.339   80.449  239.197
  659.750    6.579    0.508    0.306   80.711  235.413
  660.000    7.047    0.466    0.293   78.564  232.247
  660.250    7.477    0.435    0.282   76.046  230.112
  660.500    7.773    0.416    0.268   75.815  228.907
  660.750    7.961    0.400    0.263   80.282  228.104
  661.000    8.001    0.413    0.255   83.636  226.693
  661.250    7.921    0.411    0.244   83.716  226.822
  661.500    7.713    0.523    0.312   83.606  227.981
  661.750    7.494    0.522    0.406   84.117  232.747
  662.000    7.202    0.605    0.489   88.584  246.886
  662.250    6.959    0.599    0.465   79.206  258.863
  662.500    6.662    0.513    0.326   61.854  234.374
  662.750    6.330    0.321    0.243   30.471  209.682
  663.000    5.925    0.316    0.279   21.340  208.679
  663.250    5.473    0.333    0.280   23.523  208.704
  663.500    5.028    0.344    0.259   25.206  208.736
  663.750    4.483    0.342    0.237   24.480  209.379
  664.000    4.065    0.326    0.270   18.501  210.020
  664.250    3.777    0.299    0.259   20.992  210.976
  664.500    3.608    0.308    0.244   24.900  211.415
  664.750    3.422    0.351    0.278   30.483  211.858
  665.000    3.240    0.374    0.303   35.505  212.396
  665.250    3.125    0.382    0.316   41.514  212.425
  665.500    3.031    0.377    0.306   42.890  212.865
  665.750    2.978    0.361    0.281   48.160  212.996
  666.000    3.096    0.333    0.224   61.650  213.329
  666.250    3.200    0.344    0.190   65.993  213.770
  666.500    3.371    0.384    0.267   45.118  213.795
  666.750    3.530    0.407    0.304   45.321  213.825
  667.000    3.718    0.393    0.300   61.036  214.365
  667.250    4.028    0.374    0.255   73.908  216.454
  667.500    4.148    0.447    0.229   80.169  215.450
  667.750    4.146    0.481    0.285   62.753  211.356
  668.000    4.167    0.376    0.278   45.650  212.623
  668.250    4.195    0.359    0.274   45.975  213.987
  668.500    4.280    0.352    0.273   64.781  216.176
  668.750    4.466    0.343    0.240   87.111  218.882
  669.000    4.748    0.377    0.192   97.881  223.340
  669.250    5.001    0.402    0.166  103.831  228.108
  669.500    5.267    0.416    0.163   98.965  232.252
  669.750    5.526    0.407    0.193   89.029  233.620
  670.000    5.788    0.386    0.255   78.971  234.368
  670.250    5.984    0.407    0.288   72.560  240.062
  670.500    6.013    0.482    0.339   90.191  249.256
  670.750    5.854    0.541    0.314   98.615  254.641
  671.000    5.449    0.540    0.276  105.059  243.027
  671.250    5.016    0.533    0.264  115.458  233.474
  671.500    4.659    0.579    0.271  122.768  231.651
  671.750    4.461    0.607    0.284  116.542  232.911
  672.000    4.326    0.613    0.280  108.832  237.574
  672.250    4.308    0.611    0.261   95.560  243.781
  672.500    4.338    0.551    0.217   85.193  253.493
  672.750    4.435    0.496    0.186   78.162  257.330
  673.000    4.532    0.369    0.184   72.677  249.116
  673.250    4.721    0.345    0.153   73.127  247.702
  673.500    4.824    0.371    0.157   77.161  251.954
  673.750    4.876    0.431    0.284   83.297  260.532
  674.000    4.883    0.489    0.327   90.853  274.773
  674.250    4.845    0.449    0.280   89.386  294.992
  674.500    4.851    0.412    0.088   79.823  269.471
  674.750    4.856    0.392    0.082   70.815  231.282
  675.000    4.908    0.381    0.113   66.380  211.427
  675.250    5.017    0.346    0.175   65.038  207.436
  675.500    5.206    0.358    0.191   63.756  206.334
  675.750    5.301    0.364    0.209   59.631  205.946
  676.000    5.210    0.338    0.216   57.176  205.668
  676.250    5.006    0.337    0.225   58.861  205.591
  676.500    4.864    0.336    0.223   63.266  205.727
  676.750    4.718    0.328    0.208   68.598  205.753
  677.000    4.559    0.333    0.199   74.733  205.780
  677.250    4.431    0.324    0.205   71.658  206.010
  677.500    4.362    0.317    0.183   63.207  206.144
  677.750    4.327    0.326    0.192   58.712  206.266
  678.000    4.301    0.338    0.222   60.459  206.300
  678.250    4.282    0.347    0.220   69.066  206.428
  678.500    4.271    0.355    0.238   63.087  206.459
  678.750    4.245    0.365    0.259   53.337  206.687
  679.000    4.180    0.350    0.250   50.758  206.818
  679.250    4.101    0.335    0.232   52.320  207.052
  679.500    4.060    0.331    0.214   55.242  207.489
  679.750    4.027    0.343    0.218   59.894  208.239
  680.000    4.002    0.341    0.217   63.619  208.780
  680.250    4.000    0.343    0.211   64.439  209.326
  680.500    4.035    0.352    0.210   65.752  209.765
  680.750    4.124    0.342    0.210   66.573  210.203
  681.000    4.216    0.331    0.214   60.098  210.952
  681.250    4.261    0.317    0.219   59.747  212.217
  681.500    4.227    0.311    0.205   61.553  212.141
  681.750    4.154    0.329    0.192   65.959  212.170
  682.000    4.083    0.341    0.210   67.086  212.191
  682.250    4.050    0.354    0.229   61.911  212.942
  682.500    4.017    0.341    0.134   60.629  215.027
  682.750    3.970    0.317    0.026   60.524  218.350
  683.000    3.909    0.302   -0.003   61.960  224.558
  683.250    3.870    0.287    0.092   68.528  229.530
  683.500    3.839    0.308    0.125   75.219  232.344
  683.750    3.815    0.332    0.161   81.541  236.076
  684.000    3.820    0.351    0.182   80.754  253.407
  684.250    3.883    0.284    0.095   72.549  249.624
  684.500    4.214    0.295    0.054   70.341  241.823
  684.750    5.079    0.315    0.060   72.212  243.602
  685.000    6.087    0.283    0.044   70.497  244.864
  685.250    6.974    0.264    0.041   73.543  243.245
  685.500    7.857    0.277    0.052   77.947  242.240
  685.750    8.002    0.283    0.065   86.492  242.270
  686.000    7.284    0.245    0.067   92.628  242.916
  686.250    6.868    0.266    0.069   99.443  244.795
  686.500    6.417    0.326    0.095  106.260  246.886
  686.750    6.097    0.382    0.130   99.414  242.790
  687.000    5.936    0.349    0.090   86.203  238.492
  687.250    5.834    0.318    0.067   79.052  235.021
  687.500    5.819    0.309    0.058   75.791  232.983
  687.750    5.904    0.306    0.048   75.930  229.920
  688.000    5.878    0.290    0.053   81.634  226.753
  688.250    5.670    0.306    0.094   88.326  222.144
  688.500    5.849    0.388    0.130   97.119  218.875
  688.750    6.408    0.458    0.160   63.326  214.887
