~VERSION INFORMATION
 VERS.                 2.0:   CWLS LOG ASCII STANDARD -VERSION 2.0
 WRAP.                  NO:   ONE LINE PER DEPTH STEP
~WELL INFORMATION BLOCK
#MNEM.UNIT           DATA                    DESCRIPTION OF MNEMONIC
#---------    -------------------            -------------------------------
# Generated from Intellog Unique Number	CW_70_72/WELL/1074
NULL.         -999.25                        : NULL_VALUE
WELL.         NORTHSTAR ET AL TOMATO 16-20   : Well_name    - WELL              
LOC .         16-20-072-23W4                 : Location     - LOCATION          
UWI .         00/16-20-072-23W4/0            : Uwi          - UNIQUE WELL ID    
ENTR.         JAYE                           : Entered      - ENTERED BY        
SRVC.         COMPUTALOG                     : Scn          - SERVICE COMPANY   
DATE.         18 FEB 81                      : Date         - LOG DATE          
STRT.M        430                            : top_depth    - START DEPTH       
STOP.M        639.75                         : bot_depth    - STOP DEPTH        
STEP.M        0.25                           : increment    - STEP LENGTH       
~CURVE INFORMATION BLOCK
#MNEM UNIT       ERCB CURVE CODE    CURVE DESCRIPTION
#-----------   ------------------   ----------------------------------
DEPT.M        00 001 00 00         : DEPTH        - DEPTH                       
DPHI.V/V      00 890 00 00         : PHID         - DENSITY POROSITY (SANDSTONE)
NPHI.V/V      00 330 00 00         : PHIN         - NEUTRON POROSITY (SANDSTONE)
GR  .API      00 310 00 00         : GR           - GAMMA RAY                   
CALI.MM       00 280 01 00         : CAL          - CALIPER                     
ILD .OHMM     00 120 00 00         : RESD         - DEEP RESISTIVITY (DLL)      
~PARAMETER INFORMATION       
#MNEM.UNIT           DATA             DESCRIPTION OF MNEMONIC
#---------         -----------     ------------------------------
GL  .M        674.7                : gl           - GROUND LEVEL ELEVATION      
EREF.M        678.7                : kb           - ELEVATION OF DEPTH REFERENCE
DATM.M        674.7                : datum        - DATUM ELEVATION             
TDD .M        644                  : tdd          - TOTAL DEPTH DRILLER         
RUN .         ONE                  : Run          - RUN NUMBER                  
ENG .         ABHNDROTH            : Engineer     - RECORDING ENGINEER          
WIT .         SNELLING/FERRIS      : Witness      - WITNESSED BY                
BASE.         MEDICINE HAT         : Branch       - HOME BASE OF LOGGING UNIT   
MUD .         GEL CHEN             : Mud_type     - MUD TYPE                    
MATR.         SANDSTONE            : Logunit      - NEUTRON MATRIX              
TMAX.C        32                   : BHT          - MAXIMUM RECORDED TEMPERATURE
BHTD.M        642                  : BHTDEP       - MAXIMUM RECORDED TEMPERATURE
RMT .C        16                   : MDTP         - TEMPERATURE OF MUD          
MUDD.KG/M     1080                 : MWT          - MUD DENSITY                 
NEUT.         1                    : NEUTRON      - NEUTRON TYPE                
RESI.         1                    : RESIST       - RESISTIVITY TYPE            
RM  .OHMM     3.5                  : RM           - RESISTIVITY OF MUD          
RMC .OHMM     2.75                 : RMC          - RESISTIVITY OF MUD CAKE     
RMF .OHMM     4.5                  : RMF          - RESISTIVITY OF MUD FILTRATE 
SUFT.C        0                    : SUFT         - SURFACE TEMPERATURE         
~A  DEPTH     PHID     PHIN       GR      CAL     RESD
# ...
  539.500    0.092    0.237   37.544  158.210   11.423
  539.750    0.141    0.291   60.128  158.035    9.956
  540.000    0.168    0.285   67.026  157.972    8.843
  540.250    0.157    0.285   61.529  157.800    8.374
  540.500    0.164    0.309   63.344  158.044    7.842
  540.750    0.181    0.347   68.663  157.869    7.413
  541.000    0.185    0.363   79.644  158.217    7.168
  541.250    0.188    0.372   86.468  157.939    7.050
  541.500    0.193    0.328   80.112  154.549    6.870
  541.750    0.189    0.350   73.186  154.171    6.705
  542.000    0.187    0.381   62.101  154.622    6.472
  542.250    0.197    0.418   60.403  155.492    6.234
  542.500    0.213    0.397   71.454  155.734    6.074
  542.750    0.216    0.386   78.208  155.562    5.940
  543.000    0.214    0.378   82.241  154.766    5.909
  543.250    0.214    0.345   85.269  154.487    5.956
  543.500    0.204    0.324   88.012  154.523    6.084
  543.750    0.197    0.312   89.396  154.668    6.250
  544.000    0.180    0.336   92.350  155.324    6.469
  544.250    0.173    0.336   87.929  156.401    6.696
  544.500    0.168    0.360   81.216  156.850    6.826
  544.750    0.159    0.346   79.518  157.406    6.893
  545.000    0.149    0.362   80.757  157.649    6.909
  545.250    0.149    0.353   80.132  157.686    6.886
  545.500    0.155    0.330   80.941  157.416    6.811
  545.750    0.154    0.316   77.378  157.031    6.750
  546.000    0.157    0.352   71.595  156.753    6.602
  546.250    0.158    0.332   80.068  156.791    6.518
  546.500    0.159    0.339   86.035  157.553    6.410
  546.750    0.162    0.332   87.918  158.731    6.329
  547.000    0.165    0.376   89.370  160.326    6.284
  547.250    0.170    0.395   92.902  160.155    6.251
  547.500    0.164    0.424   98.153  159.155    6.241
  547.750    0.155    0.412   97.743  157.841    6.209
  548.000    0.141    0.374   97.690  156.421    6.176
  548.250    0.141    0.355   95.560  155.000    6.179
  548.500    0.156    0.340   93.289  153.996    6.158
  548.750    0.151    0.339   94.670  153.098    6.114
  549.000    0.141    0.367   92.613  152.307    6.094
  549.250    0.159    0.393   89.841  151.822    6.062
  549.500    0.173    0.395   88.858  151.651    6.019
  549.750    0.168    0.400   92.243  151.373    6.021
  550.000    0.158    0.389   90.259  150.894    6.024
  550.250    0.172    0.419   93.144  150.303    6.026
  550.500    0.188    0.413   92.806  150.029    6.052
  550.750    0.182    0.387   88.386  149.962    6.158
  551.000    0.170    0.369   80.669  150.410    6.325
  551.250    0.150    0.359   71.950  151.487    6.376
  551.500    0.132    0.339   66.597  152.352    6.355
  551.750    0.142    0.319   67.192  152.805    6.286
  552.000    0.161    0.350   69.934  152.737    6.171
  552.250    0.171    0.365   73.322  152.773    6.070
  552.500    0.172    0.381   78.068  152.495    6.026
  552.750    0.185    0.396   90.553  152.116    5.972
  553.000    0.197    0.422   97.380  152.152    5.929
  553.250    0.194    0.374   91.526  153.124    5.966
  553.500    0.190    0.322   94.554  154.718    6.014
  553.750    0.185    0.337   88.629  157.455    6.073
  554.000    0.181    0.369   79.050  159.774    6.145
  554.250    0.177    0.365   79.071  164.172    6.360
  554.500    0.168    0.353   93.417  158.184    6.645
  554.750    0.147    0.383   89.141  156.662    6.943
  555.000    0.130    0.350   81.209  159.710    7.105
  555.250    0.128    0.288   73.493  160.577    7.135
  555.500    0.160    0.276   74.158  152.511    7.098
  555.750    0.182    0.355   79.622  154.003    7.061
  556.000    0.183    0.384   88.597  157.259    7.023
  556.250    0.157    0.364   86.182  158.540    7.000
  556.500    0.136    0.337   74.526  158.991    6.924
  556.750    0.123    0.333   66.522  158.613    6.823
  557.000    0.131    0.341   77.288  158.861    6.710
  557.250    0.157    0.354   81.392  159.101    6.588
  557.500    0.180    0.341   96.240  159.140    6.492
  557.750    0.179    0.354   97.764  158.969    6.397
  558.000    0.173    0.361   85.823  158.792    6.316
  558.250    0.174    0.364   78.608  158.515    6.271
  558.500    0.173    0.383   76.552  157.724    6.262
  558.750    0.168    0.387   82.015  157.036    6.265
  559.000    0.164    0.369   82.894  156.864    6.278
  559.250    0.160    0.339   73.890  156.795    6.246
  559.500    0.161    0.345   70.328  156.519    6.213
  559.750    0.163    0.359   89.259  156.659    6.287
  560.000    0.153    0.391  102.316  157.319    6.470
  560.250    0.147    0.420   93.598  158.388    7.007
  560.500    0.127    0.289   89.824  159.151    7.910
  560.750    0.071    0.221   78.237  160.021    9.153
  561.000    0.023    0.182   65.867  160.369   10.530
  561.250    0.083    0.225   53.349  160.197   11.191
  561.500    0.117    0.295   64.473  160.130   11.112
  561.750    0.119    0.333   73.017  160.475   10.503
  562.000    0.107    0.306   78.198  161.548    9.400
  562.250    0.101    0.287   68.760  163.454    8.208
  562.500    0.132    0.301   58.538  162.352    6.836
  562.750    0.151    0.357   57.554  160.311    6.153
  563.000    0.173    0.350   66.027  159.407    5.718
  563.250    0.181    0.370   78.511  159.238    5.254
  563.500    0.181    0.405   80.897  160.309    4.930
  563.750    0.170    0.427   83.496  164.916    5.102
  564.000    0.147    0.350   92.039  168.382    5.382
  564.250    0.120    0.333   83.824  167.380    5.698
  564.500    0.118    0.324   69.158  165.336    6.277
  564.750    0.126    0.327   73.189  162.365    6.558
  565.000    0.134    0.341   79.943  160.631    6.524
  565.250    0.147    0.353   84.835  158.589    6.368
  565.500    0.158    0.359   85.428  156.444    6.287
  565.750    0.165    0.326   86.738  155.444    6.242
  566.000    0.160    0.343   88.264  154.541    6.292
  566.250    0.144    0.379   87.781  154.477    6.307
  566.500    0.146    0.364   85.939  154.720    6.357
  566.750    0.159    0.339   81.878  155.279    6.519
  567.000    0.161    0.328   80.965  155.620    6.696
  567.250    0.154    0.347   83.780  155.969    6.917
  567.500    0.147    0.364   90.534  156.316    7.078
  567.750    0.139    0.356   99.579  156.351    7.230
  568.000    0.135    0.342   92.508  156.806    7.274
  568.250    0.135    0.345   88.015  157.784    7.305
  568.500    0.141    0.354   95.127  158.749    7.308
  568.750    0.150    0.369  102.885  159.197    7.242
  569.000    0.150    0.353  102.546  159.135    7.150
  569.250    0.149    0.359   89.171  159.166    7.032
  569.500    0.143    0.376   84.967  159.204    6.970
  569.750    0.134    0.387   90.070  159.451    6.985
  570.000    0.126    0.359   86.724  159.900    7.068
  570.250    0.110    0.352   88.895  160.140    7.233
  570.500    0.103    0.358   91.995  160.280    7.373
  570.750    0.124    0.369   80.267  160.323    7.447
  571.000    0.134    0.370   86.591  160.354    7.492
  571.250    0.123    0.358   92.987  160.390    7.843
  571.500    0.115    0.340   95.228  160.423    8.133
  571.750    0.107    0.322   78.271  160.464    8.514
  572.000    0.092    0.286   59.165  160.392    8.485
  572.250    0.083    0.278   60.619  160.847    7.916
  572.500    0.092    0.314   71.597  161.198    7.497
  572.750    0.111    0.365   85.230  161.746    6.876
  573.000    0.128    0.381   87.902  162.513    6.390
  573.250    0.142    0.328   91.287  162.550    6.309
  573.500    0.153    0.310   92.811  162.894    6.288
  573.750    0.157    0.331   88.892  163.034    6.314
  574.000    0.150    0.360   96.433  163.174    6.462
  574.250    0.134    0.360  101.611  163.624    6.538
  574.500    0.123    0.350  100.916  163.765    6.665
  574.750    0.124    0.350   92.770  163.695    6.808
  575.000    0.129    0.344   83.622  163.108    6.941
  575.250    0.115    0.336   78.269  162.416    6.943
  575.500    0.131    0.326   78.359  161.310    6.894
  575.750    0.151    0.324   75.229  158.856    6.872
