~VERSION INFORMATION
 VERS.                 2.0:   CWLS LOG ASCII STANDARD -VERSION 2.0
 WRAP.                  NO:   ONE LINE PER DEPTH STEP
~WELL INFORMATION BLOCK
#MNEM.UNIT           DATA                    DESCRIPTION OF MNEMONIC
#---------    -------------------            -------------------------------
# Generated from Intellog Unique Number	CS_69_70/WELL/872
NULL.         -999.25                        : NULL_VALUE
WELL.         HB PITLOCHRIE                  : Well_name    - WELL              
LOC .         00/10-27-070-12W4/0            : Location     - LOCATION          
UWI .         00/10-27-070-12W4/0            : Uwi          - UNIQUE WELL ID    
ENTR.         SP                             : Entered      - ENTERED BY        
SRVC.         SCHLUMBERGER                   : Scn          - SERVICE COMPANY   
STRT.M        268.224                        : top_depth    - START DEPTH       
STOP.M        472.224                        : bot_depth    - STOP DEPTH        
STEP.M        0.25                           : increment    - STEP LENGTH       
~CURVE INFORMATION BLOCK
#MNEM UNIT       ERCB CURVE CODE    CURVE DESCRIPTION
#-----------   ------------------   ----------------------------------
DEPT.M        00 001 00 00         : DEPTH        - DEPTH                       
GR  .API      00 310 00 00         : GR           - GAMMA RAY                   
DPHI.V/V      00 890 00 00         : PHID         - DENSITY POROSITY (SANDSTONE)
NPHI.V/V      00 330 00 00         : PHIN         - NEUTRON POROSITY (SANDSTONE)
ILD .OHMM     00 120 00 00         : RESD         - DEEP RESISTIVITY (DIL)      
~PARAMETER INFORMATION       
#MNEM.UNIT           DATA             DESCRIPTION OF MNEMONIC
#---------         -----------     ------------------------------
GL  .M        589.818              : gl           - GROUND LEVEL ELEVATION      
EREF.M        592.866              : kb           - ELEVATION OF DEPTH REFERENCE
DATM.M        589.818              : datum        - DATUM ELEVATION             
TDD .M        482.498              : tdd          - TOTAL DEPTH DRILLER         
RUN .         ONE                  : Run          - RUN NUMBER                  
ENG .         BILL                 : Engineer     - RECORDING ENGINEER          
WIT .         JIM                  : Witness      - WITNESSED BY                
MUD .         GEL                  : Mud_type     - MUD TYPE                    
MATR.         SANDSTONE            : Logunit      - NEUTRON MATRIX              
TMAX.C        23.3333              : BHT          - MAXIMUM RECORDED TEMPERATURE
BHTD.M        482.498              : BHTDEP       - MAXIMUM RECORDED TEMPERATURE
MATR.         1                    : LOGUNIT      - NEUTRON MATRIX              
RMT .C        25                   : MDTP         - TEMPERATURE OF MUD          
NEUT.         1                    : NEUTRON      - NEUTRON TYPE                
RESI.         0                    : RESIST       - RESISTIVITY TYPE            
RMC .OHMM     0.25                 : RMC          - RESISTIVITY OF MUD CAKE     
RMF .OHMM     0.25                 : RMF          - RESISTIVITY OF MUD FILTRATE 
SUFT.C        15                   : SUFT         - SURFACE TEMPERATURE         
~A  DEPTH       GR     PHID     PHIN     RESD
# ...
  442.224   94.261    0.267    0.341    5.170
  442.474   95.284    0.254    0.359    5.104
  442.724   91.128    0.242    0.357    4.977
  442.974   95.335    0.224    0.355    4.726
  443.224   95.582    0.197    0.352    4.250
  443.474   88.445    0.184    0.360    3.775
  443.724   83.547    0.202    0.375    3.397
  443.974   77.424    0.225    0.386    3.011
  444.224   74.006    0.251    0.401    2.706
  444.474   74.574    0.278    0.404    2.515
  444.724   78.404    0.272    0.393    2.374
  444.974   81.036    0.260    0.395    2.308
  445.224   82.895    0.247    0.408    2.386
  445.474   89.727    0.263    0.409    2.598
  445.724   96.688    0.253    0.403    2.751
  445.974  109.072    0.220    0.394    3.003
  446.224  119.643    0.197    0.403    3.152
  446.474  128.214    0.181    0.454    3.272
  446.724  136.322    0.153    0.498    3.312
  446.974  141.173    0.123    0.532    3.321
  447.224  136.740    0.105    0.546    3.304
  447.474  131.748    0.086    0.523    3.367
  447.724  133.376    0.064    0.486    3.490
  447.974  139.958    0.069    0.490    3.641
  448.224  140.823    0.140    0.461    3.730
  448.474  126.294    0.155    0.419    3.665
  448.724  103.590    0.189    0.398    3.426
  448.974   93.976    0.230    0.390    3.044
  449.224   85.926    0.263    0.401    2.810
  449.474   80.871    0.273    0.408    2.584
  449.724   79.996    0.265    0.402    2.408
  449.974   83.369    0.262    0.400    2.279
  450.224   84.782    0.260    0.406    2.238
  450.474   84.324    0.255    0.415    2.257
  450.724   82.718    0.256    0.423    2.285
  450.974   81.752    0.258    0.427    2.302
  451.224   82.121    0.262    0.415    2.302
  451.474   83.090    0.271    0.405    2.270
  451.724   84.774    0.260    0.396    2.301
  451.974   88.138    0.249    0.386    2.387
  452.224   92.780    0.247    0.377    2.534
  452.474   93.286    0.238    0.384    2.701
  452.724   94.161    0.238    0.383    3.003
  452.974   99.207    0.229    0.376    3.180
  453.224  106.320    0.216    0.371    3.506
  453.474  111.954    0.194    0.366    3.784
  453.724  117.938    0.172    0.363    4.010
  453.974  124.099    0.157    0.368    4.265
  454.224  131.902    0.148    0.386    4.430
  454.474  137.908    0.154    0.404    4.426
  454.724  135.228    0.174    0.419    4.321
  454.974  122.075    0.191    0.424    4.157
  455.224  107.195    0.201    0.414    3.950
  455.474   94.646    0.209    0.407    3.808
  455.724   92.895    0.198    0.398    3.727
  455.974   93.407    0.183    0.381    3.701
  456.224   94.892    0.172    0.372    3.606
  456.474   86.572    0.202    0.396    3.380
  456.724   72.080    0.236    0.413    3.088
  456.974   63.351    0.257    0.433    2.862
  457.224   66.363    0.272    0.370    2.644
  457.474   81.243    0.243    0.356    2.834
  457.724   91.576    0.212    0.337    3.309
  457.974   99.428    0.180    0.329    3.967
  458.224  102.640    0.162    0.346    4.669
  458.474  104.843    0.172    0.362    5.301
  458.724   98.628    0.193    0.377    5.454
  458.974   83.175    0.213    0.400    4.806
  459.224   74.771    0.241    0.431    4.205
  459.474   69.716    0.224    0.413    3.439
  459.724   73.166    0.210    0.380    3.116
  459.974   72.950    0.213    0.417    2.696
  460.224   52.512    0.255    0.484    2.332
  460.474   49.141    0.277    0.459    2.166
  460.724   69.812    0.295    0.392    2.271
  460.974   92.170    0.276    0.380    2.514
  461.224   99.013    0.239    0.400    2.872
  461.474   99.380    0.206    0.423    3.195
  461.724   90.952    0.200    0.434    3.468
  461.974   91.003    0.225    0.427    3.601
  462.224   93.468    0.227    0.466    3.503
  462.474   88.655    0.217    0.530    3.285
  462.724   70.808    0.232    0.493    3.057
  462.974   56.892    0.265    0.439    2.739
  463.224   53.327    0.277    0.418    2.499
  463.474   53.657    0.274    0.411    2.208
  463.724   56.430    0.273    0.417    2.086
  463.974   59.812    0.284    0.411    2.041
  464.224   62.132    0.271    0.401    2.264
  464.474   68.738    0.156    0.383    3.229
  464.724   69.956    0.103    0.345    5.628
  464.974   63.689    0.074    0.318    9.175
  465.224   43.493    0.042    0.292   13.106
  465.474   37.751   -0.011    0.248   16.190
  465.724   38.840   -0.015    0.198   18.174
  465.974   45.184   -0.017    0.152   17.913
  466.224   53.336    0.014    0.159   16.087
  466.474   61.795    0.052    0.189   14.326
  466.724   67.849    0.071    0.229   13.011
  466.974   66.745    0.096    0.290   11.762
  467.224   64.330    0.091    0.314   10.790
  467.474   66.653    0.067    0.289    9.601
  467.724   70.450    0.073    0.308    8.788
  467.974   71.451    0.090    0.326    8.445
  468.224   67.646    0.085    0.326    8.629
  468.474   57.852    0.055    0.291    9.660
  468.724   48.841    0.033    0.265   12.876
  468.974   41.435    0.023    0.215   16.854
  469.224   32.570    0.015    0.191   19.561
  469.474   24.649    0.020    0.182   21.402
  469.724   20.390    0.038    0.199   21.379
  469.974   18.240    0.051    0.211   21.295
  470.224   17.615    0.057    0.200   21.196
  470.474   17.597    0.043    0.167   21.698
  470.724   18.657    0.032    0.153   22.207
  470.974   20.353    0.046    0.153   22.835
  471.224   22.209    0.045    0.152   23.332
  471.474   25.618    0.027    0.151   23.675
  471.724   25.736    0.035    0.147   23.777
  471.974   23.929    0.040    0.143   23.515
  472.224   23.901    0.041    0.142   22.992
