~VERSION INFORMATION
 VERS.                 2.0:   CWLS LOG ASCII STANDARD -VERSION 2.0
 WRAP.                  NO:   ONE LINE PER DEPTH STEP
~WELL INFORMATION BLOCK
#MNEM.UNIT           DATA                    DESCRIPTION OF MNEMONIC
#---------    -------------------            -------------------------------
# Generated from Intellog Unique Number	CW_79_81/WELL/2491
WELL.         14-17-081-24W4                 : Well_name    - WELL
LOC .         00/14-17-081-24W4/0            : Location     - LOCATION
UWI .         00/14-17-081-24W4/0            : Uwi          - UNIQUE WELL ID
ENTR.         MAX                            : Entered      - ENTERED BY
SRVC.         WESTERN ATLAS                  : Scn          - SERVICE COMPANY
STRT.M        215                            : top_depth    - START DEPTH
STOP.M        459.75                         : bot_depth    - STOP DEPTH
STEP.M        0.25                           : increment    - STEP LENGTH
 NULL. -999.2500:NULL Value
~CURVE INFORMATION BLOCK
#MNEM UNIT       ERCB CURVE CODE    CURVE DESCRIPTION
#-----------   ------------------   ----------------------------------
DEPT.M        00 001 00 00         : DEPTH        - DEPTH
ILD .OHMM     00 120 00 00         : RESD         - DEEP RESISTIVITY (DIL)
NPHI.V/V      00 330 00 00         : PHIN         - NEUTRON POROSITY (SANDSTONE)
DPHI.V/V      00 890 00 00         : PHID         - DENSITY POROSITY (SANDSTONE)
GR  .API      00 310 00 00         : GR           - GAMMA RAY
CALI.MM       00 280 01 00         : CAL          - CALIPER
~PARAMETER INFORMATION
#MNEM.UNIT           DATA             DESCRIPTION OF MNEMONIC
#---------         -----------     ------------------------------
GL  .M        602.08               : gl           - GROUND LEVEL ELEVATION
EREF.M        605.78               : kb           - ELEVATION OF DEPTH REFERENCE
DATM.M        602.08               : datum        - DATUM ELEVATION
TDD .M        462                  : tdd          - TOTAL DEPTH DRILLER
RUN .         ONE                  : Run          - RUN NUMBER
ENG .         BILL                 : Engineer     - RECORDING ENGINEER
WIT .         JIM                  : Witness      - WITNESSED BY
MUD .         GEL                  : Mud_type     - MUD TYPE
MATR.         SANDSTONE            : Logunit      - NEUTRON MATRIX
TMAX.C        22                   : BHT          - MAXIMUM RECORDED TEMPERATURE
BHTD.M        462                  : BHTDEP       - MAXIMUM RECORDED TEMPERATURE
MATR.         1                    : LOGUNIT      - NEUTRON MATRIX
RMT .C        13                   : MDTP         - TEMPERATURE OF MUD
NEUT.         1                    : NEUTRON      - NEUTRON TYPE
RESI.         0                    : RESIST       - RESISTIVITY TYPE
RMC .OHMM     4.2                  : RMC          - RESISTIVITY OF MUD CAKE
RMF .OHMM     2.5                  : RMF          - RESISTIVITY OF MUD FILTRATE
SUFT.C        -20                  : SUFT         - SURFACE TEMPERATURE
~A  DEPTH     RESD     PHIN     PHID       GR      CAL
# ...
  361.000   10.027    0.329    0.161   74.148  222.678
  361.250    9.619    0.347    0.186   75.788  222.676
  361.500    9.001    0.357    0.178   76.665  222.673
  361.750    8.806    0.366    0.183   83.513  222.670
  362.000    9.143    0.403    0.219   89.618  222.667
  362.250   10.320    0.394    0.219   91.023  221.884
  362.500   10.834    0.387    0.207   87.856  221.393
  362.750   10.710    0.373    0.182   82.110  220.999
  363.000   10.251    0.360    0.162   76.833  220.607
  363.250    9.706    0.377    0.192   77.055  220.213
  363.500    9.206    0.404    0.215   81.695  220.210
  363.750    8.427    0.403    0.226   84.741  220.208
  364.000    8.071    0.394    0.228   86.030  220.205
  364.250    7.953    0.390    0.226   86.615  220.203
  364.500    7.922    0.389    0.221   86.555  220.299
  364.750    7.756    0.372    0.215   85.009  220.849
  365.000    7.523    0.372    0.215   85.496  221.661
  365.250    7.520    0.367    0.216   86.198  222.440
  365.500    7.518    0.364    0.211   85.142  222.633
  365.750    7.515    0.366    0.212   85.258  222.826
  366.000    7.539    0.370    0.220   87.718  223.508
  366.250    7.703    0.373    0.227   91.986  225.801
  366.500    7.998    0.370    0.220   92.229  229.462
  366.750    8.112    0.373    0.214   89.883  231.023
  367.000    8.139    0.380    0.206   88.943  231.705
  367.250    7.987    0.382    0.193   87.418  232.093
  367.500    7.686    0.378    0.185   86.009  232.579
  367.750    7.335    0.380    0.205   88.899  233.357
  368.000    7.222    0.378    0.219   92.806  233.355
  368.250    7.219    0.388    0.223   92.570  233.353
  368.500    7.335    0.389    0.224   93.565  233.057
  368.750    7.574    0.382    0.224   92.860  232.664
  369.000    7.977    0.372    0.219   90.280  232.173
  369.250    8.806    0.371    0.201   87.767  230.982
  369.500    9.720    0.371    0.164   84.590  228.944
  369.750   10.367    0.368    0.196   85.292  226.206
  370.000   11.235    0.369    0.228   88.456  224.641
  370.250   12.377    0.366    0.245   89.158  223.857
  370.500   13.621    0.357    0.242   85.992  223.854
  370.750   14.242    0.335    0.202   79.063  225.105
  371.000   13.813    0.303    0.116   69.047  225.509
  371.250   12.459    0.328    0.102   75.141  225.507
  371.500   11.373    0.347    0.140   80.182  225.797
  371.750   10.662    0.363    0.186   83.581  225.991
  372.000   10.300    0.371    0.208   85.748  225.988
  372.250   10.297    0.364    0.183   88.189  225.986
  372.500   10.691    0.368    0.172   88.676  225.984
  372.750   11.241    0.359    0.199   88.206  225.981
  373.000   12.325    0.354    0.218   85.625  225.978
  373.250   13.691    0.345    0.217   83.396  225.976
  373.500   14.852    0.327    0.196   80.229  225.974
  373.750   14.705    0.297    0.159   70.057  225.971
  374.000   13.141    0.300    0.091   64.926  225.968
  374.250   11.591    0.321    0.151   75.240  225.966
  374.500   10.709    0.341    0.206   82.743  226.257
  374.750   10.256    0.364    0.231   86.142  226.450
  375.000   10.051    0.382    0.229   86.199  226.350
  375.250    9.856    0.368    0.227   85.777  225.875
  375.500    9.632    0.356    0.232   86.020  225.465
  375.750    9.629    0.349    0.229   84.378  225.463
  376.000    9.625    0.349    0.226   86.428  225.167
  376.250    9.621    0.353    0.224   87.247  224.969
  376.500    9.583    0.359    0.221   86.366  224.967
  376.750    9.427    0.378    0.218   88.504  225.045
  377.000    9.353    0.394    0.222   92.166  225.450
  377.250    9.349    0.404    0.218   90.289  226.620
  377.500    9.345    0.409    0.214   90.522  228.962
  377.750    9.308    0.404    0.212   90.990  229.937
  378.000    9.204    0.389    0.211   90.754  229.349
  378.250    8.974    0.372    0.209   89.961  229.508
  378.500    8.837    0.370    0.208   90.692  230.321
  378.750    8.833    0.369    0.205   92.097  230.318
  379.000    8.830    0.367    0.203   92.975  230.315
  379.250    8.795    0.367    0.203   91.567  230.313
  379.500    8.680    0.373    0.205   89.162  230.311
  379.750    8.364    0.384    0.200   90.245  230.308
  380.000    8.052    0.393    0.189   90.976  230.305
  380.250    7.991    0.394    0.194   92.850  230.303
  380.500    8.235    0.381    0.204   95.956  229.715
  380.750    8.749    0.371    0.208   96.072  228.540
  381.000    9.460    0.372    0.207   92.671  226.779
  381.250   10.450    0.386    0.214   88.380  224.024
  381.500   12.084    0.376    0.228   85.691  221.986
  381.750   13.830    0.368    0.243   83.580  221.593
  382.000   14.502    0.365    0.271   81.468  221.493
  382.250   13.581    0.368    0.291   79.004  221.491
  382.500   11.641    0.374    0.295   77.244  221.586
  382.750    9.642    0.383    0.278   79.333  222.137
  383.000    9.786    0.390    0.255   82.751  222.948
  383.250   10.814    0.390    0.240   80.640  223.337
  383.500   14.086    0.374    0.243   78.880  223.432
  383.750   18.845    0.361    0.234   75.595  223.430
  384.000   22.533    0.355    0.205   72.663  223.525
  384.250   24.595    0.354    0.165   76.540  223.913
  384.500   25.537    0.355    0.167   80.691  223.910
  384.750   25.159    0.343    0.193   81.158  223.517
  385.000   23.575    0.300    0.191   81.098  223.124
  385.250   17.840    0.258    0.158   79.924  222.927
  385.500   12.887    0.236    0.109   77.344  223.022
  385.750   10.799    0.254    0.105   73.698  223.735
  386.000   10.475    0.318    0.217   75.406  225.361
  386.250   11.171    0.329    0.188   77.984  226.140
  386.500   12.677    0.332    0.165   78.979  226.626
  386.750   13.485    0.315    0.150   76.750  227.015
  387.000   12.620    0.292    0.137   72.177  227.403
  387.250   10.437    0.305    0.125   69.097  227.791
  387.500    8.483    0.339    0.183   71.294  227.788
  387.750    8.296    0.355    0.205   74.809  227.787
  388.000    8.429    0.358    0.213   79.204  227.784
  388.250    8.858    0.355    0.211   82.603  227.782
  388.500    9.979    0.344    0.203   84.067  227.681
  388.750   13.807    0.308    0.173   82.766  227.288
  389.000   15.124    0.271    0.094   78.612  227.285
  389.250   13.742    0.258    0.078   67.123  226.502
  389.500   12.281    0.270    0.123   64.951  226.011
  389.750   11.060    0.296    0.162   69.757  226.399
  390.000   10.184    0.325    0.172   77.786  227.178
  390.250    9.604    0.348    0.167   83.978  226.622
  390.500    9.246    0.333    0.160   84.465  225.805
  390.750    8.912    0.328    0.164   83.995  226.193
  391.000    8.496    0.331    0.180   84.756  227.168
  391.250    8.223    0.350    0.191   86.865  227.752
  391.500    8.132    0.380    0.192   89.443  227.749
  391.750    8.153    0.393    0.184   90.174  227.665
  392.000    8.274    0.379    0.183   87.974  227.256
  392.250    8.513    0.373    0.179   87.503  227.253
  392.500    8.667    0.377    0.180   88.088  226.958
  392.750    8.822    0.381    0.183   89.494  226.565
  393.000    8.981    0.378    0.184   90.782  226.172
  393.250    9.056    0.369    0.183   90.311  225.778
  393.500    9.121    0.366    0.196   90.309  225.775
  393.750    9.251    0.368    0.203   88.901  225.773
  394.000    9.332    0.366    0.213   88.548  225.184
  394.250    9.397    0.362    0.223   88.547  224.400
  394.500    9.445    0.358    0.227   88.428  224.398
  394.750    9.454    0.355    0.208   88.788  226.984
  395.000    9.522    0.360    0.182   92.939  228.203
  395.250    9.728    0.381    0.170   99.033  227.419
  395.500    9.831    0.377    0.188   99.326  227.221
  395.750    9.864    0.363    0.191   94.400  226.828
  396.000    9.860    0.351    0.179   88.126  226.044
  396.250    9.856    0.351    0.196   88.046  225.259
  396.500    9.852    0.357    0.202   89.999  225.257
  396.750   10.138    0.356    0.207   92.107  225.254
  397.000   10.600    0.350    0.204   93.513  224.959
  397.250   11.031    0.347    0.201   93.746  224.566
