~VERSION INFORMATION
 VERS.                 2.0:   CWLS LOG ASCII STANDARD -VERSION 2.0
 WRAP.                  NO:   ONE LINE PER DEPTH STEP
~WELL INFORMATION BLOCK
#MNEM.UNIT           DATA                    DESCRIPTION OF MNEMONIC
#---------    -------------------            -------------------------------
# Generated from Intellog Unique Number	CS_73_76/WELL/2208
WELL.         DOME PETROLEUM LIMITED         : Well_name    - WELL
LOC .         00/12-08-074-10W4/0            : Location     - LOCATION
UWI .         00/12-08-074-10W4/0            : Uwi          - UNIQUE WELL ID
ENTR.         SP                             : Entered      - ENTERED BY
SRVC.         SCHLUMBERGER                   : Scn          - SERVICE COMPANY
STRT.M        285                            : top_depth    - START DEPTH
STOP.M        515                            : bot_depth    - STOP DEPTH
STEP.M        0.25                           : increment    - STEP LENGTH
 NULL. -999.2500:NULL Value
~CURVE INFORMATION BLOCK
#MNEM UNIT       ERCB CURVE CODE    CURVE DESCRIPTION
#-----------   ------------------   ----------------------------------
DEPT.M        00 001 00 00         : DEPTH        - DEPTH
ILD .OHMM     00 120 00 00         : RESD         - DEEP RESISTIVITY (DIL)
DPHI.V/V      00 890 00 00         : PHID         - DENSITY POROSITY (LIMESTONE)
NPHI.V/V      00 330 00 00         : PHIN         - NEUTRON POROSITY (LIMESTONE)
GR  .API      00 310 00 00         : GR           - GAMMA RAY
~PARAMETER INFORMATION
#MNEM.UNIT           DATA             DESCRIPTION OF MNEMONIC
#---------         -----------     ------------------------------
GL  .M        658.95               : gl           - GROUND LEVEL ELEVATION
EREF.M        663                  : kb           - ELEVATION OF DEPTH REFERENCE
DATM.M        658.95               : datum        - DATUM ELEVATION
TDD .M        527                  : tdd          - TOTAL DEPTH DRILLER
RUN .         ONE                  : Run          - RUN NUMBER
ENG .         BILL                 : Engineer     - RECORDING ENGINEER
WIT .         JIM                  : Witness      - WITNESSED BY
MUD .         GEL                  : Mud_type     - MUD TYPE
MATR.         LIMESTONE            : Logunit      - NEUTRON MATRIX
TMAX.C        23                   : BHT          - MAXIMUM RECORDED TEMPERATURE
BHTD.M        527                  : BHTDEP       - MAXIMUM RECORDED TEMPERATURE
MATR.         1                    : LOGUNIT      - NEUTRON MATRIX
RMT .C        25                   : MDTP         - TEMPERATURE OF MUD
NEUT.         1                    : NEUTRON      - NEUTRON TYPE
RESI.         0                    : RESIST       - RESISTIVITY TYPE
RMC .OHMM     0.25                 : RMC          - RESISTIVITY OF MUD CAKE
RMF .OHMM     0.25                 : RMF          - RESISTIVITY OF MUD FILTRATE
SUFT.C        15                   : SUFT         - SURFACE TEMPERATURE
~A  DEPTH     RESD     PHID     PHIN       GR
# ...
  415.500    5.386    0.297    0.431   72.130
  415.750    5.488    0.306    0.420   72.122
  416.000    5.699    0.300    0.409   69.041
  416.250    5.807    0.294    0.405   68.418
  416.500    6.031    0.299    0.405   69.023
  416.750    6.263    0.305    0.405   68.403
  417.000    6.382    0.299    0.412   67.163
  417.250    6.503    0.304    0.420   65.926
  417.500    6.502    0.308    0.401   65.306
  417.750    6.260    0.313    0.399   64.063
  418.000    6.027    0.316    0.419   64.057
  418.250    5.693    0.304    0.435   64.666
  418.500    5.693    0.298    0.432   67.113
  418.750    5.586    0.291    0.410   67.721
  419.000    5.585    0.284    0.397   68.945
  419.250    5.584    0.283    0.392   69.553
  419.500    5.583    0.294    0.399   69.545
  419.750    5.583    0.299    0.409   68.308
  420.000    5.582    0.308    0.415   68.298
  420.250    5.582    0.313    0.419   68.293
  420.500    5.581    0.318    0.406   71.970
  420.750    5.476    0.314    0.410   75.036
  421.000    5.475    0.308    0.416   76.258
  421.250    5.475    0.304    0.420   73.791
  421.500    5.474    0.309    0.408   73.171
  421.750    5.578    0.296    0.409   72.547
  422.000    5.577    0.290    0.418   73.770
  422.250    5.577    0.282    0.424   75.606
  422.500    5.683    0.276    0.421   74.368
  422.750    5.682    0.274    0.407   71.288
  423.000    5.790    0.275    0.399   68.204
  423.250    5.790    0.283    0.397   68.813
  423.500    5.680    0.293    0.405   72.491
  423.750    5.680    0.292    0.417   73.716
  424.000    5.573    0.288    0.418   74.936
  424.250    5.468    0.290    0.408   74.929
  424.500    5.467    0.293    0.414   74.921
  424.750    5.263    0.287    0.408   77.371
  425.000    5.164    0.281    0.419   76.133
  425.250    5.067    0.279    0.407   75.512
  425.500    4.971    0.276    0.391   77.961
  425.750    4.878    0.274    0.407   79.185
  426.000    4.785    0.268    0.412   81.017
  426.250    4.785    0.264    0.408   81.013
  426.500    4.784    0.264    0.417   76.702
  426.750    4.875    0.260    0.414   70.548
  427.000    5.160    0.252    0.386   64.391
  427.250    5.460    0.213    0.359   61.310
  427.500    5.779    0.136    0.337   62.532
  427.750    5.888    0.120    0.324   65.599
  428.000    5.888    0.147    0.348   68.663
  428.250    5.777    0.212    0.366   71.730
  428.500    5.776    0.243    0.385   76.025
  428.750    5.667    0.244    0.385   72.328
  429.000    5.775    0.225    0.348   65.559
  429.250    5.884    0.195    0.329   71.697
  429.500    5.884    0.212    0.349   77.223
  429.750    5.665    0.246    0.376   82.132
  430.000    5.558    0.288    0.403   85.813
  430.250    5.250    0.251    0.406   88.265
  430.500    5.055    0.225    0.419   88.871
  430.750    4.960    0.237    0.424   88.246
  431.000    4.866    0.240    0.413   87.011
  431.250    4.959    0.216    0.402   82.084
  431.500    5.248    0.200    0.397   77.773
  431.750    5.449    0.192    0.390   76.537
  432.000    5.659    0.194    0.402   76.530
  432.250    5.877    0.210    0.411   79.592
  432.500    5.988    0.208    0.417   82.046
  432.750    5.988    0.200    0.417   85.725
  433.000    5.987    0.199    0.404   86.947
  433.250    5.874    0.205    0.401   86.326
  433.500    5.764    0.216    0.417   83.859
  433.750    5.445    0.221    0.422   82.620
  434.000    5.242    0.227    0.421   83.228
  434.250    5.046    0.231    0.418   83.221
  434.500    4.951    0.240    0.411   81.981
  434.750    4.951    0.242    0.414   80.745
  435.000    4.950    0.258    0.405   78.278
  435.250    5.045    0.268    0.395   73.969
  435.500    5.044    0.256    0.399   69.658
  435.750    5.140    0.247    0.410   69.036
  436.000    5.139    0.250    0.398   75.174
  436.250    5.237    0.197    0.389   80.085
  436.500    5.236    0.171    0.391   80.076
  436.750    5.236    0.168    0.383   80.066
  437.000    5.137    0.182    0.393   80.675
  437.250    4.853    0.197    0.398   81.898
  437.500    4.761    0.210    0.405   83.734
  437.750    4.331    0.207    0.425   85.571
  438.000    3.722    0.234    0.414   82.489
  438.250    3.386    0.263    0.440   79.406
  438.500    3.022    0.309    0.472   76.939
  438.750    2.749    0.330    0.493   75.088
  439.000    2.597    0.334    0.509   77.540
  439.250    2.407    0.320    0.495   78.761
  439.500    2.362    0.307    0.493   79.368
  439.750    2.362    0.278    0.484   81.819
  440.000    2.317    0.257    0.485   84.269
  440.250    2.317    0.245    0.499   84.877
  440.500    2.316    0.246    0.478   84.866
  440.750    2.360    0.249    0.464   84.245
  441.000    2.405    0.250    0.462   82.394
  441.250    2.498    0.256    0.453   79.311
  441.500    2.694    0.241    0.435   78.075
  441.750    2.961    0.235    0.414   78.683
  442.000    3.445    0.228    0.398   78.675
  442.250    3.932    0.221    0.398   81.126
  442.500    4.162    0.210    0.405   82.961
  442.750    4.404    0.200    0.388   79.880
  443.000    4.661    0.190    0.382   77.413
  443.250    4.840    0.179    0.382   74.948
  443.500    4.932    0.173    0.376   76.165
  443.750    4.932    0.195    0.386   77.388
  444.000    4.839    0.240    0.388   78.613
  444.250    4.838    0.252    0.391   76.759
  444.500    4.747    0.269    0.393   72.450
  444.750    4.746    0.277    0.401   66.908
  445.000    5.023    0.285    0.391   62.596
  445.250    6.423    0.270    0.340   60.131
  445.500    7.761    0.189    0.296   56.432
  445.750    9.739    0.130    0.244   55.196
  446.000   11.991    0.037    0.204   52.116
  446.250   13.432    0.041    0.186   53.338
  446.500   12.931    0.104    0.273   61.936
  446.750   10.110    0.196    0.322   68.689
  447.000    8.209    0.254    0.356   66.837
  447.250    7.055    0.279    0.371   63.142
  447.500    6.417    0.281    0.370   61.290
  447.750    6.062    0.292    0.377   63.740
  448.000    5.727    0.301    0.386   66.190
  448.250    5.619    0.297    0.396   67.412
  448.500    5.410    0.294    0.396   66.175
  448.750    5.409    0.290    0.387   63.707
  449.000    5.408    0.288    0.381   65.545
  449.250    5.307    0.274    0.386   67.996
  449.500    5.306    0.269    0.391   69.834
  449.750    5.305    0.268    0.386   63.061
  450.000    5.722    0.260    0.387   60.597
  450.250    5.614    0.259    0.391   60.589
  450.500    5.614    0.258    0.392   63.038
  450.750    5.613    0.252    0.387   64.873
  451.000    5.612    0.253    0.386   66.712
  451.250    5.612    0.253    0.374   65.473
  451.500    5.506    0.268    0.365   66.083
  451.750    5.505    0.270    0.368   69.148
  452.000    5.300    0.257    0.363   73.441
  452.250    5.200    0.227    0.370   76.507
  452.500    5.006    0.215    0.370   77.728
  452.750    4.820    0.216    0.404   77.721
  453.000    4.384    0.234    0.416   78.330
  453.250    4.142    0.241    0.416   82.006
  453.500    3.913    0.243    0.412   83.844
  453.750    3.559    0.245    0.413   85.065
  454.000    3.492    0.245    0.422   86.903
  454.250    3.696    0.231    0.427   87.512
  454.500    3.911    0.210    0.434   80.126
  454.750    4.299    0.175    0.399   79.502
  455.000    4.550    0.157    0.385   82.569
  455.250    5.193    0.175    0.369   85.019
  455.500    5.817    0.203    0.382   85.012
  455.750    6.041    0.216    0.388   82.546
  456.000    6.515    0.187    0.379   73.931
  456.250    6.766    0.177    0.359   67.161
  456.500    7.437    0.151    0.294   64.081
  456.750    8.174    0.138    0.268   62.229
  457.000    9.156    0.187    0.271   63.449
  457.250    9.875    0.257    0.293   65.899
  457.500   10.450    0.261    0.310   67.124
  457.750   11.060    0.256    0.309   70.188
  458.000   11.485    0.252    0.323   70.182
  458.250   11.926    0.252    0.335   67.714
  458.500   12.385    0.266    0.345   66.476
  458.750   12.621    0.259    0.335   66.467
