~VERSION INFORMATION
 VERS.                 2.0:   CWLS LOG ASCII STANDARD -VERSION 2.0
 WRAP.                  NO:   ONE LINE PER DEPTH STEP
~WELL INFORMATION BLOCK
#MNEM.UNIT           DATA                    DESCRIPTION OF MNEMONIC
#---------    -------------------            -------------------------------
# Generated from Intellog Unique Number	CS_73_76/WELL/1964
WELL.         AMOCO                          : Well_name    - WELL
LOC .         00/11-05-073-05W4/0            : Location     - LOCATION
UWI .         00/11-05-073-05W4/0            : Uwi          - UNIQUE WELL ID
ENTR.         T                              : Entered      - ENTERED BY
SRVC.         SCHLUMBERGER                   : Scn          - SERVICE COMPANY
STRT.M        325                            : top_depth    - START DEPTH
STOP.M        550                            : bot_depth    - STOP DEPTH
STEP.M        0.25                           : increment    - STEP LENGTH
 NULL. -999.2500:NULL Value
~CURVE INFORMATION BLOCK
#MNEM UNIT       ERCB CURVE CODE    CURVE DESCRIPTION
#-----------   ------------------   ----------------------------------
DEPT.M        00 001 00 00         : DEPTH        - DEPTH
GR  .API      00 310 00 00         : GR           - GAMMA RAY
NPHI.V/V      00 330 00 00         : PHIN         - NEUTRON POROSITY (SANDSTONE)
DPHI.V/V      00 890 00 00         : PHID         - DENSITY POROSITY (SANDSTONE)
ILD .OHMM     00 120 00 00         : RESD         - DEEP RESISTIVITY (DIL)
~PARAMETER INFORMATION
#MNEM.UNIT           DATA             DESCRIPTION OF MNEMONIC
#---------         -----------     ------------------------------
GL  .M        703.6                : gl           - GROUND LEVEL ELEVATION
EREF.M        708.1                : kb           - ELEVATION OF DEPTH REFERENCE
DATM.M        708.1                : datum        - DATUM ELEVATION
TDD .M        566                  : tdd          - TOTAL DEPTH DRILLER
RUN .         ONE                  : Run          - RUN NUMBER
ENG .         BILL                 : Engineer     - RECORDING ENGINEER
WIT .         JIM                  : Witness      - WITNESSED BY
MUD .         GEL                  : Mud_type     - MUD TYPE
MATR.         SANDSTONE            : Logunit      - NEUTRON MATRIX
TMAX.C        18                   : BHT          - MAXIMUM RECORDED TEMPERATURE
BHTD.M        566                  : BHTDEP       - MAXIMUM RECORDED TEMPERATURE
MATR.         1                    : LOGUNIT      - NEUTRON MATRIX
RMT .C        25                   : MDTP         - TEMPERATURE OF MUD
NEUT.         1                    : NEUTRON      - NEUTRON TYPE
RESI.         0                    : RESIST       - RESISTIVITY TYPE
RMC .OHMM     1.2                  : RMC          - RESISTIVITY OF MUD CAKE
RMF .OHMM     1.5                  : RMF          - RESISTIVITY OF MUD FILTRATE
SUFT.C        15                   : SUFT         - SURFACE TEMPERATURE
~A  DEPTH       GR     PHIN     PHID     RESD
# ...
  455.500   83.238    0.506    0.274    2.754
  455.750   82.082    0.518    0.279    2.811
  456.000   81.525    0.517    0.285    2.868
  456.250   82.168    0.506    0.279    2.984
  456.500   82.810    0.494    0.270    3.104
  456.750   81.665    0.513    0.270    3.228
  457.000   81.097    0.529    0.278    3.294
  457.250   79.352    0.532    0.281    3.425
  457.500   78.774    0.500    0.265    3.562
  457.750   79.428    0.448    0.258    3.705
  458.000   79.460    0.414    0.267    3.926
  458.250   80.102    0.411    0.273    4.487
  458.500   78.347    0.412    0.258    5.221
  458.750   74.792    0.441    0.264   14.977
  459.000   65.243    0.458    0.278   22.262
  459.250   59.290    0.473    0.296   24.028
  459.500   54.537    0.485    0.308   26.448
  459.750   49.184    0.481    0.321   26.514
  460.000   46.840    0.465    0.333   26.536
  460.250   49.891    0.446    0.344   26.602
  460.500   51.112    0.449    0.338   26.624
  460.750   52.364    0.455    0.334   26.183
  461.000   51.208    0.456    0.340   25.728
  461.250   47.654    0.441    0.333   25.292
  461.500   45.909    0.427    0.328   26.813
  461.750   45.931    0.421    0.327   28.426
  462.000   47.183    0.425    0.329   28.988
  462.250   47.815    0.426    0.333   29.587
  462.500   49.079    0.425    0.338   30.198
  462.750   49.111    0.425    0.343   29.723
  463.000   49.143    0.431    0.344   29.206
  463.250   48.608    0.440    0.343   28.687
  463.500   48.030    0.450    0.342   27.699
  463.750   46.274    0.456    0.343   27.733
  464.000   45.718    0.448    0.344   27.251
  464.250   45.161    0.446    0.345   27.297
  464.500   45.215    0.451    0.348   26.834
  464.750   45.846    0.452    0.346   26.889
  465.000   46.500    0.455    0.334   26.422
  465.250   46.543    0.455    0.331   26.477
  465.500   46.586    0.455    0.334   26.039
  465.750   46.639    0.459    0.337   25.576
  466.000   46.083    0.458    0.342   24.695
  466.250   46.126    0.457    0.345   24.265
  466.500   46.169    0.454    0.341   24.306
  466.750   46.201    0.458    0.339   24.357
  467.000   46.854    0.478    0.338   24.387
  467.250   47.508    0.484    0.338   24.438
  467.500   48.129    0.474    0.340   24.468
  467.750   48.782    0.464    0.344   24.053
  468.000   48.825    0.459    0.345   24.083
  468.250   48.268    0.461    0.345   24.123
  468.500   47.701    0.467    0.343   23.733
  468.750   47.144    0.467    0.339   23.763
  469.000   47.187    0.453    0.338   23.379
  469.250   48.440    0.452    0.341   23.409
  469.500   49.093    0.452    0.347   23.457
  469.750   49.714    0.480    0.348   23.477
  470.000   50.357    0.488    0.348   23.088
  470.250   49.201    0.512    0.345   23.127
  470.500   48.055    0.520    0.344   23.165
  470.750   46.899    0.513    0.346   23.203
  471.000   48.141    0.502    0.347   22.810
  471.250   50.593    0.477    0.347   22.848
  471.500   51.835    0.469    0.339   22.876
  471.750   51.279    0.455    0.335   22.088
  472.000   49.523    0.456    0.332   21.704
  472.250   47.767    0.466    0.327   21.327
  472.500   48.410    0.478    0.322   21.363
  472.750   50.872    0.479    0.313   21.407
  473.000   51.493    0.478    0.304   21.858
  473.250   52.725    0.469    0.307   21.877
  473.500   53.367    0.463    0.315   22.752
  473.750   54.020    0.453    0.324   24.130
  474.000   54.063    0.459    0.329   25.084
  474.250   52.907    0.488    0.322   27.086
  474.500   50.541    0.506    0.158   29.801
  474.750   47.587    0.417    0.029   30.993
  475.000   45.842    0.206    0.015   29.901
  475.250   47.683    0.189    0.067   27.783
  475.500   51.323    0.250    0.120   26.305
  475.750   54.375    0.295    0.168   25.848
  476.000   55.595    0.323    0.316   24.958
  476.250   55.638    0.397    0.346   25.452
  476.500   54.493    0.457    0.340   25.505
  476.750   52.748    0.469    0.328   26.043
  477.000   52.181    0.478    0.292   24.668
  477.250   52.234    0.468    0.271   23.336
  477.500   52.277    0.438    0.251   21.693
  477.750   52.320    0.436    0.277   20.910
  478.000   52.963    0.439    0.311   20.182
  478.250   53.605    0.444    0.324   19.470
  478.500   53.638    0.460    0.328   19.132
  478.750   53.681    0.470    0.325   18.458
  479.000   53.724    0.461    0.316   17.814
  479.250   52.589    0.455    0.306   16.860
  479.500   52.022    0.456    0.306   15.089
  479.750   51.465    0.482    0.317   13.759
  480.000   52.108    0.481    0.325   11.640
  480.250   53.349    0.471    0.317   10.223
  480.500   52.193    0.446    0.267    9.326
  480.750   49.838    0.431    0.252    8.834
  481.000   48.083    0.418    0.273    8.845
  481.250   47.526    0.414    0.302    8.860
  481.500   48.169    0.446    0.313    9.043
  481.750   48.201    0.435    0.314    9.229
  482.000   48.843    0.416    0.308    9.602
  482.250   47.687    0.406    0.291    9.797
  482.500   46.531    0.406    0.261   10.188
  482.750   46.574    0.412    0.238   10.201
  483.000   47.827    0.419    0.265    9.659
  483.250   48.459    0.430    0.294    8.808
  483.500   49.101    0.454    0.303    8.187
  483.750   47.945    0.454    0.316    7.899
  484.000   46.800    0.444    0.318    7.620
  484.250   46.842    0.421    0.317    7.349
  484.500   47.485    0.413    0.315    6.834
  484.750   48.727    0.405    0.315    6.588
  485.000   50.569    0.404    0.316    6.012
  485.250   52.410    0.406    0.318    5.690
  485.500   54.252    0.426    0.320    5.808
  485.750   55.494    0.453    0.322    6.037
  486.000   57.335    0.462    0.322    6.403
  486.250   59.177    0.462    0.321    7.182
  486.500   63.417    0.454    0.315    7.460
  486.750   69.455    0.440    0.305    8.528
  487.000   80.900    0.421    0.290    9.380
  487.250   83.341    0.416    0.275   10.320
  487.500   74.391    0.445    0.260   12.245
  487.750   64.831    0.454    0.255   13.467
  488.000   71.490    0.407    0.253   14.006
  488.250   70.944    0.398    0.260   14.848
  488.500   67.368    0.394    0.272   15.735
  488.750   61.416    0.393    0.282   16.053
  489.000   57.851    0.393    0.291   18.353
  489.250   55.506    0.393    0.290   20.202
  489.500   57.948    0.398    0.285   20.992
  489.750   61.599    0.401    0.278   21.831
  490.000   63.440    0.405    0.280   19.908
  490.250   65.292    0.409    0.289   16.841
  490.500   65.314    0.429    0.297   14.246
  490.750   63.558    0.431    0.302   12.745
  491.000   53.409    0.406    0.302   10.781
  491.250   48.645    0.398    0.300    9.469
  491.500   49.898    0.386    0.295    8.635
  491.750   54.137    0.392    0.288    8.027
  492.000   58.377    0.393    0.278    7.887
  492.250   63.816    0.383    0.261    7.471
  492.500   69.266    0.372    0.249    7.205
  492.750   71.696    0.382    0.219    7.082
  493.000   74.159    0.384    0.191    7.366
  493.250   77.809    0.346    0.178    8.418
  493.500   79.640    0.324    0.182   10.361
  493.750   82.670    0.341    0.195   15.401
  494.000   87.510    0.374    0.208   17.601
  494.250   92.948    0.383    0.215   20.098
  494.500   77.403    0.378    0.247   22.551
  494.750   63.646    0.365    0.278   20.165
  495.000   55.895    0.360    0.296   16.430
  495.250   51.752    0.356    0.302   13.904
  495.500   49.386    0.356    0.295   12.920
  495.750   47.031    0.357    0.290   13.685
  496.000   50.682    0.359    0.283   15.634
  496.250   53.112    0.359    0.275   18.550
  496.500   56.763    0.361    0.264   18.941
  496.750   56.206    0.361    0.266   18.965
  497.000   52.663    0.363    0.289   18.643
  497.250   50.886    0.364    0.299   20.512
  497.500   49.730    0.364    0.299   23.432
  497.750   55.179    0.363    0.289   27.286
  498.000   58.830    0.359    0.262   31.157
  498.250   60.062    0.358    0.260   35.608
  498.500   57.107    0.355    0.281   40.693
  498.750   52.974    0.358    0.295   43.940
