~VERSION INFORMATION
 VERS.                 2.0:   CWLS LOG ASCII STANDARD -VERSION 2.0
 WRAP.                  NO:   ONE LINE PER DEPTH STEP
~WELL INFORMATION BLOCK
#MNEM.UNIT           DATA                    DESCRIPTION OF MNEMONIC
#---------    -------------------            -------------------------------
# Generated from Intellog Unique Number	CS_67_68/WELL/812
WELL.         PENNENT-PUMA OILS LTD          : Well_name    - WELL
LOC .         00/11-01-068-16W4/0            : Location     - LOCATION
UWI .         00/11-01-068-16W4/0            : Uwi          - UNIQUE WELL ID
ENTR.         SP                             : Entered      - ENTERED BY
SRVC.         SCHLUMBERGER                   : Scn          - SERVICE COMPANY
STRT.M        320.040                        : top_depth    - START DEPTH
STOP.M        511.790                        : bot_depth    - STOP DEPTH
STEP.M        0.25                           : increment    - STEP LENGTH
 NULL. -999.2500:NULL Value
~CURVE INFORMATION BLOCK
#MNEM UNIT       ERCB CURVE CODE    CURVE DESCRIPTION
#-----------   ------------------   ----------------------------------
DEPT.M        00 001 00 00         : DEPTH        - DEPTH
GR  .API      00 310 00 00         : GR           - GAMMA RAY
DPHI.V/V      00 890 00 00         : PHID         - DENSITY POROSITY (SANDSTONE)
NPHI.V/V      00 330 00 00         : PHIN         - NEUTRON POROSITY (SANDSTONE)
ILD .OHMM     00 120 00 00         : RESD         - DEEP RESISTIVITY (DIL)
~PARAMETER INFORMATION
#MNEM.UNIT           DATA             DESCRIPTION OF MNEMONIC
#---------         -----------     ------------------------------
GL  .M        572.414              : gl           - GROUND LEVEL ELEVATION
EREF.M        605.333              : kb           - ELEVATION OF DEPTH REFERENCE
DATM.M        572.414              : datum        - DATUM ELEVATION
TDD .M        516.026              : tdd          - TOTAL DEPTH DRILLER
RUN .         ONE                  : Run          - RUN NUMBER
ENG .         BILL                 : Engineer     - RECORDING ENGINEER
WIT .         JIM                  : Witness      - WITNESSED BY
MUD .         GEL                  : Mud_type     - MUD TYPE
MATR.         SANDSTONE            : Logunit      - NEUTRON MATRIX
TMAX.C        24.4444              : BHT          - MAXIMUM RECORDED TEMPERATURE
BHTD.M        516.026              : BHTDEP       - MAXIMUM RECORDED TEMPERATURE
MATR.         1                    : LOGUNIT      - NEUTRON MATRIX
RMT .C        25                   : MDTP         - TEMPERATURE OF MUD
NEUT.         1                    : NEUTRON      - NEUTRON TYPE
RESI.         0                    : RESIST       - RESISTIVITY TYPE
RMC .OHMM     0.25                 : RMC          - RESISTIVITY OF MUD CAKE
RMF .OHMM     0.25                 : RMF          - RESISTIVITY OF MUD FILTRATE
SUFT.C        15                   : SUFT         - SURFACE TEMPERATURE
~A  DEPTH       GR     PHID     PHIN     RESD
# ...
  450.540  106.268    0.187    0.388    2.775
  450.790  100.771    0.177    0.406    2.936
  451.040   95.216    0.198    0.391    3.190
  451.290   91.557    0.208    0.391    3.498
  451.540   89.322    0.195    0.386    3.861
  451.790   89.261    0.190    0.367    4.217
  452.040   88.937    0.200    0.354    4.403
  452.290   93.003    0.196    0.343    4.688
  452.540   95.762    0.184    0.351    4.916
  452.790   94.946    0.174    0.343    5.077
  453.040   92.828    0.173    0.355    5.047
  453.290   92.957    0.170    0.384    4.795
  453.540   95.006    0.178    0.392    4.453
  453.790   93.773    0.177    0.366    4.195
  454.040   89.495    0.157    0.309    4.229
  454.290   74.311    0.133    0.231    4.677
  454.540   64.955    0.083    0.219    5.981
  454.790   60.597    0.062    0.234    7.599
  455.040   65.343    0.049    0.298    8.816
  455.290   83.604    0.041    0.360    9.911
  455.540   93.814    0.170    0.400    9.133
  455.790  103.714    0.183    0.404    5.922
  456.040  106.713    0.190    0.414    4.876
  456.290  108.339    0.191    0.424    4.382
  456.540  107.710    0.189    0.405    4.082
  456.790  106.336    0.190    0.392    3.894
  457.040  106.431    0.184    0.388    3.836
  457.290  106.703    0.178    0.408    3.854
  457.540  107.262    0.174    0.401    3.883
  457.790  107.964    0.167    0.400    3.920
  458.040  109.357    0.169    0.394    3.968
  458.290  112.914    0.187    0.392    4.025
  458.540  113.663    0.198    0.382    4.068
  458.790  111.408    0.203    0.370    4.036
  459.040  109.279    0.201    0.362    3.885
  459.290  107.912    0.199    0.365    3.795
  459.540  108.993    0.197    0.374    3.714
  459.790  110.476    0.192    0.390    3.707
  460.040  111.031    0.186    0.395    3.752
  460.290  109.674    0.181    0.396    3.828
  460.540  107.762    0.174    0.396    3.963
  460.790  106.398    0.188    0.402    4.087
  461.040  105.523    0.185    0.417    4.180
  461.290  104.665    0.170    0.418    4.184
  461.540  106.217    0.164    0.413    4.101
  461.790  110.145    0.184    0.414    3.937
  462.040  111.951    0.209    0.411    3.840
  462.290  111.801    0.203    0.396    3.840
  462.540  110.650    0.193    0.381    3.874
  462.790  108.534    0.190    0.372    3.956
  463.040  107.264    0.197    0.366    4.070
  463.290  108.637    0.192    0.362    4.214
  463.540  110.462    0.186    0.361    4.408
  463.790  111.679    0.190    0.361    4.514
  464.040  112.604    0.183    0.367    4.395
  464.290  111.676    0.174    0.377    3.966
  464.540  109.133    0.164    0.398    3.365
  464.790  107.320    0.160    0.431    2.918
  465.040  109.238    0.187    0.469    2.542
  465.290  111.603    0.195    0.498    2.383
  465.540  114.208    0.214    0.505    2.231
  465.790  115.955    0.239    0.494    2.116
  466.040  117.234    0.231    0.488    2.022
  466.290  118.494    0.222    0.484    1.981
  466.540  119.006    0.216    0.478    2.064
  466.790  115.339    0.203    0.466    2.189
  467.040  111.306    0.185    0.457    2.397
  467.290  110.797    0.194    0.435    2.788
  467.540  105.855    0.175    0.399    3.097
  467.790   98.623    0.156    0.402    3.454
  468.040   93.653    0.142    0.393    3.947
  468.290   89.709    0.113    0.372    4.500
  468.540   92.695    0.100    0.347    4.960
  468.790   98.257    0.103    0.353    5.176
  469.040  102.576    0.126    0.377    4.760
  469.290  105.303    0.175    0.380    4.216
  469.540  107.542    0.169    0.374    3.687
  469.790  110.665    0.166    0.374    3.453
  470.040  110.081    0.170    0.374    3.296
  470.290  109.728    0.171    0.377    3.194
  470.540  111.229    0.176    0.389    3.137
  470.790  108.647    0.182    0.409    3.111
  471.040  112.267    0.175    0.426    3.076
  471.290  117.345    0.171    0.441    3.052
  471.540  117.265    0.165    0.438    3.022
  471.790  110.810    0.144    0.427    2.992
  472.040  106.022    0.123    0.416    2.967
  472.290  109.957    0.100    0.407    2.946
  472.540  114.246    0.157    0.434    2.921
  472.790  119.360    0.175    0.446    2.888
  473.040  123.308    0.181    0.457    2.838
  473.290  125.706    0.187    0.460    2.755
  473.540  127.330    0.190    0.461    2.674
  473.790  127.885    0.187    0.464    2.596
  474.040  127.985    0.183    0.463    2.541
  474.290  126.178    0.175    0.481    2.525
  474.540  123.340    0.181    0.476    2.583
  474.790  124.975    0.179    0.453    2.744
  475.040  123.410    0.171    0.434    2.911
  475.290  119.360    0.159    0.424    3.079
  475.540  116.276    0.144    0.419    3.249
  475.790  116.145    0.155    0.413    3.419
  476.040  111.078    0.183    0.401    3.402
  476.290  108.001    0.179    0.390    3.211
  476.540  111.463    0.174    0.398    3.036
  476.790  116.220    0.171    0.427    2.735
  477.040  118.652    0.168    0.453    2.541
  477.290  116.070    0.179    0.477    2.485
  477.540  112.143    0.170    0.480    2.683
  477.790  110.822    0.175    0.462    2.903
  478.040  107.442    0.171    0.422    3.288
  478.290   94.289    0.192    0.391    3.748
  478.540   85.076    0.196    0.362    4.315
  478.790   77.761    0.195    0.340    4.828
  479.040   73.134    0.206    0.324    5.408
  479.290   72.461    0.207    0.322    6.042
  479.540   73.428    0.198    0.327    6.532
  479.790   73.936    0.184    0.323    7.076
  480.040   72.968    0.201    0.331    7.404
  480.290   68.881    0.219    0.341    7.895
  480.540   64.734    0.238    0.346    8.729
  480.790   63.613    0.239    0.348    9.442
  481.040   64.415    0.237    0.346   10.027
  481.290   65.606    0.234    0.342   10.509
  481.540   66.051    0.230    0.343   10.821
  481.790   66.670    0.225    0.349   11.086
  482.040   66.104    0.226    0.347   11.333
  482.290   64.582    0.233    0.345   11.550
  482.540   66.387    0.236    0.337   11.573
  482.790   68.079    0.232    0.326   11.648
  483.040   67.814    0.219    0.312   12.366
  483.290   64.677    0.200    0.301   13.585
  483.540   61.834    0.184    0.235   14.012
  483.790   60.418    0.099    0.212   14.616
  484.040   62.008    0.077    0.240   13.487
  484.290   67.024    0.086    0.286    9.236
  484.540   74.671    0.106    0.350    7.114
  484.790   81.165    0.150    0.376    5.738
  485.040   84.822    0.200    0.371    5.024
  485.290   83.177    0.225    0.344    4.540
  485.540   87.365    0.213    0.325    4.188
  485.790   95.759    0.217    0.339    4.264
  486.040  101.239    0.209    0.343    4.563
  486.290  106.539    0.197    0.343    4.726
  486.540  113.134    0.183    0.336    4.917
  486.790  120.484    0.168    0.331    5.128
  487.040  105.921    0.172    0.325    5.282
  487.290   96.601    0.182    0.321    5.245
  487.540   86.215    0.192    0.319    4.797
  487.790   76.718    0.200    0.320    4.343
  488.040   72.978    0.210    0.322    3.942
  488.290   71.459    0.221    0.328    3.666
  488.540   73.123    0.224    0.340    3.376
  488.790   66.296    0.225    0.350    3.186
  489.040   59.863    0.244    0.344    3.064
  489.290   63.130    0.266    0.336    3.221
  489.540   74.181    0.251    0.330    3.365
  489.790   85.899    0.235    0.332    3.654
  490.040   96.469    0.217    0.332    3.937
  490.290  102.869    0.205    0.330    4.378
  490.540  104.083    0.192    0.338    4.559
  490.790  109.119    0.184    0.354    4.783
  491.040  115.527    0.184    0.366    4.858
  491.290  112.600    0.185    0.371    4.832
  491.540  110.662    0.195    0.357    4.714
  491.790  114.160    0.182    0.344    4.586
  492.040  116.961    0.173    0.339    4.530
  492.290  119.141    0.179    0.353    4.663
  492.540  120.695    0.171    0.362    4.765
  492.790  121.531    0.163    0.360    4.925
  493.040  119.806    0.158    0.348    5.069
  493.290  111.419    0.150    0.350    5.207
  493.540  103.766    0.177    0.361    5.317
  493.790   98.082    0.198    0.366    5.339
