~VERSION INFORMATION
 VERS.                 2.0:   CWLS LOG ASCII STANDARD -VERSION 2.0
 WRAP.                  NO:   ONE LINE PER DEPTH STEP
~WELL INFORMATION BLOCK
#MNEM.UNIT           DATA                    DESCRIPTION OF MNEMONIC
#---------    -------------------            -------------------------------
# Generated from Intellog Unique Number	CW_70_72/WELL/1048
NULL.         -999.25                        : NULL_VALUE
WELL.         SUNDANCE ET AL SMITH 10-33     : Well_name    - WELL              
LOC .         10-33-072-25W4                 : Location     - LOCATION          
UWI .         00/10-33-072-25W4/0            : Uwi          - UNIQUE WELL ID    
ENTR.         JAYE                           : Entered      - ENTERED BY        
SRVC.         SCHLUMBERGER                   : Scn          - SERVICE COMPANY   
DATE.         14 JAN 77                      : Date         - LOG DATE          
STRT.M        441.96                         : top_depth    - START DEPTH       
STOP.M        656.71                         : bot_depth    - STOP DEPTH        
STEP.M        0.25                           : increment    - STEP LENGTH       
~CURVE INFORMATION BLOCK
#MNEM UNIT       ERCB CURVE CODE    CURVE DESCRIPTION
#-----------   ------------------   ----------------------------------
DEPT.M        00 001 00 00         : DEPTH        - DEPTH                       
DPHI.V/V      00 890 00 00         : PHID         - DENSITY POROSITY (SANDSTONE)
NPHI.V/V      00 330 00 00         : PHIN         - NEUTRON POROSITY (SANDSTONE)
GR  .API      00 310 00 00         : GR           - GAMMA RAY                   
CALI.MM       00 280 01 00         : CAL          - CALIPER                     
ILD .OHMM     00 120 00 00         : RESD         - DEEP RESISTIVITY (DIL)      
~PARAMETER INFORMATION       
#MNEM.UNIT           DATA             DESCRIPTION OF MNEMONIC
#---------         -----------     ------------------------------
GL  .M        664.159              : gl           - GROUND LEVEL ELEVATION      
EREF.M        667.817              : kb           - ELEVATION OF DEPTH REFERENCE
DATM.M        664.159              : datum        - DATUM ELEVATION             
TDD .M        670.56               : tdd          - TOTAL DEPTH DRILLER         
RUN .         ONE                  : Run          - RUN NUMBER                  
MATR.         SANDSTONE            : Logunit      - NEUTRON MATRIX              
TMAX.C        -17.7778             : BHT          - MAXIMUM RECORDED TEMPERATURE
BHTD.M        671.17               : BHTDEP       - MAXIMUM RECORDED TEMPERATURE
RMT .C        17.7778              : MDTP         - TEMPERATURE OF MUD          
MUDD.KG/M     0                    : MWT          - MUD DENSITY                 
NEUT.         1                    : NEUTRON      - NEUTRON TYPE                
RESI.         0                    : RESIST       - RESISTIVITY TYPE            
RM  .OHMM     4.02                 : RM           - RESISTIVITY OF MUD          
RMC .OHMM     0                    : RMC          - RESISTIVITY OF MUD CAKE     
RMF .OHMM     3.71                 : RMF          - RESISTIVITY OF MUD FILTRATE 
SUFT.C        -17.7778             : SUFT         - SURFACE TEMPERATURE         
~A  DEPTH     PHID     PHIN       GR      CAL     RESD
# ...
  587.960    0.185    0.415  103.267  157.164    7.598
  588.210    0.191    0.425  104.676  150.800    7.612
  588.460    0.176    0.432  104.746  150.510    7.625
  588.710    0.190    0.428  103.722  148.570    7.567
  588.960    0.181    0.409  101.605  152.189    7.553
  589.210    0.171    0.396   99.549  156.219    7.455
  589.460    0.190    0.387   97.737  159.632    7.426
  589.710    0.190    0.386   96.043  159.342    7.508
  589.960    0.195    0.392   88.760  157.917    7.732
  590.210    0.182    0.412   86.278  155.566    7.963
  590.460    0.181    0.419   90.359  151.260    8.141
  590.710    0.183    0.413   94.564  149.115    8.245
  590.960    0.192    0.394   97.126  154.588    8.321
  591.210    0.197    0.391   95.981  160.161    8.351
  591.460    0.194    0.379   91.981  157.605    8.381
  591.710    0.189    0.377   88.647  155.050    8.395
  591.960    0.176    0.383   86.591  155.479    8.566
  592.210    0.159    0.383   85.385  155.909    8.871
  592.460    0.166    0.388   83.511  156.231    9.272
  592.710    0.175    0.389   81.212  157.074   10.037
  592.960    0.167    0.380   78.547  158.014   11.483
  593.210    0.141    0.356   76.308  158.445   13.383
  593.460    0.095    0.310   72.610  158.666   16.668
  593.710    0.072    0.253   68.061  158.374   20.082
  593.960    0.051    0.233   68.740  157.978   18.928
  594.210    0.039    0.226   78.535  156.657   16.327
  594.460    0.115    0.242   89.181  155.131   12.701
  594.710    0.180    0.366   96.727  153.810    9.610
  594.960    0.155    0.388  101.357  153.106    8.617
  595.210    0.145    0.390  101.548  153.226    8.107
  595.460    0.149    0.379  101.437  153.860    7.914
  595.710    0.168    0.366  101.387  154.496    7.825
  595.960    0.160    0.378  102.429  154.717    7.696
  596.210    0.159    0.396   99.643  153.807    7.568
  596.460    0.167    0.387   98.378  151.250    7.483
  596.710    0.174    0.389  100.575  153.223    7.482
  596.960    0.167    0.391  103.016  156.533    7.482
  597.210    0.183    0.392  104.059  159.946    7.481
  597.460    0.170    0.396  102.306  156.465    7.398
  597.710    0.166    0.406  103.289  155.761    7.397
  597.960    0.162    0.416  103.846  156.600    7.451
  598.210    0.154    0.411  102.154  157.441    7.519
  598.460    0.135    0.405  105.020  158.383    7.560
  598.710    0.162    0.407  109.771  159.019    7.531
  598.960    0.150    0.404  111.604  159.345    7.488
  599.210    0.139    0.399  111.857  159.462    7.474
  599.460    0.156    0.401  115.027  159.997    7.584
  599.710    0.155    0.390  107.743  160.015    7.825
  599.960    0.137    0.376   99.791  160.132    8.118
  600.210    0.147    0.397   95.000  159.945    8.485
  600.460    0.171    0.401   90.209  159.859    9.253
  600.710    0.150    0.399   85.600  159.975   10.090
  600.960    0.114    0.342   79.349  160.097   11.229
  601.210    0.034    0.266   75.348  160.113   13.039
  601.460    0.103    0.336   77.546  160.334   15.056
  601.710    0.152    0.373   81.932  160.353   17.131
  601.960    0.201    0.392   85.650  160.474   18.306
  602.210    0.200    0.394   86.692  160.385   18.714
  602.460    0.198    0.385   87.068  160.401   16.535
  602.710    0.167    0.370   87.016  160.212   14.027
  602.960    0.135    0.378   86.783  159.920   12.258
  603.210    0.095    0.367   86.245  159.320   11.384
  603.460    0.082    0.344   84.979  159.029   11.113
  603.710    0.063    0.303   76.784  158.943   11.091
  603.960    0.023    0.265   67.252  158.756   11.485
  604.210    0.016    0.263   64.649  158.666   12.182
  604.460    0.011    0.285   67.030  158.581   13.066
  604.710   -0.010    0.296   68.559  158.701   14.092
  604.960   -0.012    0.283   70.574  158.615   14.892
  605.210   -0.010    0.267   73.441  158.219   15.594
  605.460    0.013    0.298   77.035  158.239   15.082
  605.710    0.116    0.349   86.527  158.560   13.981
  605.960    0.125    0.364   91.824  159.607   12.560
  606.210    0.108    0.369   93.720  160.138   11.600
  606.460    0.091    0.368   93.061  159.537   10.615
  606.710    0.089    0.363   93.071  158.936    9.895
  606.960    0.127    0.363   93.993  158.749    9.292
  607.210    0.156    0.366   94.852  157.838    8.614
  607.460    0.144    0.367   96.443  157.958    8.164
  607.710    0.143    0.369   97.243  158.386    7.954
  607.960    0.130    0.374   96.888  158.610    7.895
  608.210    0.149    0.382   91.670  158.319    7.865
  608.460    0.148    0.374   93.625  158.128    7.806
  608.710    0.133    0.358   90.292  158.662    7.790
  608.960    0.102    0.330   90.606  158.985    7.818
  609.210    0.108    0.343   93.229  159.413    7.905
  609.460    0.143    0.360   96.096  159.946    8.141
  609.710    0.131    0.350   96.713  160.269    8.140
  609.960    0.135    0.351   94.353  160.389    7.844
  610.210    0.143    0.360   98.860  160.512    7.244
  610.460    0.132    0.368   99.478  160.629    6.260
  610.710    0.126    0.362  101.068  160.648    3.651
  610.960    0.111    0.348  100.410  160.355    3.493
  611.210    0.092    0.327   94.038  159.857    2.861
  611.460    0.076    0.306   90.036  159.463    1.764
  611.710    0.081    0.316   91.627  159.169    1.153
  611.960    0.112    0.334   95.405  158.674    0.806
  612.210    0.123    0.339   99.912  158.584    3.779
  612.460    0.136    0.345  102.413  158.913    5.133
  612.710    0.137    0.360  105.523  159.134    5.862
  612.960    0.112    0.349  106.384  159.252    6.322
  613.210    0.090    0.331   98.553  159.578    6.856
  613.460    0.070    0.314   96.922  160.109    7.246
  613.710    0.119    0.320   99.060  160.540    7.672
  613.960    0.134    0.331  100.346  160.970    7.671
  614.210    0.125    0.354  103.091  161.193    7.033
  614.460    0.130    0.389  106.565  161.211    6.179
  614.710    0.129    0.416  107.183  161.019    4.988
  614.960    0.156    0.442  109.138  161.036    3.938
  615.210    0.184    0.549  111.639  161.360    3.372
  615.460    0.186    0.491  112.379  162.611    3.046
  615.710    0.172    0.460  113.544  163.657    2.887
  615.960    0.187    0.469  115.315  164.805    2.876
  616.210    0.181    0.479  117.514  167.085    2.940
  616.460    0.163    0.480  116.734  165.662    2.983
  616.710    0.145    0.459  113.826  162.180    2.966
  616.960    0.119    0.445  101.255  160.446    2.885
  617.210    0.081    0.437   99.745  159.435    2.890
  617.460    0.099    0.426  102.795  159.039    2.938
  617.710    0.097    0.386  107.060  158.647    3.054
  617.960    0.103    0.393  108.953  158.354    3.251
  618.210    0.126    0.379  109.328  158.270    3.578
  618.460    0.133    0.391  108.123  158.182    4.071
  618.710    0.123    0.398  107.220  158.096    4.598
  618.960    0.085    0.382  105.285  158.012    5.051
  619.210    0.026    0.346  101.526  157.822    5.468
  619.460    0.005    0.334   93.027  157.529    5.757
  619.710    0.023    0.348   92.369  157.238    6.040
  619.960    0.105    0.366   94.992  157.049    6.301
  620.210    0.130    0.409   95.610  156.759    6.573
  620.460    0.129    0.393   93.674  156.462    6.708
  620.710    0.117    0.386   91.679  156.274    6.794
  620.960    0.119    0.401   93.209  156.190    6.793
  621.210    0.120    0.413   91.456  156.512    6.680
  621.460    0.111    0.405   86.543  157.455    6.437
  621.710    0.121    0.386   78.591  157.987    6.012
  621.960    0.139    0.360   69.849  158.517    5.532
  622.210    0.165    0.344   59.163  151.227    5.025
  622.460    0.259    0.337   52.911  141.981    4.423
  622.710    0.260    0.337   47.087  141.380    3.916
  622.960    0.263    0.347   46.792  143.252    3.505
  623.210    0.272    0.366   43.520  146.563    3.243
  623.460    0.305    0.361   38.607  148.840    3.056
  623.710    0.305    0.362   35.093  151.842    2.886
  623.960    0.280    0.368   35.407  149.904    2.802
  624.210    0.292    0.370   36.755  147.759    2.801
