~VERSION INFORMATION
 VERS.                 2.0:   CWLS LOG ASCII STANDARD -VERSION 2.0
 WRAP.                  NO:   ONE LINE PER DEPTH STEP
~WELL INFORMATION BLOCK
#MNEM.UNIT           DATA                    DESCRIPTION OF MNEMONIC
#---------    -------------------            -------------------------------
# Generated from Intellog Unique Number	CS_73_76/WELL/3244
WELL.         10-27-076-05W4                 : Well_name    - WELL
LOC .         00/10-27-076-05W4/0            : Location     - LOCATION
UWI .         00/10-27-076-05W4/0            : Uwi          - UNIQUE WELL ID
ENTR.         SP                             : Entered      - ENTERED BY
SRVC.         SCHLUMBERGER                   : Scn          - SERVICE COMPANY
STRT.M        160                            : top_depth    - START DEPTH
STOP.M        410                            : bot_depth    - STOP DEPTH
STEP.M        0.25                           : increment    - STEP LENGTH
 NULL. -999.2500:NULL Value
~CURVE INFORMATION BLOCK
#MNEM UNIT       ERCB CURVE CODE    CURVE DESCRIPTION
#-----------   ------------------   ----------------------------------
DEPT.M        00 001 00 00         : DEPTH        - DEPTH
DPHI.V/V      00 890 00 00         : PHID         - DENSITY POROSITY (LIMESTONE)
NPHI.V/V      00 330 00 00         : PHIN         - NEUTRON POROSITY (LIMESTONE)
GR  .API      00 310 00 00         : GR           - GAMMA RAY
ILD .OHMM     00 120 00 00         : RESD         - DEEP RESISTIVITY (DIL)
~PARAMETER INFORMATION
#MNEM.UNIT           DATA             DESCRIPTION OF MNEMONIC
#---------         -----------     ------------------------------
GL  .M        569.67               : gl           - GROUND LEVEL ELEVATION
EREF.M        573.87               : kb           - ELEVATION OF DEPTH REFERENCE
DATM.M        569.67               : datum        - DATUM ELEVATION
TDD .M        416.7                : tdd          - TOTAL DEPTH DRILLER
RUN .         ONE                  : Run          - RUN NUMBER
ENG .         BILL                 : Engineer     - RECORDING ENGINEER
WIT .         JIM                  : Witness      - WITNESSED BY
MUD .         GEL                  : Mud_type     - MUD TYPE
MATR.         LIMESTONE            : Logunit      - NEUTRON MATRIX
TMAX.C        36.7                 : BHT          - MAXIMUM RECORDED TEMPERATURE
BHTD.M        416.7                : BHTDEP       - MAXIMUM RECORDED TEMPERATURE
MATR.         1                    : LOGUNIT      - NEUTRON MATRIX
RMT .C        25                   : MDTP         - TEMPERATURE OF MUD
NEUT.         1                    : NEUTRON      - NEUTRON TYPE
RESI.         0                    : RESIST       - RESISTIVITY TYPE
RMC .OHMM     0.25                 : RMC          - RESISTIVITY OF MUD CAKE
RMF .OHMM     0.25                 : RMF          - RESISTIVITY OF MUD FILTRATE
SUFT.C        15                   : SUFT         - SURFACE TEMPERATURE
~A  DEPTH     PHID     PHIN       GR     RESD
# ...
  334.000    0.256    0.377   62.325   25.887
  334.250    0.256    0.352   62.338   21.522
  334.500    0.236    0.338   80.569   17.245
  334.750    0.156    0.344   96.374   12.831
  335.000    0.140    0.354   98.816   10.867
  335.250    0.133    0.356   98.828    9.377
  335.500    0.125    0.378  101.877    8.397
  335.750    0.117    0.385  102.500    8.098
  336.000    0.126    0.388  104.332    8.102
  336.250    0.149    0.399  102.524    7.960
  336.500    0.155    0.411   97.071    7.965
  336.750    0.169    0.407   94.654    7.824
  337.000    0.166    0.406   94.060    7.829
  337.250    0.161    0.414   91.643    7.833
  337.500    0.164    0.398   88.618    7.986
  337.750    0.173    0.371   86.201    8.291
  338.000    0.165    0.359   85.000    8.611
  338.250    0.157    0.366   85.013    8.778
  338.500    0.148    0.369   83.202    9.115
  338.750    0.158    0.374   82.005    9.292
  339.000    0.173    0.377   82.621    9.470
  339.250    0.171    0.380   81.422    9.654
  339.500    0.174    0.381   79.610    9.843
  339.750    0.174    0.383   79.016   10.031
  340.000    0.180    0.358   79.636   10.417
  340.250    0.183    0.362   78.434   10.618
  340.500    0.177    0.367   77.839   10.825
  340.750    0.170    0.362   77.854   11.034
  341.000    0.176    0.370   76.654   11.041
  341.250    0.182    0.364   76.060   11.256
  341.500    0.194    0.358   76.072   11.473
  341.750    0.192    0.352   76.082   11.697
  342.000    0.189    0.344   75.488   11.702
  342.250    0.184    0.341   74.895   11.930
  342.500    0.178    0.358   74.298   12.161
  342.750    0.198    0.370   73.702   12.397
  343.000    0.207    0.363   71.894   12.639
  343.250    0.194    0.358   73.121   12.643
  343.500    0.190    0.358   73.743   12.890
  343.750    0.181    0.376   73.146   13.141
  344.000    0.206    0.393   74.375   13.393
  344.250    0.214    0.397   76.208   13.404
  344.500    0.209    0.392   76.830   13.660
  344.750    0.217    0.382   73.805   13.672
  345.000    0.208    0.377   72.602   13.681
  345.250    0.207    0.381   68.974   13.945
  345.500    0.223    0.381   67.771   14.216
  345.750    0.238    0.382   67.175   14.226
  346.000    0.227    0.400   67.188   14.497
  346.250    0.249    0.401   69.024   14.780
  346.500    0.245    0.396   69.642   15.067
  346.750    0.239    0.405   69.658   15.075
  347.000    0.242    0.419   69.671   15.085
  347.250    0.238    0.429   69.683   14.819
  347.500    0.239    0.429   72.124   14.556
  347.750    0.247    0.428   75.779   14.296
  348.000    0.247    0.428   78.829   13.786
  348.250    0.225    0.429   80.665   13.050
  348.500    0.201    0.430   77.032   12.584
  348.750    0.211    0.423   70.364   13.067
  349.000    0.231    0.411   63.697   13.823
  349.250    0.238    0.400   60.674   14.622
  349.500    0.232    0.389   61.901   15.471
  349.750    0.221    0.395   66.772   15.769
  350.000    0.213    0.391   76.832   14.393
  350.250    0.198    0.388   78.076   13.614
  350.500    0.196    0.383   81.153   12.409
  350.750    0.193    0.376   85.446   11.311
  351.000    0.173    0.376   90.957   10.310
  351.250    0.157    0.395   95.250    9.752
  351.500    0.139    0.412   95.885    9.055
  351.750    0.154    0.421   95.301    8.888
  352.000    0.150    0.425   92.277    8.887
  352.250    0.136    0.429   91.083    9.053
  352.500    0.136    0.429   88.673    9.221
  352.750    0.135    0.417   85.651    9.747
  353.000    0.153    0.407   84.452    9.747
  353.250    0.165    0.390   83.260    9.746
  353.500    0.171    0.379   83.896    9.745
  353.750    0.166    0.378   85.749    9.390
  354.000    0.158    0.384   86.382    9.217
  354.250    0.153    0.389   87.626    9.216
  354.500    0.160    0.391   85.827    9.046
  354.750    0.162    0.393   88.288    8.880
  355.000    0.157    0.408   93.191    8.716
  355.250    0.154    0.415   94.436    8.556
  355.500    0.142    0.416   92.022    8.555
  355.750    0.145    0.406   89.608    8.877
  356.000    0.157    0.400   89.024    9.211
  356.250    0.140    0.400   88.438    9.383
  356.500    0.129    0.400   87.855    9.736
  356.750    0.130    0.401   87.271    9.735
  357.000    0.135    0.411   86.685    9.735
  357.250    0.142    0.422   84.276    9.556
  357.500    0.185    0.405   82.467    9.555
  357.750    0.191    0.389   81.273    9.206
  358.000    0.182    0.394   88.619    9.037
  358.250    0.147    0.407   93.519    9.036
  358.500    0.124    0.401   91.715    9.204
  358.750    0.140    0.384   89.303    9.376
  359.000    0.152    0.375   88.107    9.729
  359.250    0.137    0.371   86.916    9.728
  359.500    0.137    0.370   87.550    9.727
  359.750    0.158    0.384   88.187    9.727
  360.000    0.154    0.397   87.598    9.726
  360.250    0.160    0.414   81.526    9.907
  360.500    0.177    0.396   75.456   10.280
  360.750    0.189    0.370   72.436   10.866
  361.000    0.191    0.363   72.455   11.276
  361.250    0.194    0.360   72.485   11.700
  361.500    0.188    0.371   70.683   12.141
  361.750    0.186    0.388   66.434   13.073
  362.000    0.225    0.401   57.924   15.443
  362.250    0.248    0.393   50.634   21.551
  362.500    0.258    0.394   41.513   31.210
  362.750    0.289    0.392   34.828   43.554
  363.000    0.300    0.398   31.807   52.411
  363.250    0.279    0.412   33.659   58.566
  363.500    0.317    0.424   34.294   65.443
  363.750    0.313    0.399   33.713   70.471
  364.000    0.290    0.380   32.519   77.302
  364.250    0.273    0.359   31.936   84.795
  364.500    0.260    0.340   31.963   94.752
  364.750    0.238    0.327   31.372  102.030
  365.000    0.234    0.337   30.180  109.867
  365.250    0.257    0.362   28.984  118.306
  365.500    0.261    0.366   27.184  125.055
  365.750    0.262    0.342   25.993  129.765
  366.000    0.263    0.336   25.401  137.166
  366.250    0.271    0.344   26.649  137.155
  366.500    0.275    0.354   27.894  137.145
  366.750    0.246    0.347   29.750  137.133
  367.000    0.254    0.354   30.381  132.138
  367.250    0.251    0.354   30.408  122.696
  367.500    0.240    0.357   31.651  107.768
  367.750    0.235    0.342   30.455   96.428
  368.000    0.215    0.338   31.099   86.280
  368.250    0.219    0.337   32.341   77.201
  368.500    0.239    0.335   34.803   69.078
  368.750    0.232    0.339   38.487   56.342
  369.000    0.238    0.357   41.558   47.688
  369.250    0.248    0.379   44.022   44.280
  369.500    0.238    0.382   40.392   44.277
  369.750    0.252    0.342   37.367   46.803
  370.000    0.255    0.340   38.005   51.339
  370.250    0.243    0.356   41.080   52.295
  370.500    0.247    0.372   42.933   51.331
  370.750    0.250    0.374   42.348   45.930
  371.000    0.234    0.386   46.646   41.865
  371.250    0.249    0.401   49.102   36.772
  371.500    0.265    0.416   47.298   31.706
  371.750    0.270    0.427   42.447   29.990
  372.000    0.290    0.423   40.647   28.367
  372.250    0.286    0.406   41.892   27.845
  372.500    0.285    0.417   43.133   27.842
  372.750    0.288    0.424   43.163   28.890
  373.000    0.300    0.405   41.358   29.429
  373.250    0.299    0.388   43.211   29.427
  373.500    0.298    0.358   46.891   27.323
  373.750    0.278    0.364   54.234   23.999
  374.000    0.223    0.372   65.845   20.693
  374.250    0.177    0.372   76.237   18.176
  374.500    0.173    0.378   78.702   17.192
  374.750    0.186    0.388   76.286   16.262
  375.000    0.210    0.394   64.119   16.261
  375.250    0.237    0.392   59.873   17.188
  375.500    0.243    0.400   58.072   17.187
  375.750    0.261    0.387   67.242   14.819
  376.000    0.200    0.387   89.217   12.778
  376.250    0.191    0.408   95.952   11.017
  376.500    0.171    0.402   88.052   10.230
  376.750    0.159    0.391   86.244    9.857
  377.000    0.154    0.400   86.269    9.856
  377.250    0.184    0.394   84.466    9.856
