~VERSION INFORMATION
 VERS.                 2.0:   CWLS LOG ASCII STANDARD -VERSION 2.0
 WRAP.                  NO:   ONE LINE PER DEPTH STEP
~WELL INFORMATION BLOCK
#MNEM.UNIT           DATA                    DESCRIPTION OF MNEMONIC
#---------    -------------------            -------------------------------
# Generated from Intellog Unique Number	CW_73_75/WELL/1030
WELL.         CHEVRON ET AL ROCK 10-33       : Well_name    - WELL
LOC .         00/10-33-075-22W4/0            : Location     - LOCATION
UWI .         00/10-33-075-22W4/0            : Uwi          - UNIQUE WELL ID
ENTR.         JAYE                           : Entered      - ENTERED BY
SRVC.         SCHLUMBERGER                   : Scn          - SERVICE COMPANY
DATE.         14 JAN 73                      : Date         - LOG DATE
STRT.M        371.856                        : top_depth    - START DEPTH
STOP.M        655.356                        : bot_depth    - STOP DEPTH
STEP.M        0.25                           : increment    - STEP LENGTH
 NULL. -999.2500:NULL Value
~CURVE INFORMATION BLOCK
#MNEM UNIT       ERCB CURVE CODE    CURVE DESCRIPTION
#-----------   ------------------   ----------------------------------
DEPT.M        00 001 00 00         : DEPTH        - DEPTH
ILD .OHMM     00 120 00 00         : RESD         - DEEP RESISTIVITY (DLL)
NPHI.V/V      00 330 00 00         : PHIN         - NEUTRON POROSITY (SANDSTONE)
DPHI.V/V      00 890 00 00         : PHID         - DENSITY POROSITY (SANDSTONE)
GR  .API      00 310 00 00         : GR           - GAMMA RAY
CALI.MM       00 280 01 00         : CAL          - CALIPER
~PARAMETER INFORMATION
#MNEM.UNIT           DATA             DESCRIPTION OF MNEMONIC
#---------         -----------     ------------------------------
GL  .M        669.036              : gl           - GROUND LEVEL ELEVATION
EREF.M        672.267              : kb           - ELEVATION OF DEPTH REFERENCE
DATM.M        669.036              : datum        - DATUM ELEVATION
TDD .M        603.504              : tdd          - TOTAL DEPTH DRILLER
RUN .         ONE                  : Run          - RUN NUMBER
MATR.         SANDSTONE            : Logunit      - NEUTRON MATRIX
TMAX.C        32.7778              : BHT          - MAXIMUM RECORDED TEMPERATURE
BHTD.M        603.199              : BHTDEP       - MAXIMUM RECORDED TEMPERATURE
RMT .C        18.8889              : MDTP         - TEMPERATURE OF MUD
MUDD.KG/M     0                    : MWT          - MUD DENSITY
NEUT.         0                    : NEUTRON      - NEUTRON TYPE
RESI.         1                    : RESIST       - RESISTIVITY TYPE
RM  .OHMM     0                    : RM           - RESISTIVITY OF MUD
RMC .OHMM     3.5                  : RMC          - RESISTIVITY OF MUD CAKE
RMF .OHMM     3.51                 : RMF          - RESISTIVITY OF MUD FILTRATE
SUFT.C        -17.7778             : SUFT         - SURFACE TEMPERATURE
~A  DEPTH     RESD     PHIN     PHID       GR      CAL
# ...
  627.356    7.725    0.573    0.296  269.243  208.107
  627.606    8.105    0.559    0.307  266.928  208.452
  627.856    8.363    0.552    0.303  262.774  208.899
  628.106    8.615    0.565    0.277  275.991  211.842
  628.356    8.777    0.586    0.298  281.720  214.783
  628.606    8.860    0.597    0.314  283.397  215.128
  628.856    8.815    0.568    0.280  276.724  211.312
  629.106    8.673    0.479    0.268  278.830  209.997
  629.356    8.613    0.384    0.265  283.330  209.608
  629.606    8.568    0.411    0.259  293.233  209.645
  629.856    8.524    0.417    0.253  396.402  209.985
  630.106    8.481    0.408    0.246  416.681  210.641
  630.356    8.330    0.478    0.222  433.093  211.399
  630.606    8.241    0.488    0.259  441.339  211.639
  630.856    8.035    0.436    0.298  276.381  211.670
  631.106    7.878    0.409    0.290  243.981  211.495
  631.356    7.723    0.380    0.284  229.018  210.902
  631.606    7.627    0.386    0.279  237.633  210.417
  631.856    7.519    0.487    0.258  244.343  210.033
  632.106    7.426    0.513    0.246  252.467  209.954
  632.356    7.361    0.545    0.227  258.073  209.678
  632.606    7.270    0.558    0.215  267.117  209.083
  632.856    7.206    0.434    0.221  267.812  208.491
  633.106    7.129    0.400    0.238  262.304  208.002
  633.356    7.080    0.434    0.234  254.524  208.244
  633.606    7.042    0.503    0.238  267.928  209.209
  633.856    7.019    0.521    0.257  282.252  210.490
  634.106    6.970    0.542    0.266  284.973  211.661
  634.356    6.859    0.548    0.273  278.055  212.320
  634.606    6.762    0.467    0.254  270.399  212.351
  634.856    6.726    0.398    0.221  245.549  209.576
  635.106    6.729    0.375    0.205  223.220  207.944
  635.356    6.731    0.344    0.213  220.291  209.434
  635.606    6.758    0.328    0.223  230.502  210.397
  635.856    6.760    0.341    0.181  237.459  211.467
  636.106    6.750    0.355    0.157  239.748  212.645
  636.356    6.739    0.367    0.132  240.319  215.273
  636.606    6.717    0.364    0.093  245.372  217.696
  636.856    6.658    0.344    0.110  250.611  217.000
  637.106    6.660    0.331    0.103  257.689  215.785
  637.356    6.614    0.333    0.144  262.867  213.737
  637.606    6.556    0.346    0.144  263.193  212.318
  637.856    6.534    0.350    0.138  261.553  212.554
  638.106    6.488    0.331    0.130  255.001  213.414
  638.356    6.443    0.299    0.122  248.267  214.694
  638.606    6.387    0.305    0.111  246.935  215.660
  638.856    6.388    0.314    0.111  243.391  215.691
  639.106    6.356    0.331    0.139  237.210  215.208
  639.356    6.311    0.337    0.159  231.947  215.026
  639.606    6.222    0.328    0.163  229.879  215.163
  639.856    6.144    0.313    0.160  231.188  215.407
  640.106    6.046    0.322    0.156  233.049  216.268
  640.356    5.939    0.328    0.150  232.820  217.131
  640.606    5.811    0.319    0.141  230.752  217.368
  640.856    5.402    0.332    0.149  229.848  215.320
  641.106    5.023    0.328    0.156  231.956  208.907
  641.356    4.593    0.316    0.146  236.148  209.461
  641.606    4.318    0.322    0.137  239.974  210.948
  641.856    3.985    0.335    0.126  243.676  212.328
  642.106    3.732    0.344    0.093  249.467  213.606
  642.356    3.457    0.354    0.108  255.810  213.950
  642.606    3.297    0.371    0.126  261.477  213.670
  642.856    3.139    0.397    0.131  264.012  211.207
  643.106    2.983    0.358    0.134  253.654  209.573
  643.356    2.877    0.342    0.145  241.086  213.767
  643.606    2.816    0.332    0.139  234.351  215.364
  643.856    2.827    0.338    0.152  237.748  215.391
  644.106    2.854    0.341    0.149  242.002  215.522
  644.356    2.934    0.364    0.126  244.356  212.746
  644.606    3.028    0.347    0.133  244.065  214.135
  644.856    3.165    0.337    0.146  241.690  214.270
  645.106    3.320    0.341    0.149  238.763  213.983
  645.356    3.509    0.375    0.148  234.175  212.351
  645.606    3.641    0.395    0.158  229.035  211.552
  645.856    3.820    0.417    0.168  225.677  210.439
  646.106    3.949    0.434    0.202  221.397  209.433
  646.356    4.112    0.420    0.278  205.454  207.806
  646.606    4.291    0.389    0.280  192.578  207.830
  646.856    4.452    0.395    0.248  169.326  208.594
  647.106    4.611    0.419    0.227  163.820  208.622
  647.356    4.750    0.439    0.239  162.610  208.034
  647.606    4.821    0.414    0.240  163.000  207.338
  647.856    4.761    0.391    0.246  164.984  206.846
  648.106    4.451    0.369    0.241  168.500  206.565
  648.356    4.161    0.346    0.197  172.385  207.220
  648.606    3.962    0.362    0.164  184.499  209.226
  648.856    3.841    0.389    0.144  189.922  213.732
  649.106    3.752    0.405    0.159  194.852  216.567
  649.356    3.679    0.417    0.166  199.413  210.465
  649.606    3.600    0.424    0.182  207.413  206.338
  649.856    3.549    0.437    0.202  230.395  205.956
  650.106    3.512    0.448    0.190  225.994  205.568
  650.356    3.494    0.420    0.159  217.047  206.127
  650.606    3.482    0.401    0.225  210.987  206.781
  650.856    3.464    0.388    0.239  207.940  207.017
  651.106    3.452    0.397    0.232  205.381  206.321
  651.356    3.447    0.391    0.249  203.127  204.690
  651.606    3.442    0.401    0.252  201.301  203.992
  651.856    3.449    0.417    0.220  198.926  204.028
  652.106    3.476    0.415    0.211  196.305  204.369
  652.356    3.490    0.403    0.218  193.990  204.815
  652.606    3.529    0.393    0.204  190.323  204.949
  652.856    3.556    0.385    0.223  186.474  205.604
  653.106    3.603    0.376    0.241  182.686  206.055
  653.356    3.658    0.362    0.224  178.591  207.122
  653.606    3.713    0.323    0.226  174.619  211.834
  653.856    3.776    0.298    0.250  188.451  216.542
  654.106    3.819    0.267    0.259  201.977  222.190
  654.356    3.884    0.240    0.216  198.006  191.447
  654.606    3.920    0.234    0.196  189.243  170.061
  654.856    3.943    0.232    0.178  180.422  171.755
  655.106    3.937    0.231    0.176  174.485  171.371
  655.356    3.931    0.230    0.179  170.636  171.301
