~VERSION INFORMATION
 VERS.                 2.0:   CWLS LOG ASCII STANDARD -VERSION 2.0
 WRAP.                  NO:   ONE LINE PER DEPTH STEP
~WELL INFORMATION BLOCK
#MNEM.UNIT           DATA                    DESCRIPTION OF MNEMONIC
#---------    -------------------            -------------------------------
# Generated from Intellog Unique Number	CS_67_68/WELL/842
WELL.         CANADA-CITIES SERVICE LTD      : Well_name    - WELL
LOC .         00/11-25-068-14W4/0            : Location     - LOCATION
UWI .         00/11-25-068-14W4/0            : Uwi          - UNIQUE WELL ID
ENTR.         SP                             : Entered      - ENTERED BY
SRVC.         SCHLUMBERGER                   : Scn          - SERVICE COMPANY
STRT.M        259.08                         : top_depth    - START DEPTH
STOP.M        456.830                        : bot_depth    - STOP DEPTH
STEP.M        0.25                           : increment    - STEP LENGTH
 NULL. -999.2500:NULL Value
~CURVE INFORMATION BLOCK
#MNEM UNIT       ERCB CURVE CODE    CURVE DESCRIPTION
#-----------   ------------------   ----------------------------------
DEPT.M        00 001 00 00         : DEPTH        - DEPTH
GR  .API      00 310 00 00         : GR           - GAMMA RAY
DPHI.V/V      00 890 00 00         : PHID         - DENSITY POROSITY (SANDSTONE)
NPHI.V/V      00 330 00 00         : PHIN         - NEUTRON POROSITY (SANDSTONE)
ILD .OHMM     00 120 00 00         : RESD         - DEEP RESISTIVITY (DIL)
~PARAMETER INFORMATION
#MNEM.UNIT           DATA             DESCRIPTION OF MNEMONIC
#---------         -----------     ------------------------------
GL  .M        552.907              : gl           - GROUND LEVEL ELEVATION
EREF.M        555.346              : kb           - ELEVATION OF DEPTH REFERENCE
DATM.M        552.907              : datum        - DATUM ELEVATION
TDD .M        458.114              : tdd          - TOTAL DEPTH DRILLER
RUN .         ONE                  : Run          - RUN NUMBER
ENG .         BILL                 : Engineer     - RECORDING ENGINEER
WIT .         JIM                  : Witness      - WITNESSED BY
MUD .         GEL                  : Mud_type     - MUD TYPE
MATR.         SANDSTONE            : Logunit      - NEUTRON MATRIX
TMAX.C        14.4444              : BHT          - MAXIMUM RECORDED TEMPERATURE
BHTD.M        458.114              : BHTDEP       - MAXIMUM RECORDED TEMPERATURE
MATR.         1                    : LOGUNIT      - NEUTRON MATRIX
RMT .C        25                   : MDTP         - TEMPERATURE OF MUD
NEUT.         1                    : NEUTRON      - NEUTRON TYPE
RESI.         0                    : RESIST       - RESISTIVITY TYPE
RMC .OHMM     0.25                 : RMC          - RESISTIVITY OF MUD CAKE
RMF .OHMM     0.25                 : RMF          - RESISTIVITY OF MUD FILTRATE
SUFT.C        15                   : SUFT         - SURFACE TEMPERATURE
~A  DEPTH       GR     PHID     PHIN     RESD
# ...
  302.580   79.783    0.274    0.470    2.832
  302.830   80.384    0.276    0.472    2.779
  303.080   79.948    0.276    0.478    2.833
  303.330   75.709    0.278    0.483    2.908
  303.580   65.221    0.284    0.498    2.918
  303.830   59.452    0.150    0.309    2.837
  304.080   53.613    0.121    0.295    2.689
  304.330   57.612    0.167    0.354    2.527
  304.580   62.388    0.274    0.448    2.343
  304.830   65.543    0.332    0.462    2.266
  305.080   68.558    0.335    0.458    2.219
  305.330   71.120    0.322    0.465    2.198
  305.580   73.759    0.310    0.479    2.200
  305.830   71.403    0.305    0.476    2.223
  306.080   68.825    0.300    0.470    2.250
  306.330   67.974    0.316    0.465    2.297
  306.580   69.020    0.321    0.477    2.390
  306.830   71.681    0.308    0.492    2.533
  307.080   74.724    0.301    0.485    2.640
  307.330   77.985    0.292    0.482    2.765
  307.580   80.345    0.274    0.493    2.873
  307.830   81.908    0.263    0.501    2.924
  308.080   82.273    0.253    0.509    2.880
  308.330   80.257    0.258    0.509    2.791
  308.580   77.083    0.283    0.505    2.753
  308.830   76.762    0.299    0.497    2.825
  309.080   80.262    0.296    0.489    2.981
  309.330   82.908    0.273    0.488    3.111
  309.580   87.234    0.251    0.493    3.275
  309.830   90.180    0.228    0.487    3.422
  310.080   93.210    0.226    0.482    3.557
  310.330   94.326    0.238    0.490    3.666
  310.580   94.250    0.244    0.501    3.738
  310.830   94.604    0.248    0.505    3.778
  311.080   92.305    0.249    0.508    3.808
  311.330   87.792    0.259    0.507    3.750
  311.580   82.764    0.263    0.496    3.683
  311.830   80.853    0.242    0.490    3.541
  312.080   85.742    0.225    0.485    3.453
  312.330   89.625    0.221    0.483    3.349
  312.580   94.739    0.227    0.497    3.459
  312.830   96.773    0.226    0.513    3.666
  313.080   99.697    0.236    0.533    3.870
  313.330   97.394    0.248    0.511    3.974
  313.580   93.604    0.231    0.465    4.002
  313.830   90.562    0.244    0.443    3.691
  314.080   89.707    0.236    0.452    3.466
  314.330   86.555    0.230    0.458    3.295
  314.580   79.189    0.260    0.463    3.259
  314.830   76.578    0.281    0.463    3.314
  315.080   79.398    0.275    0.460    3.518
  315.330   83.486    0.265    0.453    3.585
  315.580   86.467    0.253    0.451    3.681
  315.830   88.606    0.246    0.428    3.822
  316.080   90.548    0.241    0.408    4.104
  316.330   90.100    0.231    0.390    4.329
  316.580   88.602    0.216    0.412    4.571
  316.830   88.429    0.205    0.426    4.643
  317.080   90.776    0.217    0.435    4.656
  317.330   94.516    0.226    0.441    4.676
  317.580   97.181    0.223    0.445    4.660
  317.830   99.427    0.224    0.451    4.605
  318.080  100.937    0.212    0.448    4.461
  318.330  102.211    0.202    0.448    4.213
  318.580  101.456    0.217    0.452    3.817
  318.830   95.088    0.221    0.464    3.253
  319.080   83.669    0.221    0.489    2.988
  319.330   75.530    0.236    0.481    2.612
  319.580   66.511    0.262    0.476    2.457
  319.830   61.404    0.289    0.481    2.347
  320.080   64.915    0.307    0.478    2.335
  320.330   68.661    0.297    0.472    2.470
  320.580   71.995    0.296    0.464    2.765
  320.830   74.996    0.291    0.460    3.028
  321.080   77.952    0.282    0.453    3.232
  321.330   80.571    0.275    0.448    3.416
  321.580   82.151    0.270    0.441    3.589
  321.830   82.497    0.264    0.435    3.721
  322.080   80.983    0.258    0.431    3.728
  322.330   80.248    0.254    0.438    3.621
  322.580   77.161    0.253    0.431    3.394
  322.830   62.840    0.250    0.430    3.036
  323.080   57.265    0.258    0.438    2.652
  323.330   50.074    0.283    0.443    2.353
  323.580   49.001    0.306    0.436    2.126
  323.830   52.423    0.322    0.432    2.030
  324.080   56.650    0.339    0.424    1.990
  324.330   61.151    0.339    0.417    2.067
  324.580   65.669    0.320    0.423    2.190
  324.830   68.902    0.315    0.431    2.529
  325.080   72.309    0.314    0.440    2.773
  325.330   75.594    0.297    0.448    3.022
  325.580   79.157    0.287    0.457    3.257
  325.830   82.874    0.277    0.449    3.519
  326.080   85.921    0.268    0.435    3.766
  326.330   86.529    0.259    0.431    3.913
  326.580   88.321    0.249    0.436    4.054
  326.830   91.631    0.240    0.440    4.133
  327.080   93.494    0.234    0.440    4.149
  327.330   94.276    0.231    0.443    3.958
  327.580   90.772    0.219    0.445    3.568
  327.830   83.763    0.223    0.441    3.215
  328.080   77.392    0.245    0.432    3.099
  328.330   77.127    0.251    0.422    3.121
  328.580   78.480    0.268    0.415    3.110
  328.830   81.283    0.266    0.409    3.026
  329.080   82.007    0.259    0.419    2.978
  329.330   77.103    0.268    0.445    2.901
  329.580   68.290    0.271    0.469    2.776
  329.830   63.940    0.290    0.472    2.682
  330.080   68.799    0.298    0.464    2.637
  330.330   72.556    0.315    0.465    2.668
  330.580   75.693    0.304    0.473    2.746
  330.830   78.216    0.291    0.481    2.834
  331.080   79.269    0.282    0.493    2.952
  331.330   80.580    0.274    0.478    3.083
  331.580   82.688    0.267    0.480    3.222
  331.830   82.720    0.259    0.485    3.289
  332.080   80.460    0.258    0.483    3.185
  332.330   84.323    0.277    0.482    3.075
  332.580   89.379    0.289    0.507    2.983
  332.830   92.998    0.295    0.547    2.950
  333.080   95.421    0.306    0.614    3.162
  333.330   96.440    0.329    0.510    3.289
  333.580   95.571    0.279    0.512    3.301
  333.830   86.828    0.223    0.525    3.352
  334.080   75.763    0.215    0.536    3.163
  334.330   68.002    0.232    0.534    2.849
  334.580   62.362    0.304    0.428    2.529
  334.830   59.503    0.343    0.398    2.298
  335.080   58.570    0.362    0.379    2.142
  335.330   60.236    0.367    0.367    1.976
  335.580   60.938    0.359    0.377    1.885
  335.830   61.399    0.350    0.398    1.933
  336.080   61.735    0.343    0.405    1.984
  336.330   62.065    0.342    0.412    1.999
  336.580   63.246    0.344    0.415    2.009
  336.830   65.287    0.339    0.421    2.015
  337.080   67.083    0.328    0.433    2.058
  337.330   67.820    0.321    0.462    2.139
  337.580   68.529    0.317    0.468    2.250
  337.830   71.787    0.311    0.466    2.386
  338.080   74.458    0.292    0.458    2.538
  338.330   74.838    0.279    0.452    2.669
  338.580   81.276    0.264    0.458    2.819
  338.830   87.284    0.247    0.467    2.907
  339.080   92.903    0.239    0.479    2.918
  339.330   89.655    0.234    0.500    2.874
  339.580   79.926    0.252    0.524    2.683
  339.830   71.753    0.279    0.554    2.461
  340.080   66.973    0.297    0.422    2.311
  340.330   63.491    0.312    0.446    2.228
  340.580   60.579    0.297    0.459    2.283
  340.830   59.402    0.291    0.465    2.416
  341.080   59.873    0.290    0.459    2.524
  341.330   61.981    0.286    0.468    2.538
  341.580   64.624    0.300    0.468    2.518
  341.830   66.820    0.310    0.467    2.519
  342.080   68.031    0.310    0.465    2.693
  342.330   64.347    0.291    0.443    2.874
  342.580   59.754    0.258    0.400    3.056
  342.830   57.849    0.131    0.325    3.145
  343.080   66.167    0.140    0.274    3.232
  343.330   71.564    0.260    0.458    3.119
  343.580   73.702    0.282    0.478    2.855
  343.830   74.949    0.266    0.488    2.699
  344.080   74.906    0.260    0.499    2.556
  344.330   75.945    0.276    0.502    2.558
  344.580   74.225    0.287    0.493    2.660
  344.830   73.019    0.293    0.481    2.780
  345.080   74.420    0.286    0.476    3.002
  345.330   77.160    0.272    0.473    3.263
  345.580   80.062    0.252    0.470    3.530
  345.830   81.367    0.235    0.465    3.815
