~VERSION INFORMATION
 VERS.                 2.0:   CWLS LOG ASCII STANDARD -VERSION 2.0
 WRAP.                  NO:   ONE LINE PER DEPTH STEP
~WELL INFORMATION BLOCK
#MNEM.UNIT           DATA                    DESCRIPTION OF MNEMONIC
#---------    -------------------            -------------------------------
# Generated from Intellog Unique Number	CS_73_76/WELL/3232
WELL.         HOME OIL COMPANY LIMITED       : Well_name    - WELL
LOC .         00/10-08-076-06W4/0            : Location     - LOCATION
UWI .         00/10-08-076-06W4/0            : Uwi          - UNIQUE WELL ID
ENTR.         SP                             : Entered      - ENTERED BY
SRVC.         SCHLUMBERGER                   : Scn          - SERVICE COMPANY
STRT.M        173.736                        : top_depth    - START DEPTH
STOP.M        412.986                        : bot_depth    - STOP DEPTH
STEP.M        0.25                           : increment    - STEP LENGTH
 NULL. -999.2500:NULL Value
~CURVE INFORMATION BLOCK
#MNEM UNIT       ERCB CURVE CODE    CURVE DESCRIPTION
#-----------   ------------------   ----------------------------------
DEPT.M        00 001 00 00         : DEPTH        - DEPTH
GR  .API      00 310 00 00         : GR           - GAMMA RAY
DPHI.V/V      00 890 00 00         : PHID         - DENSITY POROSITY (SANDSTONE)
NPHI.V/V      00 330 00 00         : PHIN         - NEUTRON POROSITY (SANDSTONE)
ILD .OHMM     00 120 00 00         : RESD         - DEEP RESISTIVITY (DIL)
~PARAMETER INFORMATION
#MNEM.UNIT           DATA             DESCRIPTION OF MNEMONIC
#---------         -----------     ------------------------------
GL  .M        580.278              : gl           - GROUND LEVEL ELEVATION
EREF.M        584.119              : kb           - ELEVATION OF DEPTH REFERENCE
DATM.M        580.278              : datum        - DATUM ELEVATION
TDD .M        389.23               : tdd          - TOTAL DEPTH DRILLER
RUN .         ONE                  : Run          - RUN NUMBER
ENG .         BILL                 : Engineer     - RECORDING ENGINEER
WIT .         JIM                  : Witness      - WITNESSED BY
MUD .         GEL                  : Mud_type     - MUD TYPE
MATR.         SANDSTONE            : Logunit      - NEUTRON MATRIX
TMAX.C        16.6667              : BHT          - MAXIMUM RECORDED TEMPERATURE
BHTD.M        389.23               : BHTDEP       - MAXIMUM RECORDED TEMPERATURE
MATR.         1                    : LOGUNIT      - NEUTRON MATRIX
RMT .C        25                   : MDTP         - TEMPERATURE OF MUD
NEUT.         1                    : NEUTRON      - NEUTRON TYPE
RESI.         0                    : RESIST       - RESISTIVITY TYPE
RMC .OHMM     0.25                 : RMC          - RESISTIVITY OF MUD CAKE
RMF .OHMM     0.25                 : RMF          - RESISTIVITY OF MUD FILTRATE
SUFT.C        15                   : SUFT         - SURFACE TEMPERATURE
~A  DEPTH       GR     PHID     PHIN     RESD
  173.736  111.580    0.218    0.552    5.598
  173.986  114.063    0.217    0.553    5.714
  174.236  109.319    0.197    0.553    5.525
  174.486  105.031    0.207    0.534    4.598
  174.736  102.276    0.190    0.508    4.203
  174.986  101.216    0.191    0.513    4.250
  175.236  102.789    0.225    0.530    4.449
  175.486  104.322    0.204    0.550    4.746
  175.736  104.228    0.187    0.543    4.820
  175.986  101.026    0.187    0.525    4.659
  176.236   94.746    0.204    0.512    4.781
  176.486   83.006    0.202    0.505    4.928
  176.736   68.815    0.202    0.489    7.710
  176.986   55.412    0.222    0.455   10.589
  177.236   43.928    0.222    0.370   11.641
  177.486   39.407    0.215    0.362   10.652
  177.736   39.987    0.256    0.380    8.264
  177.986   52.542    0.190    0.399    7.219
  178.236   67.033    0.148    0.423    6.515
  178.486   80.167    0.079    0.441    5.879
  178.736   98.086    0.136    0.415    5.338
  178.986  109.006    0.191    0.467    5.134
  179.236  110.840    0.209    0.506    4.928
  179.486  111.267    0.201    0.526    4.773
  179.736  110.978    0.189    0.506    5.234
  179.986  107.155    0.187    0.492    7.327
  180.236  105.370    0.195    0.503   10.282
  180.486  104.082    0.216    0.464   13.230
  180.736  104.611    0.229    0.447   15.419
  180.986  107.045    0.215    0.447   16.149
  181.236  107.173    0.222    0.445   15.112
  181.486  109.281    0.212    0.438   15.131
  181.736  112.595    0.209    0.430   16.077
  181.986  115.020    0.194    0.435   17.073
  182.236  109.054    0.187    0.444   18.584
  182.486   99.331    0.229    0.453   12.768
  182.736   87.869    0.254    0.461   10.624
  182.986   77.969    0.241    0.410    9.919
  183.236   67.463    0.240    0.422   10.287
  183.486   56.648    0.276    0.431   12.337
  183.736   51.289    0.286    0.435   15.176
  183.986   50.411    0.288    0.433   13.011
  184.236   48.709    0.281    0.443  354.082
  184.486   45.942    0.273    0.452   23.701
  184.736   44.074    0.279    0.458   33.203
  184.986   43.014    0.284    0.440   25.702
  185.236   43.756    0.275    0.422   21.778
  185.486   46.214    0.281    0.428   18.683
  185.736   48.818    0.289    0.437   18.505
  185.986   50.742    0.292    0.436   18.415
  186.236   53.396    0.292    0.434   18.409
  186.486   56.875    0.294    0.428   17.922
  186.736   59.393    0.294    0.433   16.654
  186.986   64.166    0.286    0.444   15.607
  187.236   69.088    0.281    0.462   14.794
  187.486   76.274    0.269    0.457   14.057
  187.736   85.740    0.246    0.432   12.797
  187.986  103.197    0.219    0.441   11.640
  188.236  111.825    0.200    0.471   10.855
  188.486  110.079    0.207    0.478   10.698
  188.736  108.799    0.221    0.475   11.448
  188.986  103.549    0.213    0.461   13.264
  189.236   96.589    0.223    0.450   13.988
  189.486   84.009    0.245    0.439   11.723
  189.736   70.447    0.273    0.429    9.254
  189.986   61.545    0.278    0.423    8.277
  190.236   59.905    0.280    0.429    7.794
  190.486   62.959    0.292    0.438    7.805
  190.736   64.351    0.286    0.447    7.972
  190.986   65.869    0.272    0.456    7.942
  191.236   70.074    0.269    0.452    7.812
  191.486   73.551    0.277    0.429    7.825
  191.736   77.949    0.262    0.418    8.833
  191.986   83.935    0.256    0.408    9.987
  192.236   92.001    0.247    0.414   11.517
  192.486  107.115    0.244    0.438   14.822
  192.736  115.941    0.246    0.474   16.054
  192.986  117.245    0.256    0.502   14.992
  193.236  116.687    0.221    0.516   13.279
  193.486  112.546    0.222    0.524   11.591
  193.736  109.927    0.204    0.528   10.732
  193.986  112.171    0.188    0.516   10.236
  194.236  120.855    0.234    0.507   10.071
  194.486  124.666    0.289    0.524   10.122
  194.736  124.677    0.255    0.552    9.494
  194.986  123.838    0.258    0.564    9.047
  195.236  123.875    0.257    0.560    8.435
  195.486  121.152    0.239    0.574    7.989
  195.736  105.977    0.224    0.580    7.512
  195.986   92.235    0.218    0.559    7.152
  196.236   67.689    0.252    0.535    6.874
  196.486   60.510    0.288    0.503    6.898
  196.736   58.992    0.284    0.450    7.399
  196.986   62.687    0.288    0.420    7.633
  197.236   65.603    0.292    0.417    7.841
  197.486   66.679    0.287    0.422    7.199
  197.736   66.245    0.277    0.429    7.096
  197.986   69.146    0.269    0.423    8.308
  198.236   75.924    0.254    0.414   10.843
  198.486   86.097    0.227    0.427   12.860
  198.736   90.848    0.206    0.439   14.881
  198.986   83.616    0.220    0.458   13.821
  199.236   81.198    0.226    0.404   12.397
  199.486   85.869    0.245    0.404   11.475
  199.736   88.322    0.242    0.418   11.338
  199.986   88.822    0.232    0.430   12.038
  200.236   88.909    0.223    0.432   13.237
  200.486   89.865    0.216    0.426   14.899
  200.736   91.600    0.228    0.423   17.065
  200.986   94.606    0.193    0.425   21.175
  201.236   97.638    0.177    0.443   27.788
  201.486   96.754    0.172    0.466   24.213
  201.736   94.365    0.143    0.482   16.657
  201.986   96.855    0.196    0.470   12.617
  202.236  102.984    0.276    0.461   10.261
  202.486  114.341    0.283    0.443    9.109
  202.736  132.490    0.284    0.416    8.674
  202.986  147.675    0.283    0.411    9.142
  203.236  160.843    0.281    0.410    9.928
  203.486  174.689    0.276    0.418   10.184
  203.736  184.422    0.268    0.430    8.934
  203.986  154.408    0.261    0.438    8.116
  204.236  135.679    0.261    0.439    7.733
  204.486  104.406    0.274    0.431    7.467
  204.736   94.853    0.282    0.429    7.500
  204.986  101.319    0.292    0.418    8.081
  205.236  107.214    0.285    0.417    8.790
  205.486  102.555    0.277    0.427   10.316
  205.736   99.219    0.259    0.445   12.835
  205.986  103.020    0.255    0.440   15.314
  206.236  106.911    0.247    0.440   17.452
  206.486  108.232    0.235    0.450   20.353
  206.736  109.032    0.238    0.448   24.231
  206.986  108.146    0.247    0.452   28.134
  207.236  107.115    0.252    0.463   32.931
  207.486  105.866    0.257    0.480   33.006
  207.736  105.198    0.250    0.496   23.835
  207.986   97.277    0.241    0.493   16.675
  208.236   83.418    0.231    0.487   12.179
  208.486   74.093    0.242    0.455   10.311
  208.736   65.790    0.257    0.415    9.688
  208.986   66.247    0.255    0.381   10.023
  209.236   72.170    0.242    0.372   11.099
  209.486   77.915    0.238    0.389   11.947
  209.736   79.088    0.215    0.407   11.932
  209.986   71.032    0.211    0.404   12.363
  210.236   66.599    0.208    0.390   12.752
  210.486   62.287    0.189    0.396   13.752
  210.736   59.902    0.219    0.405   13.101
  210.986   65.555    0.232    0.400   12.108
  211.236   72.498    0.224    0.391   11.125
  211.486   77.842    0.230    0.400   10.144
  211.736   79.131    0.248    0.410    9.382
  211.986   80.760    0.259    0.399    9.426
  212.236   83.317    0.251    0.386    9.823
  212.486   84.479    0.246    0.379   10.442
  212.736   78.627    0.251    0.386   12.526
  212.986   79.277    0.228    0.410   15.566
  213.236   87.459    0.224    0.414   18.729
  213.486   91.048    0.213    0.409   19.323
  213.736   99.007    0.207    0.414   17.069
  213.986  103.139    0.204    0.420   14.607
  214.236  109.076    0.229    0.434   11.994
  214.486  111.639    0.245    0.471   11.057
  214.736  108.131    0.311    0.502   10.981
  214.986  104.049    0.323    0.520   12.684
  215.236  104.793    0.358    0.552   14.513
  215.486  106.292    0.335    0.531   16.186
  215.736  104.927    0.259    0.485   18.397
  215.986  103.555    0.275    0.489   19.147
  216.236  101.349    0.193    0.447   20.007
  216.486  102.372    0.190    0.423   20.213
  216.736  110.976    0.179    0.409   17.681
  216.986  115.493    0.166    0.406   16.693
