~VERSION INFORMATION
 VERS.                 2.0:   CWLS LOG ASCII STANDARD -VERSION 2.0
 WRAP.                  NO:   ONE LINE PER DEPTH STEP
~WELL INFORMATION BLOCK
#MNEM.UNIT           DATA                    DESCRIPTION OF MNEMONIC
#---------    -------------------            -------------------------------
# Generated from Intellog Unique Number	CN_94_101/WELL/3714
WELL.         PACIFIC PETROLEUMS LTD.        : Well_name    - WELL
LOC .         00/10-06-096-21W4/0            : Location     - LOCATION
UWI .         00/10-06-096-21W4/0            : Uwi          - UNIQUE WELL ID
ENTR.         JOETTE                         : Entered      - ENTERED BY
SRVC.         COMPUTALOG                     : Scn          - SERVICE COMPANY
DATE.         08/10/92                       : Date         - LOG DATE
STRT.M        400                            : top_depth    - START DEPTH
STOP.M        570                            : bot_depth    - STOP DEPTH
STEP.M        0.25                           : increment    - STEP LENGTH
 NULL. -999.2500:NULL Value
~CURVE INFORMATION BLOCK
#MNEM UNIT       ERCB CURVE CODE    CURVE DESCRIPTION
#-----------   ------------------   ----------------------------------
DEPT.M        00 001 00 00         : DEPTH        - DEPTH
ILD .OHMM     00 120 00 00         : RESD         - DEEP RESISTIVITY (DIL)
GR  .API      00 310 00 00         : GR           - GAMMA RAY
NPHI.V/V      00 330 00 00         : PHIN         - NEUTRON POROSITY (SANDSTONE)
DPHI.V/V      00 890 00 00         : PHID         - DENSITY POROSITY (SANDSTONE)
~PARAMETER INFORMATION
#MNEM.UNIT           DATA             DESCRIPTION OF MNEMONIC
#---------         -----------     ------------------------------
GL  .M        819.4                : gl           - GROUND LEVEL ELEVATION
EREF.M        822.9                : kb           - ELEVATION OF DEPTH REFERENCE
DATM.M        822.9                : datum        - DATUM ELEVATION
TDD .M        566.4                : tdd          - TOTAL DEPTH DRILLER
RUN .         ONE                  : Run          - RUN NUMBER
ENG .         BILL                 : Engineer     - RECORDING ENGINEER
WIT .         JIM                  : Witness      - WITNESSED BY
MUD .         GEL                  : Mud_type     - MUD TYPE
MATR.         SANDSTONE            : Logunit      - NEUTRON MATRIX
TMAX.C        25                   : BHT          - MAXIMUM RECORDED TEMPERATURE
BHTD.M        566.4                : BHTDEP       - MAXIMUM RECORDED TEMPERATURE
RMT .C        14                   : MDTP         - TEMPERATURE OF MUD
MUDD.KG/M     1402                 : MWT          - MUD DENSITY
NEUT.         1                    : NEUTRON      - NEUTRON TYPE
RESI.         0                    : RESIST       - RESISTIVITY TYPE
RM  .OHMM     7.8                  : RM           - RESISTIVITY OF MUD
RMC .OHMM     7.8                  : RMC          - RESISTIVITY OF MUD CAKE
RMF .OHMM     7.8                  : RMF          - RESISTIVITY OF MUD FILTRATE
SUFT.C        4                    : SUFT         - SURFACE TEMPERATURE
~A  DEPTH     RESD       GR     PHIN     PHID
# ...
  487.000    7.080   45.204    0.464    0.315
  487.250    6.334   49.483    0.470    0.303
  487.500    5.259   47.684    0.433    0.305
  487.750    4.450   46.503    0.463    0.313
  488.000    4.056   47.740    0.416    0.309
  488.250    3.630   46.553    0.368    0.285
  488.500    3.248   45.367    0.376    0.231
  488.750    2.962   55.081    0.597    0.278
  489.000    2.965   68.438    0.586    0.281
  489.250    3.080   66.645    0.544    0.273
  489.500    3.517   55.762    0.506    0.265
  489.750    3.793   54.582    0.516    0.259
  490.000    3.658   54.600    0.521    0.256
  490.250    3.594   57.062    0.490    0.260
  490.500    3.805   58.287    0.477    0.262
  490.750    4.105   61.354    0.485    0.255
  491.000    4.428   61.985    0.483    0.246
  491.250    4.602   60.186    0.422    0.231
  491.500    4.782   53.545    0.376    0.233
  491.750    4.969   46.298    0.314    0.165
  492.000    5.164   42.681    0.162    0.119
  492.250    4.981   48.772    0.228    0.187
  492.500    4.803   56.069    0.377    0.242
  492.750    4.718   56.101    0.459    0.252
  493.000    4.812   55.513    0.466    0.241
  493.250    5.002   57.363    0.443    0.234
  493.500    5.100   59.812    0.424    0.240
  493.750    5.105   58.019    0.461    0.251
  494.000    5.016   55.614    0.448    0.257
  494.250    4.928   62.305    0.438    0.251
  494.500    4.843   58.694    0.461    0.246
  494.750    4.758   54.483    0.483    0.242
  495.000    4.762   58.744    0.509    0.239
  495.250    4.681   62.411    0.473    0.234
  495.500    4.685   55.164    0.463    0.231
  495.750    4.691   57.620    0.471    0.231
  496.000    4.695   58.857    0.439    0.240
  496.250    4.701   58.875    0.429    0.243
  496.500    4.707   58.900    0.472    0.248
  496.750    4.709   58.932    0.510    0.244
  497.000    4.803   59.569    0.526    0.242
  497.250    5.181   59.582    0.456    0.253
  497.500    5.697   60.819    0.432    0.255
  497.750    6.144   59.032    0.436    0.248
  498.000    6.882   56.021    0.388    0.239
  498.250    6.889   57.864    0.390    0.250
  498.500    6.164   57.283    0.394    0.257
  498.750    5.119   51.248    0.403    0.265
  499.000    4.411   44.607    0.466    0.281
  499.250    3.732   46.450    0.475    0.300
  499.500    3.158   51.323    0.452    0.271
  499.750    3.102   56.196    0.456    0.255
  500.000    3.609   62.893    0.591    0.256
  500.250    3.892   58.676    0.540    0.264
  500.500    4.357   55.672    0.535    0.269
  500.750    5.066   59.333    0.550    0.258
  501.000    5.673   53.904    0.527    0.250
  501.250    6.597   47.269    0.489    0.247
  501.500    6.857   47.294    0.451    0.256
  501.750    6.739   49.137    0.440    0.276
  502.000    6.496   50.374    0.427    0.293
  502.250    6.150   46.151    0.440    0.307
  502.500    6.039   43.152    0.462    0.309
  502.750    5.935   46.207    0.479    0.302
  503.000    6.053   48.663    0.492    0.294
  503.250    6.174   49.288    0.456    0.284
  503.500    6.182   49.313    0.446    0.288
  503.750    6.072   48.732    0.476    0.283
  504.000    5.747   50.575    0.502    0.281
  504.250    5.239   53.024    0.512    0.290
  504.500    5.051   50.618    0.460    0.281
  504.750    4.963   48.832    0.447    0.279
  505.000    5.158   50.063    0.508    0.284
  505.250    5.563   51.912    0.556    0.265
  505.500    6.005   50.725    0.576    0.249
  505.750    6.009   47.114    0.568    0.268
  506.000    5.795   48.351    0.516    0.294
  506.250    5.386   50.194    0.492    0.288
  506.500    5.290   49.613    0.500    0.280
  506.750    5.294   51.456    0.495    0.284
  507.000    5.502   53.299    0.504    0.278
  507.250    6.050   55.748    0.530    0.263
  507.500    6.284   55.174    0.495    0.252
  507.750    6.411   52.769    0.485    0.248
  508.000    6.297   49.764    0.484    0.257
  508.250    5.963   52.825    0.391    0.259
  508.500    5.747   54.062    0.384    0.237
  508.750    5.543   55.905    0.390    0.212
  509.000    5.246   59.572    0.401    0.209
  509.250    5.154   60.197    0.417    0.211
  509.500    5.067   57.804    0.427    0.204
  509.750    5.069   60.853    0.438    0.224
  510.000    5.077   65.726    0.446    0.235
  510.250    5.081   60.303    0.432    0.222
  510.500    5.085   57.292    0.460    0.216
  510.750    4.997   57.923    0.481    0.219
  511.000    4.819   57.948    0.469    0.225
  511.250    4.823   55.556    0.425    0.214
  511.500    4.829   54.362    0.405    0.203
  511.750    4.833   58.636    0.404    0.200
  512.000    4.929   62.903    0.395    0.199
  512.250    5.125   62.316    0.423    0.202
  512.500    5.324   65.977    0.437    0.209
  512.750    5.639   66.620    0.418    0.210
  513.000    5.970   64.821    0.451    0.207
  513.250    6.321   67.270    0.474    0.205
  513.500    6.571   67.295    0.463    0.205
  513.750    6.824   64.896    0.429    0.202
  514.000    7.228   64.921    0.414    0.197
  514.250    7.370   63.734    0.392    0.184
  514.500    7.660   64.372    0.374    0.172
  514.750    7.813   66.821    0.375    0.171
  515.000    7.969   66.846    0.377    0.174
  515.250    8.130   66.258    0.386    0.179
  515.500    8.136   62.648    0.344    0.188
  515.750    8.298   59.037    0.338    0.190
  516.000    8.002   59.068    0.345    0.192
  516.250    7.862   60.911    0.350    0.197
  516.500    8.019   62.760    0.344    0.197
  516.750    9.500   63.991    0.345    0.191
  517.000   10.439   64.622    0.333    0.195
  517.250   11.262   67.071    0.344    0.206
  517.500   11.067   64.666    0.359    0.206
  517.750    9.903   60.449    0.257    0.190
  518.000    8.695   56.232    0.172    0.164
  518.250    7.929   51.416    0.132    0.137
  518.500    7.795   43.556    0.104    0.104
  518.750    7.948   52.678    0.150    0.114
  519.000    8.106   59.369    0.231    0.165
  519.250    8.268   60.606    0.254    0.203
  519.500    8.435   52.147    0.288    0.208
  519.750    8.439   57.632    0.336    0.182
  520.000    8.292   60.075    0.359    0.181
  520.250    8.146   60.106    0.349    0.182
  520.500    7.856   60.125    0.340    0.188
  520.750    7.164   63.786    0.354    0.184
  521.000    6.778   64.417    0.349    0.182
  521.250    6.298   61.412    0.361    0.185
  521.500    5.962   59.019    0.381    0.195
  521.750    5.746   57.833    0.397    0.207
  522.000    5.544   59.669    0.411    0.212
  522.250    5.547   63.943    0.415    0.206
  522.500    5.553   67.610    0.408    0.206
  522.750    5.561   68.241    0.443    0.216
  523.000    5.671   68.266    0.481    0.219
  523.250    6.007   68.285    0.456    0.202
  523.500    6.359   65.280    0.429    0.185
  523.750    6.731   61.069    0.434    0.197
  524.000    7.542   63.512    0.455    0.207
  524.250    7.835   69.597    0.440    0.212
  524.500    7.989   67.198    0.466    0.214
  524.750    8.000   66.011    0.434    0.209
  525.000    8.006   66.648    0.400    0.204
  525.250    7.866   65.455    0.364    0.215
  525.500    7.585   58.215    0.352    0.224
  525.750    7.316   60.051    0.352    0.215
  526.000    7.186   61.894    0.344    0.209
  526.250    7.064   54.054    0.346    0.203
  526.500    7.071   54.067    0.352    0.200
  526.750    6.947   54.698    0.347    0.198
  527.000    6.955   58.359    0.345    0.189
  527.250    6.833   59.614    0.334    0.196
  527.500    6.840   58.421    0.338    0.188
  527.750    6.720   57.241    0.353    0.178
  528.000    6.729   56.647    0.367    0.170
  528.250    6.734   62.126    0.375    0.218
  528.500    6.615   68.817    0.393    0.218
  528.750    6.499   65.812    0.392    0.212
  529.000    6.152   62.201    0.351    0.207
  529.250    5.931   61.627    0.346    0.206
  529.500    5.511   64.682    0.340    0.197
  529.750    5.120   65.313    0.340    0.170
  530.000    5.028   62.308    0.406    0.199
  530.250    4.942   62.933    0.428    0.216
