~VERSION INFORMATION
 VERS.                 2.0:   CWLS LOG ASCII STANDARD -VERSION 2.0
 WRAP.                  NO:   ONE LINE PER DEPTH STEP
~WELL INFORMATION BLOCK
#MNEM.UNIT           DATA                    DESCRIPTION OF MNEMONIC
#---------    -------------------            -------------------------------
# Generated from Intellog Unique Number	CW_70_72/WELL/2905
NULL.         -999.25                        : NULL_VALUE
WELL.         CHEVRON CALLING WEST           : Well_name    - WELL              
LOC .         10-20-070-21W4                 : Location     - LOCATION          
UWI .         00/10-20-070-21W4/0            : Uwi          - UNIQUE WELL ID    
ENTR.         MAX                            : Entered      - ENTERED BY        
SRVC.         SCHLUMBERGER                   : Scn          - SERVICE COMPANY   
DATE.         14 JAN 75                      : Date         - LOG DATE
STRT.M        420.624                        : top_depth    - START DEPTH       
STOP.M        591.374                        : bot_depth    - STOP DEPTH        
STEP.M        0.25                           : increment    - STEP LENGTH       
~CURVE INFORMATION BLOCK
#MNEM UNIT       ERCB CURVE CODE    CURVE DESCRIPTION
#-----------   ------------------   ----------------------------------
DEPT.M        00 001 00 00         : DEPTH        - DEPTH                       
ILD .OHMM     00 120 00 00         : RESD         - DEEP RESISTIVITY (DIL)      
NPHI.V/V      00 330 00 00         : PHIN         - NEUTRON POROSITY (SANDSTONE)
DPHI.V/V      00 890 00 00         : PHID         - DENSITY POROSITY (SANDSTONE)
CALI.MM       00 280 01 00         : CAL          - CALIPER                     
GR  .API      00 310 00 00         : GR           - GAMMA RAY                   
~PARAMETER INFORMATION       
#MNEM.UNIT           DATA             DESCRIPTION OF MNEMONIC
#---------         -----------     ------------------------------
GL  .M        666.719              : gl           - GROUND LEVEL ELEVATION      
EREF.M        669.036              : kb           - ELEVATION OF DEPTH REFERENCE
DATM.M        666.719              : datum        - DATUM ELEVATION             
TDD .M        588.264              : tdd          - TOTAL DEPTH DRILLER         
RUN .         ONE                  : Run          - RUN NUMBER                  
ENG .         BILL                 : Engineer     - RECORDING ENGINEER          
WIT .         JIM                  : Witness      - WITNESSED BY                
MUD .         GEL                  : Mud_type     - MUD TYPE                    
MATR.         SANDSTONE            : Logunit      - NEUTRON MATRIX              
TMAX.C        21.1111              : BHT          - MAXIMUM RECORDED TEMPERATURE
BHTD.M        588.264              : BHTDEP       - MAXIMUM RECORDED TEMPERATURE
RMT .C        15.5556              : MDTP         - TEMPERATURE OF MUD          
MUDD.KG/M     9000                 : MWT          - MUD DENSITY                 
NEUT.         1                    : NEUTRON      - NEUTRON TYPE                
RESI.         0                    : RESIST       - RESISTIVITY TYPE            
RM  .OHMM     3.5                  : RM           - RESISTIVITY OF MUD          
RMC .OHMM     4.29                 : RMC          - RESISTIVITY OF MUD CAKE     
RMF .OHMM     4.87                 : RMF          - RESISTIVITY OF MUD FILTRATE 
SUFT.C        -20.5556             : SUFT         - SURFACE TEMPERATURE         
~A  DEPTH     RESD     PHIN     PHID      CAL       GR
# ...
  566.624    5.843    0.391    0.105  220.367  149.769
  566.874    5.959    0.409    0.099  219.912  151.849
  567.124    6.178    0.397    0.108  219.940  128.946
  567.374    6.583    0.377    0.111  219.987  103.108
  567.624    6.768    0.366    0.099  220.021   96.372
  567.874    7.022    0.374    0.109  220.058   96.691
  568.124    7.350    0.360    0.118  220.096   97.004
  568.374    7.625    0.348    0.098  220.134   92.034
  568.624    7.563    0.333    0.052  220.177   94.113
  568.874    7.046    0.359    0.030  220.214  100.894
  569.124    6.221    0.379    0.056  220.252  103.564
  569.374    5.900    0.381    0.124  220.295  104.765
  569.624    5.800    0.373    0.148  220.337  106.548
  569.874    5.800    0.390    0.147  220.873  110.099
  570.124    5.811    0.413    0.145  220.906  113.651
  570.374    6.137    0.419    0.134  220.953  110.144
  570.624    6.482    0.404    0.136  220.991   98.999
  570.874    7.034    0.374    0.121  221.029   88.736
  571.124    7.428    0.362    0.104  221.072   80.236
  571.374    7.433    0.326    0.055  221.109   77.614
  571.624    6.742    0.311    0.043  221.147   86.161
  571.874    6.169    0.318    0.031  221.185   92.951
  572.124    5.800    0.361    0.057  221.228   93.267
  572.374    5.599    0.364    0.125  221.266   92.996
  572.624    5.033    0.368    0.116  220.810   93.012
  572.874    4.287    0.372    0.118  220.848   95.391
  573.124    3.818    0.381    0.134  220.886  100.700
  573.374    3.557    0.404    0.143  220.924  108.072
  573.624    3.435    0.461    0.151  220.967  112.797
  573.874    3.438    0.488    0.152  221.000  102.533
  574.124    3.599    0.496    0.158  221.038   98.736
  574.374    3.835    0.468    0.164  221.080   94.940
  574.624    4.313    0.446    0.149  221.118   91.436
  574.874    5.257    0.422    0.123  221.161   85.581
  575.124    5.756    0.417    0.076  221.194   81.489
  575.374    5.814    0.400    0.022  221.194   83.863
  575.624    5.563    0.384    0.006  221.288   92.116
  575.874    5.276    0.401    0.024  221.317   99.191
  576.124    5.096    0.423    0.052  221.359  100.689
  576.374    5.053    0.427    0.127  221.392  102.180
  576.624    5.103    0.432    0.140  221.435  103.963
  576.874    5.156    0.448    0.148  221.473  103.694
  577.124    5.492    0.435    0.121  221.511   96.664
  577.374    6.696    0.430    0.106  221.553   90.515
  577.624    8.537    0.421    0.068  221.586   79.958
  577.874   10.223    0.353    0.006  221.624   76.751
  578.124   11.395    0.271   -0.013  222.169   78.242
  578.374   11.201    0.291   -0.008  222.202   84.436
  578.624    9.539    0.322    0.015  222.240   86.809
  578.874    6.266    0.356    0.046  222.278   91.242
  579.124    5.733    0.394    0.068  221.827   96.554
  579.374    5.438    0.408    0.089  221.368  102.748
  579.624    5.394    0.423    0.100  220.913  105.418
  579.874    5.496    0.417    0.107  220.443   93.098
  580.124    5.702    0.391    0.104  220.491   89.009
  580.374    5.862    0.362    0.105  220.533   88.150
  580.624    5.711    0.371    0.098  220.069   95.228
  580.874    5.417    0.420    0.085  219.609   99.361
  581.124    5.047    0.450    0.087  219.159  104.967
  581.374    4.874    0.453    0.098  218.689  106.467
  581.624    4.791    0.430    0.091  218.689  104.427
  581.874    4.753    0.430    0.091  218.770  102.392
  582.124    4.715    0.451    0.097  218.812  101.536
  582.374    4.677    0.438    0.103  218.855  102.442
  582.624    4.677    0.451    0.074  218.893  102.465
  582.874    4.684    0.441    0.051  218.935   99.546
  583.124    4.689    0.377    0.050  218.964   96.044
  583.374    4.735    0.301    0.056  219.006   98.420
  583.624    4.735    0.368    0.059  219.044   98.443
  583.874    4.787    0.388    0.063  219.087   99.347
  584.124    4.964    0.413    0.079  218.627   99.075
  584.374    5.197    0.405    0.116  218.670   99.985
  584.624    5.295    0.397    0.116  218.703  102.646
  584.874    5.300    0.397    0.112  218.745  105.904
  585.124    5.164    0.400    0.091  219.276  105.339
  585.374    4.986    0.404    0.102  219.816   98.602
  585.624    4.986    0.369    0.111  220.352   94.510
  585.874    4.864    0.350    0.095  220.389   99.825
  586.124    4.695    0.352    0.089  220.427  104.843
  586.374    4.616    0.390    0.075  220.470  107.216
  586.624    4.620    0.458    0.086  220.512  103.424
  586.874    4.543    0.458    0.099  220.560  103.152
  587.124    4.465    0.450    0.102  220.593  103.471
  587.374    4.273    0.458    0.105  221.124  105.548
  587.624    4.164    0.452    0.111  221.161  107.630
  587.874    4.129    0.420    0.109  221.697  108.534
  588.124    4.134    0.407    0.097  222.237  108.554
  588.374    4.137    0.390    0.093  223.768  106.228
  588.624    4.253    0.359    0.078  229.284  100.079
  588.874    4.574    0.275    0.031  232.308   51.608
  589.124    5.190    0.282    0.011  233.350   45.167
  589.374    5.482    0.245    0.009  230.895   42.551
  589.624    5.438    0.131    0.003  224.469   42.864
  589.874    5.298    0.141   -0.002  221.516   44.353
  590.124    5.115    0.160   -0.002  220.559   46.435
  590.374    4.984    0.173   -0.005  220.099   47.636
  590.624    4.989    0.188   -0.006  220.151   47.952
  590.874    5.038    0.211   -0.008  220.189   47.974
  591.124    5.179    0.217   -0.009  220.217   47.123
  591.374    5.773    0.212   -0.014  220.260   46.846
