~VERSION INFORMATION
 VERS.                 2.0:   CWLS LOG ASCII STANDARD -VERSION 2.0
 WRAP.                  NO:   ONE LINE PER DEPTH STEP
~WELL INFORMATION BLOCK
#MNEM.UNIT           DATA                    DESCRIPTION OF MNEMONIC
#---------    -------------------            -------------------------------
# Generated from Intellog Unique Number	CW_76_78/WELL/2820
WELL.         11-34-077-26W4                 : Well_name    - WELL
LOC .         00/11-34-077-26W4/0            : Location     - LOCATION
UWI .         00/11-34-077-26W4/0            : Uwi          - UNIQUE WELL ID
ENTR.         JJ                             : Entered      - ENTERED BY
SRVC.         SCHLUMBERGER                   : Scn          - SERVICE COMPANY
DATE.         18 FEB 68                      : Date         - LOG DATE
STRT.M        420.624                        : top_depth    - START DEPTH
STOP.M        548.624                        : bot_depth    - STOP DEPTH
STEP.M        0.25                           : increment    - STEP LENGTH
 NULL. -999.2500:NULL Value
~CURVE INFORMATION BLOCK
#MNEM UNIT       ERCB CURVE CODE    CURVE DESCRIPTION
#-----------   ------------------   ----------------------------------
DEPT.M        00 001 00 00         : DEPTH        - DEPTH
DELT.US/F     00 520 00 00         : DELT         - SONIC TRAVEL TIME
GR  .API      00 310 00 00         : GR           - GAMMA RAY
CALI.MM       00 280 01 00         : CAL          - CALIPER
ILD .OHMM     00 120 00 00         : RESD         - DEEP RESISTIVITY (DIL)
~PARAMETER INFORMATION
#MNEM.UNIT           DATA             DESCRIPTION OF MNEMONIC
#---------         -----------     ------------------------------
GL  .M        631.85               : gl           - GROUND LEVEL ELEVATION
EREF.M        636.118              : kb           - ELEVATION OF DEPTH REFERENCE
DATM.M        636.118              : datum        - DATUM ELEVATION
TDD .M        562.966              : tdd          - TOTAL DEPTH DRILLER
RUN .         ONE                  : Run          - RUN NUMBER
ENG .         MILLER               : Engineer     - RECORDING ENGINEER
WIT .         DONALD               : Witness      - WITNESSED BY
BASE.         S.L.                 : Branch       - HOME BASE OF LOGGING UNIT
MUD .         GEL-CAUS             : Mud_type     - MUD TYPE
MATR.         SANDSTONE            : Logunit      - NEUTRON MATRIX
TMAX.C        23.3333              : BHT          - MAXIMUM RECORDED TEMPERATURE
BHTD.M        561.746              : BHTDEP       - MAXIMUM RECORDED TEMPERATURE
RMT .C        5.55556              : MDTP         - TEMPERATURE OF MUD
MUDD.KG/M     1224                 : MWT          - MUD DENSITY
NEUT.         1                    : NEUTRON      - NEUTRON TYPE
RESI.         0                    : RESIST       - RESISTIVITY TYPE
RM  .OHMM     5.01                 : RM           - RESISTIVITY OF MUD
RMC .OHMM     4.32                 : RMC          - RESISTIVITY OF MUD CAKE
RMF .OHMM     4.44                 : RMF          - RESISTIVITY OF MUD FILTRATE
SUFT.C        5                    : SUFT         - SURFACE TEMPERATURE
~A  DEPTH     DELT       GR      CAL     RESD
# ...
  507.624  319.352  110.164  228.525    4.803
  507.874  320.143  116.144  224.850    4.734
  508.124  323.606  106.134  213.695    4.706
  508.374  331.004   90.774  216.338    4.980
  508.624  341.607   76.594  214.349    5.303
  508.874  327.983   81.889  212.146    5.887
  509.124  292.535   91.663  211.315    6.169
  509.374  296.530   92.106  212.594    5.627
  509.624  327.687   99.018  214.075    5.656
  509.874  345.165   87.392  217.564    5.881
  510.124  354.298   81.860  221.367    5.681
  510.374  356.491   82.052  224.646    4.992
  510.624  335.794   91.205  226.132    4.900
  510.874  308.954   96.127  226.249    5.019
  511.124  311.348   97.689  225.839    5.210
  511.374  339.770   92.159  223.952    5.721
  511.624  352.909   80.406  213.428    6.794
  511.874  352.899   57.641  207.750    7.998
  512.124  347.819   43.338  207.443   11.209
  512.374  351.614   33.016  208.192   16.450
  512.624  376.698   28.606  212.420   19.359
  512.874  391.906   31.287  213.061   -1.144
  513.124  390.628   27.001  207.804    6.247
  513.374  375.602   31.488  207.499   14.211
  513.624  366.651   38.462  207.406   20.701
  513.874  353.093   39.215  207.522   22.451
  514.124  371.971   31.819  207.433   20.441
  514.374  391.383   28.963  207.544   26.605
  514.624  401.786   30.711  208.296   30.808
  514.874  245.471   34.513  208.307   25.611
  515.124  225.774   34.209  207.895   22.950
  515.374  200.403   27.807  207.589   23.309
  515.624  188.781   29.120  208.023   24.160
  515.874  199.050   27.758  208.665   24.682
  516.124  366.624   25.027  208.886   24.472
  516.374  401.586   26.713  209.426   17.055
  516.624  401.443   33.377  209.224   11.543
  516.874  397.765   33.384  209.449    6.974
  517.124  393.016   32.705  209.248    5.490
  517.374  386.534   31.156  209.257    4.201
  517.624  384.856   28.924  209.693    3.571
  517.874  384.245   28.308  210.017    3.250
  518.124  378.897   28.999  209.504    3.026
  518.374  366.541   31.184  209.306    3.039
  518.624  352.183   32.932  209.209    3.263
  518.874  346.233   30.388  209.115    3.862
  519.124  344.489   27.594  209.232    4.664
  519.374  342.476   31.022  209.982    5.466
  519.624  339.263   33.456  209.982    6.373
  519.874  337.988   35.143  210.006    7.785
  520.124  338.312   35.896  209.277    8.929
  520.374  336.768   37.084  208.234    9.984
  520.624  335.558   39.704  207.508   10.624
  520.874  336.016   36.848  207.411   10.830
  521.124  339.410   42.143  206.897   10.770
  521.374  343.872   43.269  206.486   10.344
  521.624  342.527   46.760  207.130    9.306
  521.874  339.783   51.620  207.244    8.904
  522.124  340.974   52.311  207.363    9.039
  522.374  342.100   53.562  207.585    9.523
  522.624  339.154   56.741  208.228   10.049
  522.874  338.477   56.934  209.397   10.517
  523.124  350.549   46.675  210.569   11.100
  523.374  350.738   48.673  211.210   11.470
  523.624  346.658   48.990  208.588   11.955
  523.874  336.972   48.624  207.125   12.521
  524.124  325.283   48.567  207.029   12.607
  524.374  324.607   49.384  207.148   12.424
  524.624  339.213   50.509  207.894   11.802
  524.874  348.415   57.360  209.274   11.334
  525.124  346.202   52.576  210.655   10.940
  525.374  343.323   53.827  213.722   10.521
  525.624  341.379   56.447  214.682   10.615
  525.874  343.706   60.497  210.690   11.190
  526.124  343.630   65.357  208.067   11.626
  526.374  341.685   69.220  208.393   11.418
  526.624  343.812   63.316  211.038    9.600
  526.874  345.204   56.230  213.895    7.864
  527.124  322.904   61.898  217.486    6.835
  527.374  284.853   67.442  221.186    6.034
  527.624  276.768   78.772  222.460    5.387
  527.874  276.424   91.658  222.685    4.944
  528.124  284.357  102.863  223.116    4.567
  528.374  293.692  112.015  223.548    4.425
  528.624  319.979  115.444  223.983    4.308
  528.874  318.768  107.673  223.569    4.304
  529.124  322.095   99.280  222.107    4.357
  529.374  317.615   97.545  219.273    4.264
  529.624  304.992   98.609  216.652    4.170
  529.874  323.336   96.687  219.191    4.679
  530.124  333.738   99.432  222.151    5.506
  530.374  334.129   97.571  225.639    6.047
  530.624  329.248   77.544  224.384    6.589
  530.874  328.972   62.868  215.231    5.112
  531.124  339.640   50.244  217.034    3.954
  531.374  337.430   58.463  218.834    3.332
  531.624  311.192   77.819  220.321    2.799
  531.874  265.932   96.553  219.911    2.217
  532.124  289.082  107.136  219.289    2.083
  532.374  370.095   98.184  218.562    2.326
  532.624  383.367   93.525  219.733    2.540
  532.874  390.966  101.121  221.534    2.992
  533.124  398.566   97.830  222.812    3.452
  533.374  362.916   80.479  222.716    4.108
  533.624  361.639   79.365  218.936    5.398
  533.874  366.570   76.198  211.044    6.127
  534.124  360.687   67.184  206.104    6.505
  534.374  354.538   61.902  206.747    6.607
  534.624  376.553   68.067  211.396    5.775
  534.874  391.359   74.545  213.723    5.201
  535.124  397.423   78.036  217.317    4.497
  535.374  390.406   81.401  219.434    3.892
  535.624  383.724   79.666  221.237    3.465
  535.874  382.247   81.415  222.089    3.055
  536.124  380.102   83.226  222.206    2.709
  536.374  386.099   86.094  219.586    2.462
  536.624  396.701   80.874  216.433    2.264
  536.874  415.780   84.739  213.073    2.170
  537.124  422.110   93.642  214.141    2.077
  537.374  408.018  101.239  216.045    2.114
  537.624  382.715  103.485  220.904    2.183
  537.874  386.043  100.817  222.072    2.367
  538.124  397.180  102.192  221.030    2.632
  538.374  404.577  105.807  214.825    2.807
  538.624  413.846   99.904  219.578    2.901
  538.874  399.354   90.453  207.156    2.930
  539.124  383.127   82.869  210.117    2.821
  539.374  374.776  101.913  220.980    2.541
  539.624  361.419  119.092  221.413    2.374
  539.874  351.598  122.396  220.688    2.339
  540.124  366.873  116.554  220.277    2.400
  540.374  385.016  109.966  220.077    2.509
  540.624  393.816  101.386  218.930    2.800
  540.874  390.871   96.975  214.936    3.039
  541.124  359.226   91.072  215.265    3.345
  541.374  353.744   94.251  218.014    3.577
  541.624  353.536  100.604  221.397    3.794
  541.874  356.996  103.783  222.250    3.945
  542.124  354.318  102.297  222.263    4.120
  542.374  347.101  101.370  222.377    4.280
  542.624  360.973   93.102  222.283    4.364
  542.874  358.828   80.915  218.501    4.516
  543.124  355.549   82.787  218.935    4.488
  543.374  355.273   87.585  221.686    4.208
  543.624  361.938   92.506  223.488    4.107
  543.874  331.694   99.543  223.603    4.209
  544.124  317.137  102.038  223.193    4.709
  544.374  318.329   93.646  217.515    6.626
  544.624  331.132   77.290  208.887    8.583
  544.874  334.528   57.760  205.950   13.218
  545.124  325.376   35.430  205.116   22.223
  545.374  301.941   19.634  203.867   28.293
  545.624  231.254   18.895  203.666   29.542
  545.874  241.322   19.896  203.466   29.400
  546.124  246.052   20.277  203.687   28.851
  546.374  257.722   16.799  204.013   27.814
  546.624  321.850   16.307  204.445   27.019
  546.874  289.005   18.181  205.301   26.550
  547.124  270.508   19.743  205.944   26.332
  547.374  277.173   20.932  207.537   26.354
  547.624  283.237   21.436  209.021   27.274
  547.874  291.503   21.255  209.348   29.583
  548.124  299.636   20.018  208.726   31.240
  548.374  298.959   20.522  205.788   29.631
  548.624  297.149   22.830  204.534   28.099
