~VERSION INFORMATION
 VERS.                 2.0:   CWLS LOG ASCII STANDARD -VERSION 2.0
 WRAP.                  NO:   ONE LINE PER DEPTH STEP
~WELL INFORMATION BLOCK
#MNEM.UNIT           DATA                    DESCRIPTION OF MNEMONIC
#---------    -------------------            -------------------------------
# Generated from Intellog Unique Number	CW_70_72/WELL/1059
NULL.         -999.25                        : NULL_VALUE
WELL.         G&W ET AL DECRENE 11-20        : Well_name    - WELL              
LOC .         11-20-071-02W5                 : Location     - LOCATION          
UWI .         00/11-20-071-02W5/0             : Uwi          - UNIQUE WELL ID    
ENTR.         JAYE                           : Entered      - ENTERED BY        
SRVC.         SCHLUMBERGER                   : Scn          - SERVICE COMPANY   
DATE.         8 FEB 89                       : Date         - LOG DATE          
STRT.M        410                            : top_depth    - START DEPTH       
STOP.M        640                            : bot_depth    - STOP DEPTH        
STEP.M        0.25                           : increment    - STEP LENGTH       
~CURVE INFORMATION BLOCK
#MNEM UNIT       ERCB CURVE CODE    CURVE DESCRIPTION
#-----------   ------------------   ----------------------------------
DEPT.M        00 001 00 00         : DEPTH        - DEPTH                       
DPHI.V/V      00 890 00 00         : PHID         - DENSITY POROSITY (SANDSTONE)
NPHI.V/V      00 330 00 00         : PHIN         - NEUTRON POROSITY (SANDSTONE)
GR  .API      00 310 00 00         : GR           - GAMMA RAY                   
CALI.MM       00 280 01 00         : CAL          - CALIPER                     
ILD .OHMM     00 120 00 00         : RESD         - DEEP RESISTIVITY (DIL)      
~PARAMETER INFORMATION       
#MNEM.UNIT           DATA             DESCRIPTION OF MNEMONIC
#---------         -----------     ------------------------------
GL  .M        595.7                : gl           - GROUND LEVEL ELEVATION      
EREF.M        598.7                : kb           - ELEVATION OF DEPTH REFERENCE
DATM.M        595.7                : datum        - DATUM ELEVATION             
TDD .M        648                  : tdd          - TOTAL DEPTH DRILLER         
RUN .         ONE                  : Run          - RUN NUMBER                  
ENG .         KNAPIK               : Engineer     - RECORDING ENGINEER          
WIT .         ANDREWS              : Witness      - WITNESSED BY                
BASE.         EDM                  : Branch       - HOME BASE OF LOGGING UNIT   
MUD .         GEL CHEM             : Mud_type     - MUD TYPE                    
MATR.         SANDSTONE            : Logunit      - NEUTRON MATRIX              
TMAX.C        36                   : BHT          - MAXIMUM RECORDED TEMPERATURE
BHTD.M        648                  : BHTDEP       - MAXIMUM RECORDED TEMPERATURE
RMT .C        12                   : MDTP         - TEMPERATURE OF MUD          
MUDD.KG/M     1130                 : MWT          - MUD DENSITY                 
NEUT.         1                    : NEUTRON      - NEUTRON TYPE                
RESI.         0                    : RESIST       - RESISTIVITY TYPE            
RM  .OHMM     4.89                 : RM           - RESISTIVITY OF MUD          
RMC .OHMM     2.42                 : RMC          - RESISTIVITY OF MUD CAKE     
RMF .OHMM     5.37                 : RMF          - RESISTIVITY OF MUD FILTRATE 
SUFT.C        0                    : SUFT         - SURFACE TEMPERATURE         
~A  DEPTH     PHID     PHIN       GR      CAL     RESD
# ...
  556.000    0.294    0.369   62.341  157.373    4.772
  556.250    0.277    0.393   64.948  157.583    5.223
  556.500    0.220    0.252   60.656  158.498    7.061
  556.750    0.162    0.204   57.875  159.211    8.464
  557.000    0.119    0.190   54.612  159.826    9.507
  557.250    0.056    0.182   51.892  160.236   10.238
  557.500    0.037    0.179   48.870  160.751   10.214
  557.750    0.032    0.182   47.422  161.263    9.374
  558.000    0.042    0.190   52.027  161.470    7.800
  558.250    0.053    0.195   55.483  161.580    6.478
  558.500    0.069    0.202   56.698  161.789    5.660
  558.750    0.096    0.210   59.003  162.000    5.091
  559.000    0.125    0.262   61.792  162.007    4.631
  559.250    0.175    0.353   64.582  161.711    4.320
  559.500    0.239    0.362   66.220  161.215    4.133
  559.750    0.245    0.358   65.680  160.516    4.036
  560.000    0.239    0.360   65.745  159.616    4.064
  560.250    0.239    0.372   64.116  158.819    4.101
  560.500    0.256    0.388   60.852  158.321    4.106
  560.750    0.272    0.390   59.282  157.723    4.088
  561.000    0.277    0.401   65.644  157.429    4.051
  561.250    0.279    0.413   68.251  157.034    3.998
  561.500    0.279    0.398   64.502  156.233    3.968
  561.750    0.277    0.380   60.512  155.434    3.980
  562.000    0.275    0.369   63.665  154.939    4.022
  562.250    0.272    0.369   65.304  155.449    4.065
  562.500    0.266    0.369   63.856  156.467    4.085
  562.750    0.261    0.366   63.073  157.080    4.152
  563.000    0.250    0.366   62.594  157.390    4.218
  563.250    0.246    0.364   58.543  157.702    4.302
  563.500    0.255    0.360   60.908  157.910    4.395
  563.750    0.260    0.358   65.998  158.423    4.573
  564.000    0.262    0.356   68.302  158.733    4.672
  564.250    0.260    0.355   68.126  159.044    4.730
  564.500    0.254    0.356   65.891  159.255    4.797
  564.750    0.240    0.361   66.077  159.362    4.865
  565.000    0.233    0.371   67.293  159.674    4.917
  565.250    0.238    0.369   67.479  159.680    4.961
  565.500    0.249    0.357   65.486  159.688    4.942
  565.750    0.255    0.347   63.372  159.395    4.949
  566.000    0.251    0.350   62.954  159.300    4.955
  566.250    0.245    0.356   63.926  159.007    4.970
  566.500    0.240    0.359   67.442  158.813    4.969
  566.750    0.237    0.365   69.626  158.617    4.968
  567.000    0.235    0.374   69.267  158.423    4.938
  567.250    0.232    0.371   68.727  158.130    4.944
  567.500    0.225    0.357   67.703  158.136    4.943
  567.750    0.218    0.347   66.679  158.447    4.932
  568.000    0.214    0.347   67.046  158.657    4.903
  568.250    0.212    0.371   69.109  158.564    4.910
  568.500    0.212    0.376   71.717  158.573    4.918
  568.750    0.209    0.364   69.179  158.681    4.898
  569.000    0.214    0.355   65.552  158.790    4.843
  569.250    0.219    0.364   69.249  158.595    4.788
  569.500    0.227    0.381   72.462  158.704    4.651
  569.750    0.235    0.403   74.343  158.913    4.555
  570.000    0.245    0.410   74.954  159.426    4.425
  570.250    0.242    0.380   74.897  159.434    4.397
  570.500    0.236    0.362   73.813  159.341    4.468
  570.750    0.227    0.351   72.728  159.147    4.657
  571.000    0.229    0.364   72.127  158.752    5.089
  571.250    0.238    0.383   74.856  158.558    5.592
  571.500    0.216    0.367   75.587  158.364    6.211
  571.750    0.200    0.348   70.386  157.766    7.353
  572.000    0.176    0.320   65.850  156.967    8.378
  572.250    0.106    0.295   61.194  156.671    9.322
  572.500    0.080    0.273   64.528  156.982   10.487
  572.750    0.064    0.264   62.717  157.395   10.754
  573.000    0.054    0.243   59.331  157.403    9.816
  573.250    0.065    0.270   63.998  157.310    8.734
  573.500    0.111    0.291   68.784  157.215    7.469
  573.750    0.145    0.329   72.905  156.922    6.866
  574.000    0.144    0.311   75.331  156.929    6.546
  574.250    0.120    0.312   77.394  156.938    6.344
  574.500    0.128    0.332   78.609  157.047    6.273
  574.750    0.142    0.319   72.924  157.257    6.363
  575.000    0.107    0.298   70.810  157.465    6.537
  575.250    0.118    0.299   73.054  157.774    6.801
  575.500    0.144    0.270   73.302  157.984    7.166
  575.750    0.122    0.265   76.272  157.791    7.676
  576.000    0.100    0.294   83.723  158.504    7.575
  576.250    0.106    0.324   88.691  160.832    6.939
  576.500    0.134    0.348   95.596  161.849    6.787
  576.750    0.137    0.362  102.320  161.756    6.934
  577.000    0.106    0.226   88.947  161.663    7.428
  577.250    0.032    0.194   76.663  161.470    8.371
  577.500    0.009    0.210   58.145  161.580    8.789
  577.750    0.085    0.318   68.380  161.587    8.304
  578.000    0.111    0.344   78.796  161.595    7.009
  578.250    0.126    0.350   84.310  161.603    6.137
  578.500    0.132    0.357   90.246  161.508    5.969
  578.750    0.128    0.362   97.999  161.517    5.871
  579.000    0.122    0.348   95.401  161.525    6.031
  579.250    0.119    0.339   91.290  161.635    6.263
  579.500    0.117    0.347   88.510  161.946    6.505
  579.750    0.117    0.343   87.546  162.052    6.634
  580.000    0.116    0.328   85.977  161.961    6.595
  580.250    0.115    0.336   84.771  161.766    6.498
  580.500    0.117    0.346   86.713  161.672    6.459
  580.750    0.119    0.330   90.410  161.580    6.444
  581.000    0.125    0.327   94.591  161.183    6.465
  581.250    0.127    0.336   89.632  160.182    6.570
  581.500    0.120    0.335   82.918  159.183    6.713
  581.750    0.110    0.322   82.923  158.887    6.795
  582.000    0.119    0.330   84.623  158.693    6.893
  582.250    0.126    0.342   88.138  158.903    7.054
  582.500    0.122    0.351   91.472  159.516    7.206
  582.750    0.111    0.349   89.419  159.726    7.377
  583.000    0.099    0.343   85.246  159.732    7.745
  583.250    0.105    0.333   82.346  159.540    8.265
  583.500    0.088    0.318   77.931  159.245    9.065
  583.750    0.062    0.282   62.864  158.749    9.362
  584.000    0.024    0.245   65.047  158.050    9.358
  584.250    0.033    0.260   77.703  157.857    8.589
  584.500    0.067    0.283   89.512  158.066    7.714
  584.750    0.096    0.301   95.752  158.175    7.144
  585.000    0.109    0.312   96.059  158.485    7.037
  585.250    0.112    0.320   94.127  158.896    7.402
  585.500    0.120    0.314   92.982  159.006    7.914
  585.750    0.119    0.309   91.473  158.911    8.432
  586.000    0.094    0.299   88.390  158.718    8.757
  586.250    0.060    0.286   85.186  158.119    8.785
  586.500    0.029    0.288   86.765  157.623    8.498
  586.750    0.029    0.293   93.670  157.430    7.829
  587.000    0.085    0.297  103.179  158.143    7.082
  587.250    0.102    0.305  110.387  160.169    6.369
  587.500    0.112    0.318  115.597  162.194    5.357
  587.750    0.132    0.337  116.752  164.221    4.465
  588.000    0.166    0.430  110.764  165.237    3.265
  588.250    0.205    0.469  103.505  166.051    2.507
  588.500    0.235    0.503  104.841  167.270    1.993
  588.750    0.249    0.525  107.268  170.506    1.890
  589.000    0.246    0.513  104.307  173.742    1.967
  589.250    0.238    0.496  100.074  170.220    2.069
  589.500    0.229    0.479  101.228  163.469    2.204
  589.750    0.216    0.455  104.381  159.743    2.330
  590.000    0.196    0.435  108.018  156.624    2.425
  590.250    0.179    0.440  108.628  156.330    2.532
  590.500    0.162    0.453  104.819  156.942    2.702
  590.750    0.153    0.471  104.884  157.958    2.937
  591.000    0.168    0.462  102.286  159.077    3.514
  591.250    0.162    0.431   93.755  159.891    4.564
  591.500    0.103    0.329   87.041  160.807    5.613
  591.750    0.007    0.337   89.467  161.319    6.548
  592.000    0.010    0.331   92.195  161.731    6.557
  592.250    0.070    0.315   93.411  162.748    6.299
