~VERSION INFORMATION
 VERS.                 2.0:   CWLS LOG ASCII STANDARD -VERSION 2.0
 WRAP.                  NO:   ONE LINE PER DEPTH STEP
~WELL INFORMATION BLOCK
#MNEM.UNIT           DATA                    DESCRIPTION OF MNEMONIC
#---------    -------------------            -------------------------------
# Generated from Intellog Unique Number	CS_67_68/WELL/2200
WELL.         10-33-067-05W4                 : Well_name    - WELL
LOC .         00/10-33-067-05W4/0            : Location     - LOCATION
UWI .         00/10-33-067-05W4/0            : Uwi          - UNIQUE WELL ID
ENTR.         SP                             : Entered      - ENTERED BY
SRVC.         SCHLUMBERGER                   : Scn          - SERVICE COMPANY
STRT.M        320                            : top_depth    - START DEPTH
STOP.M        535                            : bot_depth    - STOP DEPTH
STEP.M        0.25                           : increment    - STEP LENGTH
 NULL. -999.2500:NULL Value
~CURVE INFORMATION BLOCK
#MNEM UNIT       ERCB CURVE CODE    CURVE DESCRIPTION
#-----------   ------------------   ----------------------------------
DEPT.M        00 001 00 00         : DEPTH        - DEPTH
ILD .OHMM     00 120 00 00         : RESD         - DEEP RESISTIVITY (DIL)
DPHI.V/V      00 890 00 00         : PHID         - DENSITY POROSITY (LIMESTONE)
NPHI.V/V      00 330 00 00         : PHIN         - NEUTRON POROSITY (LIMESTONE)
GR  .API      00 310 00 00         : GR           - GAMMA RAY
CALI.MM       00 280 01 00         : CAL          - CALIPER
~PARAMETER INFORMATION
#MNEM.UNIT           DATA             DESCRIPTION OF MNEMONIC
#---------         -----------     ------------------------------
GL  .M        667.11               : gl           - GROUND LEVEL ELEVATION
EREF.M        671.01               : kb           - ELEVATION OF DEPTH REFERENCE
DATM.M        671.01               : datum        - DATUM ELEVATION
TDD .M        543                  : tdd          - TOTAL DEPTH DRILLER
RUN .         ONE                  : Run          - RUN NUMBER
ENG .         BILL                 : Engineer     - RECORDING ENGINEER
WIT .         JIM                  : Witness      - WITNESSED BY
MUD .         GEL                  : Mud_type     - MUD TYPE
MATR.         LIMESTONE            : Logunit      - NEUTRON MATRIX
TMAX.C        25.5                 : BHT          - MAXIMUM RECORDED TEMPERATURE
BHTD.M        543                  : BHTDEP       - MAXIMUM RECORDED TEMPERATURE
MATR.         1                    : LOGUNIT      - NEUTRON MATRIX
RMT .C        25                   : MDTP         - TEMPERATURE OF MUD
NEUT.         1                    : NEUTRON      - NEUTRON TYPE
RESI.         0                    : RESIST       - RESISTIVITY TYPE
RMC .OHMM     0.25                 : RMC          - RESISTIVITY OF MUD CAKE
RMF .OHMM     0.25                 : RMF          - RESISTIVITY OF MUD FILTRATE
SUFT.C        15                   : SUFT         - SURFACE TEMPERATURE
~A  DEPTH     RESD     PHID     PHIN       GR      CAL
# ...
  429.500    5.483    0.350    0.446   67.693  159.511
  429.750    5.482    0.345    0.449   65.144  159.539
  430.000    5.471    0.341    0.449   62.166  159.463
  430.250    5.480    0.340    0.446   59.248  159.287
  430.500    5.530    0.342    0.443   56.819  159.308
  430.750    5.602    0.341    0.449   60.197  159.335
  431.000    5.697    0.338    0.459   64.000  159.667
  431.250    5.792    0.333    0.452   64.260  159.591
  431.500    5.835    0.338    0.437   65.374  159.519
  431.750    5.989    0.343    0.432   59.953  159.744
  432.000    6.310    0.341    0.435   56.301  159.772
  432.250    6.477    0.345    0.428   55.218  159.904
  432.500    6.685    0.326    0.421   59.511  159.824
  432.750    6.747    0.208    0.417   60.870  159.951
  433.000    6.546    0.191    0.418   57.280  159.775
  433.250    6.199    0.227    0.431   59.863  160.003
  433.500    5.903    0.331    0.447   61.346  159.827
  433.750    5.548    0.345    0.464   62.155  159.653
  434.000    5.343    0.354    0.466   61.501  159.574
  434.250    5.282    0.351    0.458   61.453  159.700
  434.500    5.371    0.347    0.452   61.040  160.336
  434.750    5.471    0.343    0.450   60.505  160.361
  435.000    5.532    0.337    0.439   59.789  160.082
  435.250    5.615    0.332    0.429   59.865  160.211
  435.500    5.731    0.329    0.420   61.042  160.037
  435.750    5.971    0.329    0.433   62.401  159.861
  436.000    6.117    0.337    0.447   63.884  159.779
  436.250    6.150    0.342    0.455   65.243  159.400
  436.500    6.001    0.344    0.431   67.458  159.222
  436.750    5.812    0.345    0.442   64.419  158.941
  437.000    5.650    0.342    0.456   62.358  158.966
  437.250    5.410    0.335    0.459   65.490  159.196
  437.500    5.339    0.332    0.464   67.888  159.530
  437.750    5.249    0.327    0.485   69.675  159.452
  438.000    5.160    0.332    0.462   70.364  159.378
  438.250    5.227    0.337    0.467   69.401  159.505
  438.500    5.426    0.306    0.381   68.500  159.432
  438.750    5.749    0.188    0.340   67.660  158.947
  439.000    6.230    0.174    0.347   66.637  159.072
  439.250    6.714    0.262    0.431   65.003  159.202
  439.500    7.235    0.320    0.465   62.147  159.738
  439.750    7.440    0.329    0.466   62.102  160.474
  440.000    6.901    0.327    0.467   65.784  161.621
  440.250    6.414    0.323    0.478   68.487  162.055
  440.500    5.994    0.318    0.479   71.376  161.775
  440.750    5.529    0.310    0.469   73.956  161.090
  441.000    5.149    0.304    0.478   76.110  160.605
  441.250    5.119    0.302    0.505   76.004  159.922
  441.500    5.214    0.310    0.521   73.820  160.151
  441.750    5.312    0.318    0.494   70.963  160.480
  442.000    5.391    0.313    0.468   72.020  160.711
  442.250    5.482    0.306    0.463   76.740  161.040
  442.500    5.690    0.306    0.462   80.726  161.070
  442.750    5.808    0.300    0.454   83.613  161.604
  443.000    5.861    0.278    0.456   87.174  162.849
  443.250    5.655    0.257    0.469   88.288  164.301
  443.500    5.295    0.244    0.475   86.898  165.753
  443.750    4.921    0.229    0.473   86.732  167.000
  444.000    4.506    0.243    0.493   89.623  166.723
  444.250    3.973    0.267    0.520   91.161  165.016
  444.500    3.484    0.293    0.536   93.071  162.394
  444.750    3.044    0.289    0.546   93.758  159.773
  445.000    2.725    0.277    0.535   93.531  158.679
  445.250    2.576    0.270    0.527   92.996  157.486
  445.500    2.443    0.276    0.528   92.339  156.696
  445.750    2.366    0.289    0.543   92.845  156.211
  446.000    2.322    0.302    0.557   93.715  156.035
  446.250    2.352    0.288    0.545   92.814  156.264
  446.500    2.474    0.271    0.533   93.623  156.700
  446.750    2.568    0.263    0.521   96.510  157.436
  447.000    2.726    0.268    0.531  100.193  157.766
  447.250    2.894    0.295    0.469  101.980  157.694
  447.500    3.172    0.319    0.411   93.258  157.517
  447.750    3.463    0.345    0.365   83.621  157.541
  448.000    3.889    0.369    0.336   76.487  157.769
  448.250    4.796    0.377    0.364   71.002  158.203
  448.500    5.870    0.359    0.411   67.841  158.741
  448.750    7.105    0.344    0.446   65.962  159.172
  449.000    7.949    0.344    0.458   64.755  159.605
  449.250    8.993    0.346    0.448   64.100  159.939
  449.500    9.691    0.347    0.443   64.667  160.168
  449.750   10.366    0.343    0.447   67.247  160.395
  450.000   10.840    0.325    0.437   66.040  160.828
  450.250   10.818    0.277    0.439   67.462  162.079
  450.500    8.884    0.265    0.479   70.288  164.038
  450.750    6.719    0.272    0.504   72.748  168.238
  451.000    5.091    0.257    0.466   73.068  169.894
  451.250    4.260    0.247    0.458   74.613  169.720
  451.500    4.455    0.256    0.459   76.094  169.233
  451.750    4.454    0.263    0.457   75.742  168.853
  452.000    4.437    0.269    0.455   74.964  168.472
  452.250    4.436    0.269    0.461   77.179  168.499
  452.500    4.485    0.263    0.475   77.500  168.626
  452.750    4.647    0.256    0.487   76.538  168.244
  453.000    4.851    0.267    0.494   76.555  167.662
  453.250    5.082    0.280    0.485   77.366  166.971
  453.500    5.256    0.283    0.470   76.647  165.878
  453.750    5.394    0.278    0.460   75.562  165.499
  454.000    5.485    0.275    0.467   74.845  166.137
  454.250    5.515    0.275    0.464   76.267  166.671
  454.500    5.504    0.270    0.460   78.909  167.612
  454.750    5.411    0.242    0.471   80.818  168.249
  455.000    5.230    0.222    0.472   78.635  168.884
  455.250    5.075    0.220    0.460   79.139  170.235
  455.500    4.878    0.239    0.470   81.782  171.181
  455.750    4.663    0.264    0.487   84.853  171.916
  456.000    4.601    0.258    0.497   87.006  172.757
  456.250    4.635    0.252    0.482   88.550  174.004
  456.500    4.731    0.253    0.475   88.567  175.459
  456.750    4.901    0.254    0.495   85.954  176.298
  457.000    5.087    0.264    0.503   81.998  176.425
  457.250    5.251    0.231    0.496   79.569  175.638
  457.500    5.471    0.213    0.481   83.313  174.950
  457.750    5.542    0.204    0.466   87.057  174.874
  458.000    5.530    0.216    0.442   89.944  176.733
  458.250    5.488    0.228    0.430   89.957  178.187
  458.500    5.416    0.236    0.446   88.690  177.905
  458.750    5.456    0.255    0.465   87.241  176.099
  459.000    5.813    0.273    0.475   84.200  175.818
  459.250    6.565    0.280    0.483   80.000  172.484
  459.500    7.511    0.285    0.466   74.821  168.745
  459.750    8.643    0.300    0.449   68.910  166.834
  460.000   10.619    0.309    0.437   63.304  166.350
  460.250   13.444    0.313    0.437   58.921  165.662
  460.500   17.505    0.316    0.459   56.005  164.877
  460.750   20.447    0.325    0.475   57.425  165.004
  461.000   23.927    0.329    0.479   60.924  165.030
  461.250   26.223    0.323    0.481   63.690  164.851
  461.500   27.942    0.322    0.473   64.009  164.779
  461.750   28.896    0.325    0.466   61.581  164.600
  462.000   29.602    0.314    0.476   61.352  164.623
  462.250   29.988    0.294    0.461   62.101  165.158
  462.500   29.925    0.257    0.447   61.994  165.592
  462.750   29.919    0.180    0.437   61.156  165.821
  463.000   29.859    0.133    0.407   59.275  165.749
  463.250   29.741    0.105    0.380   58.865  166.384
  463.500   27.027    0.243    0.387   61.934  166.616
  463.750   22.871    0.273    0.408   67.145  166.434
  464.000   19.500    0.306    0.439   70.707  166.870
  464.250   15.747    0.315    0.447   71.819  166.794
  464.500   12.203    0.305    0.445   76.114  166.822
  464.750    9.744    0.312    0.443   80.344  166.848
  465.000    6.635    0.296    0.439   84.024  166.872
  465.250    5.104    0.285    0.453   85.509  166.795
  465.500    3.802    0.273    0.470   88.578  166.618
  465.750    3.164    0.277    0.483   88.532  166.848
