~VERSION INFORMATION
 VERS.                 2.0:   CWLS LOG ASCII STANDARD -VERSION 2.0
 WRAP.                  NO:   ONE LINE PER DEPTH STEP
~WELL INFORMATION BLOCK
#MNEM.UNIT           DATA                    DESCRIPTION OF MNEMONIC
#---------    -------------------            -------------------------------
# Generated from Intellog Unique Number	CS_73_76/WELL/3259
WELL.         T0TAL ET AL DEVENISH           : Well_name    - WELL
LOC .         00/11-08-075-08W4/0            : Location     - LOCATION
UWI .         00/11-08-075-08W4/0            : Uwi          - UNIQUE WELL ID
ENTR.         SP                             : Entered      - ENTERED BY
SRVC.         SCHLUMBERGER                   : Scn          - SERVICE COMPANY
STRT.M        275                            : top_depth    - START DEPTH
STOP.M        500                            : bot_depth    - STOP DEPTH
STEP.M        0.25                           : increment    - STEP LENGTH
 NULL. -999.2500:NULL Value
~CURVE INFORMATION BLOCK
#MNEM UNIT       ERCB CURVE CODE    CURVE DESCRIPTION
#-----------   ------------------   ----------------------------------
DEPT.M        00 001 00 00         : DEPTH        - DEPTH
ILD .OHMM     00 120 00 00         : RESD         - DEEP RESISTIVITY (DIL)
DPHI.V/V      00 890 00 00         : PHID         - DENSITY POROSITY (LIMESTONE)
NPHI.V/V      00 330 00 00         : PHIN         - NEUTRON POROSITY (LIMESTONE)
GR  .API      00 310 00 00         : GR           - GAMMA RAY
~PARAMETER INFORMATION
#MNEM.UNIT           DATA             DESCRIPTION OF MNEMONIC
#---------         -----------     ------------------------------
GL  .M        665.61               : gl           - GROUND LEVEL ELEVATION
EREF.M        669                  : kb           - ELEVATION OF DEPTH REFERENCE
DATM.M        665.61               : datum        - DATUM ELEVATION
TDD .M        514                  : tdd          - TOTAL DEPTH DRILLER
RUN .         ONE                  : Run          - RUN NUMBER
ENG .         BILL                 : Engineer     - RECORDING ENGINEER
WIT .         JIM                  : Witness      - WITNESSED BY
MUD .         GEL                  : Mud_type     - MUD TYPE
MATR.         LIMESTONE            : Logunit      - NEUTRON MATRIX
TMAX.C        23.8                 : BHT          - MAXIMUM RECORDED TEMPERATURE
BHTD.M        514                  : BHTDEP       - MAXIMUM RECORDED TEMPERATURE
MATR.         1                    : LOGUNIT      - NEUTRON MATRIX
RMT .C        25                   : MDTP         - TEMPERATURE OF MUD
NEUT.         1                    : NEUTRON      - NEUTRON TYPE
RESI.         0                    : RESIST       - RESISTIVITY TYPE
RMC .OHMM     0.25                 : RMC          - RESISTIVITY OF MUD CAKE
RMF .OHMM     0.25                 : RMF          - RESISTIVITY OF MUD FILTRATE
SUFT.C        15                   : SUFT         - SURFACE TEMPERATURE
~A  DEPTH     RESD     PHID     PHIN       GR
# ...
  405.500    6.418    0.344    0.409   56.444
  405.750    6.180    0.327    0.424   58.262
  406.000    6.179    0.326    0.432   60.080
  406.250    6.061    0.330    0.412   59.454
  406.500    6.060    0.334    0.404   58.832
  406.750    6.057    0.324    0.396   58.822
  407.000    6.056    0.318    0.410   57.591
  407.250    5.942    0.324    0.431   56.359
  407.500    5.940    0.332    0.446   55.739
  407.750    5.938    0.336    0.457   54.508
  408.000    5.936    0.332    0.451   56.324
  408.250    5.934    0.337    0.436   56.309
  408.500    5.932    0.339    0.428   54.469
  408.750    5.931    0.343    0.436   53.846
  409.000    5.929    0.339    0.446   53.836
  409.250    5.927    0.344    0.431   53.826
  409.500    5.926    0.345    0.419   53.813
  409.750    6.036    0.342    0.438   56.237
  410.000    6.034    0.344    0.456   56.837
  410.250    6.144    0.349    0.450   56.216
  410.500    6.143    0.354    0.455   56.813
  410.750    6.141    0.347    0.456   59.239
  411.000    6.026    0.338    0.448   59.228
  411.250    6.024    0.344    0.440   56.164
  411.500    6.022    0.340    0.449   55.544
  411.750    5.909    0.327    0.455   55.531
  412.000    5.798    0.325    0.443   55.519
  412.250    5.378    0.324    0.417   60.385
  412.500    4.895    0.298    0.406   66.470
  412.750    4.714    0.242    0.424   71.946
  413.000    4.626    0.242    0.442   77.422
  413.250    4.711    0.249    0.454   77.410
  413.500    4.799    0.245    0.466   79.836
  413.750    4.980    0.239    0.444   81.044
  414.000    5.366    0.238    0.431   74.930
  414.250    5.569    0.232    0.450   73.094
  414.500    5.888    0.217    0.459   74.301
  414.750    6.111    0.209    0.465   77.945
  415.000    6.224    0.202    0.461   79.154
  415.250    6.340    0.204    0.454   79.138
  415.500    6.339    0.213    0.465   79.130
  415.750    6.219    0.220    0.472   82.165
  416.000    5.989    0.211    0.468   83.983
  416.250    5.987    0.202    0.469   79.090
  416.500    6.098    0.191    0.477   80.299
  416.750    6.212    0.193    0.455   80.289
  417.000    6.446    0.199    0.437   79.665
  417.250    6.566    0.204    0.421   80.262
  417.500    6.688    0.210    0.413   80.861
  417.750    6.685    0.207    0.416   83.894
  418.000    6.683    0.215    0.434   84.496
  418.250    6.558    0.221    0.457   82.654
  418.500    6.434    0.215    0.438   80.204
  418.750    6.313    0.188    0.426   80.191
  419.000    6.194    0.198    0.445   83.837
  419.250    6.077    0.221    0.466   81.994
  419.500    5.962    0.233    0.474   79.542
  419.750    5.961    0.246    0.484   77.094
  420.000    5.848    0.263    0.490   75.862
  420.250    5.847    0.277    0.483   75.240
  420.500    5.955    0.252    0.462   74.617
  420.750    6.065    0.184    0.415   73.385
  421.000    6.063    0.152    0.381   73.980
  421.250    6.061    0.167    0.373   75.800
  421.500    6.060    0.209    0.408   78.837
  421.750    6.059    0.216    0.418   80.653
  422.000    5.620    0.201    0.405   81.862
  422.250    5.116    0.214    0.439   80.630
  422.500    4.485    0.227    0.468   77.568
  422.750    4.240    0.225    0.470   78.167
  423.000    3.860    0.210    0.457   76.323
  423.250    3.260    0.224    0.470   75.093
  423.500    2.859    0.251    0.498   73.251
  423.750    2.461    0.303    0.530   72.021
  424.000    2.158    0.309    0.544   72.614
  424.250    2.157    0.299    0.552   75.043
  424.500    2.116    0.297    0.544   76.252
  424.750    2.076    0.302    0.529   75.019
  425.000    2.076    0.313    0.518   75.009
  425.250    2.037    0.340    0.541   78.043
  425.500    2.075    0.329    0.543   82.296
  425.750    2.113    0.291    0.532   84.118
  426.000    2.320    0.275    0.542   85.935
  426.250    2.408    0.269    0.554   85.313
  426.500    2.744    0.263    0.568   83.472
  426.750    3.246    0.247    0.513   80.409
  427.000    3.563    0.226    0.466   79.180
  427.250    3.912    0.198    0.453   85.263
  427.500    4.295    0.184    0.461   85.252
  427.750    4.804    0.206    0.444   78.529
  428.000    5.273    0.242    0.444   77.909
  428.250    5.576    0.249    0.452   77.896
  428.500    5.574    0.154    0.408   78.494
  428.750    5.573    0.115    0.416   81.531
  429.000    5.266    0.138    0.440   83.350
  429.250    5.071    0.197    0.454   82.726
  429.500    4.616    0.208    0.452   80.277
  429.750    4.363    0.209    0.440   79.654
  430.000    3.972    0.205    0.426   84.520
  430.250    3.825    0.198    0.449   86.947
  430.500    3.615    0.204    0.474   85.105
  430.750    3.547    0.240    0.485   87.530
  431.000    3.967    0.253    0.480   90.570
  431.250    4.521    0.247    0.480   95.433
  431.500    5.058    0.250    0.472   84.446
  431.750    6.212    0.256    0.457   74.071
  432.000    7.213    0.241    0.450   69.180
  432.250    9.197    0.232    0.442   69.776
  432.500    9.910    0.270    0.444   67.935
  432.750   11.294    0.277    0.453   63.656
  433.000   12.870    0.279    0.468   58.156
  433.250   13.867    0.133    0.381   52.656
  433.500   14.940    0.109    0.307   59.351
  433.750   14.935    0.206    0.353   64.825
  434.000   13.597    0.257    0.395   69.082
  434.250   12.379    0.280    0.424   70.900
  434.500   11.482    0.269    0.434   66.007
  434.750   11.057    0.241    0.448   65.387
  435.000   10.848    0.224    0.449   67.811
  435.250   11.049    0.251    0.445   69.022
  435.500   11.254    0.277    0.461   70.228
  435.750   11.251    0.267    0.467   69.603
  436.000   11.039    0.262    0.454   68.372
  436.250   10.630    0.263    0.444   69.581
  436.500   10.046    0.266    0.446   73.226
  436.750    9.673    0.268    0.437   74.433
  437.000    9.671    0.273    0.443   74.423
  437.250    9.667    0.264    0.449   73.801
  437.500    9.664    0.250    0.448   75.008
  437.750    9.845    0.249    0.434   77.433
  438.000    9.840    0.260    0.445   78.640
  438.250    9.839    0.267    0.452   76.802
  438.500    9.836    0.259    0.445   73.130
  438.750    9.649    0.250    0.444   70.067
  439.000    9.648    0.248    0.431   67.619
  439.250    8.948    0.236    0.412   65.168
  439.500    8.617    0.216    0.397   63.935
  439.750    7.279    0.207    0.382   63.925
  440.000    4.473    0.222    0.365   73.057
  440.250    3.778    0.241    0.410   78.534
  440.500    3.638    0.264    0.441   85.229
  440.750    4.468    0.276    0.482   85.826
  441.000    5.592    0.276    0.509   76.666
  441.250    8.926    0.287    0.550   66.896
  441.500   18.175    0.295    0.434   61.401
  441.750   37.705    0.306    0.367   49.193
  442.000   61.327    0.312    0.356   40.646
  442.250   68.595    0.318    0.374   38.801
  442.500   64.823    0.300    0.374   44.279
  442.750   67.275    0.292    0.364   48.535
  443.000   76.663    0.281    0.359   43.033
  443.250   81.074    0.274    0.342   37.535
  443.500   90.672    0.276    0.322   30.817
  443.750   94.120    0.286    0.311   30.803
  444.000   99.525    0.296    0.319   35.060
  444.250  101.376    0.290    0.338   38.097
  444.500   99.463    0.295    0.347   37.470
  444.750   95.772    0.286    0.347   39.289
  445.000   90.506    0.278    0.337   43.546
  445.250   88.812    0.272    0.341   47.804
  445.500   82.379    0.269    0.357   53.889
  445.750   74.998    0.280    0.363   50.217
  446.000   64.544    0.291    0.351   50.814
  446.250   57.668    0.284    0.343   55.071
  446.500   48.710    0.285    0.356   59.325
  446.750   43.524    0.291    0.361   61.753
  447.000   38.168    0.288    0.364   62.959
  447.250   31.639    0.295    0.374   65.384
  447.500   28.270    0.287    0.377   67.205
  447.750   25.259    0.276    0.383   70.241
  448.000   22.570    0.268    0.374   71.450
  448.250   19.424    0.268    0.368   72.044
  448.500   17.033    0.271    0.364   73.863
  448.750   14.386    0.270    0.358   76.901
