~VERSION INFORMATION
 VERS.                 2.0:   CWLS LOG ASCII STANDARD -VERSION 2.0
 WRAP.                  NO:   ONE LINE PER DEPTH STEP
~WELL INFORMATION BLOCK
#MNEM.UNIT           DATA                    DESCRIPTION OF MNEMONIC
#---------    -------------------            -------------------------------
# Generated from Intellog Unique Number	CN_91_93/WELL/2683
WELL.         10-26-091-18W4                 : Well_name    - WELL
LOC .         00/10-26-091-18W4/0            : Location     - LOCATION
UWI .         00/10-26-091-18W400            : Uwi          - UNIQUE WELL ID
ENTR.         JOETTE                         : Entered      - ENTERED BY
SRVC.         WESTERN ATLAS                  : Scn          - SERVICE COMPANY
DATE.         02/11/92                       : Date         - LOG DATE
STRT.M        100                            : top_depth    - START DEPTH
STOP.M        255                            : bot_depth    - STOP DEPTH
STEP.M        0.25                           : increment    - STEP LENGTH
 NULL. -999.2500:NULL Value
~CURVE INFORMATION BLOCK
#MNEM UNIT       ERCB CURVE CODE    CURVE DESCRIPTION
#-----------   ------------------   ----------------------------------
DEPT.M        00 001 00 00         : DEPTH        - DEPTH
GR  .API      00 310 00 00         : GR           - GAMMA RAY
CALI.MM       00 280 01 00         : CAL          - CALIPER
NPHI.V/V      00 330 00 00         : PHIN         - NEUTRON POROSITY (SANDSTONE)
DPHI.V/V      00 890 00 00         : PHID         - DENSITY POROSITY (SANDSTONE)
ILD .OHMM     00 120 00 00         : RESD         - DEEP RESISTIVITY (DIL)
~PARAMETER INFORMATION
#MNEM.UNIT           DATA             DESCRIPTION OF MNEMONIC
#---------         -----------     ------------------------------
GL  .M        611.06               : gl           - GROUND LEVEL ELEVATION
EREF.M        614.42               : kb           - ELEVATION OF DEPTH REFERENCE
DATM.M        614.42               : datum        - DATUM ELEVATION
TDD .M        267                  : tdd          - TOTAL DEPTH DRILLER
RUN .         ONE                  : Run          - RUN NUMBER
ENG .         BILL                 : Engineer     - RECORDING ENGINEER
WIT .         JIM                  : Witness      - WITNESSED BY
MUD .         GEL                  : Mud_type     - MUD TYPE
MATR.         SANDSTONE            : Logunit      - NEUTRON MATRIX
TMAX.C        20                   : BHT          - MAXIMUM RECORDED TEMPERATURE
BHTD.M        267                  : BHTDEP       - MAXIMUM RECORDED TEMPERATURE
RMT .C        13                   : MDTP         - TEMPERATURE OF MUD
MUDD.KG/M     1140                 : MWT          - MUD DENSITY
NEUT.         1                    : NEUTRON      - NEUTRON TYPE
RESI.         0                    : RESIST       - RESISTIVITY TYPE
RM  .OHMM     3.2                  : RM           - RESISTIVITY OF MUD
RMC .OHMM     3.8                  : RMC          - RESISTIVITY OF MUD CAKE
RMF .OHMM     2.8                  : RMF          - RESISTIVITY OF MUD FILTRATE
SUFT.C        4                    : SUFT         - SURFACE TEMPERATURE
~A  DEPTH       GR      CAL     PHIN     PHID     RESD
# ...
  209.500   47.521  199.138    0.466    0.295   80.899
  209.750   49.035  197.611    0.460    0.294   77.987
  210.000   49.030  197.611    0.435    0.292   68.025
  210.250   49.634  196.584    0.429    0.290   69.879
  210.500   52.058  195.060    0.426    0.291   73.768
  210.750   54.181  195.060    0.428    0.292   73.738
  211.000   55.696  193.019    0.442    0.292   68.546
  211.250   54.173  190.482    0.451    0.291   48.075
  211.500   55.990  190.482    0.453    0.288   41.179
  211.750   58.112  187.427    0.438    0.281   34.637
  212.000   56.589  184.891    0.423    0.269   29.668
  212.250   58.407  181.846    0.422    0.254   28.340
  212.500   54.758  181.328    0.421    0.216   23.621
  212.750   56.880  179.807    0.406    0.212   22.563
  213.000   68.417  178.788    0.399    0.228   18.637
  213.250   79.955  178.788    0.423    0.239   17.803
  213.500   86.936  178.266    0.446    0.239   16.549
  213.750   85.413  178.766    0.454    0.234   15.383
  214.000   88.143  178.766    0.456    0.229   14.041
  214.250   97.858  179.257    0.457    0.226   13.413
  214.500  103.624  180.263    0.457    0.224   13.413
  214.750   97.241  181.268    0.458    0.227   13.401
  215.000   94.199  181.767    0.457    0.239   13.521
  215.250   91.766  182.774    0.452    0.253   13.889
  215.500   85.990  183.778    0.441    0.259   14.268
  215.750   82.038  185.289    0.429    0.253   13.754
  216.000   90.234  186.802    0.425    0.232   12.441
  216.250   98.734  189.325    0.437    0.171    9.999
  216.500  108.753  192.861    0.441    0.189    9.294
  216.750  114.823  196.397    0.445    0.212    9.208
  217.000  125.146  197.402    0.449    0.228    9.988
  217.250  116.029  195.876    0.450    0.255   10.836
  217.500  110.558  191.313    0.450    0.229   11.648
  217.750   91.114  187.257    0.451    0.243   12.522
  218.000   95.970  183.705    0.454    0.247   13.099
  218.250   97.484  182.687    0.457    0.215   13.335
  218.500   98.391  182.687    0.455    0.226   13.330
  218.750  105.677  182.672    0.439    0.228   13.447
  219.000   98.990  180.639    0.417    0.234   14.195
  219.250   97.164  180.639    0.404    0.218   14.195
  219.500  106.878  180.118    0.399    0.199   16.555
  219.750  102.926  179.098    0.396    0.198   20.769
  220.000   92.898  179.098    0.401    0.219   25.356
  220.250   88.034  178.577    0.404    0.229   27.259
  220.500   91.978  177.558    0.403    0.242   30.384
  220.750   88.937  176.034    0.390    0.257   35.771
  221.000   82.250  174.001    0.385    0.280   35.771
  221.250   83.157  170.957    0.363    0.293   42.101
  221.500   80.115  167.405    0.356    0.313   50.933
  221.750   70.088  166.892    0.369    0.307   60.509
  222.000   72.817  167.897    0.377    0.300   63.876
  222.250   54.285  170.421    0.368    0.299   69.291
  222.500   46.384  172.439    0.333    0.302   73.821
  222.750   31.800  172.439    0.325    0.306   80.075
  223.000   30.581  173.435    0.347    0.306   80.075
  223.250   30.273  174.441    0.372    0.304   84.489
  223.500   29.358  174.441    0.396    0.301   97.688
  223.750   30.872  174.933    0.403    0.301   97.688
  224.000   31.475  175.432    0.409    0.300   98.503
  224.250   30.256  175.432    0.408    0.300  103.053
  224.500   32.681  175.923    0.401    0.300  103.965
  224.750   32.373  176.930    0.415    0.300  100.213
  225.000   32.065  176.930    0.420    0.298   95.731
  225.250   34.794  177.420    0.425    0.298   88.983
  225.500   42.080  177.921    0.427    0.298   83.469
  225.750   45.416  177.921    0.424    0.298   78.296
  226.000   44.804  177.906    0.428    0.298   74.795
  226.250   44.800  175.368    0.432    0.297   67.652
  226.500   46.618  175.368    0.434    0.295   50.107
  226.750   48.436  173.834    0.423    0.293   41.767
  227.000   50.558  170.790    0.411    0.292   34.184
  227.250   52.983  170.276    0.408    0.292   31.777
  227.500   52.371  170.264    0.404    0.287   29.006
  227.750   57.227  170.768    0.406    0.277   27.457
  228.000   68.157  172.280    0.409    0.270   24.169
  228.250   70.279  172.280    0.401    0.266   18.229
  228.500   74.527  173.780    0.402    0.263   14.388
  228.750   79.382  175.296    0.407    0.262   11.670
  229.000   87.579  175.296    0.411    0.261   10.848
  229.250   98.812  176.797    0.414    0.260   11.143
  229.500   97.593  177.297    0.416    0.264   13.239
  229.750   89.084  177.297    0.432    0.271   13.849
  230.000   79.361  177.791    0.437    0.275   26.391
  230.250   71.763  177.276    0.437    0.273   36.590
  230.500   61.128  176.258    0.421    0.268   36.909
  230.750   55.959  174.224    0.394    0.268   36.562
  231.000   60.815  172.698    0.386    0.270   30.475
  231.250   63.241  171.173    0.386    0.243   28.072
  231.500   68.704  171.167    0.405    0.194   21.366
  231.750   72.952  172.679    0.413    0.217   17.649
  232.000   78.718  174.694    0.412    0.229   16.256
  232.250   82.359  175.694    0.407    0.231   15.529
  232.500   86.910  176.706    0.410    0.230   15.106
  232.750   89.032  179.736    0.416    0.235   14.963
  233.000   91.457  179.736    0.418    0.240   14.963
  233.250   96.313  180.228    0.415    0.241   15.088
  233.500   86.589  180.228    0.422    0.241   15.929
  233.750   78.992  182.741    0.415    0.241   19.447
  234.000   79.595  182.231    0.404    0.245   21.289
  234.250   84.146  182.231    0.418    0.263   28.723
  234.500   86.268  181.201    0.430    0.281   30.321
  234.750   77.760  180.183    0.430    0.287   32.302
  235.000   71.984  180.183    0.427    0.290   30.574
  235.250   76.232  179.661    0.426    0.290   27.911
  235.500   75.924  179.661    0.427    0.291   22.845
  235.750   77.742  179.643    0.424    0.286   19.216
  236.000   81.079  179.640    0.425    0.255   16.162
  236.250   85.934  179.640    0.424    0.191   15.580
  236.500  113.873  180.130    0.403    0.183   14.747
  236.750  120.247  180.633    0.404    0.186   14.476
  237.000  127.836  181.132    0.417    0.191   14.737
  237.250  126.009  181.132    0.415    0.191   18.155
  237.500  135.724  181.115    0.406    0.206   21.963
  237.750  139.365  180.097    0.413    0.232   21.963
  238.000  125.388  180.097    0.411    0.262   24.925
  238.250  110.805  179.068    0.399    0.265   26.314
  238.500  114.446  179.068    0.400    0.231   26.787
  238.750  117.175  177.534    0.409    0.217   26.532
  239.000  121.119  176.518    0.408    0.213   26.532
  239.250  123.545  176.505    0.397    0.213   26.038
  239.500  122.325  175.489    0.382    0.219   25.101
  239.750  112.602  175.489    0.382    0.225   24.632
  240.000  111.686  175.474    0.379    0.233   24.405
  240.250  109.252  175.469    0.384    0.235   24.397
  240.500  105.906  173.943    0.388    0.215   25.063
  240.750  115.013  173.943    0.364    0.192   26.219
  241.000  119.262  171.394    0.355    0.180   28.185
  241.250  115.613  170.379    0.335    0.081   29.752
  241.500  101.029  170.379    0.308    0.072   30.842
  241.750  103.151  170.363    0.287    0.139   30.829
  242.000  111.044  170.363    0.306    0.190   30.829
  242.250  116.810  170.853    0.347    0.218   29.706
  242.500  125.311  172.874    0.361    0.196   28.124
  242.750  132.595  175.901    0.349    0.185   22.605
  243.000  133.199  177.921    0.343    0.188   21.398
  243.250  126.513  179.938    0.347    0.194   18.328
  243.500  128.938  181.450    0.356    0.201   17.191
  243.750  140.779  181.450    0.373    0.210   16.572
  244.000  127.107  182.951    0.387    0.227   16.416
  244.250  111.612  185.984    0.409    0.250   17.174
  244.500  112.215  188.509    0.410    0.260   19.497
  244.750  119.501  187.994    0.395    0.246   21.734
  245.000  131.646  186.974    0.382    0.237   22.945
  245.250  129.515  184.436    0.382    0.237   23.357
  245.500  121.310  181.898    0.384    0.240   23.357
  245.750  117.965  178.348    0.369    0.242   22.918
