~VERSION INFORMATION
 VERS.                 2.0:   CWLS LOG ASCII STANDARD -VERSION 2.0
 WRAP.                  NO:   ONE LINE PER DEPTH STEP
~WELL INFORMATION BLOCK
#MNEM.UNIT           DATA                    DESCRIPTION OF MNEMONIC
#---------    -------------------            -------------------------------
# Generated from Intellog Unique Number	CS_69_70/WELL/891
WELL.         MANVILLE OIL & GAS LTD.        : Well_name    - WELL
LOC .         00/11-21-069-17W4/0            : Location     - LOCATION
UWI .         00/11-21-069-17W4/0            : Uwi          - UNIQUE WELL ID
ENTR.         SP                             : Entered      - ENTERED BY
SRVC.         SCHLUMBERGER                   : Scn          - SERVICE COMPANY
STRT.M        290                            : top_depth    - START DEPTH
STOP.M        502                            : bot_depth    - STOP DEPTH
STEP.M        0.25                           : increment    - STEP LENGTH
 NULL. -999.2500:NULL Value
~CURVE INFORMATION BLOCK
#MNEM UNIT       ERCB CURVE CODE    CURVE DESCRIPTION
#-----------   ------------------   ----------------------------------
DEPT.M        00 001 00 00         : DEPTH        - DEPTH
ILD .OHMM     00 120 00 00         : RESD         - DEEP RESISTIVITY (DIL)
DPHI.V/V      00 890 00 00         : PHID         - DENSITY POROSITY (LIMESTONE)
NPHI.V/V      00 330 00 00         : PHIN         - NEUTRON POROSITY (LIMESTONE)
GR  .API      00 310 00 00         : GR           - GAMMA RAY
~PARAMETER INFORMATION
#MNEM.UNIT           DATA             DESCRIPTION OF MNEMONIC
#---------         -----------     ------------------------------
GL  .M        556.93               : gl           - GROUND LEVEL ELEVATION
EREF.M        560.03               : kb           - ELEVATION OF DEPTH REFERENCE
DATM.M        556.93               : datum        - DATUM ELEVATION
TDD .M        504                  : tdd          - TOTAL DEPTH DRILLER
RUN .         ONE                  : Run          - RUN NUMBER
ENG .         BILL                 : Engineer     - RECORDING ENGINEER
WIT .         JIM                  : Witness      - WITNESSED BY
MUD .         GEL                  : Mud_type     - MUD TYPE
MATR.         LIMESTONE            : Logunit      - NEUTRON MATRIX
TMAX.C        23                   : BHT          - MAXIMUM RECORDED TEMPERATURE
BHTD.M        504                  : BHTDEP       - MAXIMUM RECORDED TEMPERATURE
MATR.         1                    : LOGUNIT      - NEUTRON MATRIX
RMT .C        25                   : MDTP         - TEMPERATURE OF MUD
NEUT.         1                    : NEUTRON      - NEUTRON TYPE
RESI.         0                    : RESIST       - RESISTIVITY TYPE
RMC .OHMM     0.25                 : RMC          - RESISTIVITY OF MUD CAKE
RMF .OHMM     0.25                 : RMF          - RESISTIVITY OF MUD FILTRATE
SUFT.C        15                   : SUFT         - SURFACE TEMPERATURE
~A  DEPTH     RESD     PHID     PHIN       GR
# ...
  333.500   12.559    0.101    0.215   51.441
  333.750    7.087    0.189    0.288   56.933
  334.000    4.572    0.227    0.352   61.571
  334.250    3.913    0.271    0.378   63.949
  334.500    3.597    0.280    0.392   62.115
  334.750    3.435    0.287    0.398   59.060
  335.000    3.366    0.292    0.408   58.203
  335.250    3.318    0.297    0.415   62.106
  335.500    3.321    0.297    0.423   64.912
  335.750    3.336    0.293    0.407   66.863
  336.000    3.389    0.286    0.387   67.838
  336.250    3.502    0.281    0.378   65.821
  336.500    3.571    0.276    0.380   63.804
  336.750    3.677    0.272    0.388   63.373
  337.000    3.749    0.271    0.382   63.188
  337.250    3.794    0.266    0.374   61.659
  337.500    3.805    0.265    0.389   60.924
  337.750    3.822    0.270    0.405   62.753
  338.000    3.818    0.279    0.408   65.375
  338.250    3.814    0.280    0.406   65.373
  338.500    3.810    0.272    0.398   62.257
  338.750    3.826    0.268    0.395   60.545
  339.000    3.857    0.277    0.392   64.754
  339.250    3.919    0.287    0.398   63.897
  339.500    3.989    0.292    0.409   61.514
  339.750    4.044    0.293    0.398   62.121
  340.000    4.180    0.293    0.397   61.264
  340.250    4.434    0.286    0.378   58.575
  340.500    5.025    0.285    0.349   56.497
  340.750    5.814    0.293    0.339   57.350
  341.000    6.345    0.300    0.367   58.812
  341.250    5.310    0.301    0.386   58.809
  341.500    4.665    0.300    0.393   57.525
  341.750    4.130    0.294    0.399   56.546
  342.000    3.855    0.285    0.423   57.459
  342.250    3.807    0.280    0.404   58.676
  342.500    3.825    0.292    0.393   58.736
  342.750    3.878    0.297    0.410   58.122
  343.000    3.932    0.294    0.423   57.876
  343.250    3.958    0.284    0.414   59.827
  343.500    3.960    0.279    0.399   61.778
  343.750    3.956    0.283    0.389   63.912
  344.000    3.951    0.282    0.385   65.680
  344.250    3.917    0.279    0.384   63.723
  344.500    3.913    0.288    0.380   60.912
  344.750    3.915    0.288    0.387   59.200
  345.000    3.904    0.278    0.395   58.709
  345.250    3.892    0.272    0.401   59.745
  345.500    3.917    0.271    0.401   60.719
  345.750    3.935    0.270    0.390   59.556
  346.000    3.960    0.256    0.373   58.149
  346.250    3.971    0.215    0.348   56.987
  346.500    3.988    0.104    0.260   55.703
  346.750    4.105    0.127    0.257   55.211
  347.000    4.923    0.241    0.356   55.270
  347.250    5.464    0.306    0.404   57.953
  347.500    5.168    0.326    0.438   61.004
  347.750    4.524    0.315    0.443   63.992
  348.000    4.199    0.305    0.432   65.272
  348.250    3.956    0.297    0.436   65.330
  348.500    3.827    0.293    0.438   63.923
  348.750    3.730    0.287    0.426   62.639
  349.000    3.656    0.274    0.436   60.927
  349.250    3.645    0.249    0.457   59.337
  349.500    3.738    0.170    0.179   55.916
  349.750    4.173   -0.000    0.145   49.320
  350.000    9.284   -0.013    0.121   42.724
  350.250   20.815   -0.015    0.112   37.777
  350.500   32.128   -0.016    0.108   35.515
  350.750   40.620   -0.016    0.103   35.757
  351.000   29.449   -0.014    0.100   37.830
  351.250   22.637    0.002    0.118   42.528
  351.500   16.915    0.142    0.293   47.409
  351.750   12.195    0.207    0.338   54.305
  352.000    9.182    0.233    0.357   63.460
  352.250    6.684    0.249    0.368   67.426
  352.500    5.519    0.254    0.383   68.217
  352.750    4.895    0.257    0.378   69.069
  353.000    4.342    0.249    0.363   73.950
  353.250    3.977    0.237    0.346   80.602
  353.500    3.833    0.230    0.360   90.306
  353.750    3.850    0.232    0.407   98.118
  354.000    3.956    0.230    0.425  101.595
  354.250    4.057    0.219    0.419  103.057
  354.500    4.161    0.213    0.418  102.139
  354.750    4.283    0.207    0.419  100.794
  355.000    4.434    0.209    0.412   98.960
  355.250    4.626    0.207    0.397   97.248
  355.500    4.779    0.202    0.381   96.085
  355.750    4.919    0.228    0.372   95.716
  356.000    5.055    0.262    0.388   91.684
  356.250    5.203    0.286    0.446   88.446
  356.500    5.267    0.269    0.458   91.801
  356.750    5.211    0.248    0.424   94.180
  357.000    5.108    0.257    0.399   90.697
  357.250    5.460    0.337    0.433   77.142
  357.500    5.925    0.411    0.519   65.906
  357.750    5.743    0.439    0.563   62.424
  358.000    5.046    0.361    0.516   66.694
  358.250    4.190    0.301    0.456   68.889
  358.500    3.655    0.318    0.419   69.864
  358.750    3.285    0.319    0.409   67.785
  359.000    2.887    0.314    0.407   66.257
  359.250    2.694    0.316    0.409   67.781
  359.500    2.587    0.318    0.405   69.731
  359.750    2.559    0.320    0.389   71.439
  360.000    2.552    0.321    0.406   71.070
  360.250    2.539    0.320    0.414   66.488
  360.500    2.527    0.324    0.415   64.044
  360.750    2.529    0.311    0.405   58.608
  361.000    2.531    0.301    0.398   62.451
  361.250    2.528    0.294    0.389   63.303
  361.500    2.516    0.290    0.380   58.783
  361.750    2.508    0.294    0.373   59.574
  362.000    2.495    0.308    0.373   61.281
  362.250    2.464    0.316    0.387   61.401
  362.500    2.438    0.316    0.401   59.200
  362.750    2.395    0.317    0.398   57.916
  363.000    2.365    0.331    0.389   57.608
  363.250    2.301    0.331    0.382   58.154
  363.500    2.273    0.321    0.378   57.175
  363.750    2.261    0.315    0.376   57.722
  364.000    2.246    0.329    0.384   60.039
  364.250    2.235    0.323    0.399   61.685
  364.500    2.232    0.317    0.402   62.354
  364.750    2.221    0.313    0.397   61.619
  365.000    2.214    0.312    0.403   57.160
  365.250    2.212    0.313    0.417   56.364
  365.500    2.209    0.316    0.411   59.535
  365.750    2.211    0.316    0.405   61.242
  366.000    2.205    0.317    0.416   60.934
  366.250    2.198    0.317    0.422   61.603
  366.500    2.187    0.317    0.414   63.676
  366.750    2.184    0.317    0.403   66.177
  367.000    2.223    0.316    0.394   66.113
  367.250    2.409    0.311    0.387   64.157
  367.500    2.579    0.300    0.388   67.695
  367.750    2.799    0.288    0.383   72.699
  368.000    3.015    0.266    0.397   81.853
  368.250    3.175    0.239    0.414   92.901
  368.500    3.249    0.230    0.425   97.721
  368.750    3.295    0.223    0.433   97.108
  369.000    3.385    0.221    0.446  100.157
  369.250    3.511    0.227    0.464  102.109
  369.500    3.540    0.219    0.443  104.731
  369.750    3.516    0.206    0.417  104.301
  370.000    3.447    0.246    0.424   91.296
  370.250    3.398    0.290    0.433   80.975
  370.500    3.312    0.306    0.422   73.769
  370.750    3.234    0.295    0.405   73.400
  371.000    3.188    0.289    0.400   74.558
  371.250    3.166    0.287    0.409   77.424
  371.500    3.259    0.289    0.418   78.765
  371.750    3.336    0.282    0.423   74.061
  372.000    3.358    0.280    0.421   68.686
  372.250    3.360    0.291    0.413   65.693
  372.500    3.313    0.298    0.407   73.931
  372.750    3.235    0.301    0.405   78.447
  373.000    3.123    0.309    0.423   84.427
  373.250    3.021    0.313    0.437   89.003
  373.500    2.923    0.315    0.441   86.558
  373.750    2.844    0.301    0.425   81.367
  374.000    2.803    0.290    0.411   78.434
  374.250    2.748    0.275    0.412   76.539
  374.500    2.714    0.260    0.415   76.841
  374.750    2.695    0.275    0.412   76.595
  375.000    2.692    0.294    0.403   73.112
  375.250    2.719    0.305    0.393   70.546
  375.500    2.810    0.297    0.402   74.206
  375.750    2.976    0.284    0.407   77.866
  376.000    3.075    0.274    0.401   81.832
  376.250    3.189    0.263    0.389   83.294
  376.500    3.277    0.269    0.396   79.751
  376.750    3.329    0.272    0.402   78.650
