~VERSION INFORMATION
 VERS.                 2.0:   CWLS LOG ASCII STANDARD -VERSION 2.0
 WRAP.                  NO:   ONE LINE PER DEPTH STEP
~WELL INFORMATION BLOCK
#MNEM.UNIT           DATA                    DESCRIPTION OF MNEMONIC
#---------    -------------------            -------------------------------
# Generated from Intellog Unique Number	CS_71_72/WELL/3327
WELL.         ALLIED ROXANA MINERALS LTD.    : Well_name    - WELL
LOC .         00/10-32-072-13W4/0            : Location     - LOCATION
UWI .         00/10-32-072-13W4/0            : Uwi          - UNIQUE WELL ID
ENTR.         JOETTE                         : Entered      - ENTERED BY
SRVC.         SCHLUMBERGER                   : Scn          - SERVICE COMPANY
DATE.         05/13/92                       : Date         - LOG DATE
STRT.M        320.04                         : top_depth    - START DEPTH
STOP.M        533.29                         : bot_depth    - STOP DEPTH
STEP.M        0.25                           : increment    - STEP LENGTH
 NULL. -999.2500:NULL Value
~CURVE INFORMATION BLOCK
#MNEM UNIT       ERCB CURVE CODE    CURVE DESCRIPTION
#-----------   ------------------   ----------------------------------
DEPT.M        00 001 00 00         : DEPTH        - DEPTH
NPHI.V/V      00 330 00 00         : PHIN         - NEUTRON POROSITY (SANDSTONE)
GR  .API      00 310 00 00         : GR           - GAMMA RAY
CALI.MM       00 280 01 00         : CAL          - CALIPER
DPHI.V/V      00 890 00 00         : PHID         - DENSITY POROSITY (SANDSTONE)
ILD .OHMM     00 120 00 00         : RESD         - DEEP RESISTIVITY (DIL)
~PARAMETER INFORMATION
#MNEM.UNIT           DATA             DESCRIPTION OF MNEMONIC
#---------         -----------     ------------------------------
GL  .M        656.692              : gl           - GROUND LEVEL ELEVATION
EREF.M        659.74               : kb           - ELEVATION OF DEPTH REFERENCE
DATM.M        659.74               : datum        - DATUM ELEVATION
TDD .M        554.126              : tdd          - TOTAL DEPTH DRILLER
RUN .         ONE                  : Run          - RUN NUMBER
ENG .         BILL                 : Engineer     - RECORDING ENGINEER
WIT .         JIM                  : Witness      - WITNESSED BY
MUD .         GEL                  : Mud_type     - MUD TYPE
MATR.         SANDSTONE            : Logunit      - NEUTRON MATRIX
TMAX.C        25.5556              : BHT          - MAXIMUM RECORDED TEMPERATURE
BHTD.M        554.126              : BHTDEP       - MAXIMUM RECORDED TEMPERATURE
MATR.         1                    : LOGUNIT      - NEUTRON MATRIX
RMT .C        21.1111              : MDTP         - TEMPERATURE OF MUD
NEUT.         1                    : NEUTRON      - NEUTRON TYPE
RESI.         0                    : RESIST       - RESISTIVITY TYPE
RMC .OHMM     3.41                 : RMC          - RESISTIVITY OF MUD CAKE
RMF .OHMM     3.47                 : RMF          - RESISTIVITY OF MUD FILTRATE
SUFT.C        4                    : SUFT         - SURFACE TEMPERATURE
~A  DEPTH     PHIN       GR      CAL     PHID     RESD
# ...
  429.540    0.566   85.301  168.788    0.265   15.684
  429.790    0.564   87.168  168.857    0.267   15.085
  430.040    0.560   83.536  167.889    0.277   14.283
  430.290    0.530   79.914  167.975    0.285   14.089
  430.540    0.516   78.731  168.044    0.282   14.311
  430.790    0.518   78.772  167.111    0.280   14.520
  431.040    0.536   80.659  167.180    0.279   14.739
  431.290    0.533   85.596  167.231    0.277   15.161
  431.540    0.531   85.626  166.264    0.277   15.176
  431.790    0.539   80.168  166.350    0.272   15.182
  432.040    0.540   78.995  165.382    0.271   14.999
  432.290    0.532   79.016  164.397    0.275   15.002
  432.540    0.526   79.689  165.520    0.274   15.021
  432.790    0.564   81.555  167.661    0.271   15.033
  433.040    0.599   84.656  169.803    0.267   14.841
  433.290    0.619   88.981  176.107    0.260   14.449
  433.540    0.638   94.540  181.341    0.260   14.252
  433.790    0.669   98.253  185.556    0.252   13.246
  434.040    0.672  100.742  187.714    0.246   11.834
  434.290    0.670   98.345  187.800    0.238    9.813
  434.540    0.676   97.151  187.852    0.240    8.194
  434.790    0.682   95.356  187.955    0.246    6.785
  435.040    0.707   97.865  187.990    0.254    5.788
  435.290    0.710   97.895  188.076    0.251    5.594
  435.540    0.678   96.110  188.127    0.255    5.600
  435.790    0.630   94.325  184.051    0.261    6.225
  436.040    0.575   93.733  175.863    0.262    7.049
  436.290    0.512   92.560  174.895    0.263    8.895
  436.540    0.522   93.212  176.000    0.261   10.946
  436.790    0.534   93.865  176.052    0.254   11.769
  437.040    0.541   92.681  177.174    0.248   12.801
  437.290    0.538   90.274  177.260    0.247   12.813
  437.540    0.544   89.713  176.293    0.246   12.832
  437.790    0.531   90.978  175.308    0.262   12.634
  438.040    0.531   89.794  175.394    0.264   12.646
  438.290    0.554   88.611  175.446    0.261   12.455
  438.540    0.556   95.384  177.605    0.254   12.467
  438.790    0.551   94.812  179.746    0.260   12.485
  439.040    0.548   88.733  180.869    0.266   12.497
  439.290    0.552   85.713  179.901    0.274   12.506
  439.540    0.558   86.366  173.752    0.275   12.521
  439.790    0.567   86.427  169.658    0.275   12.533
  440.040    0.565   84.009  166.634    0.270   12.548
  440.290    0.540   79.765  166.686    0.263   12.761
  440.540    0.488   73.686  164.699    0.250   13.183
  440.790    0.448   68.228  164.751    0.221   13.802
  441.040    0.406   65.198  164.854    0.198   14.428
  441.290    0.555   66.473  165.977    0.196   14.847
  441.540    0.552   70.788  166.028    0.260   14.862
  441.790    0.533   76.347  167.134    0.250   14.668
  442.040    0.390   67.819  168.239    0.229   14.683
  442.290    0.338   59.903  169.344    0.196   14.692
  442.540    0.374   56.272  170.466    0.181   15.117
  442.790    0.481   59.393  170.518    0.275   15.330
  443.040    0.450   59.423  171.658    0.280   16.165
  443.290    0.420   59.464  172.729    0.252   16.371
  443.540    0.362   59.515  173.834    0.194   16.994
  443.790    0.419   59.535  171.864    0.173   17.413
  444.040    0.487   62.656  166.751    0.217   18.039
  444.290    0.501   66.359  163.711    0.247   18.667
  444.540    0.496   74.356  162.760    0.269   18.673
  444.790    0.474   71.347  162.812    0.278   18.075
  445.040    0.462   68.939  161.844    0.284   16.459
  445.290    0.513   68.980  161.913    0.289   15.456
  445.540    0.534   70.857  160.946    0.296   14.651
  445.790    0.530   72.744  159.995    0.287   14.053
  446.040    0.507   73.386  160.081    0.281   13.658
  446.290    0.495   75.885  159.097    0.274   13.469
  446.540    0.494   78.384  159.183    0.264   13.481
  446.790    0.510   81.475  160.271    0.267   13.493
  447.040    0.541   84.586  160.357    0.280   13.505
  447.290    0.535   79.108  161.445    0.295   13.521
  447.540    0.522   75.476  161.514    0.309   13.530
  447.790    0.534   71.855  162.619    0.308   13.140
  448.040    0.547   73.120  163.741    0.301   12.743
  448.290    0.540   74.996  164.847    0.294   12.551
  448.540    0.547   75.037  165.969    0.281   12.360
  448.790    0.533   75.078  167.057    0.271   12.372
  449.040    0.502   75.731  170.252    0.270   12.593
  449.290    0.485   80.066  172.377    0.261   12.809
  449.540    0.511   86.839  173.499    0.243   13.030
  449.790    0.537   85.655  174.639    0.228   13.243
  450.040    0.549   80.800  175.727    0.233   13.249
  450.290    0.547   78.392  175.778    0.242   13.468
  450.540    0.546   82.727  175.864    0.248   13.680
  450.790    0.543   86.440  175.933    0.261   13.695
  451.040    0.527   88.949  176.002    0.267   13.713
  451.290    0.533   88.358  176.071    0.258   13.719
  451.540    0.533   87.796  176.157    0.247   13.735
  451.790    0.514   86.001  177.262    0.249   13.747
  452.040    0.512   84.205  177.331    0.253   13.962
  452.290    0.513   86.092  178.436    0.254   13.974
  452.540    0.507   87.959  178.505    0.258   14.193
  452.790    0.498   89.224  178.574    0.261   14.408
  453.040    0.493   86.816  178.643    0.252   14.420
  453.290    0.498   86.255  178.712    0.252   14.639
  453.540    0.484   88.744  179.834    0.247   14.648
  453.790    0.502   89.397  179.903    0.230   14.666
  454.040    0.597   87.601  179.989    0.235   14.472
  454.290    0.602   85.194  180.058    0.249   14.277
  454.540    0.574   84.622  180.144    0.254   13.478
  454.790    0.547   84.673  180.178    0.260   13.284
  455.040    0.544   84.714  180.264    0.263   13.296
  455.290    0.517   86.590  180.316    0.248   13.308
  455.540    0.513   91.527  180.402    0.257   13.326
  455.790    0.580   92.792  184.616    0.269   13.338
  456.040    0.596   90.385  187.794    0.271   13.143
  456.290    0.609   88.599  185.791    0.262   12.955
  456.540    0.598   88.650  184.840    0.251   12.560
  456.790    0.561   89.915  184.909    0.240   12.168
  457.040    0.536   90.567  186.014    0.231   12.387
  457.290    0.521   89.384  188.173    0.228   12.599
  457.540    0.540   89.425  191.351    0.229   12.812
  457.790    0.584   90.088  192.456    0.232   12.824
  458.040    0.600   91.342  192.508    0.237   12.432
  458.290    0.609   93.219  188.466    0.237   11.630
  458.540    0.610   94.494  186.444    0.239   11.028
  458.790    0.603   94.534  181.331    0.243   10.026
  459.040    0.579   89.067  179.345    0.242    9.631
  459.290    0.549   84.823  180.467    0.220    9.239
  459.540    0.537   80.590  183.645    0.187    9.248
  459.790    0.521   79.396  181.641    0.175   10.281
  460.040    0.428   77.600  179.637    0.150   11.717
  460.290    0.352   77.641  177.616    0.125   13.564
  460.540    0.422   79.528  175.612    0.177   15.204
  460.790    0.538   81.395  176.717    0.224   17.048
  461.040    0.530   87.566  177.840    0.226   18.892
  461.290    0.500   92.503  178.928    0.217   20.939
  461.540    0.511   92.554  179.014    0.215   19.119
  461.790    0.525   93.207  179.083    0.217   16.893
  462.040    0.536   94.481  179.151    0.232   15.687
  462.290    0.571   93.910  179.237    0.240   14.885
  462.540    0.591   92.115  179.289    0.233   14.693
  462.790    0.560   90.931  179.358    0.239   14.304
  463.040    0.556   92.808  179.461    0.238   13.906
  463.290    0.562   96.531  179.547    0.233   13.107
  463.540    0.569   99.010  179.582    0.227   12.910
  463.790    0.576   95.378  181.723    0.221   12.515
  464.040    0.550   87.462  185.955    0.213   12.323
  464.290    0.487   75.874  183.951    0.199   12.338
  464.540    0.421   69.794  179.874    0.189   12.554
  464.790    0.383   66.162  174.778    0.158   13.177
  465.040    0.343   68.651  175.866    0.147   13.799
  465.290    0.328   74.823  179.044    0.121   14.829
  465.540    0.505   83.432  186.385    0.160   16.469
  465.790    0.571   95.101  194.762    0.169   18.930
