~VERSION INFORMATION
 VERS.                 2.0:   CWLS LOG ASCII STANDARD -VERSION 2.0
 WRAP.                  NO:   ONE LINE PER DEPTH STEP
~WELL INFORMATION BLOCK
#MNEM.UNIT           DATA                    DESCRIPTION OF MNEMONIC
#---------    -------------------            -------------------------------
# Generated from Intellog Unique Number	CS_71_72/WELL/896
WELL.         SUN CALLING LAKE               : Well_name    - WELL
LOC .         00/11-10-072-18W4/0            : Location     - LOCATION
UWI .         00/11-10-072-18W4/0            : Uwi          - UNIQUE WELL ID
ENTR.         SP                             : Entered      - ENTERED BY
SRVC.         SCHLUMBERGER                   : Scn          - SERVICE COMPANY
STRT.M        285                            : top_depth    - START DEPTH
STOP.M        465                            : bot_depth    - STOP DEPTH
STEP.M        0.25                           : increment    - STEP LENGTH
 NULL. -999.2500:NULL Value
~CURVE INFORMATION BLOCK
#MNEM UNIT       ERCB CURVE CODE    CURVE DESCRIPTION
#-----------   ------------------   ----------------------------------
DEPT.M        00 001 00 00         : DEPTH        - DEPTH
ILD .OHMM     00 120 00 00         : RESD         - DEEP RESISTIVITY (DIL)
DPHI.V/V      00 890 00 00         : PHID         - DENSITY POROSITY (LIMESTONE)
NPHI.V/V      00 330 00 00         : PHIN         - NEUTRON POROSITY (LIMESTONE)
GR  .API      00 310 00 00         : GR           - GAMMA RAY
~PARAMETER INFORMATION
#MNEM.UNIT           DATA             DESCRIPTION OF MNEMONIC
#---------         -----------     ------------------------------
GL  .M        598                  : gl           - GROUND LEVEL ELEVATION
EREF.M        598.6                : kb           - ELEVATION OF DEPTH REFERENCE
DATM.M        598                  : datum        - DATUM ELEVATION
TDD .M        486                  : tdd          - TOTAL DEPTH DRILLER
RUN .         ONE                  : Run          - RUN NUMBER
ENG .         BILL                 : Engineer     - RECORDING ENGINEER
WIT .         JIM                  : Witness      - WITNESSED BY
MUD .         GEL                  : Mud_type     - MUD TYPE
MATR.         LIMESTONE            : Logunit      - NEUTRON MATRIX
TMAX.C        27.8                 : BHT          - MAXIMUM RECORDED TEMPERATURE
BHTD.M        486                  : BHTDEP       - MAXIMUM RECORDED TEMPERATURE
MATR.         1                    : LOGUNIT      - NEUTRON MATRIX
RMT .C        25                   : MDTP         - TEMPERATURE OF MUD
NEUT.         1                    : NEUTRON      - NEUTRON TYPE
RESI.         0                    : RESIST       - RESISTIVITY TYPE
RMC .OHMM     0.25                 : RMC          - RESISTIVITY OF MUD CAKE
RMF .OHMM     0.25                 : RMF          - RESISTIVITY OF MUD FILTRATE
SUFT.C        15                   : SUFT         - SURFACE TEMPERATURE
~A  DEPTH     RESD     PHID     PHIN       GR
  285.000    2.613    0.258    0.564   96.573
  285.250    2.713    0.281    0.573   97.804
  285.500    2.714    0.274    0.578   96.609
  285.750    2.665    0.258    0.571   96.016
  286.000    2.666    0.265    0.549   96.032
  286.250    2.668    0.263    0.533   96.055
  286.500    2.719    0.252    0.539   94.858
  286.750    2.720    0.251    0.547   94.875
  287.000    2.771    0.265    0.567   95.496
  287.250    2.824    0.268    0.572   97.340
  287.500    2.878    0.287    0.585   97.963
  287.750    3.043    0.289    0.551   97.371
  288.000    3.159    0.315    0.553   96.781
  288.250    3.279    0.304    0.561   95.592
  288.500    3.280    0.309    0.568   95.601
  288.750    3.343    0.299    0.552   94.407
  289.000    3.470    0.283    0.545   92.606
  289.250    3.471    0.277    0.543   90.799
  289.500    3.473    0.288    0.541   91.427
  289.750    3.474    0.299    0.529   92.050
  290.000    3.289    0.279    0.537   91.457
  290.250    3.170    0.272    0.535   90.259
  290.500    3.057    0.278    0.543   89.065
  290.750    3.002    0.287    0.549   89.692
  291.000    2.948    0.283    0.558   90.931
  291.250    2.896    0.291    0.565   92.161
  291.500    2.951    0.307    0.550   93.390
  291.750    3.007    0.277    0.552   94.011
  292.000    3.064    0.288    0.565   95.860
  292.250    3.122    0.283    0.580   96.478
  292.500    3.124    0.248    0.565   98.320
  292.750    3.125    0.220    0.570   98.942
  293.000    3.069    0.211    0.551   97.750
  293.250    3.014    0.204    0.533   97.760
  293.500    2.960    0.227    0.543  100.210
  293.750    2.961    0.260    0.551  101.440
  294.000    3.018    0.283    0.552  102.064
  294.250    3.133    0.269    0.555   99.652
  294.500    3.313    0.282    0.566   91.167
  294.750    3.439    0.310    0.577   81.470
  295.000    3.915    0.332    0.584   77.233
  295.250    4.458    0.361    0.590   72.394
  295.500    4.713    0.386    0.597   69.980
  295.750    4.893    0.381    0.502   67.570
  296.000    4.805    0.360    0.485   61.513
  296.250    4.633    0.386    0.483   51.818
  296.500    4.466    0.419    0.497   48.186
  296.750    4.227    0.426    0.506   47.598
  297.000    4.076    0.387    0.490   52.479
  297.250    4.078    0.350    0.454   54.922
  297.500    4.079    0.330    0.450   59.196
  297.750    4.157    0.330    0.457   62.248
  298.000    4.396    0.329    0.453   65.304
  298.250    4.563    0.328    0.455   69.571
  298.500    4.650    0.321    0.462   74.448
  298.750    4.827    0.323    0.452   79.328
  299.000    4.919    0.306    0.442   81.769
  299.250    4.922    0.299    0.440   85.435
  299.500    4.923    0.288    0.446   87.879
  299.750    4.925    0.283    0.458   92.150
  300.000    5.018    0.270    0.468   95.816
  300.250    5.114    0.262    0.474   97.648
  300.500    5.212    0.254    0.456   94.629
  300.750    5.410    0.249    0.453   92.217
  301.000    5.513    0.243    0.451   91.626
  301.250    5.618    0.247    0.441   93.468
  301.500    5.833    0.245    0.430   92.882
  301.750    5.836    0.242    0.425   94.725
  302.000    5.946    0.233    0.425   96.558
  302.250    5.948    0.220    0.430   99.613
  302.500    6.063    0.232    0.435   92.959
  302.750    6.064    0.255    0.437   91.150
  303.000    6.066    0.256    0.435   89.341
  303.250    5.849    0.250    0.440   87.537
  303.500    5.744    0.266    0.447   85.731
  303.750    5.437    0.268    0.452   83.927
  304.000    5.339    0.281    0.461   83.948
  304.250    5.054    0.270    0.454   87.612
  304.500    4.964    0.267    0.454   89.445
  304.750    4.874    0.284    0.457   94.331
  305.000    4.876    0.291    0.461   95.555
  305.250    4.790    0.282    0.462   97.396
  305.500    4.791    0.270    0.460   99.234
  305.750    4.793    0.244    0.455  102.295
  306.000    4.621    0.230    0.467  104.741
  306.250    4.456    0.186    0.491  104.146
  306.500    4.217    0.178    0.515   98.704
  306.750    4.141    0.183    0.534   97.499
  307.000    3.920    0.204    0.544  101.161
  307.250    3.779    0.217    0.548  106.650
  307.500    3.512    0.245    0.558  110.921
  307.750    3.385    0.247    0.562  112.754
  308.000    3.204    0.237    0.569  115.203
  308.250    3.147    0.246    0.550  116.440
  308.500    3.091    0.238    0.546  115.240
  308.750    3.035    0.237    0.553  115.258
  309.000    2.981    0.237    0.555  117.100
  309.250    2.928    0.231    0.552  118.936
  309.500    3.039    0.267    0.564  120.166
  309.750    3.273    0.294    0.557  118.973
  310.000    3.592    0.284    0.541  115.951
  310.250    4.014    0.271    0.518  112.932
  310.500    4.655    0.260    0.482  107.487
  310.750    5.301    0.254    0.460  102.645
  311.000    5.604    0.238    0.441   99.622
  311.250    5.818    0.231    0.445   95.392
  311.500    5.929    0.249    0.463   91.158
  311.750    5.931    0.266    0.457   86.924
  312.000    5.934    0.274    0.450   86.941
  312.250    5.935    0.268    0.453   90.000
  312.500    5.829    0.228    0.471   91.838
  312.750    5.725    0.220    0.491   93.671
  313.000    5.520    0.231    0.502   96.732
  313.250    5.522    0.233    0.508   99.181
  313.500    5.525    0.212    0.505  101.016
  313.750    5.526    0.237    0.494  102.249
  314.000    5.633    0.257    0.468   98.621
  314.250    5.634    0.267    0.442   91.962
  314.500    5.637    0.263    0.439   90.151
  314.750    5.639    0.269    0.453   87.133
  315.000    5.641    0.286    0.466   81.079
  315.250    5.643    0.287    0.475   77.451
  315.500    5.647    0.285    0.456   75.646
  315.750    5.754    0.285    0.443   79.313
  316.000    5.756    0.291    0.444   79.937
  316.250    5.865    0.293    0.458   79.348
  316.500    5.977    0.294    0.464   79.368
  316.750    6.205    0.270    0.472   81.206
  317.000    6.323    0.255    0.459   85.479
  317.250    6.565    0.240    0.445   87.312
  317.500    6.566    0.223    0.435   90.982
  317.750    6.817    0.222    0.427   91.602
  318.000    6.819    0.229    0.426   92.223
  318.250    6.822    0.232    0.438   92.846
  318.500    6.457    0.238    0.446   93.478
  318.750    6.000    0.225    0.442   93.491
  319.000    5.784    0.219    0.450   94.722
  319.250    5.577    0.221    0.454   97.167
  319.500    5.477    0.229    0.470  101.439
  319.750    5.378    0.241    0.493  105.711
  320.000    5.381    0.247    0.500  108.163
  320.250    5.383    0.241    0.478  109.386
  320.500    5.485    0.237    0.474  112.443
  320.750    5.695    0.239    0.470  114.281
  321.000    5.697    0.244    0.471  107.623
  321.250    5.914    0.254    0.479  105.205
  321.500    6.139    0.256    0.487  101.578
  321.750    6.492    0.261    0.476   97.956
  322.000    6.493    0.234    0.447   97.972
  322.250    6.378    0.225    0.427  101.635
  322.500    6.149    0.226    0.423  105.909
  322.750    5.506    0.220    0.421  106.527
  323.000    4.930    0.249    0.444  106.543
  323.250    4.497    0.275    0.468  104.143
  323.500    4.179    0.297    0.485  104.155
  323.750    3.742    0.316    0.513  104.167
  324.000    3.607    0.342    0.537  103.586
  324.250    3.230    0.358    0.558  101.780
  324.500    2.840    0.291    0.543   98.760
  324.750    2.590    0.267    0.527   96.342
  325.000    2.363    0.253    0.521   91.503
  325.250    2.592    0.245    0.506   86.663
  325.500    3.486    0.236    0.503   82.425
  325.750    3.824    0.248    0.503   78.195
  326.000    4.955    0.259    0.497   75.181
  326.250    5.746    0.271    0.481   74.590
  326.500    6.076    0.304    0.472   75.822
  326.750    5.543    0.325    0.466   75.841
  327.000    5.443    0.324    0.458   74.638
  327.250    5.755    0.302    0.456   73.439
  327.500    6.433    0.273    0.459   71.032
  327.750    7.058    0.260    0.479   68.616
  328.000    7.744    0.283    0.496   72.890
  328.250    8.188    0.295    0.516   80.800
