~VERSION INFORMATION
 VERS.                 2.0:   CWLS LOG ASCII STANDARD -VERSION 2.0
 WRAP.                  NO:   ONE LINE PER DEPTH STEP
~WELL INFORMATION BLOCK
#MNEM.UNIT           DATA                    DESCRIPTION OF MNEMONIC
#---------    -------------------            -------------------------------
# Generated from Intellog Unique Number	CW_82_90/WELL/1034
WELL.         14-09-083-23W4                 : Well_name    - WELL
LOC .         00/14-09-083-23W4/0            : Location     - LOCATION
UWI .         00/14-09-083-23W4/0            : Uwi          - UNIQUE WELL ID
ENTR.         JAYE                           : Entered      - ENTERED BY
SRVC.         SCHLUMBERGER                   : Scn          - SERVICE COMPANY
DATE.         05 FEB 86                      : Date         - LOG DATE
STRT.M        225                            : top_depth    - START DEPTH
STOP.M        435                            : bot_depth    - STOP DEPTH
STEP.M        0.25                           : increment    - STEP LENGTH
 NULL. -999.2500:NULL Value
~CURVE INFORMATION BLOCK
#MNEM UNIT       ERCB CURVE CODE    CURVE DESCRIPTION
#-----------   ------------------   ----------------------------------
DEPT.M        00 001 00 00         : DEPTH        - DEPTH
CALI.MM       00 280 01 00         : CAL          - CALIPER
GR  .API      00 310 00 00         : GR           - GAMMA RAY
NPHI.V/V      00 330 00 00         : PHIN         - NEUTRON POROSITY (SANDSTONE)
DPHI.V/V      00 890 00 00         : PHID         - DENSITY POROSITY (SANDSTONE)
ILD .OHMM     00 120 00 00         : RESD         - DEEP RESISTIVITY (DIL)
~PARAMETER INFORMATION
#MNEM.UNIT           DATA             DESCRIPTION OF MNEMONIC
#---------         -----------     ------------------------------
GL  .M        597.8                : gl           - GROUND LEVEL ELEVATION
EREF.M        601.4                : kb           - ELEVATION OF DEPTH REFERENCE
DATM.M        597.8                : datum        - DATUM ELEVATION
TDD .M        437                  : tdd          - TOTAL DEPTH DRILLER
RUN .         ONE                  : Run          - RUN NUMBER
ENG .         PATTERSON            : Engineer     - RECORDING ENGINEER
WIT .         WHALLEY              : Witness      - WITNESSED BY
BASE.         RD                   : Branch       - HOME BASE OF LOGGING UNIT
MUD .         GEL CHEM             : Mud_type     - MUD TYPE
MATR.         SANDSTONE            : Logunit      - NEUTRON MATRIX
TMAX.C        20                   : BHT          - MAXIMUM RECORDED TEMPERATURE
BHTD.M        437                  : BHTDEP       - MAXIMUM RECORDED TEMPERATURE
RMT .C        12                   : MDTP         - TEMPERATURE OF MUD
MUDD.KG/M     1080                 : MWT          - MUD DENSITY
NEUT.         1                    : NEUTRON      - NEUTRON TYPE
RESI.         0                    : RESIST       - RESISTIVITY TYPE
RM  .OHMM     3.55                 : RM           - RESISTIVITY OF MUD
RMC .OHMM     0                    : RMC          - RESISTIVITY OF MUD CAKE
RMF .OHMM     3.19                 : RMF          - RESISTIVITY OF MUD FILTRATE
SUFT.C        0                    : SUFT         - SURFACE TEMPERATURE
~A  DEPTH      CAL       GR     PHIN     PHID     RESD
# ...
  334.500  239.669   71.528    0.445    0.265    8.371
  334.750  241.983   69.199    0.443    0.284    8.301
  335.000  244.603   69.410    0.452    0.288    8.140
  335.250  241.039   71.604    0.465    0.272    7.893
  335.500  245.412   68.966    0.445    0.254    7.453
  335.750  246.898   71.838    0.445    0.239    7.065
  336.000  246.217   73.969    0.455    0.235    6.850
  336.250  245.025   70.778    0.463    0.240    6.807
  336.500  243.004   67.585    0.473    0.255    7.103
  336.750  242.532   63.768    0.452    0.286    7.755
  337.000  243.498   66.704    0.453    0.279    8.675
  337.250  247.261   72.797    0.465    0.264    8.919
  337.500  249.159   78.827    0.445    0.228    8.664
  337.750  249.918   78.852    0.450    0.243    8.166
  338.000  251.411   75.163    0.473    0.210    7.784
  338.250  252.589   68.256    0.430    0.123    7.867
  338.500  253.972   47.045    0.249    0.036    8.918
  338.750  255.046   42.674    0.182   -0.009   12.046
  339.000  255.812   40.844    0.171   -0.015   16.423
  339.250  255.957   40.313    0.176   -0.008   24.188
  339.500  256.107   48.324    0.200    0.030   27.114
  339.750  256.346   56.086    0.290    0.084   26.538
  340.000  255.972   67.688    0.355    0.139   24.049
  340.250  254.880   65.362    0.367    0.165   16.894
  340.500  255.247   67.739    0.378    0.183   11.982
  340.750  255.592   68.324    0.406    0.207    9.994
  341.000  255.732   67.604    0.423    0.233    8.972
  341.250  255.982   66.824    0.437    0.233    8.330
  341.500  255.820   65.492    0.451    0.230    7.926
  341.750  255.762   64.153    0.467    0.233    7.471
  342.000  255.803   62.322    0.490    0.242    7.043
  342.250  256.058   59.561    0.487    0.248    6.751
  342.500  255.993   59.894    0.492    0.248    6.460
  342.750  255.928   63.387    0.488    0.243    6.160
  343.000  255.666   68.488    0.472    0.237    6.027
  343.250  255.594   67.709    0.457    0.235    5.866
  343.500  255.432   70.891    0.449    0.230    5.754
  343.750  255.370   79.465    0.456    0.223    5.684
  344.000  255.205   80.415    0.461    0.222    5.690
  344.250  255.555   78.210    0.450    0.217    5.971
  344.500  255.598   79.538    0.435    0.213    6.409
  344.750  255.642   79.996    0.436    0.214    6.841
  345.000  255.683   78.348    0.443    0.218    7.343
  345.250  255.970   76.764    0.446    0.224    7.662
  345.500  256.187   75.736    0.467    0.223    7.862
  345.750  255.603   78.307    0.461    0.210    7.962
  346.000  255.239   80.309    0.449    0.204    7.940
  346.250  255.796   83.493    0.465    0.216    7.891
  346.500  256.147   77.509    0.454    0.221    7.867
  346.750  256.609   79.701    0.439    0.225    7.773
  347.000  257.053   84.929    0.447    0.229    7.711
  347.250  259.369   89.166    0.472    0.224    7.691
  347.500  260.956   93.276    0.462    0.217    7.669
  347.750  261.721   93.302    0.444    0.213    7.736
  348.000  261.455   89.487    0.442    0.211    7.952
  348.250  259.740   86.851    0.467    0.211    8.455
  348.500  256.075   83.036    0.467    0.208    9.043
  348.750  253.633   75.573    0.457    0.203    9.560
  349.000  252.237   74.919    0.432    0.197   10.126
  349.250  252.175   77.727    0.392    0.184   11.015
  349.500  252.524   82.642    0.425    0.138   11.428
  349.750  253.399   80.876    0.442    0.173   11.572
  350.000  254.363   67.774    0.417    0.195   11.456
  350.250  255.024   52.323    0.367    0.162   11.424
  350.500  256.208   54.643    0.363    0.118   10.995
  350.750  257.273   65.621    0.459    0.124   10.384
  351.000  258.145   79.080    0.472    0.150    9.659
  351.250  258.292   80.721    0.467    0.178    8.801
  351.500  257.814   82.847    0.459    0.180    8.202
  351.750  257.548   86.463    0.449    0.180    7.517
  352.000  257.386   86.302    0.446    0.185    7.140
  352.250  256.911   82.862    0.451    0.201    6.895
  352.500  256.753   79.728    0.463    0.211    6.685
  352.750  256.581   78.640    0.457    0.221    6.770
  353.000  256.116   77.737    0.444    0.224    7.010
  353.250  256.157   75.657    0.438    0.213    7.669
  353.500  256.193   71.658    0.477    0.206    8.562
  353.750  255.618   72.305    0.463    0.199    9.780
  354.000  254.113   74.809    0.437    0.192   10.618
  354.250  253.642   76.438    0.395    0.187   12.084
  354.500  253.371   72.937    0.387    0.180   12.847
  354.750  253.004   66.895    0.390    0.171   13.134
  355.000  252.833   63.889    0.401    0.173   12.783
  355.250  252.577   64.966    0.459    0.206   12.252
  355.500  252.410   69.200    0.463    0.224   11.659
  355.750  252.238   71.142    0.467    0.228   11.052
  356.000  252.286   69.438    0.475    0.237   10.340
  356.250  251.912   69.899    0.488    0.240    9.855
  356.500  251.334   72.954    0.498    0.234    9.379
  356.750  250.656   76.567    0.496    0.231    9.092
  357.000  250.597   75.975    0.481    0.234    9.382
  357.250  250.430   71.109    0.452    0.225    9.938
  357.500  251.606   64.821    0.401    0.201   10.853
  357.750  253.302   63.978    0.363    0.155   11.712
  358.000  253.653   64.809    0.367    0.180   13.054
  358.250  252.561   67.870    0.448    0.209   12.825
  358.500  250.952   74.393    0.455    0.222   12.205
  358.750  250.270   80.486    0.435    0.231   11.460
  359.000  249.695   85.278    0.425    0.225   10.782
  359.250  249.426   84.871    0.446    0.221    9.532
  359.500  248.749   82.232    0.443    0.220    9.021
  359.750  248.795   81.771    0.440    0.210    8.814
  360.000  248.725   81.603    0.424    0.203    8.674
  360.250  248.871   80.332    0.426    0.203    8.634
  360.500  250.054   73.917    0.452    0.205    8.578
  360.750  251.540   74.375    0.449    0.206    8.605
  361.000  253.129   76.320    0.434    0.211    8.666
  361.250  253.889   82.474    0.429    0.205    8.673
  361.500  254.557   88.441    0.425    0.194    8.882
  361.750  255.012   91.194    0.416    0.183    9.164
  362.000  255.358   87.564    0.414    0.186    9.493
  362.250  255.407   83.751    0.415    0.192    9.704
  362.500  255.649   81.987    0.415    0.195    9.786
  362.750  256.006   82.748    0.418    0.206    9.707
  363.000  256.352   84.818    0.430    0.216    9.552
  363.250  256.810   88.990    0.460    0.209    9.261
  363.500  256.859   90.624    0.480    0.200    9.000
  363.750  256.997   87.926    0.465    0.192    8.990
  364.000  256.943   81.018    0.426    0.191    9.542
  364.250  256.666   76.216    0.439    0.187   10.614
  364.500  255.679   65.035    0.384    0.170   12.081
  364.750  253.348   64.876    0.363    0.097   13.114
  365.000  251.740   71.713    0.376    0.132   13.892
  365.250  249.926   73.409    0.394    0.173   14.094
  365.500  247.798   72.629    0.427    0.190   13.511
  365.750  245.263   71.170    0.435    0.198   12.978
  366.000  241.282   71.502    0.431    0.222   12.654
  366.250  238.848   73.819    0.428    0.235   12.457
  366.500  237.860   76.630    0.426    0.255   12.261
  366.750  239.657   80.554    0.437    0.253   12.554
  367.000  245.273   80.394    0.428    0.235   13.251
  367.250  250.575   78.440    0.412    0.219   14.275
  367.500  254.329   70.850    0.382    0.203   15.642
  367.750  255.092   62.765    0.327    0.192   17.600
  368.000  254.108   59.012    0.308    0.112   20.874
  368.250  253.224   55.697    0.263    0.068   24.618
  368.500  253.263   51.450    0.238    0.031   31.016
  368.750  253.718   51.232    0.250    0.009   35.159
  369.000  253.862   57.260    0.326    0.025   31.030
  369.250  253.282   64.897    0.419    0.045   25.730
  369.500  252.705   68.885    0.433    0.174   19.275
  369.750  251.824   68.974    0.436    0.199   15.539
  370.000  252.586   70.855    0.441    0.218   13.686
  370.250  253.979   75.772    0.443    0.221   12.900
  370.500  254.325   76.913    0.415    0.215   12.438
  370.750  254.567   76.875    0.422    0.207   12.018
