~VERSION INFORMATION
 VERS.                 2.0:   CWLS LOG ASCII STANDARD -VERSION 2.0
 WRAP.                  NO:   ONE LINE PER DEPTH STEP
~WELL INFORMATION BLOCK
#MNEM.UNIT           DATA                    DESCRIPTION OF MNEMONIC
#---------    -------------------            -------------------------------
# Generated from Intellog Unique Number	CS_67_68/WELL/2202
WELL.         BVX LAC LA BICHE               : Well_name    - WELL
LOC .         00/11-03-067-13W4/0            : Location     - LOCATION
UWI .         00/11-03-067-13W4/0            : Uwi          - UNIQUE WELL ID
ENTR.         SP                             : Entered      - ENTERED BY
SRVC.         SCHLUMBERGER                   : Scn          - SERVICE COMPANY
STRT.M        310                            : top_depth    - START DEPTH
STOP.M        495                            : bot_depth    - STOP DEPTH
STEP.M        0.25                           : increment    - STEP LENGTH
 NULL. -999.2500:NULL Value
~CURVE INFORMATION BLOCK
#MNEM UNIT       ERCB CURVE CODE    CURVE DESCRIPTION
#-----------   ------------------   ----------------------------------
DEPT.M        00 001 00 00         : DEPTH        - DEPTH
ILD .OHMM     00 120 00 00         : RESD         - DEEP RESISTIVITY (DIL)
DPHI.V/V      00 890 00 00         : PHID         - DENSITY POROSITY (LIMESTONE)
NPHI.V/V      00 330 00 00         : PHIN         - NEUTRON POROSITY (LIMESTONE)
GR  .API      00 310 00 00         : GR           - GAMMA RAY
CALI.MM       00 280 01 00         : CAL          - CALIPER
~PARAMETER INFORMATION
#MNEM.UNIT           DATA             DESCRIPTION OF MNEMONIC
#---------         -----------     ------------------------------
GL  .M        577.4                : gl           - GROUND LEVEL ELEVATION
EREF.M        580.3                : kb           - ELEVATION OF DEPTH REFERENCE
DATM.M        580.3                : datum        - DATUM ELEVATION
TDD .M        498                  : tdd          - TOTAL DEPTH DRILLER
RUN .         ONE                  : Run          - RUN NUMBER
ENG .         BILL                 : Engineer     - RECORDING ENGINEER
WIT .         JIM                  : Witness      - WITNESSED BY
MUD .         GEL                  : Mud_type     - MUD TYPE
MATR.         LIMESTONE            : Logunit      - NEUTRON MATRIX
TMAX.C        22                   : BHT          - MAXIMUM RECORDED TEMPERATURE
BHTD.M        495                  : BHTDEP       - MAXIMUM RECORDED TEMPERATURE
MATR.         1                    : LOGUNIT      - NEUTRON MATRIX
RMT .C        25                   : MDTP         - TEMPERATURE OF MUD
NEUT.         1                    : NEUTRON      - NEUTRON TYPE
RESI.         0                    : RESIST       - RESISTIVITY TYPE
RMC .OHMM     0.25                 : RMC          - RESISTIVITY OF MUD CAKE
RMF .OHMM     0.25                 : RMF          - RESISTIVITY OF MUD FILTRATE
SUFT.C        15                   : SUFT         - SURFACE TEMPERATURE
~A  DEPTH     RESD     PHID     PHIN       GR      CAL
# ...
  419.500    1.651    0.320    0.420   58.428  155.005
  419.750    1.630    0.316    0.417   56.554  155.518
  420.000    1.613    0.313    0.420   54.377  155.830
  420.250    1.601    0.310    0.422   56.806  156.140
  420.500    1.601    0.307    0.426   58.084  156.956
  420.750    1.602    0.314    0.419   57.725  158.986
  421.000    1.605    0.326    0.427   57.549  160.711
  421.250    1.605    0.326    0.429   57.675  160.820
  421.500    1.609    0.321    0.420   57.922  159.010
  421.750    1.609    0.323    0.410   58.351  158.615
  422.000    1.607    0.327    0.401   59.811  158.623
  422.250    1.604    0.329    0.410   61.755  159.237
  422.500    1.604    0.329    0.420   61.093  159.549
  422.750    1.611    0.322    0.428   59.886  158.850
  423.000    1.608    0.317    0.434   58.498  157.747
  423.250    1.611    0.329    0.426   56.805  156.341
  423.500    1.612    0.320    0.421   55.295  155.139
  423.750    1.627    0.326    0.415   54.573  154.741
  424.000    1.640    0.330    0.407   54.275  154.750
  424.250    1.658    0.333    0.408   54.764  154.960
  424.500    1.680    0.321    0.417   56.527  154.463
  424.750    1.706    0.315    0.427   58.533  154.270
  425.000    1.745    0.308    0.420   60.962  154.480
  425.250    1.835    0.296    0.417   61.027  154.589
  425.500    1.940    0.289    0.427   60.002  153.891
  425.750    2.098    0.314    0.430   59.703  153.091
  426.000    2.312    0.326    0.419   61.345  153.100
  426.250    2.528    0.287    0.412   64.017  154.118
  426.500    2.759    0.250    0.430   67.296  154.024
  426.750    2.924    0.212    0.442   69.481  153.730
  427.000    3.001    0.187    0.386   68.396  153.335
  427.250    2.860    0.161    0.327   67.067  153.142
  427.500    2.656    0.253    0.351   69.799  152.441
  427.750    2.480    0.280    0.386   71.319  153.562
  428.000    2.325    0.303    0.420   64.294  155.591
  428.250    2.232    0.327    0.443   59.572  157.114
  428.500    2.131    0.327    0.432   60.789  158.839
  428.750    2.088    0.334    0.442   63.582  160.261
  429.000    2.024    0.314    0.460   66.678  161.179
  429.250    1.987    0.297    0.453   67.592  160.682
  429.500    1.962    0.305    0.442   65.658  158.873
  429.750    1.970    0.327    0.447   64.935  157.567
  430.000    1.977    0.326    0.449   65.122  156.666
  430.250    2.022    0.319    0.446   64.521  155.665
  430.500    2.088    0.327    0.436   63.556  154.865
  430.750    2.183    0.330    0.432   65.441  154.267
  431.000    2.237    0.317    0.436   66.718  154.276
  431.250    2.267    0.297    0.440   69.268  154.688
  431.500    2.259    0.276    0.440   74.183  155.202
  431.750    2.277    0.261    0.438   80.005  153.088
  432.000    2.316    0.273    0.448   87.283  152.086
  432.250    2.329    0.272    0.469  102.743  159.671
  432.500    2.321    0.231    0.486  113.052  165.638
  432.750    2.232    0.247    0.503  116.208  172.415
  433.000    2.042    0.237    0.494  111.061  176.463
  433.250    1.886    0.225    0.485  110.097  175.057
  433.500    1.965    0.224    0.483  114.950  172.037
  433.750    2.117    0.202    0.475  118.713  170.227
  434.000    2.227    0.220    0.494  119.384  169.830
  434.250    2.381    0.218    0.508  116.541  171.050
  434.500    2.537    0.213    0.502  114.304  172.675
  434.750    2.648    0.205    0.506  112.369  176.420
  435.000    2.734    0.214    0.503  109.768  175.823
  435.250    2.828    0.204    0.487  110.197  171.085
  435.500    2.919    0.186    0.495  111.960  168.263
  435.750    3.093    0.195    0.483  112.147  171.201
  436.000    3.388    0.211    0.468  111.848  174.543
  436.250    3.874    0.215    0.470  110.945  177.784
  436.500    4.356    0.211    0.450  110.949  180.722
  436.750    4.790    0.220    0.446  107.197  174.368
  437.000    5.056    0.217    0.442  100.960  169.526
  437.250    5.133    0.202    0.419   95.207  164.584
  437.500    4.929    0.169    0.397   91.090  161.765
  437.750    4.750    0.139    0.372   83.095  161.773
  438.000    4.502    0.085    0.373   89.525  162.892
  438.250    4.235    0.128    0.404   96.439  164.314
  438.500    4.029    0.169    0.411  101.353  165.535
  438.750    3.897    0.156    0.418  103.418  163.624
  439.000    3.884    0.138    0.423  105.605  163.734
  439.250    3.892    0.178    0.417  108.459  164.549
  439.500    3.914    0.182    0.409  103.554  161.831
  439.750    3.944    0.190    0.402   95.438  160.022
  440.000    4.034    0.184    0.408   99.566  160.029
  440.250    4.227    0.178    0.415  101.691  159.937
  440.500    4.512    0.177    0.422   99.272  160.956
  440.750    4.834    0.194    0.429  100.913  160.761
  441.000    5.074    0.187    0.434  103.342  160.467
  441.250    5.199    0.169    0.431   99.407  160.071
  441.500    5.172    0.150    0.419   95.837  160.080
  441.750    5.106    0.129    0.400  100.509  160.390
  442.000    4.976    0.123    0.374  103.907  161.208
  442.250    4.805    0.148    0.390  109.368  161.924
  442.500    4.691    0.139    0.404  111.554  162.234
  442.750    4.580    0.164    0.412  111.255  162.141
  443.000    4.547    0.191    0.417  110.655  161.645
  443.250    4.591    0.196    0.419  107.932  163.067
  443.500    4.634    0.199    0.410  104.543  164.489
  443.750    4.696    0.203    0.399  103.760  162.275
  444.000    4.759    0.170    0.396  103.765  161.475
  444.250    4.786    0.166    0.407  104.983  162.393
  444.500    4.761    0.178    0.417  106.927  164.322
  444.750    4.700    0.188    0.422  108.326  165.439
  445.000    4.640    0.199    0.414  108.876  166.761
  445.250    4.728    0.194    0.407  108.761  167.073
  445.500    4.890    0.175    0.401  108.219  166.778
  445.750    4.983    0.171    0.396  103.316  164.867
  446.000    4.929    0.164    0.402  100.350  164.269
  446.250    4.912    0.144    0.403  103.083  164.783
  446.500    5.033    0.173    0.407  106.421  164.892
  446.750    5.196    0.189    0.417  108.123  164.903
  447.000    5.373    0.203    0.415  112.250  165.211
  447.250    5.547    0.203    0.402  116.315  166.533
  447.500    5.673    0.182    0.392  122.260  167.451
  447.750    5.814    0.163    0.393  125.658  168.771
  448.000    6.102    0.173    0.403  120.088  169.690
  448.250    6.636    0.179    0.408  111.729  168.587
  448.500    7.352    0.180    0.413  102.400  165.867
  448.750    7.818    0.194    0.407   92.587  162.643
  449.000    8.346    0.183    0.382   85.561  160.732
  449.250    8.504    0.120    0.356   78.112  159.225
  449.500    7.665    0.084    0.356   71.390  157.921
  449.750    6.308    0.118    0.363   73.152  157.728
  450.000    5.172    0.159    0.372   86.551  157.837
  450.250    4.132    0.180    0.380   97.162  158.957
  450.500    3.413    0.180    0.388   96.016  159.974
  450.750    2.953    0.183    0.399   95.900  162.205
  451.000    2.613    0.217    0.416   96.874  164.738
  451.250    2.431    0.234    0.432   96.879  171.110
  451.500    2.378    0.246    0.468   96.581  175.866
  451.750    2.369    0.228    0.483   97.314  175.875
  452.000    2.388    0.247    0.449  101.865  170.731
  452.250    2.410    0.239    0.432  106.597  166.194
  452.500    2.461    0.213    0.446  107.329  175.900
  452.750    2.607    0.227    0.475  107.516  183.081
  453.000    2.757    0.242    0.486  110.066  184.603
  453.250    2.921    0.200    0.481  108.313  177.035
  453.500    3.032    0.206    0.482  109.773  183.105
  453.750    3.160    0.204    0.489  109.535  189.375
  454.000    3.178    0.189    0.485  103.117  176.555
  454.250    3.185    0.158    0.463  101.242  161.917
  454.500    3.251    0.141    0.457  104.642  168.088
  454.750    3.369    0.226    0.464  104.404  174.965
  455.000    3.530    0.206    0.444  104.894  166.791
  455.250    3.853    0.201    0.451  107.143  169.728
  455.500    4.324    0.208    0.458  108.176  170.343
  455.750    4.871    0.198    0.460  109.394  164.492
