~VERSION INFORMATION
 VERS.                 2.0:   CWLS LOG ASCII STANDARD -VERSION 2.0
 WRAP.                  NO:   ONE LINE PER DEPTH STEP
~WELL INFORMATION BLOCK
#MNEM.UNIT           DATA                    DESCRIPTION OF MNEMONIC
#---------    -------------------            -------------------------------
# Generated from Intellog Unique Number	CS_73_76/WELL/2189
WELL.         AMOCO KIRBY                    : Well_name    - WELL
LOC .         00/10-15-074-06W4/0            : Location     - LOCATION
UWI .         00/10-15-074-06W4/0            : Uwi          - UNIQUE WELL ID
ENTR.         SP                             : Entered      - ENTERED BY
SRVC.         SCHLUMBERGER                   : Scn          - SERVICE COMPANY
STRT.M        235                            : top_depth    - START DEPTH
STOP.M        455                            : bot_depth    - STOP DEPTH
STEP.M        0.25                           : increment    - STEP LENGTH
 NULL. -999.2500:NULL Value
~CURVE INFORMATION BLOCK
#MNEM UNIT       ERCB CURVE CODE    CURVE DESCRIPTION
#-----------   ------------------   ----------------------------------
DEPT.M        00 001 00 00         : DEPTH        - DEPTH
DPHI.V/V      00 890 00 00         : PHID         - DENSITY POROSITY (LIMESTONE)
ILD .OHMM     00 120 00 00         : RESD         - DEEP RESISTIVITY (DIL)
NPHI.V/V      00 330 00 00         : PHIN         - NEUTRON POROSITY (LIMESTONE)
GR  .API      00 310 00 00         : GR           - GAMMA RAY
~PARAMETER INFORMATION
#MNEM.UNIT           DATA             DESCRIPTION OF MNEMONIC
#---------         -----------     ------------------------------
GL  .M        627.32               : gl           - GROUND LEVEL ELEVATION
EREF.M        631.57               : kb           - ELEVATION OF DEPTH REFERENCE
DATM.M        627.32               : datum        - DATUM ELEVATION
TDD .M        464                  : tdd          - TOTAL DEPTH DRILLER
RUN .         ONE                  : Run          - RUN NUMBER
ENG .         BILL                 : Engineer     - RECORDING ENGINEER
WIT .         JIM                  : Witness      - WITNESSED BY
MUD .         GEL                  : Mud_type     - MUD TYPE
MATR.         LIMESTONE            : Logunit      - NEUTRON MATRIX
TMAX.C        23                   : BHT          - MAXIMUM RECORDED TEMPERATURE
BHTD.M        464                  : BHTDEP       - MAXIMUM RECORDED TEMPERATURE
MATR.         1                    : LOGUNIT      - NEUTRON MATRIX
RMT .C        25                   : MDTP         - TEMPERATURE OF MUD
NEUT.         1                    : NEUTRON      - NEUTRON TYPE
RESI.         0                    : RESIST       - RESISTIVITY TYPE
RMC .OHMM     0.25                 : RMC          - RESISTIVITY OF MUD CAKE
RMF .OHMM     0.25                 : RMF          - RESISTIVITY OF MUD FILTRATE
SUFT.C        15                   : SUFT         - SURFACE TEMPERATURE
~A  DEPTH     PHID     RESD     PHIN       GR
# ...
  322.000    0.328    1.626    0.471   74.031
  322.250    0.327    1.626    0.471   74.657
  322.500    0.333    1.688    0.475   75.272
  322.750    0.310    1.719    0.487   75.895
  323.000    0.300    1.852    0.480   77.123
  323.250    0.307    1.887    0.466   78.352
  323.500    0.294    1.996    0.466   82.009
  323.750    0.274    2.072    0.482   85.669
  324.000    0.265    2.274    0.493   85.074
  324.250    0.270    2.404    0.466   82.055
  324.500    0.274    2.590    0.463   80.850
  324.750    0.248    2.689    0.482   83.293
  325.000    0.236    2.843    0.490   87.557
  325.250    0.241    2.844    0.496   94.255
  325.500    0.249    2.844    0.506   96.695
  325.750    0.255    2.845    0.518  100.961
  326.000    0.265    2.845    0.523  104.013
  326.250    0.253    2.793    0.518  106.458
  326.500    0.249    2.794    0.518  107.073
  326.750    0.237    2.794    0.521  105.873
  327.000    0.233    2.900    0.531  102.856
  327.250    0.227    2.901    0.537  101.651
  327.500    0.234    2.956    0.543  101.663
  327.750    0.251    3.126    0.539  101.677
  328.000    0.244    3.245    0.539  101.083
  328.250    0.242    3.306    0.560   99.275
  328.500    0.242    3.431    0.572   95.645
  328.750    0.248    3.629    0.604   93.232
  329.000    0.249    3.766    0.497   92.637
  329.250    0.231    3.983    0.482   93.863
  329.500    0.233    4.212    0.482   97.528
  329.750    0.232    4.292    0.484   98.142
  330.000    0.232    4.455    0.488   99.370
  330.250    0.240    4.455    0.494   98.777
  330.500    0.233    4.540    0.497  100.613
  330.750    0.232    4.540    0.506   97.595
  331.000    0.215    4.541    0.495   97.610
  331.250    0.216    4.542    0.486   97.618
  331.500    0.220    4.543    0.484   94.599
  331.750    0.207    4.544    0.488   94.610
  332.000    0.220    4.545    0.477   95.836
  332.250    0.207    4.379    0.486   97.674
  332.500    0.204    4.299    0.492   97.088
  332.750    0.212    4.221    0.497   97.098
  333.000    0.207    4.144    0.508   96.501
  333.250    0.209    3.920    0.491   96.514
  333.500    0.210    3.778    0.486   97.751
  333.750    0.210    3.641    0.491   98.976
  334.000    0.210    3.509    0.497  100.811
  334.250    0.225    3.319    0.498  102.036
  334.500    0.246    2.970    0.509  103.266
  334.750    0.256    2.809    0.513  102.066
  335.000    0.258    2.707    0.534  101.471
  335.250    0.246    2.658    0.548  104.522
  335.500    0.229    2.658    0.555  107.569
  335.750    0.234    2.811    0.545  106.977
  336.000    0.223    2.864    0.554  105.167
  336.250    0.237    2.919    0.552  107.619
  336.500    0.260    2.974    0.562  108.238
  336.750    0.261    3.087    0.568  108.248
  337.000    0.264    3.325    0.546  107.043
  337.250    0.247    3.859    0.534  102.807
  337.500    0.264    4.235    0.515   98.572
  337.750    0.240    4.647    0.500   95.549
  338.000    0.252    5.196    0.486   91.917
  338.250    0.267    5.598    0.469   84.037
  338.500    0.267    5.599    0.465   80.405
  338.750    0.266    5.296    0.457   75.560
  339.000    0.260    5.104    0.437   79.829
  339.250    0.288    5.011    0.439   82.268
  339.500    0.294    5.012    0.483   87.753
  339.750    0.277    4.921    0.491   90.800
  340.000    0.238    4.921    0.485   93.850
  340.250    0.219    5.014    0.498   92.041
  340.500    0.264    5.015    0.501   89.019
  340.750    0.282    5.110    0.506   87.211
  341.000    0.301    5.207    0.505   85.401
  341.250    0.298    5.305    0.494   82.986
  341.500    0.302    5.405    0.484   77.542
  341.750    0.290    5.508    0.458   76.335
  342.000    0.279    5.612    0.430   73.311
  342.250    0.277    5.718    0.417   70.289
  342.500    0.268    5.826    0.418   70.303
  342.750    0.283    5.827    0.430   73.959
  343.000    0.295    5.828    0.444   78.228
  343.250    0.291    5.829    0.461   80.060
  343.500    0.279    5.830    0.460   82.506
  343.750    0.274    5.940    0.440   83.731
  344.000    0.271    5.941    0.431   85.570
  344.250    0.268    6.053    0.436   87.409
  344.500    0.266    6.284    0.456   88.025
  344.750    0.258    6.522    0.477   89.251
  345.000    0.246    7.429    0.478   87.445
  345.250    0.235    8.620    0.473   84.423
  345.500    0.206   10.002    0.456   82.614
  345.750    0.127   10.978    0.401   75.950
  346.000    0.076   10.194    0.270   72.316
  346.250    0.140    9.120    0.343   75.370
  346.500    0.244    7.863    0.379   80.849
  346.750    0.256    6.654    0.439   87.542
  347.000    0.232    6.065    0.453   91.198
  347.250    0.226    5.954    0.455   94.859
  347.500    0.227    5.738    0.462   96.084
  347.750    0.218    5.739    0.453   96.705
  348.000    0.209    5.740    0.448   98.544
  348.250    0.215    5.741    0.445  100.376
  348.500    0.212    5.850    0.436  101.605
  348.750    0.203    6.072    0.421  101.014
  349.000    0.196    6.187    0.438  101.633
  349.250    0.196    6.665    0.448  103.471
  349.500    0.198    6.918    0.423  101.662
  349.750    0.205    7.049    0.417   99.852
  350.000    0.218    6.794    0.419   99.865
  350.250    0.219    6.669    0.425  101.703
  350.500    0.223    6.193    0.429   98.684
  350.750    0.219    5.858    0.446   98.085
  351.000    0.211    5.340    0.467   96.281
  351.250    0.214    4.958    0.480   97.506
  351.500    0.223    4.437    0.490  101.170
  351.750    0.226    4.197    0.493  102.393
  352.000    0.237    3.825    0.505  104.227
  352.250    0.251    3.552    0.526  106.063
  352.500    0.263    3.971    0.545   99.399
  352.750    0.272    4.358    0.534   95.162
  353.000    0.281    4.609    0.509   90.923
  353.250    0.285    4.696    0.488   87.292
  353.500    0.289    3.974    0.459   90.950
  353.750    0.289    3.426    0.480   95.827
  354.000    0.287    3.009    0.515  100.090
  354.250    0.285    2.643    0.540  103.745
  354.500    0.277    2.364    0.556  100.721
  354.750    0.272    2.644    0.563   95.272
  355.000    0.270    3.366    0.551   89.822
  355.250    0.276    3.834    0.510   86.794
  355.500    0.288    5.066    0.443   81.950
  355.750    0.306    7.623    0.372   75.892
  356.000    0.312   11.054    0.325   71.659
  356.250    0.289   14.075    0.295   69.240
  356.500    0.262   16.331    0.273   68.037
  356.750    0.168   17.270    0.279   66.233
  357.000    0.145   17.597    0.277   65.030
  357.250    0.103   16.958    0.249   62.615
  357.500    0.058   16.041    0.218   59.594
  357.750    0.058   14.353    0.204   58.391
  358.000    0.104   11.922    0.222   62.048
  358.250    0.140    9.194    0.358   72.385
  358.500    0.236    6.832    0.432   87.581
  358.750    0.248    5.782    0.459   92.454
  359.000    0.230    5.369    0.487   94.289
  359.250    0.215    5.370    0.502   91.873
  359.500    0.239    5.893    0.484   88.855
  359.750    0.249    5.786    0.470   87.649
  360.000    0.238    5.895    0.462   90.096
  360.250    0.225    5.896    0.472   94.367
  360.500    0.222    6.008    0.473   96.810
  360.750    0.223    5.683    0.465   98.643
  361.000    0.238    5.791    0.455  100.475
  361.250    0.243    5.792    0.445  101.708
  361.500    0.241    5.901    0.441  101.714
  361.750    0.218    5.902    0.447   98.697
  362.000    0.220    6.014    0.449   98.101
  362.250    0.224    6.015    0.451   98.111
  362.500    0.233    6.016    0.462   99.343
  362.750    0.236    6.017    0.469   99.964
  363.000    0.233    6.018    0.477   99.368
  363.250    0.232    6.019    0.477   95.740
  363.500    0.240    6.132    0.469   94.537
  363.750    0.252    6.133    0.459   94.550
  364.000    0.245    6.250    0.448   96.389
  364.250    0.248    6.251    0.437   98.225
  364.500    0.256    6.252    0.431  100.060
  364.750    0.262    6.253    0.419  100.072
  365.000    0.240    6.139    0.407  100.089
  365.250    0.228    5.916    0.427   99.494
