~VERSION INFORMATION
 VERS.                 2.0:   CWLS LOG ASCII STANDARD -VERSION 2.0
 WRAP.                  NO:   ONE LINE PER DEPTH STEP
~WELL INFORMATION BLOCK
#MNEM.UNIT           DATA                    DESCRIPTION OF MNEMONIC
#---------    -------------------            -------------------------------
# Generated from Intellog Unique Number	CS_73_76/WELL/3259
WELL.         T0TAL ET AL DEVENISH           : Well_name    - WELL
LOC .         00/11-08-075-08W4/0            : Location     - LOCATION
UWI .         00/11-08-075-08W4/0            : Uwi          - UNIQUE WELL ID
ENTR.         SP                             : Entered      - ENTERED BY
SRVC.         SCHLUMBERGER                   : Scn          - SERVICE COMPANY
STRT.M        275                            : top_depth    - START DEPTH
STOP.M        500                            : bot_depth    - STOP DEPTH
STEP.M        0.25                           : increment    - STEP LENGTH
 NULL. -999.2500:NULL Value
~CURVE INFORMATION BLOCK
#MNEM UNIT       ERCB CURVE CODE    CURVE DESCRIPTION
#-----------   ------------------   ----------------------------------
DEPT.M        00 001 00 00         : DEPTH        - DEPTH
ILD .OHMM     00 120 00 00         : RESD         - DEEP RESISTIVITY (DIL)
DPHI.V/V      00 890 00 00         : PHID         - DENSITY POROSITY (LIMESTONE)
NPHI.V/V      00 330 00 00         : PHIN         - NEUTRON POROSITY (LIMESTONE)
GR  .API      00 310 00 00         : GR           - GAMMA RAY
~PARAMETER INFORMATION
#MNEM.UNIT           DATA             DESCRIPTION OF MNEMONIC
#---------         -----------     ------------------------------
GL  .M        665.61               : gl           - GROUND LEVEL ELEVATION
EREF.M        669                  : kb           - ELEVATION OF DEPTH REFERENCE
DATM.M        665.61               : datum        - DATUM ELEVATION
TDD .M        514                  : tdd          - TOTAL DEPTH DRILLER
RUN .         ONE                  : Run          - RUN NUMBER
ENG .         BILL                 : Engineer     - RECORDING ENGINEER
WIT .         JIM                  : Witness      - WITNESSED BY
MUD .         GEL                  : Mud_type     - MUD TYPE
MATR.         LIMESTONE            : Logunit      - NEUTRON MATRIX
TMAX.C        23.8                 : BHT          - MAXIMUM RECORDED TEMPERATURE
BHTD.M        514                  : BHTDEP       - MAXIMUM RECORDED TEMPERATURE
MATR.         1                    : LOGUNIT      - NEUTRON MATRIX
RMT .C        25                   : MDTP         - TEMPERATURE OF MUD
NEUT.         1                    : NEUTRON      - NEUTRON TYPE
RESI.         0                    : RESIST       - RESISTIVITY TYPE
RMC .OHMM     0.25                 : RMC          - RESISTIVITY OF MUD CAKE
RMF .OHMM     0.25                 : RMF          - RESISTIVITY OF MUD FILTRATE
SUFT.C        15                   : SUFT         - SURFACE TEMPERATURE
~A  DEPTH     RESD     PHID     PHIN       GR
# ...
  449.000   13.598    0.259    0.352   82.374
  449.250   11.923    0.246    0.350   85.410
  449.500   10.856    0.249    0.360   86.010
  449.750    9.519    0.238    0.371   98.801
  450.000    9.339    0.219    0.387  113.423
  450.250    9.875    0.210    0.409  101.215
  450.500   10.640    0.218    0.401   87.178
  450.750   11.679    0.223    0.354   80.462
  451.000   12.351    0.231    0.330   72.522
  451.250   13.061    0.238    0.330   68.852
  451.500   13.305    0.237    0.326   69.448
  451.750   12.574    0.211    0.319   76.142
  452.000   11.235    0.165    0.326   83.448
  452.250    9.669    0.168    0.329   89.532
  452.500    8.802    0.173    0.332   88.911
  452.750    8.799    0.176    0.339   84.018
  453.000    8.796    0.149    0.326   80.958
  453.250    8.959    0.133    0.318   80.338
  453.500    8.957    0.162    0.328   80.327
  453.750    9.124    0.189    0.333   82.753
  454.000    9.120    0.188    0.337   85.791
  454.250    9.118    0.193    0.334   88.218
  454.500    8.779    0.208    0.338   86.377
  454.750    8.614    0.200    0.323   91.242
  455.000    8.452    0.149    0.319   97.325
  455.250    8.293    0.144    0.338   93.657
  455.500   14.002    0.191    0.396   68.036
  455.750   21.132    0.233    0.388   60.094
  456.000   25.001    0.258    0.384   55.816
  456.250   26.938    0.284    0.389   52.146
  456.500   27.438    0.300    0.401   51.524
  456.750   17.502    0.305    0.395   57.609
  457.000   13.463    0.263    0.347   66.742
  457.250   10.164    0.177    0.371   77.096
  457.500    9.972    0.181    0.412   86.838
  457.750   10.157    0.199    0.422   80.730
  458.000   10.347    0.209    0.389   74.011
  458.250   11.572    0.212    0.372   69.730
  458.500   13.949    0.237    0.370   66.669
  458.750   15.315    0.252    0.369   69.096
  459.000   19.896    0.234    0.364   64.206
  459.250   25.849    0.242    0.381   58.098
  459.500   33.582    0.289    0.395   48.329
  459.750   39.735    0.310    0.391   41.611
  460.000   47.009    0.309    0.379   45.867
  460.250   51.610    0.300    0.377   47.074
  460.500   55.600    0.296    0.373   50.107
  460.750   57.709    0.294    0.377   53.754
  461.000   64.541    0.291    0.384   57.401
  461.250   69.541    0.294    0.393   57.390
  461.500   79.250    0.298    0.387   47.621
  461.750   88.647    0.304    0.383   41.512
  462.000   99.157    0.312    0.383   39.672
  462.250  102.911    0.322    0.379   41.488
  462.500   99.088    0.325    0.368   46.961
  462.750   93.655    0.317    0.362   50.608
  463.000   86.858    0.312    0.371   49.989
  463.250   83.651    0.315    0.394   43.267
  463.500   80.549    0.324    0.393   39.596
  463.750   76.120    0.325    0.383   40.196
  464.000   73.306    0.319    0.375   43.232
  464.250   63.094    0.311    0.355   46.879
  464.500   50.385    0.271    0.333   52.355
  464.750   35.960    0.211    0.334   60.265
  465.000   27.662    0.231    0.376   65.740
  465.250   21.680    0.254    0.389   71.217
  465.500   16.992    0.261    0.398   74.866
  465.750   13.316    0.247    0.396   75.463
  466.000   11.248    0.241    0.388   76.670
  466.250   10.050    0.245    0.382   82.145
  466.500    8.813    0.228    0.383   89.449
  466.750    7.874    0.194    0.375   96.754
  467.000    7.442    0.183    0.364  107.107
  467.250    7.167    0.177    0.354  113.802
  467.500    7.031    0.175    0.348  113.788
  467.750    7.162    0.165    0.375  113.169
  468.000    7.295    0.161    0.397  111.328
  468.250    7.431    0.181    0.382  106.437
  468.500    8.005    0.199    0.374   99.107
  468.750    8.466    0.194    0.376   86.899
  469.000    9.293    0.205    0.368   75.304
  469.250   10.202    0.205    0.348   60.048
  469.500   11.411    0.213    0.335   49.672
  469.750   12.066    0.246    0.320   47.220
  470.000   11.840    0.257    0.309   58.184
  470.250   11.400    0.235    0.303   69.147
  470.500   10.186    0.196    0.296   80.110
  470.750    8.766    0.202    0.293   85.582
  471.000    8.442    0.180    0.293   85.572
  471.250    8.282    0.169    0.293   84.949
  471.500    8.280    0.161    0.291   83.108
  471.750    8.278    0.169    0.298   86.143
  472.000    8.431    0.153    0.303   87.963
  472.250    8.429    0.148    0.309   87.951
  472.500    8.427    0.165    0.341   73.306
  472.750    8.268    0.190    0.309   60.489
  473.000    8.112    0.209    0.294   68.403
  473.250    7.665    0.203    0.297   80.581
  473.500    7.522    0.184    0.320   84.840
  473.750    7.243    0.174    0.334   89.708
  474.000    7.105    0.178    0.340   87.257
  474.250    7.104    0.187    0.332   87.244
  474.500    7.236    0.185    0.327   93.322
  474.750    7.510    0.179    0.324   94.534
  475.000    7.794    0.153    0.310   95.744
  475.250    8.089    0.131    0.295   93.291
  475.500    8.395    0.118    0.304   87.180
  475.750    8.711    0.178    0.320   81.070
  476.000    9.042    0.200    0.332   75.574
  476.250    9.210    0.213    0.345   72.513
  476.500    9.557    0.201    0.313   81.036
  476.750    9.736    0.183    0.307   75.533
  477.000   10.295    0.185    0.321   70.647
  477.250   10.487    0.208    0.327   63.928
  477.500   10.289    0.227    0.336   70.620
  477.750    9.724    0.237    0.342   81.581
  478.000    9.189    0.174    0.341   87.668
  478.250    9.016    0.158    0.354   88.879
  478.500    9.013    0.174    0.345   85.817
  478.750    9.010    0.189    0.331   84.586
  479.000    9.008    0.195    0.338   82.743
  479.250    9.005    0.206    0.335   72.977
  479.500    9.173    0.211    0.331   76.012
  479.750    9.343    0.200    0.340   82.099
  480.000    9.340    0.193    0.342   82.693
  480.250    8.994    0.183    0.343   85.731
  480.500    8.500    0.177    0.343   91.204
  480.750    8.186    0.166    0.345   95.460
  481.000    7.736    0.155    0.345   98.499
  481.250    7.590    0.144    0.365   97.268
  481.500    7.588    0.139    0.359   97.866
  481.750    7.306    0.133    0.343  100.292
  482.000    7.169    0.145    0.354   99.060
  482.250    6.649    0.147    0.357   91.121
  482.500    6.524    0.140    0.351   87.452
  482.750    6.282    0.158    0.342   92.926
  483.000    6.164    0.171    0.336   98.400
  483.250    6.048    0.175    0.341  100.830
  483.500    6.046    0.176    0.357   98.989
  483.750    6.045    0.174    0.361   97.144
  484.000    6.042    0.172    0.350   96.522
  484.250    6.040    0.180    0.355   97.122
  484.500    5.926    0.179    0.364  100.769
  484.750    5.924    0.175    0.369  104.412
  485.000    5.923    0.180    0.366  109.887
  485.250    5.811    0.174    0.358  114.146
  485.500    5.702    0.170    0.355  115.352
  485.750    5.593    0.173    0.351  112.902
  486.000    5.592    0.168    0.362  118.373
  486.250    5.386    0.166    0.371  120.804
  486.500    5.186    0.178    0.379  118.962
  486.750    4.994    0.208    0.392   98.829
  487.000    4.900    0.251    0.387   86.013
  487.250    4.544    0.268    0.353   81.122
  487.500    4.458    0.267    0.349   82.330
  487.750    4.374    0.249    0.346   84.147
  488.000    4.292    0.234    0.342   85.355
  488.250    4.212    0.224    0.342   83.513
  488.500    4.132    0.244    0.362   75.572
  488.750    4.054    0.252    0.364   70.684
  489.000    3.978    0.266    0.362   68.234
  489.250    3.903    0.266    0.354   72.490
  489.500    3.902    0.276    0.356   68.208
  489.750    3.828    0.284    0.361   68.198
  490.000    3.827    0.293    0.365   72.454
  490.250    3.755    0.297    0.361   63.291
  490.500    3.825    0.293    0.364   61.451
  490.750    4.044    0.281    0.364   66.319
  491.000    4.439    0.262    0.361   74.844
  491.250    4.873    0.235    0.347   83.977
  491.500    5.251    0.185    0.354   92.501
  491.750    5.658    0.176    0.369   88.831
  492.000    6.569    0.168    0.357   83.329
  492.250    6.947    0.058    0.344   82.097
