~VERSION INFORMATION
 VERS.                 2.0:   CWLS LOG ASCII STANDARD -VERSION 2.0
 WRAP.                  NO:   ONE LINE PER DEPTH STEP
~WELL INFORMATION BLOCK
#MNEM.UNIT           DATA                    DESCRIPTION OF MNEMONIC
#---------    -------------------            -------------------------------
# Generated from Intellog Unique Number	CW_82_90/WELL/3447
WELL.         COSEKA RES.                    : Well_name    - WELL
LOC .         00/11-07-090-19W4/0            : Location     - LOCATION
UWI .         00/11-07-090-19W4/0            : Uwi          - UNIQUE WELL ID
ENTR.         MAX                            : Entered      - ENTERED BY
SRVC.         SCHLUMBERGER                   : Scn          - SERVICE COMPANY
STRT.M        160                            : top_depth    - START DEPTH
STOP.M        254                            : bot_depth    - STOP DEPTH
STEP.M        0.25                           : increment    - STEP LENGTH
 NULL. -999.2500:NULL Value
~CURVE INFORMATION BLOCK
#MNEM UNIT       ERCB CURVE CODE    CURVE DESCRIPTION
#-----------   ------------------   ----------------------------------
DEPT.M        00 001 00 00         : DEPTH        - DEPTH
NPHI.V/V      00 330 00 00         : PHIN         - NEUTRON POROSITY (SANDSTONE)
CALI.MM       00 280 01 00         : CAL          - CALIPER
DPHI.V/V      00 890 00 00         : PHID         - DENSITY POROSITY (SANDSTONE)
GR  .API      00 310 00 00         : GR           - GAMMA RAY
ILD .OHMM     00 120 00 00         : RESD         - DEEP RESISTIVITY (DIL)
~PARAMETER INFORMATION
#MNEM.UNIT           DATA             DESCRIPTION OF MNEMONIC
#---------         -----------     ------------------------------
GL  .M        518.6                : gl           - GROUND LEVEL ELEVATION
EREF.M        522.2                : kb           - ELEVATION OF DEPTH REFERENCE
DATM.M        522.2                : datum        - DATUM ELEVATION
TDD .M        257                  : tdd          - TOTAL DEPTH DRILLER
RUN .         ONE                  : Run          - RUN NUMBER
ENG .         BILL                 : Engineer     - RECORDING ENGINEER
WIT .         JIM                  : Witness      - WITNESSED BY
MUD .         GEL                  : Mud_type     - MUD TYPE
MATR.         SANDSTONE            : Logunit      - NEUTRON MATRIX
TMAX.C        17.5                 : BHT          - MAXIMUM RECORDED TEMPERATURE
BHTD.M        257                  : BHTDEP       - MAXIMUM RECORDED TEMPERATURE
MATR.         1                    : LOGUNIT      - NEUTRON MATRIX
RMT .C        16                   : MDTP         - TEMPERATURE OF MUD
NEUT.         1                    : NEUTRON      - NEUTRON TYPE
RESI.         0                    : RESIST       - RESISTIVITY TYPE
RMC .OHMM     6                    : RMC          - RESISTIVITY OF MUD CAKE
RMF .OHMM     4.6                  : RMF          - RESISTIVITY OF MUD FILTRATE
SUFT.C        1                    : SUFT         - SURFACE TEMPERATURE
~A  DEPTH     PHIN      CAL     PHID       GR     RESD
  160.000    0.444  243.770    0.215   79.474   13.352
  160.250    0.417  246.678    0.230   79.715   12.155
  160.500    0.431  247.594    0.223   78.459   11.801
  160.750    0.440  248.486    0.221   77.489   11.995
  161.000    0.427  248.889    0.218   76.527   10.617
  161.250    0.419  248.792    0.225   77.362   10.794
  161.500    0.420  246.690    0.235   78.814   11.175
  161.750    0.430  244.088    0.241   78.746   10.455
  162.000    0.447  240.471    0.230   73.579    9.520
  162.250    0.458  234.374    0.204   73.519    8.051
  162.500    0.426  228.265    0.199   69.540    8.335
  162.750    0.411  227.165    0.212   64.365   13.170
  163.000    0.399  228.057    0.178   60.686   16.389
  163.250    0.344  228.448    0.137   57.316   20.582
  163.500    0.277  228.863    0.076   58.460   26.322
  163.750    0.267  229.254    0.066   66.833   25.082
  164.000    0.346  230.158    0.195   74.897   20.456
  164.250    0.448  230.048    0.226   81.156   14.000
  164.500    0.466  230.476    0.253   87.422    6.109
  164.750    0.498  230.378    0.256   87.964    4.584
  165.000    0.509  228.277    0.252   77.365    4.410
  165.250    0.469  226.676    0.241   69.776    5.051
  165.500    0.441  227.568    0.234   67.609    7.908
  165.750    0.416  226.456    0.247   65.142    8.811
  166.000    0.416  225.368    0.243   64.172   10.095
  166.250    0.462  225.271    0.220   72.846   11.040
  166.500    0.455  225.173    0.202   79.413   10.234
  166.750    0.436  224.550    0.223   84.762    8.270
  167.000    0.439  223.963    0.232   84.100    6.680
  167.250    0.446  222.350    0.239   81.926    6.605
  167.500    0.457  221.776    0.236   82.175    7.224
  167.750    0.466  220.652    0.226   82.717    6.578
  168.000    0.468  220.065    0.217   82.657    5.932
  168.250    0.460  217.964    0.207   84.094    6.431
  168.500    0.478  216.363    0.210   83.432    6.416
  168.750    0.511  215.251    0.212   81.567    5.329
  169.000    0.475  215.166    0.209   78.799    4.549
  169.250    0.441  215.031    0.194   75.121    6.262
  169.500    0.407  214.970    0.169   72.661   10.360
  169.750    0.389  214.848    0.153   70.796   15.780
  170.000    0.374  214.762    0.140   66.809   22.122
  170.250    0.349  215.153    0.100   63.447   25.351
  170.500    0.325  215.568    0.039   58.257   33.625
  170.750    0.247  216.460    0.016   54.292   32.945
  171.000    0.249  218.366    0.053   56.640   29.999
  171.250    0.289  221.787    0.098   65.313   25.368
  171.500    0.354  225.196    0.147   76.988   22.668
  171.750    0.415  226.589    0.179   77.831   19.529
  172.000    0.381  227.493    0.159   69.647   15.490
  172.250    0.279  229.411    0.044   60.853   19.271
  172.500    0.261  231.304    0.033   61.997   21.076
  172.750    0.295  232.208    0.081   69.460   21.825
  173.000    0.348  234.615    0.132   75.124   22.184
  173.250    0.407  237.523    0.234   75.967   17.117
  173.500    0.420  239.441    0.253   75.591   12.612
  173.750    0.437  240.834    0.225   78.555   10.186
  174.000    0.456  243.241    0.210   85.416    8.693
  174.250    0.470  245.159    0.209   89.569    7.490
  174.500    0.478  246.063    0.204   89.200    6.333
  174.750    0.492  245.464    0.199   86.432    5.871
  175.000    0.485  244.352    0.202   86.981    6.424
  175.250    0.470  242.263    0.210   92.639    7.028
  175.500    0.472  238.158    0.207   97.401    6.760
  175.750    0.464  233.038    0.204   91.315    7.328
  176.000    0.444  228.933    0.222   81.318    6.490
  176.250    0.429  225.304    0.216   73.126    6.073
  176.500    0.410  222.690    0.115   69.757    7.350
  176.750    0.400  220.112    0.128   65.778   10.991
  177.000    0.413  214.003    0.227   64.815   12.477
  177.250    0.423  209.384    0.258   69.269   12.682
  177.500    0.426  206.769    0.249   74.030   12.302
  177.750    0.414  202.664    0.238   77.574   11.837
  178.000    0.420  197.569    0.238   78.725   11.495
  178.250    0.411  193.940    0.251   80.169   11.791
  178.500    0.383  193.342    0.243   84.307   12.207
  178.750    0.397  192.743    0.247   85.157   12.755
  179.000    0.414  192.144    0.232   84.195   13.696
  179.250    0.428  192.046    0.193   80.531   14.713
  179.500    0.340  191.936    0.084   73.837   16.249
  179.750    0.189  191.863    0.013   65.352   19.307
  180.000    0.209  194.771    0.095   62.877   22.942
  180.250    0.266  200.183    0.174   67.037   24.874
  180.500    0.352  204.569    0.231   76.614   22.220
  180.750    0.377  206.487    0.227   83.775   19.865
  181.000    0.412  207.391    0.195   88.537   16.493
  181.250    0.409  209.811    0.165   85.461   15.430
  181.500    0.361  214.209    0.139   89.019   14.050
  181.750    0.361  217.618    0.191   96.181   13.512
  182.000    0.390  220.037    0.183   99.122   12.638
  182.250    0.389  222.932    0.186   97.859   11.938
  182.500    0.399  225.339    0.198   95.091   11.382
  182.750    0.389  227.746    0.193   92.014   10.170
  183.000    0.391  228.650    0.178   90.156   10.149
  183.250    0.381  230.055    0.155   87.381   11.103
  183.500    0.363  231.961    0.100   84.613   12.146
  183.750    0.344  235.370    0.121   86.358   13.045
  184.000    0.411  237.801    0.170   91.722   12.903
  184.250    0.467  240.208    0.194   96.176   11.216
  184.500    0.442  242.615    0.209   95.206   10.789
  184.750    0.412  243.507    0.209   90.030   11.695
  185.000    0.385  243.885    0.224   86.051   12.912
  185.250    0.377  244.802    0.233   85.690   14.519
  185.500    0.379  245.706    0.203   83.524   15.174
  185.750    0.352  246.597    0.116   82.253   17.064
  186.000    0.335  247.526    0.113   81.591   18.327
  186.250    0.349  247.428    0.146   81.539   18.285
  186.500    0.375  247.831    0.194   81.479   17.428
  186.750    0.396  248.234    0.213   83.518   16.313
  187.000    0.410  248.637    0.233   85.271   14.307
  187.250    0.409  249.028    0.241   83.406   13.270
  187.500    0.385  248.430    0.239   82.435   12.648
  187.750    0.370  247.843    0.231   83.579   13.215
  188.000    0.374  247.232    0.216   85.926   14.453
  188.250    0.374  247.122    0.217   88.875   14.556
  188.500    0.383  245.521    0.216   92.426   13.625
  188.750    0.396  243.432    0.208   93.878   12.512
  189.000    0.412  240.304    0.217   92.615   12.721
  189.250    0.415  237.225    0.222   87.124   13.789
  189.500    0.418  233.108    0.221   84.356   14.275
  189.750    0.425  228.502    0.215   83.701   14.510
  190.000    0.425  225.398    0.209   82.129   14.885
  190.250    0.414  222.282    0.204   81.769   15.133
  190.500    0.404  217.664    0.206   85.929   15.382
  190.750    0.402  217.077    0.200   92.180   14.387
  191.000    0.433  214.475    0.173   90.623   12.862
  191.250    0.410  210.345    0.134   87.554   10.484
  191.500    0.373  207.242    0.126   89.593   11.469
  191.750    0.416  205.653    0.195   90.443   12.663
  192.000    0.454  202.538    0.212   85.253   12.296
  192.250    0.451  199.434    0.180   82.192   11.934
  192.500    0.427  199.337    0.068   75.505   13.301
  192.750    0.353  199.752    0.162   69.419   13.520
  193.000    0.358  201.157    0.183   74.482   10.721
  193.250    0.453  199.031    0.208   94.891    9.579
  193.500    0.515  193.435    0.231  106.874    8.406
  193.750    0.546  192.335    0.235  110.432    6.605
  194.000    0.526  191.223    0.223  107.356    4.201
  194.250    0.466  190.124    0.200  103.076    2.823
  194.500    0.435  189.501    0.201   96.697    4.144
  194.750    0.417  187.912    0.195   92.124    6.796
  195.000    0.427  186.812    0.176   89.348   11.451
  195.250    0.421  186.226    0.126   88.077   13.237
  195.500    0.409  185.114    0.105   87.122   13.092
  195.750    0.432  185.028    0.139   92.478   14.322
  196.000    0.461  185.432    0.190   97.842   12.336
  196.250    0.457  185.334    0.186   98.384   11.227
