~VERSION INFORMATION
 VERS.                 2.0:   CWLS LOG ASCII STANDARD -VERSION 2.0
 WRAP.                  NO:   ONE LINE PER DEPTH STEP
~WELL INFORMATION BLOCK
#MNEM.UNIT           DATA                    DESCRIPTION OF MNEMONIC
#---------    -------------------            -------------------------------
# Generated from Intellog Unique Number	CC_80_83/WELL/2359
NULL.         -999.25                        : NULL_VALUE
WELL.         KANDEX HOMESTEAD PORT          : Well_name    - WELL              
LOC .         10-20-080-14W4                 : Location     - LOCATION          
UWI .         00/10-20-080-14W4/0            : Uwi          - UNIQUE WELL ID    
ENTR.         RJA                            : Entered      - ENTERED BY        
SRVC.         SCHLUMBERGER                   : Scn          - SERVICE COMPANY   
DATE.         13 FEB 78                      : Date         - LOG DATE
STRT.M        213.36                         : top_depth    - START DEPTH       
STOP.M        454.157                        : bot_depth    - STOP DEPTH        
STEP.M        0.305                          : increment    - STEP LENGTH       
~CURVE INFORMATION BLOCK
#MNEM UNIT       ERCB CURVE CODE    CURVE DESCRIPTION
#-----------   ------------------   ----------------------------------
DEPT.M        00 001 00 00         : DEPTH        - DEPTH                       
DPHI.V/V      00 890 00 00         : PHID         - DENSITY POROSITY (LIMESTONE)
NPHI.V/V      00 330 00 00         : PHIN         - NEUTRON POROSITY (LIMESTONE)
GR  .API      00 310 00 00         : GR           - GAMMA RAY                   
ILD .OHMM     00 120 00 00         : RESD         - DEEP RESISTIVITY (DIL)      
~PARAMETER INFORMATION       
#MNEM.UNIT           DATA             DESCRIPTION OF MNEMONIC
#---------         -----------     ------------------------------
GL  .M        640.69               : gl           - GROUND LEVEL ELEVATION      
EREF.M        644.042              : kb           - ELEVATION OF DEPTH REFERENCE
DATM.M        644.042              : datum        - DATUM ELEVATION             
TDD .M        459.029              : tdd          - TOTAL DEPTH DRILLER         
RUN .         ONE                  : Run          - RUN NUMBER                  
ENG .         BILL                 : Engineer     - RECORDING ENGINEER          
WIT .         JIM                  : Witness      - WITNESSED BY                
MUD .         GEL                  : Mud_type     - MUD TYPE                    
MATR.         LIMESTONE            : Logunit      - NEUTRON MATRIX              
TMAX.C        15                   : BHT          - MAXIMUM RECORDED TEMPERATURE
BHTD.M        459.029              : BHTDEP       - MAXIMUM RECORDED TEMPERATURE
MATR.         1                    : LOGUNIT      - NEUTRON MATRIX              
RMT .C        25                   : MDTP         - TEMPERATURE OF MUD          
NEUT.         1                    : NEUTRON      - NEUTRON TYPE                
RESI.         0                    : RESIST       - RESISTIVITY TYPE            
RMC .OHMM     0.25                 : RMC          - RESISTIVITY OF MUD CAKE     
RMF .OHMM     0.25                 : RMF          - RESISTIVITY OF MUD FILTRATE 
SUFT.C        4                    : SUFT         - SURFACE TEMPERATURE         
~A  DEPTH     PHID     PHIN       GR     RESD
# ...
  319.432    0.322    0.439   61.125    8.750
  319.736    0.314    0.452   67.812    8.432
  320.041    0.310    0.470   70.230    8.925
  320.346    0.298    0.483   65.279    9.993
  320.651    0.320    0.481   62.183   12.064
  320.956    0.314    0.475   60.303   12.767
  321.260    0.293    0.458   60.885   13.514
  321.565    0.318    0.432   60.847   13.273
  321.870    0.324    0.443   60.799   12.553
  322.175    0.301    0.427   63.203   11.650
  322.480    0.292    0.422   66.839   11.440
  322.785    0.273    0.423   69.862   11.447
  323.089    0.287    0.428   70.434    9.857
  323.394    0.300    0.458   63.657    7.170
  323.699    0.320    0.473   58.724    6.410
  324.004    0.363    0.471   61.133    6.063
  324.309    0.415    0.470   69.051    5.842
  324.613    0.487    0.471   75.734    5.127
  324.918    0.490    0.502   79.985    4.253
  325.223    0.481    0.550   82.996    3.662
  325.528    0.496    0.549   82.346    3.213
  325.833    0.409    0.536   83.535    3.038
  326.137    0.361    0.537   89.002    2.874
  326.442    0.381    0.573   87.126    2.822
  326.747    0.387    0.583   87.082    2.878
  327.052    0.379    0.550   90.716    2.933
  327.357    0.414    0.566   91.903    3.106
  327.661    0.476    0.583   83.287    3.287
  327.966    0.500    0.593   75.289    3.479
  328.271    0.536    0.583   69.732    3.823
  328.576    0.510    0.565   69.089    4.123
  328.881    0.558    0.585   69.658    4.364
  329.186    0.584    0.602   72.677    4.450
  329.490    0.602    0.617   75.699    4.288
  329.795    0.513    0.579   75.660    3.906
  330.100    0.526    0.589   75.012    3.765
  330.405    0.527    0.590   77.407    4.138
  330.710    0.568    0.609   81.036    4.379
  331.014    0.600    0.600   82.842    4.997
  331.319    0.490    0.578   87.089    5.920
  331.624    0.374    0.571   93.165    6.385
  331.929    0.304    0.563   87.618    6.632
  332.234    0.314    0.520   91.861    7.020
  332.538    0.327    0.488   93.045    7.156
  332.843    0.288    0.482   89.941    7.297
  333.148    0.277    0.477   86.219    7.164
  333.453    0.253    0.482   84.357    7.037
  333.758    0.270    0.505   82.481    6.909
  334.062    0.296    0.517   88.555    6.912
  334.367    0.265    0.535   92.175    6.787
  334.672    0.282    0.479   91.534    6.666
  334.977    0.305    0.478   87.205    6.423
  335.282    0.324    0.591   81.661    5.228
  335.587    0.395    0.606   77.945    4.024
  335.891    0.472    0.617   81.566    3.665
  336.196    0.565    0.622   83.980    3.276
  336.501    0.608    0.627   83.329    2.929
  336.806    0.512    0.625   82.071    2.719
  337.111    0.484    0.620   83.250    2.524
  337.415    0.496    0.617   84.440    2.214
  337.720    0.538    0.614   83.775    1.286
  338.025    0.476    0.614   83.742    0.761
  338.330    0.501    0.611   84.916    0.468
  338.635    0.537    0.596   84.272    0.544
  338.939    0.473    0.599   83.621    0.869
  339.244    0.522    0.603   81.749    1.808
  339.549    0.537    0.609   81.094    2.785
  339.854    0.499    0.610   87.171    3.177
  340.159    0.456    0.608   87.745    3.363
  340.463    0.455    0.607   82.797    3.123
  340.768    0.524    0.606   79.091    3.009
  341.073    0.550    0.606   82.115    2.954
  341.378    0.513    0.607   85.130    2.957
  341.683    0.518    0.581   82.647    3.071
  341.988    0.467    0.571   81.993    3.313
  342.292    0.465    0.584   84.392    3.441
  342.597    0.413    0.583   83.135    3.574
  342.902    0.426    0.598   81.869    4.077
  343.207    0.462    0.569   80.608    5.110
  343.512    0.484    0.566   84.228    5.722
  343.816    0.407    0.504   86.642    5.724
  344.121    0.395    0.467   90.274    5.517
  344.426    0.387    0.475   92.069    5.219
  344.731    0.366    0.487   90.194    4.938
  345.036    0.376    0.498   88.922    4.848
  345.340    0.410    0.508   91.334    4.851
  345.645    0.365    0.533   93.124    4.946
  345.950    0.342    0.513   90.638    5.041
  346.255    0.343    0.515   85.704    5.044
  346.560    0.388    0.500   83.819    5.339
  346.864    0.447    0.489   83.171    5.866
  347.169    0.520    0.504   79.467    6.569
  347.474    0.547    0.529   76.963    7.084
  347.779    0.333    0.546   77.541    7.642
  348.084    0.282    0.476   80.566    8.089
  348.389    0.257    0.486   83.586    8.724
  348.693    0.248    0.481   80.486    9.061
  348.998    0.152    0.465   84.112    9.592
  349.303    0.106    0.470   76.111    9.071
  349.608    0.125    0.480   70.566    7.526
  349.913    0.179    0.281   70.529    6.728
  350.217    0.340    0.352   82.117    6.245
  350.522    0.369    0.434   79.624    6.017
  350.827    0.403    0.426   82.644    5.800
  351.132    0.464    0.430   88.114    5.913
  351.437    0.509    0.443   83.782    6.027
  351.741    0.573    0.494   79.461    6.503
  352.046    0.522    0.553   78.815    6.754
  352.351    0.322    0.565   83.049    6.885
  352.656    0.312    0.532   82.405    6.889
  352.961    0.319    0.473   78.687    5.933
  353.265    0.345    0.464   76.815    5.110
  353.570    0.407    0.462   76.776    4.484
  353.875    0.488    0.504   77.957    4.162
  354.180    0.560    0.538   78.529    3.936
  354.485    0.448    0.524   79.694    3.865
  354.790    0.458    0.531   80.285    4.015
  355.094    0.454    0.560   81.462    4.580
  355.399    0.448    0.542   80.200    5.529
  355.704    0.479    0.526   76.484    6.191
  356.009    0.517    0.535   74.606    6.803
  356.314    0.501    0.524   74.569    8.059
  356.618    0.452    0.531   75.145    9.370
  356.923    0.129    0.570   69.591    9.918
  357.228    0.103    0.466   67.100    9.738
  357.533    0.164    0.455   67.059    7.781
  357.838    0.209    0.402   70.694    6.453
  358.142    0.274    0.363   81.056    5.769
  358.447    0.307    0.458   84.079    4.970
  358.752    0.325    0.444   86.479    4.789
  359.057    0.376    0.447   88.894    4.701
  359.362    0.395    0.479   92.517    4.617
  359.666    0.382    0.491   94.922    4.707
  359.971    0.395    0.489   97.342    4.890
  360.276    0.386    0.488   94.242    4.985
  360.581    0.381    0.487   96.030    4.987
  360.886    0.395    0.487   98.445    5.379
  361.191    0.372    0.483   96.568    5.911
  361.495    0.379    0.499   94.689    6.621
  361.800    0.326    0.512   97.092    7.275
  362.105    0.227    0.529   97.061    7.699
  362.410    0.224    0.540   94.568    8.304
  362.715    0.236    0.468   93.919    8.310
  363.019    0.242    0.423   99.387    8.007
  363.324    0.247    0.415   98.724    7.159
  363.629    0.262    0.411   90.111    6.166
  363.934    0.317    0.389   85.799    5.831
  364.239    0.356    0.392   82.693    5.312
  364.543    0.391    0.403   83.268    5.216
  364.848    0.441    0.429   77.109    5.219
  365.153    0.475    0.466   79.512    5.422
  365.458    0.457    0.482   83.760    5.738
  365.763    0.446    0.512   86.774    6.191
  366.067    0.446    0.566   83.057    6.551
  366.372    0.365    0.559   79.351    6.934
  366.677    0.210    0.539   75.028    7.621
  366.982    0.177    0.480   65.793    7.624
  367.287    0.194    0.404   65.759    7.773
  367.592    0.288    0.379   73.674    7.491
  367.896    0.292    0.423   76.082    6.953
  368.201    0.276    0.457   76.050    6.702
  368.506    0.260    0.462   75.388    6.580
  368.811    0.224    0.456   75.346    6.461
  369.116    0.248    0.447   77.151    6.467
  369.420    0.299    0.433   80.169    6.469
  369.725    0.311    0.405   84.414    6.352
  370.030    0.345    0.430   83.759    6.010
  370.335    0.374    0.446   79.423    5.900
  370.640    0.412    0.451   80.006    5.904
  370.944    0.460    0.471   83.637    6.018
  371.249    0.487    0.508   84.208    6.136
  371.554    0.475    0.524   81.723    6.374
  371.859    0.374    0.516   78.004    6.748
  372.164    0.360    0.501   77.970    7.010
