~VERSION INFORMATION
 VERS.                 2.0:   CWLS LOG ASCII STANDARD -VERSION 2.0
 WRAP.                  NO:   ONE LINE PER DEPTH STEP
~WELL INFORMATION BLOCK
#MNEM.UNIT           DATA                    DESCRIPTION OF MNEMONIC
#---------    -------------------            -------------------------------
# Generated from Intellog Unique Number	CS_71_72/WELL/856
WELL.         PEX PHILLIPS AEC WIAU          : Well_name    - WELL
LOC .         00/10-15-071-07W4/0            : Location     - LOCATION
UWI .         00/10-15-071-07W4/0            : Uwi          - UNIQUE WELL ID
ENTR.         SP                             : Entered      - ENTERED BY
SRVC.         SCHLUMBERGER                   : Scn          - SERVICE COMPANY
STRT.M        290                            : top_depth    - START DEPTH
STOP.M        507                            : bot_depth    - STOP DEPTH
STEP.M        0.25                           : increment    - STEP LENGTH
 NULL. -999.2500:NULL Value
~CURVE INFORMATION BLOCK
#MNEM UNIT       ERCB CURVE CODE    CURVE DESCRIPTION
#-----------   ------------------   ----------------------------------
DEPT.M        00 001 00 00         : DEPTH        - DEPTH
ILD .OHMM     00 120 00 00         : RESD         - DEEP RESISTIVITY (DIL)
DPHI.V/V      00 890 00 00         : PHID         - DENSITY POROSITY (LIMESTONE)
NPHI.V/V      00 330 00 00         : PHIN         - NEUTRON POROSITY (LIMESTONE)
GR  .API      00 310 00 00         : GR           - GAMMA RAY
~PARAMETER INFORMATION
#MNEM.UNIT           DATA             DESCRIPTION OF MNEMONIC
#---------         -----------     ------------------------------
GL  .M        647.2                : gl           - GROUND LEVEL ELEVATION
EREF.M        650.2                : kb           - ELEVATION OF DEPTH REFERENCE
DATM.M        647.2                : datum        - DATUM ELEVATION
TDD .M        510                  : tdd          - TOTAL DEPTH DRILLER
RUN .         ONE                  : Run          - RUN NUMBER
ENG .         BILL                 : Engineer     - RECORDING ENGINEER
WIT .         JIM                  : Witness      - WITNESSED BY
MUD .         GEL                  : Mud_type     - MUD TYPE
MATR.         LIMESTONE            : Logunit      - NEUTRON MATRIX
TMAX.C        25                   : BHT          - MAXIMUM RECORDED TEMPERATURE
BHTD.M        510                  : BHTDEP       - MAXIMUM RECORDED TEMPERATURE
MATR.         1                    : LOGUNIT      - NEUTRON MATRIX
RMT .C        25                   : MDTP         - TEMPERATURE OF MUD
NEUT.         1                    : NEUTRON      - NEUTRON TYPE
RESI.         0                    : RESIST       - RESISTIVITY TYPE
RMC .OHMM     0.25                 : RMC          - RESISTIVITY OF MUD CAKE
RMF .OHMM     0.25                 : RMF          - RESISTIVITY OF MUD FILTRATE
SUFT.C        15                   : SUFT         - SURFACE TEMPERATURE
~A  DEPTH     RESD     PHID     PHIN       GR
# ...
  464.000   42.156    0.258    0.359   52.460
  464.250   55.474    0.283    0.371   44.090
  464.500   72.058    0.305    0.383   39.963
  464.750   88.367    0.329    0.398   38.925
  465.000   94.630    0.348    0.406   38.435
  465.250   93.390    0.365    0.412   38.368
  465.500   88.316    0.373    0.405   38.604
  465.750   82.133    0.362    0.400   39.325
  466.000   76.382    0.355    0.396   41.257
  466.250   71.962    0.350    0.395   42.523
  466.500   68.686    0.346    0.396   43.669
  466.750   66.789    0.342    0.403   43.662
  467.000   65.792    0.344    0.417   44.200
  467.250   65.052    0.350    0.423   44.922
  467.500   63.372    0.360    0.420   46.127
  467.750   56.261    0.368    0.415   48.241
  468.000   47.773    0.356    0.406   50.840
  468.250   39.819    0.339    0.399   53.682
  468.500   33.067    0.327    0.398   55.495
  468.750   28.183    0.339    0.406   57.851
  469.000   24.516    0.341    0.411   58.995
  469.250   22.050    0.338    0.410   59.596
  469.500   20.698    0.335    0.409   60.559
  469.750   19.464    0.327    0.412   62.674
  470.000   18.647    0.330    0.414   65.333
  470.250   18.165    0.332    0.415   67.812
  470.500   18.162    0.305    0.411   71.017
  470.750   18.740    0.297    0.406   73.193
  471.000   19.736    0.299    0.401   74.459
  471.250   20.215    0.283    0.392   72.938
  471.500   20.782    0.228    0.359   73.840
  471.750   15.963    0.013    0.329   87.529
  472.000   13.555    0.054    0.277   98.552
  472.250   11.215    0.143    0.302  104.667
  472.500    9.365    0.205    0.336  108.721
  472.750    8.407    0.216    0.360  110.229
  473.000    7.936    0.208    0.383  110.041
  473.250    7.645    0.201    0.388  103.792
  473.500    7.918    0.197    0.394   93.847
  473.750    8.433    0.211    0.400   83.235
  474.000    9.080    0.220    0.387   75.411
  474.250    9.796    0.236    0.374   69.951
  474.500    9.887    0.241    0.365   69.156
  474.750    9.454    0.258    0.348   73.754
  475.000    8.825    0.271    0.333   76.174
  475.250    8.565    0.222    0.326   77.985
  475.500    8.987    0.219    0.324   78.523
  475.750   10.025    0.246    0.332   78.094
  476.000   11.714    0.257    0.353   75.419
  476.250   13.020    0.267    0.366   70.990
  476.500   14.231    0.289    0.377   66.499
  476.750   14.767    0.307    0.382   65.219
  477.000   12.868    0.301    0.387   67.516
  477.250   11.639    0.288    0.379   68.903
  477.500   11.899    0.267    0.363   65.745
  477.750   13.598    0.257    0.363   61.437
  478.000   15.511    0.292    0.395   61.794
  478.250   16.891    0.315    0.419   62.757
  478.500   16.608    0.331    0.422   60.872
  478.750   14.772    0.340    0.422   61.835
  479.000   12.969    0.336    0.409   65.950
  479.250   11.219    0.324    0.386   74.609
  479.500   10.053    0.312    0.378   87.026
  479.750    8.696    0.309    0.372   98.169
  480.000    7.822    0.291    0.356  105.496
  480.250    7.207    0.164    0.338  111.065
  480.500    6.653    0.146    0.338  115.907
  480.750    6.457    0.152    0.348  118.022
  481.000    6.737    0.168    0.360  109.228
  481.250    7.004    0.156    0.382  106.676
  481.500    7.322    0.132    0.396  103.882
  481.750    7.654    0.137    0.383   98.421
  482.000    8.304    0.155    0.374   92.172
  482.250    9.367    0.159    0.369   84.772
  482.500   10.724    0.171    0.378   75.495
  482.750   12.886    0.203    0.406   65.367
  483.000   17.729    0.249    0.438   61.543
  483.250   22.314    0.275    0.435   59.416
  483.500   26.465    0.295    0.415   56.864
  483.750   31.271    0.312    0.417   58.129
  484.000   30.747    0.327    0.424   63.031
  484.250   25.723    0.342    0.418   67.389
  484.500   20.659    0.345    0.409   72.776
  484.750   16.966    0.339    0.409   75.921
  485.000   14.731    0.336    0.418   78.823
  485.250   12.439    0.341    0.420   80.756
  485.500   10.840    0.344    0.407   82.507
  485.750    8.218    0.342    0.396   86.257
  486.000    7.816    0.333    0.386   92.372
  486.250    6.736    0.320    0.382  100.365
  486.500    6.172    0.311    0.377  111.873
  486.750    6.058    0.260    0.373  122.714
  487.000    6.147    0.173    0.376  127.192
  487.250    6.378    0.157    0.385  128.640
  487.500    6.509    0.161    0.398  128.149
  487.750    6.642    0.158    0.405  125.961
  488.000    6.866    0.147    0.409  123.106
  488.250    7.111    0.138    0.403  119.221
  488.500    7.365    0.126    0.392  116.185
  488.750    7.391    0.104    0.383  117.330
  489.000    7.335    0.089    0.379  121.201
  489.250    7.186    0.077    0.375  122.528
  489.500    6.948    0.079    0.372  122.400
  489.750    6.718    0.152    0.378  121.605
  490.000    6.692    0.167    0.388  121.600
  490.250    6.629    0.161    0.391  122.076
  490.500    6.665    0.154    0.385  122.374
  490.750    6.714    0.165    0.382  122.187
  491.000    6.763    0.150    0.382  120.544
  491.250    6.786    0.141    0.384  119.386
  491.500    6.760    0.161    0.384  120.652
  491.750    6.758    0.163    0.393  121.312
  492.000    6.356    0.159    0.391  121.124
  492.250    6.367    0.152    0.387  123.238
  492.500    6.389    0.150    0.394  124.989
  492.750    6.376    0.156    0.394  126.195
  493.000    6.351    0.172    0.393  126.007
  493.250    6.327    0.187    0.395  125.516
  493.500    6.601    0.183    0.402  126.417
  493.750    6.551    0.176    0.410  126.048
  494.000    6.526    0.168    0.417  122.890
  494.250    6.525    0.165    0.399  121.853
  494.500    6.523    0.172    0.388  124.392
  494.750    6.498    0.169    0.390  129.658
  495.000    6.413    0.156    0.397  135.288
  495.250    6.201    0.148    0.404  141.341
  495.500    5.919    0.143    0.407  146.971
  495.750    5.744    0.164    0.410  150.298
  496.000    5.722    0.173    0.412  151.988
  496.250    5.710    0.153    0.411  150.224
  496.500    5.730    0.138    0.409  143.733
  496.750    5.740    0.115    0.407  134.455
  497.000    5.739    0.165    0.405  127.237
  497.250    5.717    0.173    0.401  124.685
  497.500    5.631    0.173    0.396  124.981
  497.750    5.456    0.170    0.389  126.732
  498.000    5.256    0.167    0.388  124.665
  498.250    5.082    0.163    0.397  123.871
  498.500    5.081    0.165    0.404  125.380
  498.750    5.147    0.170    0.407  126.826
  499.000    5.193    0.180    0.415  127.002
  499.250    4.663    0.186    0.413  125.300
  499.500    4.883    0.181    0.410  121.474
  499.750    5.030    0.177    0.418  116.620
  500.000    5.248    0.174    0.428  106.251
  500.250    5.375    0.176    0.425   96.246
  500.500    5.394    0.190    0.423   75.877
  500.750    5.333    0.190    0.425   63.205
  501.000    5.215    0.208    0.415   52.653
  501.250    5.061    0.212    0.384   55.495
  501.500    4.940    0.199    0.337   72.578
  501.750    4.750    0.202    0.316   83.844
  502.000    4.542    0.215    0.314   96.139
  502.250    4.474    0.232    0.375  102.678
  502.500    4.490    0.243    0.460  100.248
  502.750    4.729    0.258    0.491   59.941
  503.000    5.285    0.279    0.513   27.331
  503.250    6.362    0.255    0.511   16.294
  503.500    8.233    0.266    0.495   13.622
  503.750   11.519    0.264    0.494   14.646
  504.000   15.158    0.210    0.494   34.274
  504.250   18.554    0.072    0.510   63.053
  504.500   22.459    0.042    0.147   95.469
  504.750   24.503    0.025    0.132   95.038
  505.000   25.901    0.038    0.132   94.850
  505.250   25.185    0.056    0.114   94.720
  505.500   22.610    0.072    0.102   94.533
  505.750   20.794    0.099    0.096   94.103
  506.000   20.220    0.098    0.093   85.916
  506.250   20.825    0.096    0.094   55.063
  506.500   21.369    0.095    0.100   44.391
  506.750   21.888    0.095    0.107   32.203
  507.000   19.686    0.107    0.115   17.409
