~VERSION INFORMATION
 VERS.                 2.0:   CWLS LOG ASCII STANDARD -VERSION 2.0
 WRAP.                  NO:   ONE LINE PER DEPTH STEP
~WELL INFORMATION BLOCK
#MNEM.UNIT           DATA                    DESCRIPTION OF MNEMONIC
#---------    -------------------            -------------------------------
# Generated from Intellog Unique Number	CS_67_68/WELL/2202
WELL.         BVX LAC LA BICHE               : Well_name    - WELL
LOC .         00/11-03-067-13W4/0            : Location     - LOCATION
UWI .         00/11-03-067-13W4/0            : Uwi          - UNIQUE WELL ID
ENTR.         SP                             : Entered      - ENTERED BY
SRVC.         SCHLUMBERGER                   : Scn          - SERVICE COMPANY
STRT.M        310                            : top_depth    - START DEPTH
STOP.M        495                            : bot_depth    - STOP DEPTH
STEP.M        0.25                           : increment    - STEP LENGTH
 NULL. -999.2500:NULL Value
~CURVE INFORMATION BLOCK
#MNEM UNIT       ERCB CURVE CODE    CURVE DESCRIPTION
#-----------   ------------------   ----------------------------------
DEPT.M        00 001 00 00         : DEPTH        - DEPTH
ILD .OHMM     00 120 00 00         : RESD         - DEEP RESISTIVITY (DIL)
DPHI.V/V      00 890 00 00         : PHID         - DENSITY POROSITY (LIMESTONE)
NPHI.V/V      00 330 00 00         : PHIN         - NEUTRON POROSITY (LIMESTONE)
GR  .API      00 310 00 00         : GR           - GAMMA RAY
CALI.MM       00 280 01 00         : CAL          - CALIPER
~PARAMETER INFORMATION
#MNEM.UNIT           DATA             DESCRIPTION OF MNEMONIC
#---------         -----------     ------------------------------
GL  .M        577.4                : gl           - GROUND LEVEL ELEVATION
EREF.M        580.3                : kb           - ELEVATION OF DEPTH REFERENCE
DATM.M        580.3                : datum        - DATUM ELEVATION
TDD .M        498                  : tdd          - TOTAL DEPTH DRILLER
RUN .         ONE                  : Run          - RUN NUMBER
ENG .         BILL                 : Engineer     - RECORDING ENGINEER
WIT .         JIM                  : Witness      - WITNESSED BY
MUD .         GEL                  : Mud_type     - MUD TYPE
MATR.         LIMESTONE            : Logunit      - NEUTRON MATRIX
TMAX.C        22                   : BHT          - MAXIMUM RECORDED TEMPERATURE
BHTD.M        495                  : BHTDEP       - MAXIMUM RECORDED TEMPERATURE
MATR.         1                    : LOGUNIT      - NEUTRON MATRIX
RMT .C        25                   : MDTP         - TEMPERATURE OF MUD
NEUT.         1                    : NEUTRON      - NEUTRON TYPE
RESI.         0                    : RESIST       - RESISTIVITY TYPE
RMC .OHMM     0.25                 : RMC          - RESISTIVITY OF MUD CAKE
RMF .OHMM     0.25                 : RMF          - RESISTIVITY OF MUD FILTRATE
SUFT.C        15                   : SUFT         - SURFACE TEMPERATURE
~A  DEPTH     RESD     PHID     PHIN       GR      CAL
# ...
  456.000    5.366    0.199    0.452  107.520  161.471
  456.250    5.749    0.193    0.449  105.100  160.570
  456.500    6.103    0.189    0.450  103.590  161.285
  456.750    6.219    0.179    0.425   99.898  162.304
  457.000    5.938    0.169    0.390   94.085  163.827
  457.250    5.493    0.124    0.368   90.091  165.350
  457.500    5.017    0.065    0.352   87.852  166.268
  457.750    4.572    0.036    0.360   87.616  166.580
  458.000    4.160    0.040    0.375   88.590  166.488
  458.250    3.841    0.058    0.358  100.049  166.495
  458.500    3.620    0.105    0.354  112.176  166.402
  458.750    3.450    0.129    0.403  113.273  166.210
  459.000    3.295    0.108    0.422  112.429  166.116
  459.250    3.211    0.081    0.443  116.251  165.922
  459.500    3.089    0.123    0.446  120.135  165.628
  459.750    3.095    0.159    0.443  121.898  165.534
  460.000    3.142    0.178    0.442  123.721  165.341
  460.250    3.196    0.167    0.456  125.605  165.350
  460.500    3.256    0.172    0.473  127.125  165.256
  460.750    3.330    0.184    0.476  128.463  167.992
  461.000    3.375    0.174    0.472  123.984  171.636
  461.250    3.395    0.152    0.463  121.625  165.988
  461.500    3.401    0.141    0.443  123.084  160.139
  461.750    3.428    0.134    0.448  118.423  159.945
  462.000    3.512    0.123    0.457  116.912  162.882
  462.250    3.714    0.131    0.457  119.948  157.334
  462.500    3.877    0.144    0.444  122.316  153.504
  462.750    3.835    0.131    0.438  116.685  158.463
  463.000    3.541    0.120    0.429  111.962  162.208
  463.250    3.264    0.137    0.414  105.240  165.348
  463.500    3.065    0.107    0.406  103.669  162.628
  463.750    2.921    0.075    0.391  116.523  157.182
  464.000    2.863    0.077    0.386  125.619  155.979
  464.250    2.826    0.130    0.425  123.866  158.916
  464.500    2.838    0.164    0.467  119.629  161.449
  464.750    2.875    0.148    0.487  115.028  166.408
  465.000    2.908    0.130    0.497  112.730  170.658
  465.250    2.969    0.097    0.481  116.310  174.202
  465.500    2.997    0.129    0.479  120.680  170.271
  465.750    2.981    0.166    0.491  123.532  165.835
  466.000    2.922    0.177    0.496  125.174  162.712
  466.250    2.900    0.170    0.504  125.906  161.306
  466.500    2.967    0.155    0.502  126.699  160.911
  466.750    3.034    0.171    0.488  124.643  161.424
  467.000    3.121    0.158    0.477  127.255  161.937
  467.250    3.270    0.150    0.468  128.714  162.856
  467.500    3.562    0.171    0.475  128.537  163.267
  467.750    3.954    0.167    0.476  129.936  163.477
  468.000    4.454    0.158    0.468  130.123  163.990
  468.250    5.121    0.172    0.462  125.825  165.717
  468.500    5.716    0.178    0.466  119.648  167.239
  468.750    6.297    0.180    0.471  111.532  169.167
  469.000    7.160    0.184    0.440  105.900  172.206
  469.250    7.858    0.179    0.411  104.269  167.568
  469.500    8.738    0.155    0.380  102.092  168.890
  469.750    9.206    0.132    0.357   92.885  170.715
  470.000    9.329    0.100    0.327   84.102  171.735
  470.250    9.159    0.073    0.259   75.440  171.439
  470.500    8.505    0.038    0.268   69.808  169.730
  470.750    7.883    0.035    0.282   77.874  167.617
  471.000    7.307    0.086    0.299   85.455  165.708
  471.250    6.835    0.111    0.321   90.915  165.010
  471.500    6.527    0.149    0.333   92.374  164.713
  471.750    6.325    0.163    0.338   92.500  164.216
  472.000    6.118    0.178    0.333   92.445  163.012
  472.250    6.029    0.196    0.330   95.056  161.809
  472.500    6.042    0.217    0.327   98.758  161.110
  472.750    6.272    0.192    0.332  101.551  160.714
  473.000    6.511    0.171    0.340   97.920  160.722
  473.250    6.822    0.148    0.342  101.137  161.134
  473.500    7.201    0.152    0.336  104.232  162.962
  473.750    7.489    0.152    0.337  105.086  165.090
  474.000    7.775    0.122    0.342   97.272  167.321
  474.250    7.849    0.079    0.313   89.156  164.905
  474.500    7.692    0.047    0.273   86.859  162.792
  474.750    7.427    0.186    0.273   89.470  161.386
  475.000    6.948    0.196    0.303   88.989  162.001
  475.250    6.634    0.179    0.305   91.782  163.524
  475.500    6.334    0.175    0.302   98.757  165.149
  475.750    6.359    0.169    0.306  105.004  166.874
  476.000    6.589    0.163    0.303  110.706  167.993
  476.250    7.008    0.165    0.301  113.863  165.275
  476.500    7.452    0.173    0.296  116.656  164.374
  476.750    8.104    0.167    0.293  120.480  164.887
  477.000    8.944    0.160    0.300  124.424  166.008
  477.250    9.583    0.154    0.312  127.399  167.531
  477.500    9.892    0.150    0.320  126.070  168.245
  477.750    9.623    0.160    0.330  114.196  164.517
  478.000    9.643    0.174    0.325  100.625  161.696
  478.250   10.085    0.187    0.276   89.115  160.088
  478.500   10.586    0.199    0.265   94.756  161.107
  478.750   11.010    0.157    0.290  105.367  162.731
  479.000   11.281    0.134    0.315  122.282  164.255
  479.250   11.603    0.160    0.329   99.438  164.769
  479.500   11.758    0.192    0.311   91.201  164.170
  479.750   11.782    0.216    0.300   92.963  162.968
  480.000   11.762    0.229    0.301   91.998  162.369
  480.250   11.613    0.245    0.314   95.155  161.671
  480.500   11.637    0.229    0.323  102.918  161.376
  480.750   12.036    0.232    0.325  108.378  160.980
  481.000   12.518    0.220    0.332  112.321  161.392
  481.250   12.755    0.208    0.338  105.963  160.289
  481.500   12.901    0.221    0.329   95.544  157.166
  481.750   12.928    0.232    0.321   93.063  155.255
  482.000   12.835    0.242    0.316   95.917  157.082
  482.250   12.624    0.245    0.324   99.922  159.716
  482.500   12.864    0.233    0.327   96.109  162.452
  482.750   13.035    0.228    0.335   92.174  164.278
  483.000   13.136    0.222    0.332   87.998  165.297
  483.250   13.187    0.222    0.332   85.396  165.205
  483.500   12.996    0.233    0.343   83.583  164.910
  483.750   11.563    0.241    0.352   82.376  164.716
  484.000    9.271    0.259    0.357   87.715  164.422
  484.250    8.142    0.254    0.333   98.507  164.530
  484.500    7.422    0.187    0.314  108.936  163.731
  484.750    7.849    0.162    0.300  129.912  163.234
  485.000    8.456    0.169    0.317  124.705  163.343
  485.250    9.144    0.160    0.334  118.224  163.353
  485.500   10.093    0.162    0.346  110.048  163.360
  485.750   11.078    0.177    0.329  104.234  163.368
  486.000   11.869    0.191    0.311   97.209  163.782
  486.250   12.162    0.180    0.299  106.668  163.789
  486.500   12.007    0.193    0.313   87.461  163.797
  486.750   11.212    0.224    0.318   77.345  163.402
  487.000   10.107    0.249    0.311   75.531  162.703
  487.250    9.490    0.246    0.307  108.325  162.307
  487.500    8.911    0.201    0.309  144.997  161.608
  487.750    8.540    0.170    0.299  156.760  161.920
  488.000    8.400    0.144    0.291  152.947  162.736
  488.250    8.247    0.105    0.309  142.770  162.946
  488.500    8.097    0.071    0.304  139.442  163.459
  488.750    7.660    0.059    0.303  139.386  163.771
  489.000    7.314    0.069    0.302  139.512  163.072
  489.250    6.766    0.099    0.295  139.517  163.484
  489.500    6.179    0.140    0.303  139.159  163.493
  489.750    5.878    0.167    0.312  138.981  164.108
  490.000    5.923    0.177    0.322  138.744  164.418
  490.250    6.311    0.222    0.328  138.690  164.629
  490.500    7.256    0.234    0.335  138.694  165.143
  490.750    8.578    0.203    0.317  138.335  165.150
  491.000    9.827    0.186    0.306  131.491  165.563
  491.250   11.383    0.187    0.304  113.981  165.773
  491.500   12.286    0.213    0.306   92.167  166.085
  491.750   13.237    0.242    0.308   90.293  166.093
  492.000   13.895    0.275    0.308   91.329  166.404
  492.250   14.318    0.269    0.306   89.454  166.514
