~VERSION INFORMATION
 VERS.                 2.0:   CWLS LOG ASCII STANDARD -VERSION 2.0
 WRAP.                  NO:   ONE LINE PER DEPTH STEP
~WELL INFORMATION BLOCK
#MNEM.UNIT           DATA                    DESCRIPTION OF MNEMONIC
#---------    -------------------            -------------------------------
# Generated from Intellog Unique Number	CS_71_72/WELL/3327
WELL.         ALLIED ROXANA MINERALS LTD.    : Well_name    - WELL
LOC .         00/10-32-072-13W4/0            : Location     - LOCATION
UWI .         00/10-32-072-13W4/0            : Uwi          - UNIQUE WELL ID
ENTR.         JOETTE                         : Entered      - ENTERED BY
SRVC.         SCHLUMBERGER                   : Scn          - SERVICE COMPANY
DATE.         05/13/92                       : Date         - LOG DATE
STRT.M        320.04                         : top_depth    - START DEPTH
STOP.M        533.29                         : bot_depth    - STOP DEPTH
STEP.M        0.25                           : increment    - STEP LENGTH
 NULL. -999.2500:NULL Value
~CURVE INFORMATION BLOCK
#MNEM UNIT       ERCB CURVE CODE    CURVE DESCRIPTION
#-----------   ------------------   ----------------------------------
DEPT.M        00 001 00 00         : DEPTH        - DEPTH
NPHI.V/V      00 330 00 00         : PHIN         - NEUTRON POROSITY (SANDSTONE)
GR  .API      00 310 00 00         : GR           - GAMMA RAY
CALI.MM       00 280 01 00         : CAL          - CALIPER
DPHI.V/V      00 890 00 00         : PHID         - DENSITY POROSITY (SANDSTONE)
ILD .OHMM     00 120 00 00         : RESD         - DEEP RESISTIVITY (DIL)
~PARAMETER INFORMATION
#MNEM.UNIT           DATA             DESCRIPTION OF MNEMONIC
#---------         -----------     ------------------------------
GL  .M        656.692              : gl           - GROUND LEVEL ELEVATION
EREF.M        659.74               : kb           - ELEVATION OF DEPTH REFERENCE
DATM.M        659.74               : datum        - DATUM ELEVATION
TDD .M        554.126              : tdd          - TOTAL DEPTH DRILLER
RUN .         ONE                  : Run          - RUN NUMBER
ENG .         BILL                 : Engineer     - RECORDING ENGINEER
WIT .         JIM                  : Witness      - WITNESSED BY
MUD .         GEL                  : Mud_type     - MUD TYPE
MATR.         SANDSTONE            : Logunit      - NEUTRON MATRIX
TMAX.C        25.5556              : BHT          - MAXIMUM RECORDED TEMPERATURE
BHTD.M        554.126              : BHTDEP       - MAXIMUM RECORDED TEMPERATURE
MATR.         1                    : LOGUNIT      - NEUTRON MATRIX
RMT .C        21.1111              : MDTP         - TEMPERATURE OF MUD
NEUT.         1                    : NEUTRON      - NEUTRON TYPE
RESI.         0                    : RESIST       - RESISTIVITY TYPE
RMC .OHMM     3.41                 : RMC          - RESISTIVITY OF MUD CAKE
RMF .OHMM     3.47                 : RMF          - RESISTIVITY OF MUD FILTRATE
SUFT.C        4                    : SUFT         - SURFACE TEMPERATURE
~A  DEPTH     PHIN       GR      CAL     PHID     RESD
# ...
  393.040    0.529   65.035  171.798    0.342   15.479
  393.290    0.546   62.627  171.884    0.342   15.491
  393.540    0.556   60.220  171.970    0.336   15.500
  393.790    0.545   58.424  172.004    0.332   15.716
  394.040    0.532   58.455  172.090    0.333   15.934
  394.290    0.505   62.790  172.176    0.341   15.950
  394.540    0.501   65.279  172.245    0.338   16.162
  394.790    0.534   64.095  172.297    0.338   16.180
  395.040    0.523   61.688  172.383    0.341   16.186
  395.290    0.511   59.290  171.415    0.343   16.204
  395.540    0.504   58.719  171.484    0.336   16.216
  395.790    0.503   58.137  171.570    0.333   16.216
  396.040    0.515   55.128  171.639    0.334   15.836
  396.290    0.483   52.730  170.671    0.339   16.046
  396.540    0.458   53.985  170.740    0.343   16.058
  396.790    0.441   57.698  170.792    0.341   16.070
  397.040    0.448   58.963  169.842    0.333   16.082
  397.290    0.472   55.953  169.945    0.332   15.894
  397.540    0.485   55.382  168.960    0.334   15.912
  397.790    0.502   56.065  169.012    0.331   15.921
  398.040    0.516   56.085  169.115    0.326   15.930
  398.290    0.533   56.728  168.130    0.326   15.942
  398.540    0.557   57.401  168.182    0.328   15.954
  398.790    0.572   58.033  167.249    0.318   15.969
  399.040    0.530   59.931  167.300    0.321   15.981
  399.290    0.522   56.299  167.369    0.330   15.993
  399.540    0.510   54.503  167.438    0.334   16.005
  399.790    0.529   53.330  167.507    0.334   16.017
  400.040    0.525   52.748  167.576    0.331   16.029
  400.290    0.506   52.177  167.662    0.326   16.044
  400.540    0.520   50.994  167.731    0.331   16.056
  400.790    0.532   54.707  167.799    0.327   16.069
  401.040    0.508   60.878  167.868    0.319   16.084
  401.290    0.509   66.417  167.971    0.303   16.096
  401.540    0.560   85.441  170.096    0.292   16.108
  401.790    0.632   94.050  179.492    0.286   15.919
  402.040    0.616   88.583  177.506    0.297   15.928
  402.290    0.589   80.667  173.429    0.311   15.126
  402.540    0.565   75.841  172.444    0.319   13.717
  402.790    0.555   74.638  170.457    0.328   12.505
  403.040    0.529   72.842  169.490    0.332   10.688
  403.290    0.515   69.823  169.576    0.332   10.290
  403.540    0.500   66.803  169.662    0.331   10.105
  403.790    0.506   64.395  169.696    0.326   10.314
  404.040    0.520   64.446  169.782    0.322   11.957
  404.290    0.497   66.313  169.834    0.315   13.394
  404.540    0.495   68.200  169.903    0.307   15.238
  404.790    0.538   70.087  170.006    0.292   15.861
  405.040    0.532   70.729  170.075    0.285   16.079
  405.290    0.537   68.944  170.144    0.276   16.097
  405.540    0.570   67.138  169.176    0.266   16.103
  405.790    0.528   65.965  169.245    0.257   16.319
  406.040    0.449   63.557  169.314    0.243   16.537
  406.290    0.378   59.936  169.383    0.217   16.753
  406.540    0.190   56.294  169.486    0.184   17.376
  406.790    0.168   50.827  170.574    0.123   18.408
  407.040    0.132   50.255  171.662    0.032   19.441
  407.290    0.125   52.132  171.765    0.004   19.854
  407.540    0.126   51.560  171.800   -0.011   21.701
  407.790    0.127   50.377  169.830    0.003   23.748
  408.040    0.129   49.194  168.845    0.022   25.795
  408.290    0.133   48.632  168.914    0.035   30.898
  408.540    0.140   49.897  168.983    0.056   34.167
  408.790    0.200   54.232  169.069    0.111   37.438
  409.040    0.291   58.557  170.157    0.150   40.910
  409.290    0.313   62.280  170.260    0.168   43.161
  409.540    0.379   65.993  170.329    0.192   44.601
  409.790    0.456   67.860  169.362    0.301   45.023
  410.040    0.500   70.349  168.394    0.309   44.628
  410.290    0.501   75.296  167.426    0.308   43.619
  410.540    0.504   76.571  165.405    0.304   41.393
  410.790    0.511   76.601  163.453    0.292   38.555
  411.040    0.523   76.030  163.487    0.286   35.718
  411.290    0.528   77.305  162.520    0.280   29.421
  411.540    0.518   79.794  162.606    0.285   24.345
  411.790    0.527   84.119  162.692    0.279   23.747
  412.040    0.543   88.444  162.726    0.269   20.909
  412.290    0.550   90.320  162.795    0.275   18.276
  412.540    0.527   85.475  162.881    0.277   16.866
  412.790    0.519   79.997  162.950    0.271   16.468
  413.040    0.500   75.141  163.036    0.263   16.280
  413.290    0.492   77.640  163.122    0.254   16.292
  413.540    0.495   81.353  164.193    0.265   16.301
  413.790    0.502   85.688  164.279    0.278   16.313
  414.040    0.517   86.351  164.348    0.293   16.534
  414.290    0.508   83.321  165.453    0.308   16.747
  414.540    0.498   77.854  165.522    0.318   16.759
  414.790    0.493   75.446  165.591    0.315   16.771
  415.040    0.492   78.557  165.660    0.309   16.786
  415.290    0.522   81.658  165.797    0.306   16.598
  415.540    0.525   83.525  165.849    0.311   16.403
  415.790    0.533   86.646  165.900    0.318   15.811
  416.040    0.546   86.676  165.952    0.329   15.413
  416.290    0.558   85.493  166.038    0.324   15.218
  416.540    0.576   83.697  166.090    0.314   15.027
  416.790    0.547   82.514  166.176    0.304   15.042
  417.040    0.534   82.575  165.225    0.298   15.051
  417.290    0.535   83.218  165.294    0.284   15.270
  417.540    0.530   82.054  165.346    0.277   15.692
  417.790    0.518   80.249  164.378    0.281   15.904
  418.040    0.516   80.289  164.447    0.275   16.530
  418.290    0.555   83.380  164.533    0.265   17.152
  418.540    0.555   84.655  164.602    0.268   17.775
  418.790    0.535   83.472  165.707    0.263   18.194
  419.040    0.507   83.512  167.849    0.252   18.616
  419.290    0.481   85.399  168.954    0.245   18.832
  419.540    0.486   86.052  169.040    0.247   18.844
  419.790    0.520   84.256  168.090    0.252   18.859
  420.040    0.531   79.401  167.105    0.247   18.668
  420.290    0.544   76.381  166.155    0.241   18.476
  420.540    0.547   75.188  166.206    0.243   18.282
  420.790    0.539   73.412  166.292    0.247   18.090
  421.040    0.511   74.677  166.361    0.242   17.902
  421.290    0.498   76.544  166.430    0.239   17.713
  421.540    0.495   80.267  166.499    0.249   17.525
  421.790    0.545   82.746  166.568    0.255   17.531
  422.040    0.580   86.479  167.707    0.258   17.339
  422.290    0.603   89.580  167.742    0.257   17.148
  422.540    0.551   91.467  167.845    0.251   16.956
  422.790    0.525   92.109  167.897    0.251   16.564
  423.040    0.513   92.782  169.019    0.253   16.172
  423.290    0.511   92.813  169.071    0.253   15.774
  423.540    0.516   92.843  170.176    0.261   15.383
  423.790    0.527   92.884  171.298    0.254   14.988
  424.040    0.535   92.924  171.384    0.242   14.592
  424.290    0.545   94.822  172.473    0.232   14.602
  424.540    0.555   90.568  173.595    0.232   14.410
  424.790    0.556   88.782  174.683    0.232   14.425
  425.040    0.529   90.037  176.825    0.229   14.440
  425.290    0.535   91.914  177.930    0.230   14.659
  425.540    0.552   90.128  175.943    0.239   14.868
  425.790    0.563   86.487  172.937    0.249   15.287
  426.040    0.559   85.915  171.935    0.259   15.710
  426.290    0.561   93.311  171.002    0.255   16.332
  426.540    0.524   97.023  171.054    0.246   16.754
  426.790    0.526   94.014  173.212    0.244   16.973
  427.040    0.529   91.596  174.301    0.251   16.979
  427.290    0.529   86.751  174.404    0.248   16.994
  427.540    0.527   83.721  173.419    0.249   16.800
  427.790    0.547   83.150  172.434    0.255   16.408
  428.040    0.557   85.649  170.430    0.264   16.013
  428.290    0.549   86.934  169.480    0.271   15.821
  428.540    0.562   86.964  168.512    0.274   15.630
  428.790    0.597   86.383  168.598    0.270   15.642
  429.040    0.595   84.587  168.667    0.267   15.663
  429.290    0.570   83.404  168.736    0.262   15.875
