~VERSION INFORMATION
 VERS.                 2.0:   CWLS LOG ASCII STANDARD -VERSION 2.0
 WRAP.                  NO:   ONE LINE PER DEPTH STEP
~WELL INFORMATION BLOCK
#MNEM.UNIT           DATA                    DESCRIPTION OF MNEMONIC
#---------    -------------------            -------------------------------
# Generated from Intellog Unique Number	CC_88_90/WELL/2317
WELL.         11-31-090-17W4                 : Well_name    - WELL
LOC .         00/11-31-090-17W4/0            : Location     - LOCATION
UWI .         00/11-31-090-17W400            : Uwi          - UNIQUE WELL ID
ENTR.         DW                             : Entered      - ENTERED BY
SRVC.         SCHLUMBERGER                   : Scn          - SERVICE COMPANY
STRT.M        110                            : top_depth    - START DEPTH
STOP.M        233.75                         : bot_depth    - STOP DEPTH
STEP.M        0.25                           : increment    - STEP LENGTH
 NULL. -999.2500:NULL Value
~CURVE INFORMATION BLOCK
#MNEM UNIT       ERCB CURVE CODE    CURVE DESCRIPTION
#-----------   ------------------   ----------------------------------
DEPT.M        00 001 00 00         : DEPTH        - DEPTH
GR  .API      00 310 00 00         : GR           - GAMMA RAY
DPHI.V/V      00 890 00 00         : PHID         - DENSITY POROSITY (SANDSTONE)
NPHI.V/V      00 330 00 00         : PHIN         - NEUTRON POROSITY (SANDSTONE)
ILD .OHMM     00 120 00 00         : RESD         - DEEP RESISTIVITY (DIL)
~PARAMETER INFORMATION
#MNEM.UNIT           DATA             DESCRIPTION OF MNEMONIC
#---------         -----------     ------------------------------
GL  .M        500.7                : gl           - GROUND LEVEL ELEVATION
EREF.M        503.15               : kb           - ELEVATION OF DEPTH REFERENCE
DATM.M        503.15               : datum        - DATUM ELEVATION
TDD .M        244                  : tdd          - TOTAL DEPTH DRILLER
RUN .         ONE                  : Run          - RUN NUMBER
ENG .         BILL                 : Engineer     - RECORDING ENGINEER
WIT .         JIM                  : Witness      - WITNESSED BY
MUD .         GEL                  : Mud_type     - MUD TYPE
MATR.         SANDSTONE            : Logunit      - NEUTRON MATRIX
TMAX.C        22                   : BHT          - MAXIMUM RECORDED TEMPERATURE
BHTD.M        244                  : BHTDEP       - MAXIMUM RECORDED TEMPERATURE
MATR.         1                    : LOGUNIT      - NEUTRON MATRIX
RMT .C        25                   : MDTP         - TEMPERATURE OF MUD
NEUT.         1                    : NEUTRON      - NEUTRON TYPE
RESI.         0                    : RESIST       - RESISTIVITY TYPE
RMC .OHMM     0.25                 : RMC          - RESISTIVITY OF MUD CAKE
RMF .OHMM     0.25                 : RMF          - RESISTIVITY OF MUD FILTRATE
SUFT.C        15                   : SUFT         - SURFACE TEMPERATURE
~A  DEPTH       GR     PHID     PHIN     RESD
# ...
  197.000   60.289    0.329    0.394   31.263
  197.250   62.185    0.309    0.385   25.112
  197.500   60.595    0.299    0.399   22.274
  197.750   58.884    0.299    0.410   21.549
  198.000   59.511    0.307    0.403   23.980
  198.250   61.066    0.323    0.390   28.700
  198.500   60.213    0.328    0.382   33.595
  198.750   55.436    0.328    0.385   39.759
  199.000   53.456    0.333    0.416   42.049
  199.250   55.861    0.332    0.460   42.120
  199.500   63.031    0.264    0.458   32.388
  199.750   74.152    0.188    0.394   15.809
  200.000   83.595    0.223    0.338   10.098
  200.250   87.106    0.241    0.355    7.322
  200.500   93.204    0.241    0.378    5.715
  200.750   98.528    0.242    0.405    5.046
  201.000   98.349    0.246    0.447    4.826
  201.250   99.419    0.252    0.467    4.775
  201.500  107.630    0.262    0.446    4.605
  201.750  110.678    0.272    0.451    4.170
  202.000  110.085    0.255    0.454    4.044
  202.250  105.462    0.249    0.443    4.251
  202.500   95.948    0.262    0.429    4.757
  202.750   89.283    0.268    0.402    5.663
  203.000   91.456    0.269    0.366    6.980
  203.250   89.297    0.257    0.387    8.725
  203.500   84.260    0.207    0.377   10.760
  203.750   79.004    0.239    0.350   13.185
  204.000   72.338    0.302    0.318   16.303
  204.250   64.618    0.320    0.288   21.023
  204.500   59.181    0.352    0.295   27.481
  204.750   56.312    0.304    0.309   32.998
  205.000   56.229    0.250    0.314   37.006
  205.250   59.967    0.280    0.316   41.867
  205.500   64.001    0.320    0.355   46.803
  205.750   62.533    0.308    0.408   48.678
  206.000   56.608    0.316    0.407   45.935
  206.250   55.149    0.335    0.388   39.648
  206.500   56.515    0.280    0.396   36.911
  206.750   57.824    0.218    0.395   35.519
  207.000   57.177    0.216    0.376   35.767
  207.250   54.787    0.273    0.371   40.594
  207.500   52.777    0.344    0.385   50.333
  207.750   50.938    0.349    0.400   65.599
  208.000   46.559    0.339    0.401   75.108
  208.250   42.797    0.334    0.410   76.565
  208.500   40.871    0.329    0.419   66.334
  208.750   39.482    0.319    0.411   44.838
  209.000   39.667    0.298    0.396   25.834
  209.250   43.713    0.270    0.381   19.803
  209.500   53.506    0.268    0.334   17.006
  209.750   67.185    0.278    0.319   11.406
  210.000   77.200    0.277    0.348    7.229
  210.250   81.102    0.270    0.392    6.839
  210.500   82.905    0.274    0.446    6.156
  210.750   80.537    0.274    0.462    5.827
  211.000   82.452    0.257    0.451    5.788
  211.250   83.136    0.244    0.429    5.864
  211.500   80.634    0.254    0.401    6.224
  211.750   77.785    0.274    0.391    6.894
  212.000   73.527    0.280    0.415    7.712
  212.250   69.820    0.274    0.426    8.994
  212.500   66.873    0.270    0.403   10.955
  212.750   65.307    0.270    0.376   13.643
  213.000   64.298    0.272    0.360   17.000
  213.250   60.492    0.276    0.354   20.104
  213.500   53.626    0.282    0.364   22.386
  213.750   51.451    0.283    0.377   25.494
  214.000   54.400    0.272    0.365   27.495
  214.250   57.912    0.266    0.343   26.966
  214.500   59.564    0.268    0.351   25.627
  214.750   60.602    0.271    0.371   24.906
  215.000   62.163    0.279    0.355   24.107
  215.250   61.706    0.292    0.351   24.007
  215.500   55.554    0.314    0.389   24.843
  215.750   50.675    0.322    0.415   26.793
  216.000   52.426    0.319    0.400   28.573
  216.250   57.357    0.317    0.371   28.303
  216.500   60.201    0.315    0.356   26.456
  216.750   61.810    0.315    0.361   25.950
  217.000   62.983    0.317    0.392   25.884
  217.250   66.025    0.337    0.425   26.158
  217.500   69.121    0.244    0.432   26.479
  217.750   72.196    0.106    0.394   26.358
  218.000   78.653    0.171    0.329   25.897
  218.250   84.443    0.220    0.322   24.756
  218.500   88.651    0.242    0.329   22.994
  218.750   88.205    0.255    0.347   21.083
  219.000   87.849    0.263    0.372   19.782
  219.250   91.824    0.262    0.375   19.382
  219.500   95.280    0.255    0.353   19.399
  219.750   96.458    0.244    0.357   19.402
  220.000   96.283    0.235    0.361   19.250
  220.250   94.949    0.236    0.365   18.399
  220.500   95.040    0.245    0.378   17.123
  220.750   92.596    0.249    0.381   16.160
  221.000   83.450    0.250    0.364   15.689
  221.250   83.579    0.257    0.377   15.653
  221.500   89.792    0.255    0.381   15.863
  221.750   93.805    0.251    0.369   16.150
  222.000   93.329    0.252    0.369   16.311
  222.250   93.870    0.250    0.376   16.236
  222.500   96.947    0.239    0.356   15.957
  222.750   92.156    0.237    0.342   15.467
  223.000   92.035    0.241    0.338   14.910
  223.250   96.819    0.242    0.348   14.713
  223.500  101.963    0.233    0.360   14.787
  223.750  106.276    0.220    0.354   14.722
  224.000  112.888    0.210    0.336   14.467
  224.250  126.622    0.205    0.331   14.071
  224.500  127.887    0.206    0.362   13.064
  224.750  120.958    0.219    0.389   12.235
  225.000  107.327    0.190    0.375   11.719
  225.250   92.588    0.109    0.345   11.178
  225.500   92.385    0.055    0.347   10.843
  225.750   96.071    0.050    0.356   10.646
  226.000   98.099    0.093    0.357   10.629
  226.250   96.584    0.118    0.355   10.556
  226.500   93.962    0.114    0.356   10.304
  226.750   92.774    0.111    0.359    9.952
  227.000   92.302    0.110    0.361    9.645
  227.250   92.696    0.101    0.362    9.608
  227.500   94.050    0.093    0.343    9.869
  227.750   95.631    0.098    0.317   10.201
  228.000   95.570    0.105    0.315   10.530
  228.250   90.707    0.101    0.345   10.848
  228.500   80.480    0.093    0.349   11.206
  228.750   71.635    0.082    0.259   12.064
  229.000   68.512    0.070    0.224   13.514
  229.250   67.133    0.087    0.239   14.716
  229.500   70.466    0.111    0.253   16.200
  229.750   76.581    0.108    0.272   17.911
  230.000   74.776    0.097    0.293   18.353
  230.250   71.530    0.081    0.274   18.357
  230.500   69.702    0.085    0.261   18.303
  230.750   68.202    0.085    0.258   18.492
  231.000   66.808    0.074    0.245   18.768
  231.250   66.786    0.070    0.227   19.150
  231.500   67.850    0.071    0.224   20.135
  231.750   67.409    0.069    0.231   21.481
  232.000   66.612    0.081    0.237   22.394
  232.250   66.996    0.077    0.240   22.608
  232.500   68.428    0.066    0.238   22.522
  232.750   71.868    0.068    0.231   22.557
  233.000   78.863    0.071    0.225   22.528
  233.250   85.174    0.070    0.229   21.871
  233.500   84.684    0.068    0.237   20.835
  233.750   84.278    0.070    0.244   20.080
