~VERSION INFORMATION
 VERS.                 2.0:   CWLS LOG ASCII STANDARD -VERSION 2.0
 WRAP.                  NO:   ONE LINE PER DEPTH STEP
~WELL INFORMATION BLOCK
#MNEM.UNIT           DATA                    DESCRIPTION OF MNEMONIC
#---------    -------------------            -------------------------------
# Generated from Intellog Unique Number	CW_70_72/WELL/3031
NULL.         -999.25                        : NULL_VALUE
WELL.         SULPETRO ET AL PARKER 11-23    : Well_name    - WELL              
LOC .         11-23-070-05W5                 : Location     - LOCATION          
UWI .         00/11-23-070-05W5/0            : Uwi          - UNIQUE WELL ID    
ENTR.         JAYE                           : Entered      - ENTERED BY        
SRVC.         SCHLUMBERGER                   : Scn          - SERVICE COMPANY   
DATE.         2 APR 82                       : Date         - LOG DATE          
STRT.M        660                            : top_depth    - START DEPTH       
STOP.M        905                            : bot_depth    - STOP DEPTH        
STEP.M        0.25                           : increment    - STEP LENGTH       
~CURVE INFORMATION BLOCK
#MNEM UNIT       ERCB CURVE CODE    CURVE DESCRIPTION
#-----------   ------------------   ----------------------------------
DEPT.M        00 001 00 00         : DEPTH        - DEPTH                       
ILD .OHMM     00 120 00 00         : RESD         - DEEP RESISTIVITY (DIL)      
CALI.MM       00 280 01 00         : CAL          - CALIPER                     
GR  .API      00 310 00 00         : GR           - GAMMA RAY                   
NPHI.V/V      00 330 00 00         : PHIN         - NEUTRON POROSITY (SANDSTONE)
DPHI.V/V      00 890 00 00         : PHID         - DENSITY POROSITY (SANDSTONE)
~PARAMETER INFORMATION       
#MNEM.UNIT           DATA             DESCRIPTION OF MNEMONIC
#---------         -----------     ------------------------------
GL  .M        779.8                : gl           - GROUND LEVEL ELEVATION      
EREF.M        782.7                : kb           - ELEVATION OF DEPTH REFERENCE
DATM.M        779.8                : datum        - DATUM ELEVATION             
TDD .M        926                  : tdd          - TOTAL DEPTH DRILLER         
RUN .         ONE                  : Run          - RUN NUMBER                  
ENG .         VANDENBRINK          : Engineer     - RECORDING ENGINEER          
WIT .         SPRATT               : Witness      - WITNESSED BY                
BASE.         EDM                  : Branch       - HOME BASE OF LOGGING UNIT   
MUD .         GEL CHEM             : Mud_type     - MUD TYPE                    
MATR.         SANDSTONE            : Logunit      - NEUTRON MATRIX              
TMAX.C        35.5                 : BHT          - MAXIMUM RECORDED TEMPERATURE
BHTD.M        928                  : BHTDEP       - MAXIMUM RECORDED TEMPERATURE
RMT .C        18.8                 : MDTP         - TEMPERATURE OF MUD          
MUDD.KG/M     1210                 : MWT          - MUD DENSITY                 
NEUT.         1                    : NEUTRON      - NEUTRON TYPE                
RESI.         0                    : RESIST       - RESISTIVITY TYPE            
RM  .OHMM     0.644                : RM           - RESISTIVITY OF MUD          
RMC .OHMM     0.25                 : RMC          - RESISTIVITY OF MUD CAKE     
RMF .OHMM     0.598                : RMF          - RESISTIVITY OF MUD FILTRATE 
SUFT.C        0                    : SUFT         - SURFACE TEMPERATURE         
~A  DEPTH     RESD      CAL       GR     PHIN     PHID
# ...
  769.500    1.114  155.475   58.193    0.431    0.306
  769.750    1.132  155.398   57.084    0.427    0.318
  770.000    1.184  155.117   58.229    0.412    0.319
  770.250    1.254  154.832   59.311    0.423    0.314
  770.500    1.331  154.653   58.956    0.425    0.308
  770.750    1.421  154.275   60.038    0.411    0.304
  771.000    1.541  153.787   63.809    0.406    0.303
  771.250    1.605  153.707   68.770    0.419    0.306
  771.500    1.597  153.428   69.790    0.426    0.311
  771.750    1.545  153.358   64.118    0.408    0.317
  772.000    1.484  153.181   60.697    0.399    0.321
  772.250    1.409  153.106   58.214    0.421    0.320
  772.500    1.353  153.037   59.670    0.441    0.314
  772.750    1.316  153.063   60.942    0.430    0.304
  773.000    1.276  153.099   57.019    0.405    0.304
  773.250    1.258  153.232   52.596    0.403    0.307
  773.500    1.264  153.162   57.495    0.418    0.313
  773.750    1.302  153.092   62.144    0.429    0.321
  774.000    1.385  153.126   57.596    0.441    0.319
  774.250    1.688  153.255   54.239    0.450    0.276
  774.500    2.000  153.601   57.510    0.342    0.153
  774.750    2.285  154.571   58.092    0.239    0.084
  775.000    2.524  156.690   54.796    0.224    0.086
  775.250    2.680  157.972   54.189    0.263    0.159
  775.500    2.698  158.003   57.212    0.294    0.237
  775.750    2.504  155.433   61.109    0.320    0.294
  776.000    2.229  154.005   63.192    0.388    0.290
  776.250    2.014  153.201   58.707    0.371    0.282
  776.500    1.803  153.126   55.036    0.358    0.281
  776.750    1.731  153.161   60.373    0.392    0.297
  777.000    1.730  153.086   62.642    0.415    0.287
  777.250    1.758  153.124   61.035    0.405    0.278
  777.500    1.750  152.946   61.993    0.389    0.280
  777.750    1.706  153.078   64.141    0.391    0.286
  778.000    1.641  153.008   68.726    0.420    0.295
  778.250    1.558  152.413   69.620    0.427    0.312
  778.500    1.460  151.401   64.322    0.421    0.317
  778.750    1.378  152.580   61.402    0.413    0.316
  779.000    1.333  153.969   58.730    0.401    0.311
  779.250    1.315  154.730   56.685    0.393    0.317
  779.500    1.333  154.765   58.018    0.412    0.322
  779.750    1.378  154.481   63.480    0.442    0.317
  780.000    1.475  153.891   64.437    0.444    0.301
  780.250    1.610  153.398   61.328    0.423    0.284
  780.500    1.693  152.705   59.346    0.396    0.269
  780.750    1.689  152.419   61.055    0.380    0.270
  781.000    1.652  152.346   63.638    0.396    0.276
  781.250    1.611  151.857   64.284    0.411    0.282
  781.500    1.567  151.789   61.987    0.412    0.284
  781.750    1.502  151.821   60.755    0.416    0.287
  782.000    1.429  151.643   64.779    0.423    0.290
  782.250    1.341  151.673   65.798    0.437    0.296
  782.500    1.327  151.292   59.249    0.429    0.300
  782.750    1.357  151.110   59.832    0.422    0.304
  783.000    1.421  151.042   65.981    0.411    0.297
  783.250    1.506  150.549   68.627    0.404    0.281
  783.500    1.599  150.686   66.269    0.403    0.265
  783.750    1.646  150.512   62.285    0.398    0.251
  784.000    1.689  150.541   61.803    0.388    0.242
  784.250    1.697  151.304   63.636    0.409    0.260
  784.500    1.702  152.067   64.532    0.421    0.262
  784.750    1.682  153.140   65.239    0.411    0.257
  785.000    1.605  153.485   66.572    0.401    0.269
  785.250    1.550  152.996   67.967    0.403    0.282
  785.500    1.514  151.879   67.675    0.402    0.300
  785.750    1.496  150.456   66.192    0.405    0.302
  786.000    1.588  149.753   62.395    0.422    0.285
  786.250    1.661  149.785   59.536    0.430    0.262
  786.500    1.688  149.818   60.433    0.406    0.241
  786.750    1.693  151.830   61.954    0.313    0.193
  787.000    1.685  152.799   61.158    0.304    0.190
  787.250    1.633  152.938   59.175    0.371    0.222
  787.500    1.504  152.553   62.948    0.396    0.264
  787.750    1.401  151.965   64.469    0.394    0.287
  788.000    1.350  151.679   63.362    0.395    0.302
  788.250    1.352  151.395   64.882    0.413    0.288
  788.500    1.374  151.533   65.589    0.433    0.295
  788.750    1.394  151.565   62.293    0.438    0.286
  789.000    1.400  151.810   63.438    0.403    0.277
  789.250    1.391  152.158   64.898    0.394    0.287
  789.500    1.362  152.185   62.789    0.393    0.299
  789.750    1.337  152.216   63.183    0.402    0.306
  790.000    1.324  152.038   64.765    0.414    0.310
  790.250    1.305  151.975   65.975    0.432    0.314
  790.500    1.311  152.103   66.868    0.424    0.315
  790.750    1.358  152.029   65.699    0.409    0.303
  791.000    1.420  152.165   64.906    0.412    0.296
  791.250    1.519  151.883   65.737    0.435    0.287
  791.500    1.559  151.810   66.570    0.446    0.278
  791.750    1.566  151.743   66.902    0.447    0.271
  792.000    1.535  151.771   67.859    0.458    0.279
  792.250    1.433  151.700   71.757    0.472    0.291
  792.500    1.348  151.837   66.959    0.468    0.295
  792.750    1.263  151.974   64.039    0.452    0.298
  793.000    1.240  151.898   65.058    0.436    0.301
  793.250    1.260  151.722   68.956    0.422    0.310
  793.500    1.315  151.654   70.103    0.431    0.317
  793.750    1.373  151.472   68.994    0.427    0.302
  794.000    1.393  150.987   68.575    0.435    0.281
  794.250    1.383  151.125   67.344    0.457    0.269
  794.500    1.356  151.569   67.362    0.454    0.285
  794.750    1.353  151.608   70.009    0.440    0.294
  795.000    1.382  151.739   73.281    0.425    0.294
  795.250    1.448  151.771   75.240    0.438    0.296
  795.500    1.615  152.009   77.511    0.451    0.309
  795.750    1.764  152.250   81.471    0.445    0.302
  796.000    1.919  152.597   86.807    0.452    0.281
  796.250    2.057  154.821   92.457    0.480    0.217
  796.500    2.175  156.935   97.105    0.476    0.182
  796.750    2.296  158.428   98.313    0.452    0.154
  797.000    2.401  159.396   97.457    0.443    0.137
  797.250    2.520  159.738   97.478    0.421    0.139
  797.500    2.615  160.087   98.245    0.404    0.162
  797.750    2.539  159.073   93.510    0.403    0.182
  798.000    2.392  155.873   81.644    0.421    0.217
  798.250    2.170  152.779   71.904    0.421    0.255
  798.500    1.903  151.349   77.491    0.414    0.270
  798.750    1.790  150.861   80.450    0.430    0.276
  799.000    1.829  151.627   81.532    0.435    0.262
  799.250    1.998  153.010   82.552    0.421    0.218
  799.500    2.261  154.817   86.955    0.405    0.185
  799.750    2.493  156.725   90.348    0.394    0.151
  800.000    2.802  158.007   96.310    0.405    0.141
  800.250    3.017  158.558   97.831    0.414    0.137
  800.500    3.034  156.090   93.785    0.406    0.145
  800.750    2.952  154.141   93.927    0.397    0.174
  801.000    2.755  154.587   97.451    0.400    0.183
  801.250    2.591  156.083   95.657    0.409    0.169
  801.500    2.418  156.634   91.046    0.413    0.177
  801.750    2.266  156.357   86.560    0.418    0.202
  802.000    2.209  155.869   81.763    0.426    0.220
  802.250    2.215  155.479   79.968    0.428    0.217
  802.500    2.290  155.198   82.802    0.420    0.195
  802.750    2.363  154.820   84.761    0.426    0.182
  803.000    2.475  155.262   85.342    0.439    0.181
  803.250    2.574  156.442   84.924    0.446    0.204
  803.500    2.666  157.515   83.630    0.435    0.207
  803.750    2.761  158.484   85.212    0.414    0.185
  804.000    2.859  160.498   88.297    0.403    0.140
  804.250    2.995  164.388   91.320    0.400    0.130
  804.500    3.162  169.423   90.900    0.410    0.142
  804.750    3.312  173.417   87.604    0.407    0.146
  805.000    3.450  169.489   84.683    0.398    0.139
  805.250    3.494  165.872   83.325    0.385    0.123
  805.500    3.380  168.926   86.597    0.378    0.101
  805.750    3.167  173.858   90.808    0.398    0.124
