~VERSION INFORMATION
 VERS.                 2.0:   CWLS LOG ASCII STANDARD -VERSION 2.0
 WRAP.                  NO:   ONE LINE PER DEPTH STEP
~WELL INFORMATION BLOCK
#MNEM.UNIT           DATA                    DESCRIPTION OF MNEMONIC
#---------    -------------------            -------------------------------
# Generated from Intellog Unique Number	CS_71_72/WELL/898
WELL.         BVX ET AL NIXON                : Well_name    - WELL
LOC .         00/11-15-072-16W4/0            : Location     - LOCATION
UWI .         00/11-15-072-16W4/0            : Uwi          - UNIQUE WELL ID
ENTR.         SP                             : Entered      - ENTERED BY
SRVC.         SCHLUMBERGER                   : Scn          - SERVICE COMPANY
STRT.M        256.032                        : top_depth    - START DEPTH
STOP.M        435.532                        : bot_depth    - STOP DEPTH
STEP.M        0.25                           : increment    - STEP LENGTH
 NULL. -999.2500:NULL Value
~CURVE INFORMATION BLOCK
#MNEM UNIT       ERCB CURVE CODE    CURVE DESCRIPTION
#-----------   ------------------   ----------------------------------
DEPT.M        00 001 00 00         : DEPTH        - DEPTH
GR  .API      00 310 00 00         : GR           - GAMMA RAY
DPHI.V/V      00 890 00 00         : PHID         - DENSITY POROSITY (SANDSTONE)
NPHI.V/V      00 330 00 00         : PHIN         - NEUTRON POROSITY (SANDSTONE)
ILD .OHMM     00 120 00 00         : RESD         - DEEP RESISTIVITY (DIL)
~PARAMETER INFORMATION
#MNEM.UNIT           DATA             DESCRIPTION OF MNEMONIC
#---------         -----------     ------------------------------
GL  .M        577.596              : gl           - GROUND LEVEL ELEVATION
EREF.M        580.644              : kb           - ELEVATION OF DEPTH REFERENCE
DATM.M        577.596              : datum        - DATUM ELEVATION
TDD .M        438.912              : tdd          - TOTAL DEPTH DRILLER
RUN .         ONE                  : Run          - RUN NUMBER
ENG .         BILL                 : Engineer     - RECORDING ENGINEER
WIT .         JIM                  : Witness      - WITNESSED BY
MUD .         GEL                  : Mud_type     - MUD TYPE
MATR.         SANDSTONE            : Logunit      - NEUTRON MATRIX
TMAX.C        15.5556              : BHT          - MAXIMUM RECORDED TEMPERATURE
BHTD.M        438.912              : BHTDEP       - MAXIMUM RECORDED TEMPERATURE
MATR.         1                    : LOGUNIT      - NEUTRON MATRIX
RMT .C        25                   : MDTP         - TEMPERATURE OF MUD
NEUT.         1                    : NEUTRON      - NEUTRON TYPE
RESI.         0                    : RESIST       - RESISTIVITY TYPE
RMC .OHMM     0.25                 : RMC          - RESISTIVITY OF MUD CAKE
RMF .OHMM     0.25                 : RMF          - RESISTIVITY OF MUD FILTRATE
SUFT.C        15                   : SUFT         - SURFACE TEMPERATURE
~A  DEPTH       GR     PHID     PHIN     RESD
# ...
  343.032   63.679    0.309    0.420    5.268
  343.282   61.050    0.262    0.347    5.928
  343.532   59.178    0.198    0.256    6.680
  343.782   56.236    0.160    0.238    7.645
  344.032   54.029    0.138    0.232    9.398
  344.282   53.413    0.129    0.224   11.880
  344.532   54.197    0.112    0.215   14.703
  344.782   54.271    0.098    0.207   17.597
  345.032   58.210    0.087    0.201   18.796
  345.282   65.285    0.114    0.227   16.203
  345.532   67.494    0.186    0.299   13.316
  345.782   71.008    0.275    0.447   10.973
  346.032   70.740    0.341    0.477    8.668
  346.282   70.472    0.335    0.497    7.170
  346.532   69.409    0.336    0.477    6.077
  346.782   69.163    0.328    0.466    5.416
  347.032   68.147    0.329    0.463    4.960
  347.282   67.621    0.345    0.473    4.896
  347.532   67.734    0.350    0.477    4.794
  347.782   67.110    0.331    0.466    4.807
  348.032   66.175    0.343    0.473    4.810
  348.282   62.650    0.344    0.469    4.813
  348.532   61.796    0.329    0.480    4.816
  348.782   62.745    0.325    0.491    4.819
  349.032   64.553    0.326    0.472    4.823
  349.282   66.535    0.333    0.463    4.826
  349.532   68.304    0.338    0.453    4.821
  349.782   69.262    0.340    0.458    4.930
  350.032   67.849    0.344    0.471    4.929
  350.282   65.956    0.331    0.482    4.967
  350.532   65.719    0.313    0.483    5.025
  350.782   67.412    0.296    0.469    5.030
  351.032   68.697    0.310    0.476    5.033
  351.282   71.172    0.342    0.468    5.036
  351.532   73.597    0.347    0.464    5.040
  351.782   75.969    0.329    0.455    5.044
  352.032   77.343    0.318    0.460    5.046
  352.282   77.242    0.310    0.463    5.051
  352.532   78.740    0.306    0.459    5.057
  352.782   80.239    0.302    0.454    4.994
  353.032   81.394    0.297    0.472    4.771
  353.282   81.716    0.302    0.491    4.788
  353.532   80.849    0.290    0.515    4.857
  353.782   79.705    0.290    0.530    5.022
  354.032   75.710    0.313    0.511    5.077
  354.282   73.079    0.329    0.498    5.113
  354.532   72.758    0.316    0.489    5.064
  354.782   74.579    0.316    0.478    4.907
  355.032   76.700    0.312    0.470    4.657
  355.282   77.147    0.302    0.458    4.623
  355.532   76.698    0.296    0.465    4.637
  355.782   74.446    0.295    0.480    4.727
  356.032   73.004    0.301    0.473    4.928
  356.282   73.559    0.306    0.464    5.090
  356.532   73.441    0.312    0.458    5.290
  356.782   69.398    0.303    0.474    5.517
  357.032   68.724    0.306    0.489    5.813
  357.282   71.876    0.302    0.491    5.862
  357.532   75.019    0.307    0.494    5.944
  357.782   75.263    0.303    0.487    5.780
  358.032   74.937    0.290    0.461    5.488
  358.282   72.237    0.285    0.452    5.339
  358.532   72.767    0.293    0.449    5.180
  358.782   74.774    0.302    0.449    5.027
  359.032   77.943    0.292    0.449    4.961
  359.282   79.402    0.289    0.446    4.817
  359.532   80.762    0.286    0.444    4.778
  359.782   80.283    0.305    0.445    4.696
  360.032   80.163    0.316    0.452    4.704
  360.282   80.844    0.313    0.467    4.707
  360.532   80.913    0.305    0.467    4.650
  360.782   80.242    0.296    0.460    4.630
  361.032   80.324    0.300    0.453    4.629
  361.282   81.345    0.311    0.454    4.582
  361.532   82.373    0.311    0.466    4.554
  361.782   85.637    0.300    0.472    4.555
  362.032   86.850    0.289    0.475    4.558
  362.282   82.589    0.294    0.471    4.561
  362.532   81.805    0.288    0.465    4.565
  362.782   82.708    0.293    0.461    4.567
  363.032   82.976    0.293    0.488    4.571
  363.282   82.006    0.284    0.504    4.573
  363.532   81.061    0.279    0.514    4.570
  363.782   80.100    0.294    0.499    4.665
  364.032   79.761    0.303    0.487    4.667
  364.282   79.736    0.308    0.476    4.672
  364.532   80.174    0.290    0.473    4.676
  364.782   82.618    0.273    0.485    4.679
  365.032   78.667    0.275    0.497    4.683
  365.282   80.176    0.285    0.498    4.684
  365.532   82.040    0.291    0.495    4.654
  365.782   84.773    0.289    0.493    4.512
  366.032   89.472    0.279    0.488    4.326
  366.282   91.981    0.263    0.527    3.962
  366.532   97.466    0.240    0.544    3.544
  366.782   99.871    0.241    0.553    3.103
  367.032  102.025    0.243    0.539    2.781
  367.282  101.022    0.246    0.546    2.516
  367.532  102.341    0.252    0.558    2.268
  367.782   99.585    0.241    0.570    2.262
  368.032   98.337    0.235    0.587    2.489
  368.282   95.960    0.250    0.481    2.854
  368.532   95.173    0.258    0.477    3.127
  368.782   97.266    0.249    0.474    3.422
  369.032   98.976    0.245    0.476    3.822
  369.282   98.188    0.237    0.471    4.176
  369.532   95.083    0.221    0.468    4.510
  369.782   93.642    0.211    0.462    4.713
  370.032   94.199    0.203    0.453    4.926
  370.282   96.921    0.200    0.442    4.991
  370.532   97.111    0.217    0.444    5.022
  370.782   96.151    0.223    0.449    5.033
  371.032   95.758    0.242    0.453    4.933
  371.282   96.776    0.251    0.450    4.943
  371.532  100.056    0.257    0.453    4.948
  371.782  101.621    0.255    0.455    4.951
  372.032  101.417    0.243    0.469    4.954
  372.282   97.838    0.241    0.473    4.957
  372.532   95.989    0.226    0.466    4.962
  372.782   95.746    0.213    0.463    4.964
  373.032   94.219    0.216    0.471    4.973
  373.282   94.848    0.228    0.474    5.026
  373.532   95.289    0.242    0.463    5.166
  373.782   90.259    0.239    0.462    4.912
  374.032   86.827    0.237    0.466    4.758
  374.282   81.824    0.256    0.466    4.552
  374.532   77.808    0.278    0.453    4.422
  374.782   80.055    0.283    0.444    4.303
  375.032   80.839    0.275    0.438    4.240
  375.282   75.423    0.258    0.434    4.228
  375.532   69.311    0.258    0.427    4.324
  375.782   65.218    0.270    0.416    4.436
  376.032   61.069    0.249    0.401    4.951
  376.282   59.450    0.224    0.376    5.304
  376.532   57.446    0.173    0.342    6.061
  376.782   59.037    0.163    0.323    7.020
  377.032   59.007    0.146    0.301    8.235
  377.282   57.378    0.130    0.281    9.305
  377.532   57.495    0.132    0.276   10.496
  377.782   58.344    0.122    0.268   11.351
  378.032   62.977    0.210    0.368   10.498
  378.282   64.578    0.248    0.443    8.992
  378.532   64.601    0.247    0.451    7.453
  378.782   64.766    0.255    0.460    6.410
  379.032   66.503    0.287    0.465    5.318
  379.282   66.832    0.293    0.469    4.696
  379.532   68.725    0.294    0.473    4.388
  379.782   71.354    0.300    0.479    4.207
  380.032   72.442    0.293    0.484    4.161
  380.282   70.826    0.299    0.477    4.137
  380.532   69.805    0.307    0.470    4.139
  380.782   68.768    0.307    0.466    4.195
  381.032   68.624    0.311    0.468    4.148
  381.282   69.719    0.317    0.461    4.228
  381.532   69.573    0.317    0.452    4.228
  381.782   68.552    0.311    0.449    4.229
  382.032   66.439    0.302    0.453    4.232
  382.282   67.337    0.311    0.451    4.230
  382.532   69.374    0.294    0.451    4.319
  382.782   69.465    0.284    0.456    4.322
  383.032   67.796    0.278    0.454    4.346
  383.282   66.454    0.297    0.462    4.409
  383.532   66.443    0.297    0.476    4.411
  383.782   67.379    0.302    0.488    4.414
  384.032   68.885    0.302    0.485    4.417
  384.282   69.951    0.314    0.472    4.411
  384.532   70.234    0.306    0.458    4.512
  384.782   69.770    0.306    0.449    4.505
  385.032   69.969    0.299    0.443    4.476
  385.282   70.349    0.290    0.462    4.432
  385.532   70.951    0.290    0.469    4.505
  385.782   71.819    0.308    0.463    4.425
  386.032   72.835    0.308    0.463    4.442
  386.282   72.515    0.304    0.476    4.366
