~VERSION INFORMATION
 VERS.                 2.0:   CWLS LOG ASCII STANDARD -VERSION 2.0
 WRAP.                  NO:   ONE LINE PER DEPTH STEP
~WELL INFORMATION BLOCK
#MNEM.UNIT           DATA                    DESCRIPTION OF MNEMONIC
#---------    -------------------            -------------------------------
# Generated from Intellog Unique Number	CW_70_72/WELL/3031
NULL.         -999.25                        : NULL_VALUE
WELL.         SULPETRO ET AL PARKER 11-23    : Well_name    - WELL              
LOC .         11-23-070-05W5                 : Location     - LOCATION          
UWI .         00/11-23-070-05W5/0            : Uwi          - UNIQUE WELL ID    
ENTR.         JAYE                           : Entered      - ENTERED BY        
SRVC.         SCHLUMBERGER                   : Scn          - SERVICE COMPANY   
DATE.         2 APR 82                       : Date         - LOG DATE          
STRT.M        660                            : top_depth    - START DEPTH       
STOP.M        905                            : bot_depth    - STOP DEPTH        
STEP.M        0.25                           : increment    - STEP LENGTH       
~CURVE INFORMATION BLOCK
#MNEM UNIT       ERCB CURVE CODE    CURVE DESCRIPTION
#-----------   ------------------   ----------------------------------
DEPT.M        00 001 00 00         : DEPTH        - DEPTH                       
ILD .OHMM     00 120 00 00         : RESD         - DEEP RESISTIVITY (DIL)      
CALI.MM       00 280 01 00         : CAL          - CALIPER                     
GR  .API      00 310 00 00         : GR           - GAMMA RAY                   
NPHI.V/V      00 330 00 00         : PHIN         - NEUTRON POROSITY (SANDSTONE)
DPHI.V/V      00 890 00 00         : PHID         - DENSITY POROSITY (SANDSTONE)
~PARAMETER INFORMATION       
#MNEM.UNIT           DATA             DESCRIPTION OF MNEMONIC
#---------         -----------     ------------------------------
GL  .M        779.8                : gl           - GROUND LEVEL ELEVATION      
EREF.M        782.7                : kb           - ELEVATION OF DEPTH REFERENCE
DATM.M        779.8                : datum        - DATUM ELEVATION             
TDD .M        926                  : tdd          - TOTAL DEPTH DRILLER         
RUN .         ONE                  : Run          - RUN NUMBER                  
ENG .         VANDENBRINK          : Engineer     - RECORDING ENGINEER          
WIT .         SPRATT               : Witness      - WITNESSED BY                
BASE.         EDM                  : Branch       - HOME BASE OF LOGGING UNIT   
MUD .         GEL CHEM             : Mud_type     - MUD TYPE                    
MATR.         SANDSTONE            : Logunit      - NEUTRON MATRIX              
TMAX.C        35.5                 : BHT          - MAXIMUM RECORDED TEMPERATURE
BHTD.M        928                  : BHTDEP       - MAXIMUM RECORDED TEMPERATURE
RMT .C        18.8                 : MDTP         - TEMPERATURE OF MUD          
MUDD.KG/M     1210                 : MWT          - MUD DENSITY                 
NEUT.         1                    : NEUTRON      - NEUTRON TYPE                
RESI.         0                    : RESIST       - RESISTIVITY TYPE            
RM  .OHMM     0.644                : RM           - RESISTIVITY OF MUD          
RMC .OHMM     0.25                 : RMC          - RESISTIVITY OF MUD CAKE     
RMF .OHMM     0.598                : RMF          - RESISTIVITY OF MUD FILTRATE 
SUFT.C        0                    : SUFT         - SURFACE TEMPERATURE         
~A  DEPTH     RESD      CAL       GR     PHIN     PHID
# ...
  733.000    3.712  162.376   98.555    0.369    0.222
  733.250    3.896  165.433  101.577    0.383    0.216
  733.500    4.183  167.654  102.536    0.398    0.210
  733.750    4.324  169.456  105.370    0.412    0.183
  734.000    4.199  170.739  109.518    0.431    0.145
  734.250    3.860  172.334   99.966    0.428    0.137
  734.500    3.576  173.304   97.546    0.442    0.179
  734.750    3.388  174.066   99.066    0.464    0.179
  735.000    3.260  175.254  101.775    0.437    0.138
  735.250    3.136  176.322  100.918    0.418    0.145
  735.500    3.104  177.921   98.936    0.443    0.158
  735.750    3.166  179.722  100.393    0.467    0.173
  736.000    3.286  181.941  102.164    0.469    0.167
  736.250    3.423  183.120   96.553    0.455    0.160
  736.500    3.505  177.524   94.571    0.448    0.173
  736.750    3.529  174.012   98.968    0.443    0.178
  737.000    3.486  171.956  100.426    0.431    0.161
  737.250    3.385  170.427   93.627    0.421    0.143
  737.500    3.238  170.668   87.265    0.422    0.114
  737.750    3.139  171.948   86.659    0.415    0.113
  738.000    3.065  174.480   93.809    0.411    0.150
  738.250    3.006  176.911   98.272    0.420    0.169
  738.500    2.986  178.093   99.853    0.433    0.154
  738.750    2.978  178.330  100.874    0.444    0.135
  739.000    2.975  177.632   99.643    0.461    0.150
  739.250    3.047  173.496   96.971    0.475    0.190
  739.500    3.372  168.313   91.672    0.490    0.226
  739.750    3.683  164.695   89.691    0.489    0.242
  740.000    3.977  163.062   85.330    0.425    0.265
  740.250    4.134  162.575   79.344    0.403    0.278
  740.500    4.178  162.811   76.172    0.391    0.272
  740.750    4.143  162.222   76.567    0.383    0.263
  741.000    4.062  162.045   78.401    0.398    0.271
  741.250    3.945  161.868   81.297    0.403    0.262
  741.500    3.759  161.900   85.696    0.398    0.255
  741.750    3.609  162.245   86.027    0.384    0.266
  742.000    3.485  162.694   82.418    0.390    0.268
  742.250    3.379  162.412   79.998    0.399    0.257
  742.500    3.319  162.337   81.332    0.399    0.260
  742.750    3.253  162.269   85.042    0.395    0.267
  743.000    3.172  162.924   89.126    0.387    0.247
  743.250    3.104  163.580   93.026    0.383    0.217
  743.500    3.043  165.281   89.164    0.397    0.193
  743.750    2.883  168.855   83.740    0.415    0.200
  744.000    2.701  173.789   88.014    0.431    0.197
  744.250    2.400  178.617   91.974    0.450    0.189
  744.500    2.198  187.199   92.055    0.471    0.236
  744.750    2.024  199.952   87.822    0.494    0.295
  745.000    1.933  198.106   87.403    0.479    0.273
  745.250    1.888  188.754   89.173    0.449    0.172
  745.500    1.861  195.044   89.445    0.467    0.176
  745.750    1.870  207.481   89.524    0.490    0.232
  746.000    1.869  203.549   89.981    0.500    0.210
  746.250    1.781  181.999   88.249    0.480    0.234
  746.500    1.681  167.747   82.263    0.439    0.244
  746.750    1.537  162.776   82.972    0.425    0.232
  747.000    1.389  165.205   88.618    0.476    0.326
  747.250    1.294  170.035   86.387    0.540    0.358
  747.500    1.247  169.336   80.088    0.498    0.332
  747.750    1.190  157.793   75.727    0.448    0.315
  748.000    1.174  154.177   70.305    0.416    0.318
  748.250    1.179  153.167   67.883    0.404    0.319
  748.500    1.217  153.407   69.029    0.409    0.312
  748.750    1.375  154.376   69.861    0.442    0.297
  749.000    1.623  155.454   68.129    0.430    0.268
  749.250    2.020  156.528   76.093    0.411    0.246
  749.500    2.287  157.811   82.869    0.410    0.225
  749.750    2.541  158.883   84.138    0.420    0.223
  750.000    2.652  159.854   84.470    0.418    0.222
  750.250    2.517  161.138   88.431    0.406    0.201
  750.500    2.224  162.319   90.701    0.403    0.176
  750.750    1.957  163.077   89.721    0.411    0.166
  751.000    1.793  163.529   85.860    0.429    0.203
  751.250    1.727  162.727   80.375    0.433    0.256
  751.500    1.710  158.382   76.077    0.432    0.258
  751.750    2.049  154.137   81.414    0.431    0.250
  752.000    2.679  152.810   84.185    0.424    0.251
  752.250    3.284  153.579   79.700    0.438    0.244
  752.500    3.506  154.758   73.902    0.441    0.193
  752.750    3.418  156.037   65.851    0.301    0.094
  753.000    2.897  157.320   59.928    0.225    0.048
  753.250    2.306  157.875   63.200    0.283    0.105
  753.500    2.100  157.278   72.039    0.351    0.184
  753.750    2.098  155.224   80.692    0.393    0.234
  754.000    2.317  153.802   80.084    0.409    0.252
  754.250    2.664  154.143   76.790    0.401    0.250
  754.500    2.976  155.737   78.997    0.418    0.201
  754.750    3.183  157.858   77.327    0.361    0.135
  755.000    3.138  158.824   70.466    0.335    0.109
  755.250    2.700  159.377   68.046    0.334    0.147
  755.500    2.332  159.416   68.378    0.348    0.167
  755.750    2.168  158.921   70.836    0.336    0.162
  756.000    2.070  157.081   73.733    0.365    0.175
  756.250    2.112  156.065   76.942    0.393    0.203
  756.500    2.183  156.518   81.402    0.406    0.232
  756.750    2.161  158.111   84.300    0.414    0.214
  757.000    2.040  160.650   83.442    0.421    0.192
  757.250    1.868  160.988   78.144    0.417    0.189
  757.500    1.647  156.328   72.158    0.417    0.232
  757.750    1.436  154.380   73.242    0.425    0.272
  758.000    1.303  154.307   77.515    0.421    0.287
  758.250    1.191  154.445   72.967    0.415    0.305
  758.500    1.132  154.895   63.916    0.407    0.316
  758.750    1.092  154.616   58.304    0.395    0.315
  759.000    1.064  154.645   59.699    0.387    0.311
  759.250    1.053  154.781   59.657    0.380    0.313
  759.500    1.064  155.128   57.673    0.385    0.315
  759.750    1.082  155.261   57.693    0.389    0.314
  760.000    1.106  154.979   61.779    0.394    0.320
  760.250    1.163  154.595   64.302    0.404    0.329
  760.500    1.213  154.004   66.446    0.412    0.328
  760.750    1.278  153.828   68.342    0.414    0.315
  761.000    1.355  153.857   68.549    0.423    0.301
  761.250    1.463  154.208   67.817    0.420    0.295
  761.500    1.594  154.655   68.025    0.412    0.278
  761.750    1.775  154.580   67.168    0.401    0.268
  762.000    1.960  154.505   65.249    0.383    0.266
  762.250    2.046  154.120   63.264    0.366    0.263
  762.500    2.036  153.741   63.596    0.377    0.279
  762.750    1.926  153.668   70.059    0.394    0.297
  763.000    1.764  153.494   77.084    0.413    0.304
  763.250    1.634  153.631   80.669    0.432    0.302
  763.500    1.513  153.552   79.688    0.442    0.293
  763.750    1.428  153.271   76.766    0.419    0.286
  764.000    1.385  153.197   73.031    0.414    0.278
  764.250    1.370  152.920   68.673    0.405    0.277
  764.500    1.367  152.950   65.751    0.390    0.283
  764.750    1.358  152.883   62.579    0.409    0.285
  765.000    1.356  152.809   60.910    0.439    0.287
  765.250    1.332  152.738   63.121    0.441    0.291
  765.500    1.282  152.872   64.889    0.421    0.297
  765.750    1.226  153.006   63.282    0.417    0.296
  766.000    1.153  153.039   59.361    0.412    0.298
  766.250    1.103  153.904   58.193    0.406    0.306
  766.500    1.075  155.397   58.711    0.395    0.309
  766.750    1.064  156.470   59.918    0.394    0.310
  767.000    1.130  156.919   61.189    0.417    0.320
  767.250    1.232  156.637   62.710    0.421    0.312
  767.500    1.389  155.732   65.106    0.403    0.253
  767.750    1.506  154.725   69.941    0.424    0.223
  768.000    1.614  153.813   70.711    0.440    0.220
  768.250    1.588  153.432   62.285    0.429    0.248
  768.500    1.493  154.507   57.988    0.431    0.295
  768.750    1.268  155.371   57.381    0.442    0.308
  769.000    1.159  155.817   61.843    0.441    0.303
  769.250    1.113  155.749   62.425    0.433    0.294
