~VERSION INFORMATION
 VERS.                 2.0:   CWLS LOG ASCII STANDARD -VERSION 2.0
 WRAP.                  NO:   ONE LINE PER DEPTH STEP
~WELL INFORMATION BLOCK
#MNEM.UNIT           DATA                    DESCRIPTION OF MNEMONIC
#---------    -------------------            -------------------------------
# Generated from Intellog Unique Number	CS_69_70/WELL/892
NULL.         -999.25                        : NULL_VALUE
WELL.         HB PITLOCHRIE                  : Well_name    - WELL              
LOC .         00/11-21-070-12W4/0            : Location     - LOCATION          
UWI .         00/11-21-070-12W4/0            : Uwi          - UNIQUE WELL ID    
ENTR.         SP                             : Entered      - ENTERED BY        
SRVC.         SCHLUMBERGER                   : Scn          - SERVICE COMPANY   
STRT.M        259.080                        : top_depth    - START DEPTH       
STOP.M        456.830                        : bot_depth    - STOP DEPTH        
STEP.M        0.25                           : increment    - STEP LENGTH       
~CURVE INFORMATION BLOCK
#MNEM UNIT       ERCB CURVE CODE    CURVE DESCRIPTION
#-----------   ------------------   ----------------------------------
DEPT.M        00 001 00 00         : DEPTH        - DEPTH                       
GR  .API      00 310 00 00         : GR           - GAMMA RAY                   
DPHI.V/V      00 890 00 00         : PHID         - DENSITY POROSITY (SANDSTONE)
NPHI.V/V      00 330 00 00         : PHIN         - NEUTRON POROSITY (SANDSTONE)
ILD .OHMM     00 120 00 00         : RESD         - DEEP RESISTIVITY (DIL)      
~PARAMETER INFORMATION       
#MNEM.UNIT           DATA             DESCRIPTION OF MNEMONIC
#---------         -----------     ------------------------------
GL  .M        576.682              : gl           - GROUND LEVEL ELEVATION      
EREF.M        580.339              : kb           - ELEVATION OF DEPTH REFERENCE
DATM.M        576.682              : datum        - DATUM ELEVATION             
TDD .M        460.248              : tdd          - TOTAL DEPTH DRILLER         
RUN .         ONE                  : Run          - RUN NUMBER                  
ENG .         BILL                 : Engineer     - RECORDING ENGINEER          
WIT .         JIM                  : Witness      - WITNESSED BY                
MUD .         GEL                  : Mud_type     - MUD TYPE                    
MATR.         SANDSTONE            : Logunit      - NEUTRON MATRIX              
TMAX.C        12.2222              : BHT          - MAXIMUM RECORDED TEMPERATURE
BHTD.M        460.248              : BHTDEP       - MAXIMUM RECORDED TEMPERATURE
MATR.         1                    : LOGUNIT      - NEUTRON MATRIX              
RMT .C        25                   : MDTP         - TEMPERATURE OF MUD          
NEUT.         1                    : NEUTRON      - NEUTRON TYPE                
RESI.         0                    : RESIST       - RESISTIVITY TYPE            
RMC .OHMM     0.25                 : RMC          - RESISTIVITY OF MUD CAKE     
RMF .OHMM     0.25                 : RMF          - RESISTIVITY OF MUD FILTRATE 
SUFT.C        15                   : SUFT         - SURFACE TEMPERATURE         
~A  DEPTH       GR     PHID     PHIN     RESD
# ...
  433.080  119.435    0.167    0.464    4.332
  433.330  117.038    0.173    0.439    4.653
  433.580  109.460    0.165    0.414    4.859
  433.830  102.310    0.154    0.405    4.926
  434.080   97.726    0.161    0.398    4.889
  434.330   93.950    0.178    0.392    4.682
  434.580   90.689    0.184    0.395    4.561
  434.830   89.451    0.210    0.406    4.384
  435.080   91.408    0.217    0.401    4.126
  435.330   94.047    0.205    0.387    3.989
  435.580   95.057    0.196    0.382    4.047
  435.830   94.409    0.188    0.373    4.338
  436.080   90.610    0.182    0.365    4.577
  436.330   78.893    0.197    0.356    4.774
  436.580   71.240    0.200    0.347    4.931
  436.830   65.445    0.202    0.336    4.980
  437.080   70.210    0.208    0.326    4.909
  437.330   76.806    0.205    0.335    4.636
  437.580   84.438    0.194    0.347    4.513
  437.830   88.389    0.179    0.348    4.680
  438.080   94.263    0.165    0.355    4.974
  438.330   97.472    0.159    0.375    5.348
  438.580   92.263    0.175    0.383    5.629
  438.830   86.216    0.187    0.377    5.820
  439.080   80.695    0.195    0.373    5.920
  439.330   76.528    0.213    0.372    5.987
  439.580   73.625    0.226    0.380    5.898
  439.830   72.098    0.235    0.396    5.701
  440.080   70.552    0.258    0.405    5.361
  440.330   68.034    0.273    0.410    4.750
  440.580   68.308    0.256    0.407    4.043
  440.830   69.253    0.244    0.397    3.678
  441.080   69.379    0.235    0.390    3.367
  441.330   67.807    0.241    0.384    3.160
  441.580   72.730    0.247    0.384    3.055
  441.830   89.528    0.206    0.390    3.103
  442.080  109.761    0.160    0.411    3.213
  442.330  118.267    0.130    0.448    3.339
  442.580  124.841    0.134    0.501    3.455
  442.830  127.762    0.130    0.540    3.524
  443.080  127.637    0.090    0.577    3.550
  443.330  126.982    0.075    0.582    3.568
  443.580  127.478    0.059    0.541    3.606
  443.830  130.254    0.036    0.497    3.676
  444.080  133.056    0.079    0.455    3.807
  444.330  131.292    0.118    0.412    4.173
  444.580  111.804    0.171    0.388    4.200
  444.830  108.084    0.238    0.406    3.989
  445.080  110.524    0.274    0.416    3.686
  445.330  119.703    0.272    0.406    3.443
  445.580  132.428    0.254    0.401    3.255
  445.830  143.821    0.240    0.400    3.106
  446.080  143.480    0.235    0.401    3.006
  446.330  126.563    0.238    0.413    2.904
  446.580  112.092    0.242    0.416    2.827
  446.830  103.071    0.265    0.410    2.750
  447.080   92.621    0.232    0.405    2.712
  447.330   93.102    0.233    0.401    2.704
  447.580   94.714    0.241    0.396    2.749
  447.830   96.186    0.228    0.388    2.889
  448.080   96.631    0.224    0.390    3.090
  448.330   96.620    0.215    0.399    3.309
  448.580   95.316    0.207    0.399    3.542
  448.830   95.601    0.198    0.388    3.815
  449.080  100.331    0.185    0.379    4.100
  449.330  107.897    0.170    0.371    4.277
  449.580  114.901    0.156    0.381    4.456
  449.830  120.527    0.171    0.399    4.541
  450.080  122.104    0.167    0.419    4.549
  450.330  121.160    0.158    0.432    4.484
  450.580  117.779    0.161    0.436    4.348
  450.830  107.206    0.176    0.421    4.143
  451.080   93.165    0.165    0.396    3.843
  451.330   79.758    0.147    0.357    3.441
  451.580   82.550    0.118    0.366    3.141
  451.830   70.884    0.204    0.372    3.063
  452.080   46.759    0.189    0.357    3.227
  452.330   13.645    0.157    0.358    3.436
  452.580   10.266    0.150    0.387    3.575
  452.830   11.011    0.162    0.403    3.731
  453.080   11.910    0.199    0.401    3.809
  453.330   14.869    0.239    0.398    3.558
  453.580   24.096    0.248    0.398    3.019
  453.830   75.312    0.244    0.394    2.649
  454.080   88.875    0.239    0.394    2.445
  454.330   91.017    0.212    0.444    2.325
  454.580   91.240    0.191    0.580    2.507
  454.830   91.441    0.180    0.591    2.930
  455.080   91.729    0.177    0.589    3.421
  455.330   91.982    0.189    0.589    3.944
  455.580   91.349    0.214    0.589    4.289
  455.830   89.623    0.238    0.592    3.962
  456.080   89.616    0.273    0.592    3.289
  456.330   89.623    0.254    0.591    2.671
  456.580   89.678    0.251    0.591    2.397
  456.830   89.702    0.245    0.590    2.481
