~VERSION INFORMATION
 VERS.                 2.0:   CWLS LOG ASCII STANDARD -VERSION 2.0
 WRAP.                  NO:   ONE LINE PER DEPTH STEP
~WELL INFORMATION BLOCK
#MNEM.UNIT           DATA                    DESCRIPTION OF MNEMONIC
#---------    -------------------            -------------------------------
# Generated from Intellog Unique Number	CW_73_75/WELL/1030
WELL.         CHEVRON ET AL ROCK 10-33       : Well_name    - WELL
LOC .         00/10-33-075-22W4/0            : Location     - LOCATION
UWI .         00/10-33-075-22W4/0            : Uwi          - UNIQUE WELL ID
ENTR.         JAYE                           : Entered      - ENTERED BY
SRVC.         SCHLUMBERGER                   : Scn          - SERVICE COMPANY
DATE.         14 JAN 73                      : Date         - LOG DATE
STRT.M        371.856                        : top_depth    - START DEPTH
STOP.M        655.356                        : bot_depth    - STOP DEPTH
STEP.M        0.25                           : increment    - STEP LENGTH
 NULL. -999.2500:NULL Value
~CURVE INFORMATION BLOCK
#MNEM UNIT       ERCB CURVE CODE    CURVE DESCRIPTION
#-----------   ------------------   ----------------------------------
DEPT.M        00 001 00 00         : DEPTH        - DEPTH
ILD .OHMM     00 120 00 00         : RESD         - DEEP RESISTIVITY (DLL)
NPHI.V/V      00 330 00 00         : PHIN         - NEUTRON POROSITY (SANDSTONE)
DPHI.V/V      00 890 00 00         : PHID         - DENSITY POROSITY (SANDSTONE)
GR  .API      00 310 00 00         : GR           - GAMMA RAY
CALI.MM       00 280 01 00         : CAL          - CALIPER
~PARAMETER INFORMATION
#MNEM.UNIT           DATA             DESCRIPTION OF MNEMONIC
#---------         -----------     ------------------------------
GL  .M        669.036              : gl           - GROUND LEVEL ELEVATION
EREF.M        672.267              : kb           - ELEVATION OF DEPTH REFERENCE
DATM.M        669.036              : datum        - DATUM ELEVATION
TDD .M        603.504              : tdd          - TOTAL DEPTH DRILLER
RUN .         ONE                  : Run          - RUN NUMBER
MATR.         SANDSTONE            : Logunit      - NEUTRON MATRIX
TMAX.C        32.7778              : BHT          - MAXIMUM RECORDED TEMPERATURE
BHTD.M        603.199              : BHTDEP       - MAXIMUM RECORDED TEMPERATURE
RMT .C        18.8889              : MDTP         - TEMPERATURE OF MUD
MUDD.KG/M     0                    : MWT          - MUD DENSITY
NEUT.         0                    : NEUTRON      - NEUTRON TYPE
RESI.         1                    : RESIST       - RESISTIVITY TYPE
RM  .OHMM     0                    : RM           - RESISTIVITY OF MUD
RMC .OHMM     3.5                  : RMC          - RESISTIVITY OF MUD CAKE
RMF .OHMM     3.51                 : RMF          - RESISTIVITY OF MUD FILTRATE
SUFT.C        -17.7778             : SUFT         - SURFACE TEMPERATURE
~A  DEPTH     RESD     PHIN     PHID       GR      CAL
# ...
  408.356    6.815    0.404    0.211   76.279  206.339
  408.606    6.174    0.465    0.197   81.965  208.421
  408.856    6.180    0.511    0.165   91.375  213.293
  409.106    6.843    0.597    0.174  104.448  223.542
  409.356    7.748    0.463    0.185  109.523  218.904
  409.606    8.646    0.414    0.196  101.474  219.334
  409.856    9.196    0.370    0.189   94.584  218.520
  410.106    9.341    0.367    0.187   90.075  212.642
  410.356    9.296    0.359    0.189   87.458  210.074
  410.606    9.083    0.340    0.198   85.025  208.847
  410.856    8.713    0.336    0.192   82.165  208.242
  411.106    8.267    0.329    0.189   77.961  208.669
  411.356    7.858    0.328    0.201   77.237  208.580
  411.606    7.539    0.338    0.190   85.547  208.491
  411.856    7.407    0.391    0.151   86.288  208.712
  412.106    7.455    0.414    0.179   77.933  207.382
  412.356    7.502    0.392    0.222   72.692  205.951
  412.606    7.495    0.375    0.225   76.669  207.308
  412.856    7.472    0.401    0.209   80.340  212.078
  413.106    7.425    0.449    0.192   80.776  213.334
  413.356    7.309    0.417    0.198   75.900  203.217
  413.606    7.141    0.400    0.211   73.956  203.749
  413.856    7.016    0.415    0.212   74.087  199.008
  414.106    6.881    0.406    0.225   76.598  191.165
  414.356    6.824    0.418    0.252   84.055  203.275
  414.606    6.742    0.447    0.224   96.272  217.039
  414.856    6.649    0.431    0.223   97.197  218.191
  415.106    6.618    0.452    0.203   82.920  220.065
  415.356    6.587    0.474    0.243   69.254  218.736
  415.606    6.665    0.481    0.306   59.677  205.931
  415.856    6.733    0.450    0.313   46.561  201.295
  416.106    6.776    0.433    0.298   46.752  200.793
  416.356    6.882    0.413    0.298   48.409  201.737
  416.606    7.016    0.402    0.298   51.653  203.304
  416.856    7.166    0.429    0.295   55.691  204.558
  417.106    7.441    0.458    0.288   52.342  204.986
  417.356    7.516    0.454    0.276   46.734  205.413
  417.606    7.634    0.453    0.293   49.979  204.600
  417.856    7.653    0.513    0.314   57.375  200.894
  418.106    7.646    0.519    0.299   62.449  200.185
  418.356    7.583    0.514    0.300   66.365  200.923
  418.606    7.478    0.514    0.280   70.709  202.798
  418.856    7.320    0.503    0.260   74.014  203.951
  419.106    7.219    0.554    0.282   68.649  203.654
  419.356    7.120    0.539    0.288   68.047  203.978
  419.606    6.982    0.508    0.290   71.841  205.750
  419.856    6.899    0.478    0.288   76.001  206.592
  420.106    6.892    0.487    0.290   73.140  206.297
  420.356    6.909    0.517    0.278   70.463  205.897
  420.606    6.941    0.545    0.259   70.350  205.395
  420.856    6.986    0.516    0.280   71.701  205.823
  421.106    7.096    0.492    0.286   73.419  208.628
  421.356    7.141    0.484    0.270   75.136  211.847
  421.606    7.470    0.472    0.256   77.343  212.586
  421.856    7.246    0.516    0.232   79.977  212.601
  422.106    6.315    0.559    0.238   77.299  211.892
  422.356    5.535    0.582    0.262   76.759  209.735
  422.606    4.933    0.557    0.284   78.293  208.199
  422.856    4.356    0.570    0.256   80.744  207.489
  423.106    3.776    0.533    0.220   83.987  207.505
  423.356    3.738    0.521    0.197   88.758  208.036
  423.606    4.094    0.531    0.232   94.200  208.256
  423.856    4.610    0.528    0.261   94.697  208.478
  424.106    5.040    0.549    0.266   92.752  208.181
  424.356    5.563    0.598    0.248   84.885  205.922
  424.606    6.668    0.548    0.268   78.362  203.974
  424.856    7.132    0.515    0.304   71.349  203.678
  425.106    7.282    0.502    0.330   70.016  204.728
  425.356    7.303    0.509    0.320   71.000  205.566
  425.606    7.189    0.553    0.328   76.137  206.822
  425.856    7.182    0.547    0.318   75.903  207.252
  426.106    7.175    0.517    0.302   75.910  206.231
  426.356    7.088    0.501    0.309   75.370  204.489
  426.606    6.927    0.536    0.326   76.112  203.055
  426.856    6.264    0.544    0.325   76.973  201.105
  427.106    5.686    0.511    0.329   81.500  198.329
  427.356    5.277    0.465    0.318   85.842  198.860
  427.606    5.016    0.432    0.285   91.284  204.250
  427.856    4.855    0.457    0.226   98.008  213.258
  428.106    4.833    0.561    0.210  102.901  218.029
  428.356    4.900    0.598    0.210  100.284  217.215
  428.606    5.126    0.616    0.191  105.604  215.989
  428.856    5.441    0.585    0.193  106.650  216.004
  429.106    5.724    0.558    0.223  100.737  215.296
  429.356    5.944    0.583    0.229   92.809  215.412
  429.606    6.092    0.555    0.213   84.943  216.255
  429.856    6.211    0.525    0.221   72.864  214.615
  430.106    6.402    0.477    0.256   61.334  212.148
  430.356    6.586    0.457    0.307   55.787  208.751
  430.606    6.678    0.478    0.329   56.040  207.008
  430.856    6.870    0.479    0.327   61.421  206.508
  431.106    6.979    0.511    0.330   60.880  206.210
  431.356    7.220    0.509    0.324   61.988  206.020
  431.606    7.524    0.466    0.321   65.049  205.726
  431.856    7.771    0.464    0.299   69.025  205.325
  432.106    8.039    0.498    0.307   68.301  204.718
  432.356    7.987    0.495    0.292   65.989  203.595
  432.606    7.371    0.452    0.280   65.937  203.507
  432.856    6.679    0.464    0.265   63.076  204.039
  433.106    5.854    0.474    0.254   63.818  205.499
  433.356    5.246    0.435    0.259   67.001  207.167
  433.606    4.815    0.444    0.263   69.574  207.906
  433.856    4.704    0.506    0.269   72.513  208.541
  434.106    4.606    0.572    0.268   81.068  209.899
  434.356    4.459    0.591    0.269   86.998  209.500
  434.606    4.153    0.521    0.298   83.038  209.101
  434.856    3.812    0.517    0.316   77.308  208.909
  435.106    3.480    0.552    0.303   80.675  209.441
  435.356    3.707    0.586    0.284   86.544  210.901
  435.606    4.183    0.604    0.266   91.009  213.915
  435.856    4.969    0.587    0.291   95.230  216.410
  436.106    6.203    0.593    0.290   97.497  215.598
  436.356    6.757    0.587    0.273  100.192  213.337
  436.606    7.094    0.588    0.263  102.154  213.145
  436.856    7.219    0.567    0.236   99.232  215.744
  437.106    7.198    0.545    0.248   95.089  214.725
  437.356    7.060    0.519    0.237   89.726  212.776
  437.606    6.835    0.526    0.225   86.193  210.205
  437.856    6.532    0.513    0.242   83.333  205.052
  438.106    6.313    0.522    0.275   80.838  205.169
  438.356    6.011    0.498    0.292   77.428  206.632
  438.606    5.896    0.500    0.301   73.530  207.060
  438.856    5.730    0.512    0.315   73.600  206.661
  439.106    5.619    0.540    0.326   74.279  206.158
  439.356    5.521    0.598    0.333   72.334  206.275
  439.606    5.454    0.570    0.329   70.572  206.289
  439.856    5.400    0.554    0.337   71.130  206.202
  440.106    5.484    0.581    0.323   71.933  206.424
  440.356    5.570    0.599    0.325   72.980  206.438
  440.606    5.647    0.552    0.318   73.232  206.347
  440.856    5.694    0.526    0.302   72.325  206.466
  441.106    5.837    0.524    0.318   72.211  206.377
  441.356    6.185    0.516    0.307   72.586  202.979
  441.606    6.952    0.526    0.314   73.937  201.961
  441.856    8.167    0.528    0.308   72.115  201.768
  442.106    8.418    0.505    0.297   70.292  200.852
  442.356    8.567    0.471    0.287   67.859  200.351
  442.606    8.203    0.422    0.243   67.378  201.501
  442.856    7.296    0.352    0.187   68.730  205.340
  443.106    6.550    0.495    0.161   70.387  208.249
  443.356    5.880    0.548    0.196   71.799  207.851
  443.606    5.240    0.524    0.245   74.189  207.245
  443.856    4.801    0.492    0.305   76.151  207.569
  444.106    4.665    0.467    0.287   80.373  208.411
  444.356    4.652    0.508    0.285   86.180  209.772
  444.606    4.760    0.541    0.246   92.843  210.922
