~VERSION INFORMATION
 VERS.                 2.0:   CWLS LOG ASCII STANDARD -VERSION 2.0
 WRAP.                  NO:   ONE LINE PER DEPTH STEP
~WELL INFORMATION BLOCK
#MNEM.UNIT           DATA                    DESCRIPTION OF MNEMONIC
#---------    -------------------            -------------------------------
# Generated from Intellog Unique Number	CN_91_93/WELL/2811
WELL.         11-14-093-21W4                 : Well_name    - WELL
LOC .         00/11-14-093-21W4/0            : Location     - LOCATION
UWI .         00/11-14-093-21W4/0            : Uwi          - UNIQUE WELL ID
ENTR.         JOETTE                         : Entered      - ENTERED BY
SRVC.         SCHLUMBERGER                   : Scn          - SERVICE COMPANY
DATE.         03/24/92                       : Date         - LOG DATE
STRT.F        250                            : top_depth    - START DEPTH
STOP.F        889.764                        : bot_depth    - STOP DEPTH
STEP.F        0.82                           : increment    - STEP LENGTH
 NULL. -999.2500:NULL Value
~CURVE INFORMATION BLOCK
#MNEM UNIT       ERCB CURVE CODE    CURVE DESCRIPTION
#-----------   ------------------   ----------------------------------
DEPT.F        00 001 00 00         : DEPTH        - DEPTH
CALI.IN       00 280 01 00         : CAL          - CALIPER
GR  .API      00 310 00 00         : GR           - GAMMA RAY
NPHI.V/V      00 330 00 00         : PHIN         - NEUTRON POROSITY (SANDSTONE)
DPHI.V/V      00 890 00 00         : PHID         - DENSITY POROSITY (SANDSTONE)
ILD .OHMM     00 120 00 00         : RESD         - DEEP RESISTIVITY (DIL)
~PARAMETER INFORMATION
#MNEM.UNIT           DATA             DESCRIPTION OF MNEMONIC
#---------         -----------     ------------------------------
GL  .M        548.64               : gl           - GROUND LEVEL ELEVATION
EREF.M        550.469              : kb           - ELEVATION OF DEPTH REFERENCE
DATM.M        550.469              : datum        - DATUM ELEVATION
TDD .M        383.134              : tdd          - TOTAL DEPTH DRILLER
RUN .         ONE                  : Run          - RUN NUMBER
ENG .         BILL                 : Engineer     - RECORDING ENGINEER
WIT .         JIM                  : Witness      - WITNESSED BY
MUD .         GEL                  : Mud_type     - MUD TYPE
MATR.         SANDSTONE            : Logunit      - NEUTRON MATRIX
TMAX.F        69.8                 : BHT          - MAXIMUM RECORDED TEMPERATURE
BHTD.F        1257                 : BHTDEP       - MAXIMUM RECORDED TEMPERATURE
RMT .F        65                   : MDTP         - TEMPERATURE OF MUD
MUDD.LB/G     9.2                  : MWT          - MUD DENSITY
NEUT.         1                    : NEUTRON      - NEUTRON TYPE
RESI.         0                    : RESIST       - RESISTIVITY TYPE
RM  .OHMM     3.85                 : RM           - RESISTIVITY OF MUD
RMC .OHMM     3.85                 : RMC          - RESISTIVITY OF MUD CAKE
RMF .OHMM     3.85                 : RMF          - RESISTIVITY OF MUD FILTRATE
SUFT.F        39.2                 : SUFT         - SURFACE TEMPERATURE
~A  DEPTH      CAL       GR     PHIN     PHID     RESD
# ...
  369.751    8.964   33.486    0.442    0.390   28.320
  370.571    8.927   34.778    0.447    0.389   27.824
  371.391    8.887   37.296    0.455    0.388   28.383
  372.211    8.809   38.577    0.457    0.381   28.933
  373.031    8.771   37.387    0.453    0.372   30.054
  373.852    8.775   36.196    0.458    0.374   31.809
  374.672    8.776   38.107    0.447    0.381   32.426
  375.492    8.780   38.152    0.450    0.379   33.062
  376.312    8.742   33.883    0.458    0.378   34.350
  377.133    8.746   29.591    0.452    0.382   34.373
  377.953    8.750   28.400    0.450    0.392   35.055
  378.773    8.751   30.299    0.455    0.387   35.086
  379.593    8.755   35.300    0.465    0.390   35.117
  380.413    8.758   36.593    0.464    0.396   35.155
  381.234    8.760   33.537    0.447    0.388   35.178
  382.054    8.764   31.740    0.449    0.388   33.941
  382.874    8.768   32.403    0.459    0.397   32.733
  383.694    8.772   34.314    0.458    0.390   32.153
  384.514    8.773   35.573    0.463    0.381   31.015
  385.335    8.817   35.641    0.458    0.387   30.478
  386.155    8.862   33.225    0.452    0.385   31.070
  386.975    8.908   32.641    0.450    0.388   31.097
  387.795    8.910   32.057    0.446    0.392   31.707
  388.615    8.913   32.114    0.440    0.393   32.322
  389.436    8.916   32.160    0.437    0.391   32.350
  390.256    8.879   31.576    0.443    0.388   32.993
  391.076    8.839   32.262    0.446    0.382   33.022
  391.896    8.843   33.543    0.442    0.385   33.692
  392.717    8.806   32.971    0.446    0.389   33.699
  393.537    8.809   34.870    0.460    0.392   33.108
  394.357    8.812   37.387    0.464    0.375   31.350
  395.177    8.814   37.433    0.457    0.380   30.794
  395.997    8.858   30.691    0.454    0.395   29.711
  396.818    8.903   30.119    0.465    0.405   29.731
  397.638    8.947   30.793    0.478    0.397   29.229
  398.458    8.950   31.434    0.483    0.396   29.783
  399.278    8.954   32.109    0.470    0.406   29.809
  400.098    8.957   32.166    0.440    0.406   30.394
  400.919    8.960   32.211    0.440    0.395   30.997
  401.739    8.963   32.268    0.448    0.395   31.612
  402.559    8.966   32.291    0.470    0.397   32.226
  403.379    8.928   32.359    0.475    0.389   32.865
  404.199    8.932   32.381    0.471    0.387   32.887
  405.020    8.934   32.438    0.465    0.390   32.923
  405.840    8.937   33.719    0.460    0.384   32.952
  406.660    8.942   35.642    0.453    0.379   32.981
  407.480    8.946   35.676    0.453    0.387   32.410
  408.301    8.948   35.710    0.455    0.393   30.682
  409.121    8.950   35.148    0.455    0.397   29.583
  409.941    8.955   33.969    0.459    0.373   29.065
  410.761    8.956   32.790    0.468    0.394   29.097
  411.581    8.961   32.194    0.461    0.396   29.122
  412.402    8.964   34.094    0.458    0.396   29.687
  413.222    8.966   34.757    0.456    0.398   30.276
  414.042    8.970   34.196    0.451    0.403   30.303
  414.862    8.932   33.623    0.449    0.406   28.166
  415.682    8.935   34.905    0.442    0.403   26.174
  416.503    8.938   38.063    0.452    0.369   25.710
  417.323    8.942   37.468    0.464    0.390   25.259
  418.143    8.986   33.828    0.474    0.410   24.817
  418.963    8.988   33.850    0.477    0.403   23.066
  419.783    9.115   35.750    0.477    0.403   18.482
  420.604    9.200   46.313    0.464    0.408   16.241
  421.424    9.369   47.606    0.465    0.377   15.663
  422.244    9.497   45.797    0.473    0.373   16.885
  423.064    9.498   43.370    0.479    0.408   18.202
  423.885    9.337   41.562    0.480    0.435   22.343
  424.705    9.257   42.854    0.479    0.447   24.548
  425.525    9.136   47.226    0.452    0.359   23.669
  426.345    9.140   54.058    0.454    0.348   14.087
  427.165    9.185   65.857    0.448    0.353    5.472
  427.986    9.188   85.691    0.445    0.316    4.902
  428.806    9.191   94.388    0.457    0.318    4.640
  429.626    9.236  101.232    0.510    0.347    4.392
  430.446    9.280  108.716    0.542    0.358    3.933
  431.266    9.284  109.380    0.582    0.347    3.795
  432.087    9.328  110.032    0.564    0.333    3.868
  432.907    9.332  110.077    0.571    0.332    3.943
  433.727    9.333  105.190    0.564    0.328    4.331
  434.547    9.336  104.617    0.556    0.329    4.846
  435.367    9.339  106.528    0.542    0.332    5.949
  436.188    9.302  107.180    0.505    0.333    6.907
  437.008    9.264  109.091    0.482    0.327    7.872
  437.828    9.184  109.136    0.469    0.328    8.646
  438.648    9.146  107.946    0.460    0.324    8.814
  439.469    9.108  103.035    0.458    0.312    8.664
  440.289    9.070  100.620    0.491    0.290    8.357
  441.109    9.073  101.902    0.502    0.313    8.361
  441.929    9.118  102.576    0.494    0.312    8.527
  442.749    9.162  101.386    0.486    0.315    8.532
  443.570    9.247   98.948    0.490    0.323    8.865
  444.390    9.333   94.049    0.496    0.314    9.210
  445.210    9.377   86.678    0.488    0.308    9.388
  446.030    9.381   85.499    0.477    0.312    9.754
  446.850    9.343   86.780    0.467    0.321    9.943
  447.671    9.264   88.680    0.467    0.325   10.522
  448.491    9.226   90.579    0.471    0.326   10.731
  449.311    9.188   92.490    0.475    0.340   10.738
  450.131    9.191   93.153    0.475    0.336   10.554
  450.951    9.194   91.356    0.475    0.330    9.808
  451.772    9.197   90.761    0.480    0.333    9.285
  452.592    9.200   93.301    0.480    0.329    8.468
  453.412    9.203   97.054    0.485    0.325    7.443
  454.232    9.206   97.706    0.496    0.342    6.666
  455.052    9.210   98.999    0.498    0.348    6.310
  455.873    9.213  100.899    0.487    0.339    5.863
  456.693    9.216  104.034    0.501    0.335    5.251
  457.513    9.219  106.552    0.513    0.330    4.879
  458.333    9.180  102.889    0.528    0.317    4.619
  459.154    9.225   97.372    0.526    0.327    4.373
  459.974    9.228   97.440    0.527    0.339    4.140
  460.794    9.272   99.317    0.533    0.336    3.993
  461.614    9.318  103.093    0.541    0.339    3.851
  462.434    9.320  101.891    0.544    0.332    3.855
  463.255    9.323  100.082    0.543    0.328    3.857
  464.075    9.245   98.274    0.546    0.338    3.861
  464.895    9.165   93.375    0.546    0.338    4.086
  465.715    9.044   87.240    0.543    0.343    4.744
  466.535    8.924   84.825    0.524    0.351    5.934
  467.356    8.844   88.567    0.510    0.351    6.763
  468.176    8.806   99.130    0.500    0.341    7.708
  468.996    8.810  101.029    0.514    0.346    8.466
  469.816    8.812   94.277    0.513    0.350    8.957
  470.636    8.857   86.288    0.513    0.345    9.306
  471.457    8.861   81.389    0.516    0.329    9.314
  472.277    8.863   83.288    0.515    0.312   10.226
  473.097    8.950   91.379    0.478    0.276    9.505
  473.917    8.993   95.751    0.458    0.324    6.811
  474.738    9.203   95.796    0.491    0.319    5.558
  475.558    9.330   95.853    0.505    0.327    4.538
  476.378    9.374   95.887    0.517    0.328    4.216
  477.198    9.418   96.562    0.535    0.328    4.143
  478.018    9.340   98.461    0.533    0.334    4.466
  478.839    9.260   97.889    0.534    0.332    4.903
  479.659    9.180   94.844    0.530    0.327    5.693
  480.479    9.100   90.563    0.515    0.312    6.612
  481.299    9.063   90.609    0.486    0.294    7.676
  482.119    9.066   98.093    0.470    0.326    8.913
  482.940    9.069  101.217    0.473    0.340   10.158
  483.760    9.072  103.128    0.461    0.336   10.553
  484.580    9.075  103.162    0.469    0.334   10.371
  485.400    9.078  101.971    0.482    0.337   10.189
  486.220    9.041   93.376    0.484    0.339    9.646
  487.041    9.003   94.657    0.479    0.336    9.132
  487.861    8.966   94.085    0.479    0.322    9.663
  488.681    8.968   89.186    0.484    0.320   10.609
