~VERSION INFORMATION
 VERS.                 2.0:   CWLS LOG ASCII STANDARD -VERSION 2.0
 WRAP.                  NO:   ONE LINE PER DEPTH STEP
~WELL INFORMATION BLOCK
#MNEM.UNIT           DATA                    DESCRIPTION OF MNEMONIC
#---------    -------------------            -------------------------------
# Generated from Intellog Unique Number	CS_73_76/WELL/849
WELL.         PEX KIRBY                      : Well_name    - WELL
LOC .         00/11-21-073-07W4/0            : Location     - LOCATION
UWI .         00/11-21-073-07W4/0            : Uwi          - UNIQUE WELL ID
ENTR.         SP                             : Entered      - ENTERED BY
SRVC.         SCHLUMBERGER                   : Scn          - SERVICE COMPANY
STRT.M        345                            : top_depth    - START DEPTH
STOP.M        570                            : bot_depth    - STOP DEPTH
STEP.M        0.25                           : increment    - STEP LENGTH
 NULL. -999.2500:NULL Value
~CURVE INFORMATION BLOCK
#MNEM UNIT       ERCB CURVE CODE    CURVE DESCRIPTION
#-----------   ------------------   ----------------------------------
DEPT.M        00 001 00 00         : DEPTH        - DEPTH
ILD .OHMM     00 120 00 00         : RESD         - DEEP RESISTIVITY (DIL)
DPHI.V/V      00 890 00 00         : PHID         - DENSITY POROSITY (LIMESTONE)
NPHI.V/V      00 330 00 00         : PHIN         - NEUTRON POROSITY (LIMESTONE)
GR  .API      00 310 00 00         : GR           - GAMMA RAY
~PARAMETER INFORMATION
#MNEM.UNIT           DATA             DESCRIPTION OF MNEMONIC
#---------         -----------     ------------------------------
GL  .M        731                  : gl           - GROUND LEVEL ELEVATION
EREF.M        734.2                : kb           - ELEVATION OF DEPTH REFERENCE
DATM.M        731                  : datum        - DATUM ELEVATION
TDD .M        582                  : tdd          - TOTAL DEPTH DRILLER
RUN .         ONE                  : Run          - RUN NUMBER
ENG .         BILL                 : Engineer     - RECORDING ENGINEER
WIT .         JIM                  : Witness      - WITNESSED BY
MUD .         GEL                  : Mud_type     - MUD TYPE
MATR.         LIMESTONE            : Logunit      - NEUTRON MATRIX
TMAX.C        29                   : BHT          - MAXIMUM RECORDED TEMPERATURE
BHTD.M        582                  : BHTDEP       - MAXIMUM RECORDED TEMPERATURE
MATR.         1                    : LOGUNIT      - NEUTRON MATRIX
RMT .C        25                   : MDTP         - TEMPERATURE OF MUD
NEUT.         1                    : NEUTRON      - NEUTRON TYPE
RESI.         0                    : RESIST       - RESISTIVITY TYPE
RMC .OHMM     0.25                 : RMC          - RESISTIVITY OF MUD CAKE
RMF .OHMM     0.25                 : RMF          - RESISTIVITY OF MUD FILTRATE
SUFT.C        15                   : SUFT         - SURFACE TEMPERATURE
~A  DEPTH     RESD     PHID     PHIN       GR
# ...
  519.000   25.167    0.195    0.337   78.020
  519.250   28.708    0.225    0.344   69.476
  519.500   32.749    0.263    0.360   61.541
  519.750   34.657    0.286    0.365   61.533
  520.000   36.679    0.305    0.357   59.085
  520.250   37.383    0.314    0.352   52.367
  520.500   38.829    0.283    0.346   52.969
  520.750   38.839    0.257    0.352   54.178
  521.000   39.592    0.265    0.349   51.122
  521.250   40.352    0.287    0.357   47.455
  521.500   41.135    0.334    0.367   51.105
  521.750   41.931    0.354    0.376   55.362
  522.000   43.545    0.314    0.376   56.575
  522.250   45.227    0.301    0.368   55.347
  522.500   46.098    0.307    0.368   49.849
  522.750   46.114    0.296    0.350   45.573
  523.000   45.272    0.287    0.340   53.490
  523.250   43.622    0.282    0.332   58.968
  523.500   44.466    0.276    0.340   61.399
  523.750   46.184    0.292    0.353   67.487
  524.000   47.960    0.300    0.352   74.188
  524.250   60.090    0.285    0.346   83.324
  524.500   81.160    0.249    0.344  115.634
  524.750   96.115    0.286    0.335  104.040
  525.000  107.601    0.305    0.324   74.762
  525.250  118.235    0.319    0.316   54.020
  525.500  120.500    0.314    0.327   49.133
  525.750  129.947    0.324    0.334   45.464
  526.000  134.966    0.329    0.347   43.629
  526.250  140.175    0.316    0.352   41.791
  526.500  142.869    0.314    0.338   37.512
  526.750  151.206    0.321    0.344   35.673
  527.000  160.019    0.317    0.350   33.835
  527.250  175.813    0.328    0.354   31.998
  527.500  193.153    0.333    0.346   29.551
  527.750  237.521    0.318    0.349   26.492
  528.000  276.089    0.312    0.348   28.315
  528.250  292.126    0.316    0.355   31.353
  528.500  309.146    0.318    0.352   31.956
  528.750  303.509    0.329    0.349   32.556
  529.000  287.013    0.326    0.349   34.986
  529.250  271.396    0.315    0.346   33.756
  529.500  247.191    0.322    0.345   33.749
  529.750  229.402    0.331    0.355   32.520
  530.000  216.920    0.340    0.355   28.854
  530.250  217.016    0.342    0.351   26.407
  530.500  221.224    0.324    0.353   31.273
  530.750  221.277    0.318    0.349   34.922
  531.000  225.529    0.326    0.348   36.743
  531.250  225.607    0.315    0.338   36.737
  531.500  217.398    0.325    0.336   31.850
  531.750  209.497    0.321    0.333   34.279
  532.000  205.676    0.303    0.329   38.536
  532.250  205.723    0.288    0.330   39.141
  532.500  201.966    0.306    0.350   33.643
  532.750  187.428    0.360    0.361   31.197
  533.000  173.929    0.350    0.370   30.577
  533.250  158.418    0.325    0.378   33.614
  533.500  152.642    0.309    0.376   36.656
  533.750  152.707    0.292    0.367   40.308
  534.000  155.666    0.299    0.368   36.640
  534.250  158.655    0.311    0.372   31.751
  534.500  161.726    0.332    0.357   31.133
  534.750  161.756    0.357    0.348   34.171
  535.000  164.893    0.377    0.343   36.601
  535.250  168.066    0.336    0.341   37.816
  535.500  184.687    0.319    0.348   34.758
  535.750  195.411    0.320    0.355   38.408
  536.000  218.767    0.332    0.355   37.179
  536.250  249.562    0.342    0.351   35.342
  536.500  274.197    0.341    0.353   35.943
  536.750  295.664    0.341    0.358   31.663
  537.000  330.995    0.341    0.370   30.437
  537.250  370.554    0.352    0.362   35.304
  537.500  438.933    0.362    0.357   37.126
  537.750  464.441    0.348    0.342   38.945
  538.000  510.305    0.329    0.330   38.327
  538.250  540.081    0.320    0.329   34.051
  538.500  550.444    0.319    0.329   36.481
  538.750  561.101    0.332    0.324   32.812
  539.000  571.929    0.341    0.320   32.806
  539.250  572.198    0.329    0.321   34.014
  539.500  572.330    0.315    0.320   35.836
  539.750  541.199    0.323    0.324   37.048
  540.000  511.748    0.306    0.315   34.599
  540.250  474.898    0.278    0.308   32.759
  540.500  401.301    0.264    0.301   33.973
  540.750  345.478    0.260    0.296   35.183
  541.000  265.801    0.262    0.297   35.174
  541.250  216.311    0.275    0.302   35.776
  541.500  186.228    0.283    0.312   32.107
  541.750  145.997    0.280    0.320   31.488
  542.000  123.357    0.284    0.318   32.697
  542.250  102.297    0.298    0.323   32.690
  542.500   89.736    0.313    0.322   35.118
  542.750   78.722    0.286    0.316   37.550
  543.000   74.438    0.274    0.311   40.592
  543.250   81.787    0.280    0.323   43.022
  543.500   95.070    0.286    0.324   43.622
  543.750  116.897    0.292    0.322   39.345
  544.000  141.055    0.306    0.330   36.288
  544.250  186.975    0.311    0.335   36.278
  544.500  225.630    0.323    0.343   34.442
  544.750  252.576    0.322    0.340   31.384
  545.000  277.508    0.315    0.337   31.984
  545.250  293.680    0.323    0.349   34.414
  545.500  310.846    0.317    0.360   36.842
  545.750  310.901    0.320    0.356   36.226
  546.000  305.224    0.324    0.346   36.827
  546.250  294.110    0.327    0.344   34.986
  546.500  278.150    0.323    0.334   35.589
  546.750  273.032    0.320    0.335   36.191
  547.000  248.718    0.315    0.338   34.963
  547.250  239.632    0.311    0.333   31.296
  547.500  222.383    0.314    0.326   33.115
  547.750  206.386    0.314    0.334   35.543
  548.000  195.145    0.305    0.344   36.757
  548.250  177.732    0.304    0.348   37.357
  548.500  144.652    0.311    0.338   33.080
  548.750  126.887    0.317    0.352   31.852
  549.000  107.217    0.326    0.349   33.063
  549.250   88.915    0.326    0.342   34.883
  549.500   82.516    0.320    0.358   36.095
  549.750   76.578    0.322    0.369   36.694
  550.000   69.747    0.328    0.376   35.467
  550.250   60.054    0.338    0.377   31.797
  550.500   54.697    0.349    0.382   30.571
  550.750   50.753    0.354    0.377   30.561
  551.000   45.369    0.338    0.371   31.163
  551.250   41.322    0.324    0.369   32.981
  551.500   38.347    0.322    0.376   35.413
  551.750   36.949    0.332    0.377   36.015
  552.000   36.274    0.346    0.375   32.348
  552.250   36.286    0.337    0.369   32.948
  552.500   34.963    0.321    0.366   36.598
  552.750   31.845    0.299    0.375   38.419
  553.000   22.727    0.320    0.380   40.238
  553.250   15.920    0.347    0.364   38.400
  553.500   13.706    0.364    0.360   35.954
  553.750   12.024    0.341    0.367   44.481
  554.000   12.256    0.247    0.365   52.399
  554.250   13.981    0.216    0.354   59.709
  554.500   14.520    0.210    0.348   74.944
  554.750   15.658    0.213    0.357   66.395
  555.000   16.570    0.260    0.374   62.120
  555.250   17.534    0.340    0.374   57.234
  555.500   18.559    0.361    0.363   52.347
  555.750   18.563    0.350    0.379   38.314
  556.000   18.571    0.337    0.370   30.987
  556.250   17.891    0.336    0.362   28.538
  556.500   15.405    0.339    0.357   30.360
  556.750   14.296    0.339    0.357   28.519
  557.000   12.781    0.339    0.362   27.293
  557.250   11.860    0.346    0.364   26.064
  557.500   11.214    0.356    0.369   26.057
  557.750   10.025    0.356    0.374   26.047
  558.000    9.659    0.353    0.384   26.037
  558.250    9.134    0.350    0.382   26.639
  558.500    8.969    0.346    0.373   27.241
  558.750    8.972    0.343    0.369   29.058
  559.000    8.975    0.341    0.363   30.272
  559.250    8.976    0.352    0.360   31.483
  559.500    8.979    0.362    0.366   33.303
  559.750    8.983    0.369    0.371   30.854
  560.000    8.985    0.376    0.405   31.456
  560.250    8.658    0.359    0.392   33.886
  560.500    8.500    0.348    0.387   35.097
  560.750    8.189    0.346    0.389   35.695
  561.000    7.601    0.357    0.383   34.470
  561.250    6.794    0.378    0.379   33.851
  561.500    6.187    0.372    0.374   30.792
  561.750    5.327    0.360    0.379   27.735
  562.000    4.762    0.351    0.378   27.118
  562.250    4.419    0.344    0.376   26.498
