~VERSION INFORMATION
 VERS.                 2.0:   CWLS LOG ASCII STANDARD -VERSION 2.0
 WRAP.                  NO:   ONE LINE PER DEPTH STEP
~WELL INFORMATION BLOCK
#MNEM.UNIT           DATA                    DESCRIPTION OF MNEMONIC
#---------    -------------------            -------------------------------
# Generated from Intellog Unique Number	CC_84_87/WELL/2338
NULL.         -999.25                        : NULL_VALUE
WELL.         NOVALTA NEWBY                  : Well_name    - WELL              
LOC .         12-05-084-05W4                 : Location     - LOCATION          
UWI .         00/12-05-084-05W400            : Uwi          - UNIQUE WELL ID    
ENTR.         JHS                            : Entered      - ENTERED BY        
SRVC.         SCHLUMBERGER                   : Scn          - SERVICE COMPANY   
DATE.         12 FEB 85                      : Date         - LOG DATE
STRT.M        64                             : top_depth    - START DEPTH       
STOP.M        324.999                        : bot_depth    - STOP DEPTH        
STEP.M        0.3                            : increment    - STEP LENGTH       
~CURVE INFORMATION BLOCK
#MNEM UNIT       ERCB CURVE CODE    CURVE DESCRIPTION
#-----------   ------------------   ----------------------------------
DEPT.M        00 001 00 00         : DEPTH        - DEPTH                       
DPHI.V/V      00 890 00 00         : PHID         - DENSITY POROSITY (LIMESTONE)
NPHI.V/V      00 330 00 00         : PHIN         - NEUTRON POROSITY (LIMESTONE)
GR  .API      00 310 00 00         : GR           - GAMMA RAY                   
ILD .OHMM     00 120 00 00         : RESD         - DEEP RESISTIVITY (DIL)      
~PARAMETER INFORMATION       
#MNEM.UNIT           DATA             DESCRIPTION OF MNEMONIC
#---------         -----------     ------------------------------
GL  .M        490                  : gl           - GROUND LEVEL ELEVATION      
EREF.M        493                  : kb           - ELEVATION OF DEPTH REFERENCE
DATM.M        493                  : datum        - DATUM ELEVATION             
TDD .M        335                  : tdd          - TOTAL DEPTH DRILLER         
RUN .         ONE                  : Run          - RUN NUMBER                  
ENG .         BILL                 : Engineer     - RECORDING ENGINEER          
WIT .         JIM                  : Witness      - WITNESSED BY                
MUD .         GEL                  : Mud_type     - MUD TYPE                    
MATR.         LIMESTONE            : Logunit      - NEUTRON MATRIX              
TMAX.C        25                   : BHT          - MAXIMUM RECORDED TEMPERATURE
BHTD.M        335                  : BHTDEP       - MAXIMUM RECORDED TEMPERATURE
MATR.         1                    : LOGUNIT      - NEUTRON MATRIX              
RMT .C        25                   : MDTP         - TEMPERATURE OF MUD          
NEUT.         1                    : NEUTRON      - NEUTRON TYPE                
RESI.         0                    : RESIST       - RESISTIVITY TYPE            
RMC .OHMM     0.25                 : RMC          - RESISTIVITY OF MUD CAKE     
RMF .OHMM     0.25                 : RMF          - RESISTIVITY OF MUD FILTRATE 
SUFT.C        15                   : SUFT         - SURFACE TEMPERATURE         
~A  DEPTH     PHID     PHIN       GR     RESD
   64.000    0.294    0.414   92.356   12.391
   64.300    0.280    0.403   86.779   12.865
   64.600    0.272    0.416   63.847   12.619
   64.900    0.343    0.454   42.775   12.379
   65.200    0.386    0.411   45.876   12.142
   65.500    0.382    0.369   65.093   11.910
   65.800    0.344    0.367   70.054   11.907
   66.100    0.307    0.402   62.617   13.588
   66.400    0.353    0.405   60.760   16.107
   66.700    0.348    0.383   59.522   17.698
   67.000    0.275    0.381   53.326   17.361
   67.300    0.314    0.400   56.427   17.031
   67.600    0.259    0.383   66.347   16.084
   67.900    0.255    0.392   71.927   15.482
   68.200    0.310    0.426   67.590   14.348
   68.500    0.333    0.438   69.452   13.810
   68.800    0.356    0.411   77.512   13.044
   69.100    0.345    0.430   82.472   12.796
   69.400    0.310    0.450   86.193   12.551
   69.700    0.322    0.454   88.675   12.548
   70.000    0.323    0.479   90.536   12.308
   70.300    0.307    0.455   96.117   12.073
   70.600    0.294    0.411   96.739   11.402
   70.900    0.283    0.421   96.740   10.976
   71.200    0.276    0.424  100.462   10.564
   71.500    0.256    0.432  101.083   10.560
   71.800    0.249    0.440  101.086   10.760
   72.100    0.271    0.437   91.790   11.823
   72.400    0.312    0.424   67.618   14.281
   72.700    0.338    0.412   58.942   15.400
   73.000    0.335    0.413   58.944   14.823
   73.300    0.323    0.437   67.624   12.735
   73.600    0.328    0.471   79.403   12.029
   73.900    0.328    0.471   81.884   11.798
   74.200    0.309    0.455   72.589   12.484
   74.500    0.284    0.437   67.632   13.981
   74.800    0.299    0.414   70.733   16.261
   75.100    0.343    0.402   63.917   17.534
   75.400    0.375    0.398   58.340   17.529
   75.700    0.372    0.376   62.062   16.872
   76.000    0.346    0.372   66.402   16.238
   76.300    0.344    0.362   68.264   15.630
   76.600    0.326    0.375   76.324   15.045
   76.900    0.297    0.404   91.822   15.620
   77.200    0.302    0.440   88.105   16.842
   77.500    0.323    0.417   75.090   16.522
   77.800    0.345    0.398   68.894   16.205
   78.100    0.330    0.387   75.714   16.511
   78.400    0.308    0.385   83.154   16.821
   78.700    0.314    0.403   78.197   17.796
   79.000    0.347    0.430   76.960   18.131
   79.300    0.372    0.420   75.722   18.125
   79.600    0.378    0.423   71.385   17.779
   79.900    0.372    0.433   67.048   16.791
   80.200    0.377    0.422   65.811   16.163
   80.500    0.338    0.425   67.052   16.158
   80.800    0.308    0.417   68.914   16.153
   81.100    0.340    0.419   62.097   16.456
   81.400    0.387    0.428   51.562   17.742
   81.700    0.406    0.418   42.267   18.774
   82.000    0.398    0.399   34.831   20.630
   82.300    0.366    0.383   32.973   22.244
   82.600    0.349    0.363   37.314   22.663
   82.900    0.352    0.377   38.556   22.654
   83.200    0.349    0.403   33.599   22.648
   83.500    0.362    0.380   31.122   21.797
   83.800    0.371    0.387   36.702   20.588
   84.100    0.358    0.412   43.523   19.079
   84.400    0.363    0.398   45.384   18.022
   84.700    0.345    0.383   50.965   16.081
   85.000    0.334    0.378   59.024   15.480
   85.300    0.337    0.382   64.605   15.475
   85.600    0.329    0.382   59.648   17.005
   85.900    0.328    0.371   53.452   17.323
   86.200    0.334    0.388   50.974   16.675
   86.500    0.341    0.382   49.737   16.357
   86.800    0.350    0.377   57.177   16.982
   87.100    0.347    0.420   59.658   18.312
   87.400    0.341    0.401   59.041   18.306
   87.700    0.352    0.361   56.563   18.297
   88.000    0.346    0.342   54.706   17.948
   88.300    0.326    0.355   54.708   17.944
   88.600    0.319    0.377   55.329   17.938
   88.900    0.325    0.373   58.430   17.931
   89.200    0.329    0.382   62.151   17.590
   89.500    0.341    0.392   62.773   17.254
   89.800    0.332    0.392   62.156   17.914
   90.100    0.323    0.391   61.538   19.315
   90.400    0.340    0.405   60.300   20.438
   90.700    0.349    0.392   56.583   22.037
   91.000    0.347    0.393   52.866   23.317
   91.300    0.334    0.408   50.389   23.307
   91.600    0.331    0.405   52.250   22.015
   91.900    0.320    0.409   54.731   19.278
   92.200    0.280    0.412   60.932   17.865
   92.500    0.245    0.399   62.793   18.202
   92.800    0.292    0.382   53.498   20.773
   93.100    0.341    0.358   43.582   21.977
   93.400    0.353    0.346   42.965   21.971
   93.700    0.372    0.358   39.867   21.964
   94.000    0.376    0.374   37.390   22.375
   94.300    0.376    0.376   38.012   22.367
   94.600    0.372    0.389   41.733   21.529
   94.900    0.357    0.416   42.975   19.580
   95.200    0.356    0.391   45.456   19.574
   95.500    0.361    0.374   50.416   19.941
   95.800    0.361    0.393   57.236   19.194
   96.100    0.363    0.405   64.057   16.491
   96.400    0.351    0.418   67.778   16.176
   96.700    0.341    0.415   66.540   17.444
   97.000    0.340    0.403   70.881   17.436
   97.300    0.336    0.403   72.743   17.429
   97.600    0.345    0.412   71.505   18.096
   97.900    0.352    0.430   68.408   18.092
   98.200    0.364    0.429   72.749   17.412
   98.500    0.357    0.430   78.949   16.762
   98.800    0.326    0.437   84.529   15.243
   99.100    0.303    0.423   88.870   14.126
   99.400    0.290    0.394   91.971   14.123
   99.700    0.274    0.382   87.635   14.387
  100.000    0.237    0.382   74.620   14.113
  100.300    0.225    0.392   70.903   13.584
  100.600    0.261    0.390   64.707   14.648
  100.900    0.309    0.374   52.932   19.084
  101.200    0.310    0.382   54.173   21.781
  101.500    0.316    0.390   56.655   22.188
  101.800    0.331    0.383   52.938   19.800
  102.100    0.336    0.374   52.320   18.007
  102.400    0.325    0.392   59.140   16.688
  102.700    0.316    0.409   64.721   15.465
  103.000    0.305    0.395   69.681   14.333
  103.300    0.282    0.389   81.460   13.538
  103.600    0.294    0.416   85.181   13.030
  103.900    0.330    0.411   83.324   13.027
  104.200    0.376    0.410   79.607   13.272
  104.500    0.347    0.411   83.328   13.268
  104.800    0.293    0.436   91.387   14.579
  105.100    0.324    0.427   90.150   13.258
  105.400    0.317    0.403   96.970   11.609
  105.700    0.270    0.425  101.931    9.788
  106.000    0.268    0.444  105.652    8.252
  106.300    0.279    0.449  108.133    7.794
  106.600    0.256    0.456  106.895    7.645
  106.900    0.233    0.489  103.798    8.090
  107.200    0.230    0.493  104.420    9.059
  107.500    0.238    0.468  103.802   10.536
  107.800    0.264    0.455  101.945   11.578
  108.100    0.279    0.404   95.748   12.251
  108.400    0.281    0.394   89.552   12.246
  108.700    0.257    0.392   92.653   11.787
  109.000    0.241    0.384  105.672   11.132
  109.300    0.243    0.392  107.533   11.128
  109.600    0.270    0.415  105.056   11.338
  109.900    0.267    0.445  114.355   11.335
  110.200    0.272    0.445  113.738   11.767
  110.500    0.305    0.435  102.582   12.451
  110.800    0.315    0.418   90.808   13.683
  111.100    0.304    0.399   88.950   14.754
  111.400    0.321    0.406   94.531   14.471
  111.700    0.330    0.427   86.475   13.929
  112.000    0.326    0.437   85.237   13.925
  112.300    0.315    0.437   91.437   14.186
  112.600    0.302    0.425   94.538   13.655
  112.900    0.291    0.437   92.061   11.297
  113.201    0.297    0.447   87.105    9.346
  113.501    0.293    0.414   74.710    8.827
  113.801    0.307    0.405   70.373   10.463
  114.101    0.323    0.415   62.937   15.564
  114.401    0.326    0.406   49.922   20.664
  114.701    0.342    0.394   48.065   23.585
  115.001    0.342    0.353   52.406   26.916
  115.301    0.322    0.368   49.928   26.402
  115.601    0.317    0.387   46.212   25.413
  115.901    0.332    0.401   47.453   22.675
