~VERSION INFORMATION
 VERS.                 2.0:   CWLS LOG ASCII STANDARD -VERSION 2.0
 WRAP.                  NO:   ONE LINE PER DEPTH STEP
~WELL INFORMATION BLOCK
#MNEM.UNIT           DATA                    DESCRIPTION OF MNEMONIC
#---------    -------------------            -------------------------------
# Generated from Intellog Unique Number	CS_73_76/WELL/805
WELL.         BOW VALLEY INDUSTRIES LTD      : Well_name    - WELL
LOC .         00/10-01-073-15W4/0            : Location     - LOCATION
UWI .         00/10-01-073-15W4/0            : Uwi          - UNIQUE WELL ID
ENTR.         SP                             : Entered      - ENTERED BY
SRVC.         SCHLUMBERGER                   : Scn          - SERVICE COMPANY
STRT.M        289.56                         : top_depth    - START DEPTH
STOP.M        482.06                         : bot_depth    - STOP DEPTH
STEP.M        0.25                           : increment    - STEP LENGTH
 NULL. -999.2500:NULL Value
~CURVE INFORMATION BLOCK
#MNEM UNIT       ERCB CURVE CODE    CURVE DESCRIPTION
#-----------   ------------------   ----------------------------------
DEPT.M        00 001 00 00         : DEPTH        - DEPTH
GR  .API      00 310 00 00         : GR           - GAMMA RAY
DPHI.V/V      00 890 00 00         : PHID         - DENSITY POROSITY (SANDSTONE)
NPHI.V/V      00 330 00 00         : PHIN         - NEUTRON POROSITY (SANDSTONE)
ILD .OHMM     00 120 00 00         : RESD         - DEEP RESISTIVITY (DIL)
~PARAMETER INFORMATION
#MNEM.UNIT           DATA             DESCRIPTION OF MNEMONIC
#---------         -----------     ------------------------------
GL  .M        625.45               : gl           - GROUND LEVEL ELEVATION
EREF.M        629.107              : kb           - ELEVATION OF DEPTH REFERENCE
DATM.M        625.45               : datum        - DATUM ELEVATION
TDD .M        490.728              : tdd          - TOTAL DEPTH DRILLER
RUN .         ONE                  : Run          - RUN NUMBER
ENG .         BILL                 : Engineer     - RECORDING ENGINEER
WIT .         JIM                  : Witness      - WITNESSED BY
MUD .         GEL                  : Mud_type     - MUD TYPE
MATR.         SANDSTONE            : Logunit      - NEUTRON MATRIX
TMAX.C        15.5556              : BHT          - MAXIMUM RECORDED TEMPERATURE
BHTD.M        490.728              : BHTDEP       - MAXIMUM RECORDED TEMPERATURE
MATR.         1                    : LOGUNIT      - NEUTRON MATRIX
RMT .C        25                   : MDTP         - TEMPERATURE OF MUD
NEUT.         1                    : NEUTRON      - NEUTRON TYPE
RESI.         0                    : RESIST       - RESISTIVITY TYPE
RMC .OHMM     0.25                 : RMC          - RESISTIVITY OF MUD CAKE
RMF .OHMM     0.25                 : RMF          - RESISTIVITY OF MUD FILTRATE
SUFT.C        15                   : SUFT         - SURFACE TEMPERATURE
~A  DEPTH       GR     PHID     PHIN     RESD
  289.560  113.107    0.212    0.537    2.974
  289.810  111.903    0.216    0.541    2.969
  290.060  114.883    0.218    0.547    3.035
  290.310  116.746    0.216    0.556    3.089
  290.560  117.235    0.207    0.544    3.124
  290.810  116.111    0.228    0.528    3.149
  291.060  117.282    0.231    0.524    3.205
  291.310  118.213    0.224    0.524    3.184
  291.560  119.918    0.240    0.518    3.153
  291.810  120.406    0.222    0.531    3.105
  292.060  120.239    0.224    0.547    3.046
  292.310  118.513    0.224    0.534    2.992
  292.560  116.279    0.239    0.540    2.997
  292.810  115.176    0.234    0.535    3.002
  293.060  113.798    0.228    0.528    3.225
  293.310  112.532    0.205    0.524    3.394
  293.560  110.772    0.217    0.513    3.736
  293.810  107.856    0.211    0.499    3.899
  294.060  106.449    0.198    0.492    3.798
  294.310  106.637    0.208    0.500    3.531
  294.560  105.865    0.217    0.515    3.443
  294.810   98.345    0.224    0.546    3.264
  295.060   90.422    0.251    0.569    3.644
  295.310   81.194    0.282    0.554    3.962
  295.560   74.541    0.328    0.554    4.477
  295.810   69.660    0.351    0.393    5.161
  296.060   72.211    0.341    0.388    5.779
  296.310   75.571    0.340    0.406    5.969
  296.560   77.965    0.324    0.429    5.781
  296.810   81.423    0.331    0.450    5.618
  297.060   82.658    0.333    0.463    5.321
  297.310   79.934    0.330    0.468    5.096
  297.560   75.725    0.311    0.456    4.993
  297.810   73.265    0.307    0.442    4.897
  298.060   73.706    0.309    0.437    4.899
  298.310   76.875    0.311    0.439    5.013
  298.560   78.835    0.299    0.447    5.006
  298.810   83.436    0.295    0.458    5.180
  299.060   85.735    0.297    0.451    5.253
  299.310   88.994    0.278    0.438    5.494
  299.560   94.478    0.272    0.427    5.783
  299.810   98.213    0.258    0.431    5.960
  300.060  102.719    0.247    0.423    6.043
  300.310  109.330    0.234    0.427    6.055
  300.560  115.125    0.217    0.440    5.916
  300.810  119.209    0.204    0.453    5.744
  301.060  119.781    0.195    0.441    5.566
  301.310  118.717    0.191    0.465    5.518
  301.560  115.728    0.188    0.482    5.420
  301.810  108.382    0.214    0.504    5.429
  302.060  101.654    0.235    0.507    5.433
  302.310   89.389    0.230    0.493    5.436
  302.560   80.233    0.263    0.482    5.440
  302.810   73.003    0.285    0.470    5.443
  303.060   70.023    0.301    0.464    5.446
  303.310   73.290    0.316    0.455    5.445
  303.560   76.135    0.318    0.440    5.543
  303.810   81.674    0.300    0.428    5.545
  304.060   86.549    0.292    0.425    5.673
  304.310   92.217    0.280    0.421    5.670
  304.560   98.031    0.289    0.434    5.715
  304.810  100.604    0.299    0.443    5.782
  305.060   98.037    0.298    0.450    6.051
  305.310   91.508    0.285    0.456    6.234
  305.560   85.562    0.270    0.461    6.348
  305.810   80.353    0.257    0.424    6.661
  306.060   85.378    0.225    0.401    6.990
  306.310   89.999    0.231    0.377    7.095
  306.560   93.684    0.198    0.377    7.043
  306.810   86.437    0.204    0.388    6.805
  307.060   79.008    0.233    0.390    6.202
  307.310   73.268    0.265    0.394    5.708
  307.560   69.270    0.259    0.395    5.389
  307.810   71.327    0.273    0.392    5.240
  308.060   68.654    0.266    0.383    5.120
  308.310   72.416    0.261    0.373    5.028
  308.560   81.902    0.269    0.386    4.845
  308.810   92.491    0.274    0.400    4.772
  309.060  104.461    0.263    0.412    4.763
  309.310  118.781    0.222    0.430    4.865
  309.560  122.539    0.185    0.442    4.866
  309.810  120.616    0.162    0.462    4.780
  310.060  126.938    0.150    0.465    4.686
  310.310  131.700    0.156    0.470    4.590
  310.560  131.040    0.169    0.489    4.438
  310.810  132.231    0.146    0.500    4.293
  311.060  135.959    0.116    0.503    4.128
  311.310  132.676    0.148    0.494    4.193
  311.560  129.265    0.171    0.497    4.235
  311.810  126.148    0.160    0.490    4.294
  312.060  130.330    0.136    0.493    4.166
  312.310  133.253    0.157    0.504    4.027
  312.560  138.072    0.154    0.506    3.860
  312.810  143.157    0.155    0.522    3.529
  313.060  145.279    0.195    0.534    3.214
  313.310  147.318    0.219    0.538    3.025
  313.560  147.195    0.229    0.534    3.143
  313.810  143.836    0.242    0.525    3.349
  314.060  136.689    0.249    0.508    3.715
  314.310  129.423    0.254    0.469    4.262
  314.560  123.761    0.252    0.450    4.753
  314.810  122.908    0.252    0.433    5.522
  315.060  123.462    0.252    0.427    6.133
  315.310  123.789    0.252    0.420    6.619
  315.560  123.118    0.245    0.430    6.426
  315.810  120.842    0.239    0.449    6.239
  316.060  117.941    0.238    0.466    6.161
  316.310  114.560    0.230    0.477    6.227
  316.560  113.537    0.217    0.481    6.295
  316.810  117.770    0.224    0.471    6.421
  317.060  123.595    0.232    0.452    6.299
  317.310  130.659    0.211    0.454    6.051
  317.560  133.816    0.196    0.468    5.894
  317.810  135.387    0.208    0.481    5.601
  318.060  132.304    0.201    0.493    5.341
  318.310  129.477    0.179    0.492    5.123
  318.560  130.765    0.169    0.494    4.944
  318.810  128.282    0.218    0.502    4.793
  319.060  123.659    0.208    0.513    4.830
  319.310  120.405    0.199    0.501    5.113
  319.560  116.905    0.172    0.471    5.330
  319.810  110.547    0.197    0.469    5.733
  320.060  105.092    0.242    0.457    6.029
  320.310   96.620    0.270    0.446    6.306
  320.560   91.433    0.265    0.435    6.647
  320.810   95.605    0.263    0.428    6.843
  321.060  102.277    0.275    0.439    6.883
  321.310  107.173    0.265    0.458    6.857
  321.560  111.119    0.264    0.467    6.724
  321.810  112.054    0.271    0.448    6.637
  322.060  111.628    0.274    0.430    6.745
  322.310  115.129    0.269    0.414    6.733
  322.560  117.192    0.244    0.423    6.739
  322.810  119.805    0.244    0.447    6.746
  323.060  122.909    0.235    0.463    6.640
  323.310  125.310    0.223    0.479    6.588
  323.560  127.673    0.233    0.496    6.388
  323.810  128.761    0.249    0.482    6.307
  324.060  126.452    0.260    0.461    6.293
  324.310  118.433    0.260    0.441    6.168
  324.560  110.996    0.267    0.453    6.172
  324.810  102.875    0.293    0.465    6.147
  325.060   98.653    0.306    0.459    6.065
  325.310   97.881    0.281    0.445    6.072
  325.560   99.731    0.272    0.434    6.090
  325.810  106.514    0.263    0.426    6.291
  326.060  112.478    0.252    0.418    6.487
  326.310  116.798    0.239    0.423    6.690
  326.560  117.780    0.244    0.419    6.903
  326.810  118.730    0.234    0.409    7.129
  327.060  120.403    0.217    0.410    7.203
  327.310  120.950    0.216    0.407    7.351
  327.560  122.062    0.197    0.402    7.386
  327.810  128.729    0.178    0.405    7.483
  328.060  133.375    0.165    0.423    7.323
  328.310  138.301    0.194    0.441    7.037
  328.560  137.464    0.210    0.470    6.605
  328.810  135.775    0.201    0.499    6.354
  329.060  133.032    0.194    0.510    5.976
  329.310  124.237    0.204    0.481    5.617
  329.560  120.579    0.205    0.492    5.392
  329.810  116.573    0.236    0.504    5.291
  330.060  113.958    0.270    0.493    5.120
  330.310  117.462    0.251    0.472    5.109
  330.560  121.047    0.248    0.479    5.110
  330.810  124.374    0.229    0.487    5.114
  331.060  119.846    0.235    0.480    5.117
  331.310  116.914    0.220    0.465    5.119
  331.560  114.965    0.226    0.447    5.106
  331.810  118.026    0.242    0.447    5.365
  332.060  121.358    0.229    0.447    5.709
  332.310  123.323    0.221    0.447    5.952
  332.560  121.173    0.253    0.446    6.208
  332.810  114.988    0.251    0.444    6.415
