~VERSION INFORMATION
 VERS.                 2.0:   CWLS LOG ASCII STANDARD -VERSION 2.0
 WRAP.                  NO:   ONE LINE PER DEPTH STEP
~WELL INFORMATION BLOCK
#MNEM.UNIT           DATA                    DESCRIPTION OF MNEMONIC
#---------    -------------------            -------------------------------
# Generated from Intellog Unique Number	CW_70_72/WELL/1074
NULL.         -999.25                        : NULL_VALUE
WELL.         NORTHSTAR ET AL TOMATO 16-20   : Well_name    - WELL              
LOC .         16-20-072-23W4                 : Location     - LOCATION          
UWI .         00/16-20-072-23W4/0            : Uwi          - UNIQUE WELL ID    
ENTR.         JAYE                           : Entered      - ENTERED BY        
SRVC.         COMPUTALOG                     : Scn          - SERVICE COMPANY   
DATE.         18 FEB 81                      : Date         - LOG DATE          
STRT.M        430                            : top_depth    - START DEPTH       
STOP.M        639.75                         : bot_depth    - STOP DEPTH        
STEP.M        0.25                           : increment    - STEP LENGTH       
~CURVE INFORMATION BLOCK
#MNEM UNIT       ERCB CURVE CODE    CURVE DESCRIPTION
#-----------   ------------------   ----------------------------------
DEPT.M        00 001 00 00         : DEPTH        - DEPTH                       
DPHI.V/V      00 890 00 00         : PHID         - DENSITY POROSITY (SANDSTONE)
NPHI.V/V      00 330 00 00         : PHIN         - NEUTRON POROSITY (SANDSTONE)
GR  .API      00 310 00 00         : GR           - GAMMA RAY                   
CALI.MM       00 280 01 00         : CAL          - CALIPER                     
ILD .OHMM     00 120 00 00         : RESD         - DEEP RESISTIVITY (DLL)      
~PARAMETER INFORMATION       
#MNEM.UNIT           DATA             DESCRIPTION OF MNEMONIC
#---------         -----------     ------------------------------
GL  .M        674.7                : gl           - GROUND LEVEL ELEVATION      
EREF.M        678.7                : kb           - ELEVATION OF DEPTH REFERENCE
DATM.M        674.7                : datum        - DATUM ELEVATION             
TDD .M        644                  : tdd          - TOTAL DEPTH DRILLER         
RUN .         ONE                  : Run          - RUN NUMBER                  
ENG .         ABHNDROTH            : Engineer     - RECORDING ENGINEER          
WIT .         SNELLING/FERRIS      : Witness      - WITNESSED BY                
BASE.         MEDICINE HAT         : Branch       - HOME BASE OF LOGGING UNIT   
MUD .         GEL CHEN             : Mud_type     - MUD TYPE                    
MATR.         SANDSTONE            : Logunit      - NEUTRON MATRIX              
TMAX.C        32                   : BHT          - MAXIMUM RECORDED TEMPERATURE
BHTD.M        642                  : BHTDEP       - MAXIMUM RECORDED TEMPERATURE
RMT .C        16                   : MDTP         - TEMPERATURE OF MUD          
MUDD.KG/M     1080                 : MWT          - MUD DENSITY                 
NEUT.         1                    : NEUTRON      - NEUTRON TYPE                
RESI.         1                    : RESIST       - RESISTIVITY TYPE            
RM  .OHMM     3.5                  : RM           - RESISTIVITY OF MUD          
RMC .OHMM     2.75                 : RMC          - RESISTIVITY OF MUD CAKE     
RMF .OHMM     4.5                  : RMF          - RESISTIVITY OF MUD FILTRATE 
SUFT.C        0                    : SUFT         - SURFACE TEMPERATURE         
~A  DEPTH     PHID     PHIN       GR      CAL     RESD
# ...
  576.000    0.150    0.325   81.552  156.606    6.861
  576.250    0.148    0.335   85.156  154.984    6.851
  576.500    0.152    0.352   74.931  155.327    6.828
  576.750    0.149    0.369   65.281  157.544    6.779
  577.000    0.143    0.339   69.241  154.569    6.694
  577.250    0.135    0.323   76.783  153.460    6.645
  577.500    0.148    0.305   80.026  153.392    6.636
  577.750    0.160    0.330   69.661  154.570    6.638
  578.000    0.157    0.345   72.402  156.998    6.641
  578.250    0.144    0.313   79.158  159.838    6.708
  578.500    0.131    0.320   91.355  161.637    6.761
  578.750    0.138    0.337   97.680  163.336    6.828
  579.000    0.144    0.354   97.698  164.098    6.844
  579.250    0.149    0.391   86.616  164.863    6.833
  579.500    0.133    0.366   85.490  164.898    6.849
  579.750    0.125    0.339   86.298  165.042    6.839
  580.000    0.122    0.337   88.109  164.972    6.855
  580.250    0.127    0.350   90.136  164.390    6.871
  580.500    0.140    0.379   92.952  164.007    6.873
  580.750    0.136    0.369   94.476  163.624    6.876
  581.000    0.125    0.382   96.571  163.659    6.931
  581.250    0.128    0.383  102.394  163.697    7.000
  581.500    0.149    0.351   91.311  163.005    7.163
  581.750    0.157    0.308   80.015  161.796    7.513
  582.000    0.137    0.288   71.296  160.377    8.137
  582.250    0.118    0.268   68.306  159.893    9.014
  582.500    0.110    0.270   71.121  160.659    9.069
  582.750    0.109    0.300   70.425  161.628    8.444
  583.000    0.124    0.310   64.929  163.538    7.878
  583.250    0.139    0.312   68.101  163.568    7.461
  583.500    0.147    0.343   78.795  162.982    7.160
  583.750    0.141    0.361   83.759  163.224    6.950
  584.000    0.124    0.376   85.569  163.268    6.823
  584.250    0.117    0.390   86.378  162.574    6.698
  584.500    0.122    0.402   90.265  161.884    6.638
  584.750    0.130    0.387   97.593  161.399    6.603
  585.000    0.128    0.375   90.879  161.121    6.618
  585.250    0.136    0.380   94.123  160.327    6.684
  585.500    0.142    0.370   95.148  159.842    6.725
  585.750    0.125    0.339   93.305  159.361    6.778
  586.000    0.100    0.310   91.318  159.185    6.898
  586.250    0.096    0.319   85.249  159.325    6.992
  586.500    0.111    0.338   88.996  158.951    7.061
  586.750    0.127    0.348   98.972  158.670    7.145
  587.000    0.128    0.366   95.555  158.506    7.451
  587.250    0.132    0.362   89.200  158.224    8.009
  587.500    0.145    0.330   97.385  158.155    8.889
  587.750    0.137    0.310   83.582  157.884    9.979
  588.000    0.094    0.256   71.352  158.022   11.202
  588.250    0.055    0.218   66.788  158.057   12.600
  588.500    0.048    0.252   67.452  157.987   12.557
  588.750    0.087    0.319   69.621  157.821   11.714
  589.000    0.119    0.386   74.441  157.647   10.724
  589.250    0.154    0.343   77.256  157.578   10.547
  589.500    0.103    0.272   84.224  157.612   10.835
  589.750    0.062    0.243   86.751  157.652   11.734
  590.000    0.036    0.222   68.148  157.583   12.565
  590.250    0.022    0.204   48.899  157.724   12.594
  590.500    0.060    0.234   40.107  157.967   11.996
  590.750    0.090    0.265   65.773  158.629   10.837
  591.000    0.101    0.295   85.922  159.077    9.680
  591.250    0.086    0.300   82.146  159.213    8.962
  591.500    0.076    0.315   71.350  159.149    8.504
  591.750    0.102    0.335   72.087  159.086    8.255
  592.000    0.130    0.351   79.628  159.011    8.088
  592.250    0.123    0.333   91.469  158.838    7.955
  592.500    0.116    0.322   95.284  158.562    7.824
  592.750    0.115    0.314   77.324  158.494    7.710
  593.000    0.123    0.321   72.834  158.430    7.699
  593.250    0.137    0.337   83.669  158.569    7.658
  593.500    0.147    0.348   89.062  159.018    7.662
  593.750    0.144    0.317   81.059  159.578    7.722
  594.000    0.117    0.293   76.569  159.817    7.888
  594.250    0.085    0.270   74.582  159.749    8.103
  594.500    0.096    0.305   79.688  159.369    8.498
  594.750    0.114    0.328   86.584  158.995    8.947
  595.000    0.108    0.320   83.238  158.612    9.121
  595.250    0.087    0.324   73.016  158.129    9.124
  595.500    0.091    0.342   64.654  157.749    8.975
  595.750    0.108    0.346   64.533  157.579    8.794
  596.000    0.118    0.344   69.924  157.200    8.551
  596.250    0.126    0.358   79.185  156.816    8.130
  596.500    0.126    0.384   87.229  156.127    7.921
  596.750    0.118    0.402   86.103  155.749    7.924
  597.000    0.108    0.380   78.529  155.578    8.140
  597.250    0.077    0.332   70.813  155.615    8.586
  597.500    0.083    0.302   70.833  155.855    8.786
  597.750    0.096    0.307   83.246  155.998    8.789
  598.000    0.114    0.303   96.161  156.446    8.499
  598.250    0.125    0.294   94.320  157.419    8.126
  598.500    0.127    0.299   91.187  158.701    7.858
  598.750    0.131    0.321   97.511  159.878    8.041
  599.000    0.121    0.312  100.253  159.915    8.276
  599.250    0.079    0.294   90.174  159.537    8.501
  599.500    0.072    0.262   86.326  158.531    8.473
  599.750    0.097    0.267   78.753  157.218    8.255
  600.000    0.122    0.283   75.406  156.006    7.997
  600.250    0.142    0.295   85.169  155.006    7.631
  600.500    0.142    0.315   93.641  154.423    6.973
  600.750    0.135    0.333   84.636  154.454    6.692
  601.000    0.115    0.320   80.932  155.010    6.695
  601.250    0.089    0.248   72.857  155.356    6.698
  601.500    0.039    0.224   63.565  155.394    6.260
  601.750    0.102    0.336   62.942  156.260    5.455
  602.000    0.151    0.445   86.242  157.958    4.553
  602.250    0.177    0.442  102.738  162.977    3.792
  602.500    0.177    0.425  105.981  168.726    3.194
  602.750    0.175    0.415  102.207  165.129    2.880
  603.000    0.174    0.440  105.019  164.228    3.096
  603.250    0.164    0.440  106.043  165.614    3.379
  603.500    0.143    0.393   99.905  166.067    3.807
  603.750    0.053    0.331   91.113  165.271    4.662
  604.000    0.042    0.310   86.979  163.230    5.872
  604.250    0.067    0.290   85.136  161.396    6.580
  604.500    0.096    0.272   83.795  160.707    6.633
  604.750    0.120    0.249   90.191  160.119    6.341
  605.000    0.128    0.291   97.160  159.635    5.938
  605.250    0.129    0.337  104.199  159.466    5.731
  605.500    0.131    0.367  113.460  159.811    5.788
  605.750    0.122    0.384  104.240  160.887    6.140
  606.000    0.076    0.230   94.089  161.959    7.064
  606.250    0.057    0.197   83.578  162.828    8.219
  606.500    0.031    0.172   72.495  162.969    9.332
  606.750   -0.011    0.214   59.979  162.795    9.751
  607.000    0.010    0.308   76.333  161.377    9.287
  607.250    0.096    0.333   81.081  158.926    8.327
  607.500    0.126    0.352   86.402  157.190    7.216
  607.750    0.138    0.365   93.729  155.565    6.495
  608.000    0.134    0.382   99.694  154.873    6.376
  608.250    0.110    0.297  101.935  154.602    6.463
  608.500    0.086    0.260   90.280  154.223    6.702
  608.750    0.047    0.222   79.412  153.845    7.150
  609.000    0.060    0.243   87.599  153.983    7.541
  609.250    0.103    0.265   91.415  155.054    7.587
  609.500    0.129    0.298   92.725  156.544    7.012
  609.750    0.134    0.316   95.253  162.605    6.528
  610.000    0.130    0.331  104.943  167.418    5.932
  610.250    0.128    0.329   97.370  170.465    5.523
  610.500    0.129    0.298   99.253  171.442    5.442
  610.750    0.128    0.296  102.497  171.267    5.517
  611.000    0.132    0.306   96.143  170.158    5.635
  611.250    0.139    0.316   91.364  168.012    5.833
  611.500    0.126    0.324   98.117  164.828    6.071
  611.750    0.105    0.335   97.134  165.487    6.319
  612.000    0.071    0.316   87.055  169.266    6.819
  612.250    0.056    0.290   79.194  170.233    7.205
