~VERSION INFORMATION
 VERS.                 2.0:   CWLS LOG ASCII STANDARD -VERSION 2.0
 WRAP.                  NO:   ONE LINE PER DEPTH STEP
~WELL INFORMATION BLOCK
#MNEM.UNIT           DATA                    DESCRIPTION OF MNEMONIC
#---------    -------------------            -------------------------------
# Generated from Intellog Unique Number	CC_84_87/WELL/2330
NULL.         -999.25                        : NULL_VALUE
WELL.         PETROREP ET AL GRANOR          : Well_name    - WELL
LOC .         11-18-085-16W4                 : Location     - LOCATION          
UWI .         00/11-18-085-16W400            : Uwi          - UNIQUE WELL ID    
ENTR.         DW                             : Entered      - ENTERED BY        
SRVC.         SCHLUMBERGER                   : Scn          - SERVICE COMPANY   
DATE.         26 MAR 80                      : Date         - LOG DATE
STRT.M        100                            : top_depth    - START DEPTH       
STOP.M        277.901                        : bot_depth    - STOP DEPTH        
STEP.M        0.3                            : increment    - STEP LENGTH       
~CURVE INFORMATION BLOCK
#MNEM UNIT       ERCB CURVE CODE    CURVE DESCRIPTION
#-----------   ------------------   ----------------------------------
DEPT.M        00 001 00 00         : DEPTH        - DEPTH                       
DPHI.V/V      00 890 00 00         : PHID         - DENSITY POROSITY (LIMESTONE)
NPHI.V/V      00 330 00 00         : PHIN         - NEUTRON POROSITY (LIMESTONE)
GR  .API      00 310 00 00         : GR           - GAMMA RAY                   
ILD .OHMM     00 120 00 00         : RESD         - DEEP RESISTIVITY (DIL)      
~PARAMETER INFORMATION       
#MNEM.UNIT           DATA             DESCRIPTION OF MNEMONIC
#---------         -----------     ------------------------------
GL  .M        510                  : gl           - GROUND LEVEL ELEVATION      
EREF.M        515.3                : kb           - ELEVATION OF DEPTH REFERENCE
DATM.M        515.3                : datum        - DATUM ELEVATION             
TDD .M        278                  : tdd          - TOTAL DEPTH DRILLER         
RUN .         ONE                  : Run          - RUN NUMBER                  
ENG .         BILL                 : Engineer     - RECORDING ENGINEER          
WIT .         JIM                  : Witness      - WITNESSED BY                
MUD .         GEL                  : Mud_type     - MUD TYPE                    
MATR.         LIMESTONE            : Logunit      - NEUTRON MATRIX              
TMAX.C        20                   : BHT          - MAXIMUM RECORDED TEMPERATURE
BHTD.M        278                  : BHTDEP       - MAXIMUM RECORDED TEMPERATURE
MATR.         1                    : LOGUNIT      - NEUTRON MATRIX              
RMT .C        25                   : MDTP         - TEMPERATURE OF MUD          
NEUT.         1                    : NEUTRON      - NEUTRON TYPE                
RESI.         0                    : RESIST       - RESISTIVITY TYPE            
RMC .OHMM     0.25                 : RMC          - RESISTIVITY OF MUD CAKE     
RMF .OHMM     0.25                 : RMF          - RESISTIVITY OF MUD FILTRATE 
SUFT.C        15                   : SUFT         - SURFACE TEMPERATURE         
~A  DEPTH     PHID     PHIN       GR     RESD
# ...
  204.401    0.223    0.507   95.104    6.293
  204.701    0.220    0.512   88.309    8.062
  205.001    0.248    0.500   80.897    9.752
  205.301    0.205    0.441   79.040   10.521
  205.601    0.205    0.424   86.442    9.559
  205.901    0.212    0.417   93.845    7.746
  206.201    0.198    0.456   95.071    6.775
  206.501    0.194    0.477   95.686    6.395
  206.801    0.199    0.450   98.149    6.393
  207.101    0.197    0.447   99.378    6.638
  207.401    0.199    0.488   96.905    6.894
  207.701    0.182    0.507   94.431    7.025
  208.001    0.195    0.497   96.894    7.434
  208.301    0.178    0.479   98.740    7.291
  208.601    0.198    0.465   99.969    7.151
  208.901    0.208    0.459  101.816    6.750
  209.201    0.200    0.462  103.663    6.620
  209.501    0.204    0.481  103.659    6.617
  209.801    0.203    0.474   99.333    7.417
  210.101    0.182    0.445   90.068    8.636
  210.401    0.157    0.426   90.680    9.866
  210.701    0.174    0.423   94.996   10.244
  211.001    0.188    0.410   96.843   10.046
  211.301    0.191    0.411   97.454    9.854
  211.601    0.199    0.429   98.066    9.480
  211.901    0.207    0.418   96.210    9.298
  212.201    0.209    0.411   91.884    9.118
  212.501    0.193    0.435   93.113    9.290
  212.801    0.238    0.434   90.638    9.830
  213.101    0.242    0.413   86.312   10.210
  213.401    0.244    0.395   83.220   10.403
  213.701    0.234    0.390   83.832   10.400
  214.001    0.232    0.410   85.679   10.394
  214.301    0.237    0.405   84.439   10.192
  214.601    0.242    0.408   82.581    9.997
  214.901    0.224    0.415   83.194    9.436
  215.201    0.213    0.424   83.806    8.908
  215.501    0.236    0.429   81.950    8.905
  215.801    0.236    0.429   78.241    9.246
  216.101    0.234    0.421   75.150    9.422
  216.401    0.233    0.414   76.996   10.361
  216.701    0.227    0.409   76.374   11.837
  217.001    0.200    0.393   68.344   14.319
  217.301    0.147    0.251   62.783   22.624
  217.601    0.126    0.228   65.864   23.051
  217.901    0.196    0.299   72.032   15.732
  218.201    0.261    0.414   78.200   11.811
  218.501    0.263    0.433   84.366   10.528
  218.801    0.251    0.410   86.830   10.131
  219.101    0.240    0.412   88.060    9.935
  219.401    0.231    0.420   88.055   10.123
  219.701    0.223    0.420   87.433   10.311
  220.001    0.221    0.420   83.107   10.309
  220.301    0.220    0.420   78.780   10.502
  220.601    0.200    0.413   78.775   10.499
  220.901    0.183    0.393   82.474   10.294
  221.201    0.210    0.407   86.173   10.291
  221.501    0.207    0.424   88.018   10.288
  221.801    0.218    0.420   86.778   10.088
  222.101    0.201    0.428   85.538   10.085
  222.401    0.203    0.414   86.769    9.889
  222.701    0.201    0.411   87.380    9.700
  223.001    0.210    0.416   85.523    9.156
  223.301    0.215    0.426   82.431    8.008
  223.601    0.217    0.449   82.427    7.003
  223.901    0.184    0.458   87.360    6.610
  224.201    0.207    0.443   91.676    6.608
  224.501    0.231    0.423   92.288    6.733
  224.801    0.204    0.411   94.134    6.478
  225.101    0.177    0.449   98.451    6.115
  225.401    0.216    0.466  100.914    5.349
  225.701    0.230    0.466   99.056    4.589
  226.001    0.241    0.466   98.435    4.251
  226.301    0.247    0.512   97.811    4.012
  226.601    0.249    0.524   99.659    3.935
  226.901    0.222    0.529  100.888    4.086
  227.201    0.227    0.517  103.970    4.668
  227.501    0.204    0.464  102.730    5.756
  227.801    0.186    0.459   97.169    6.963
  228.101    0.159    0.447   87.904    8.108
  228.401    0.140    0.386   80.492    9.623
  228.701    0.160    0.392   76.166   11.421
  229.001    0.242    0.408   60.729   13.815
  229.301    0.254    0.421   50.230   17.035
  229.601    0.267    0.431   45.287   21.004
  229.901    0.302    0.421   43.429   26.397
  230.201    0.309    0.402   44.042   36.496
  230.501    0.284    0.391   40.949   37.184
  230.801    0.275    0.381   43.414   33.784
  231.101    0.261    0.377   45.260   31.893
  231.401    0.279    0.387   44.020   30.107
  231.701    0.271    0.401   44.633   29.522
  232.001    0.271    0.416   47.713   28.950
  232.301    0.276    0.417   52.029   28.397
  232.601    0.279    0.398   56.344   25.314
  232.901    0.258    0.397   58.809   20.512
  233.201    0.251    0.403   60.038   17.939
  233.501    0.269    0.427   58.798   17.261
  233.801    0.273    0.427   58.792   16.927
  234.101    0.270    0.420   61.257   15.982
  234.401    0.265    0.441   64.957   11.772
  234.701    0.220    0.438   74.211    7.030
  235.001    0.194    0.426   84.698    5.178
  235.301    0.223    0.442   89.632    4.039
  235.601    0.234    0.462   98.269    3.466
  235.901    0.249    0.487  104.435    3.272
  236.201    0.244    0.528  105.048    3.208
  236.501    0.228    0.513  102.574    3.461
  236.801    0.218    0.490   98.864    3.527
  237.101    0.215    0.475   97.625    4.029
  237.401    0.214    0.477   92.682    4.430
  237.701    0.204    0.467   90.206    4.429
  238.001    0.159    0.449   90.819    4.261
  238.301    0.175    0.431   93.901    3.798
  238.601    0.218    0.501  103.155    3.655
  238.901    0.228    0.526  106.236    3.385
  239.201    0.213    0.494  104.378    3.583
  239.501    0.203    0.472  100.670    4.172
  239.801    0.167    0.475   80.295    4.951
  240.101    0.157    0.427   81.524    6.105
  240.401    0.214    0.394   82.136    7.385
  240.701    0.217    0.405   75.341    8.934
  241.001    0.232    0.413   64.843   11.444
  241.301    0.275    0.425   58.664   14.382
  241.601    0.292    0.406   59.892   17.734
  241.901    0.293    0.404   62.974   21.866
  242.201    0.265    0.405   68.523   24.045
  242.501    0.250    0.405   70.988   24.034
  242.801    0.249    0.416   72.836   21.424
  243.101    0.243    0.411   77.151   18.739
  243.401    0.222    0.404   85.170   15.184
  243.701    0.212    0.409   89.487   13.538
  244.001    0.223    0.421   93.183   11.840
  244.301    0.227    0.433   92.562   11.177
  244.601    0.224    0.436   86.384   11.388
  244.901    0.219    0.429   87.612   13.776
  245.201    0.214    0.409   87.609   19.786
  245.501    0.204    0.413   83.282   23.483
  245.801    0.197    0.399   81.425   23.922
  246.101    0.192    0.342   94.383   22.582
  246.401    0.262    0.385  107.957   20.522
  246.701    0.236    0.410  110.422   17.275
  247.001    0.226    0.399   99.306   15.401
  247.301    0.211    0.387   93.128   13.470
  247.602    0.183    0.372  105.468   12.008
  247.902    0.170    0.384  109.166   11.774
  248.202    0.168    0.384  107.310   11.772
  248.502    0.202    0.384  101.132   12.945
  248.802    0.192    0.387   93.718   15.658
  249.102    0.195    0.379   87.541   17.888
  249.402    0.207    0.370   81.980   21.230
  249.702    0.217    0.366   76.418   24.252
  250.002    0.222    0.371   72.094   25.187
  250.302    0.231    0.346   70.854   23.328
  250.602    0.235    0.336   77.638   22.017
  250.902    0.205    0.348   80.720   22.432
  251.202    0.193    0.354   75.777   23.296
  251.502    0.200    0.358   68.981   25.620
  251.802    0.206    0.364   63.420   30.403
  252.102    0.232    0.387   62.798   30.979
  252.402    0.252    0.397   65.879   28.689
  252.702    0.240    0.386   68.961   25.577
  253.002    0.222    0.356   77.598   20.725
  253.302    0.197    0.361   86.851   19.196
  253.602    0.194    0.372   86.229   23.221
  253.902    0.191    0.384   80.050   28.091
  254.202    0.191    0.382   60.293   30.889
  254.502    0.206    0.358   60.288   28.066
  254.802    0.253    0.348   70.776   21.073
  255.102    0.214    0.373   88.055   10.398
  255.402    0.175    0.463  105.333    9.630
  255.702    0.201    0.478   97.303   11.650
  256.002    0.221    0.446   82.483   14.641
  256.302    0.252    0.394   76.922   21.846
