~VERSION INFORMATION
 VERS.                 2.0:   CWLS LOG ASCII STANDARD -VERSION 2.0
 WRAP.                  NO:   ONE LINE PER DEPTH STEP
~WELL INFORMATION BLOCK
#MNEM.UNIT           DATA                    DESCRIPTION OF MNEMONIC
#---------    -------------------            -------------------------------
# Generated from Intellog Unique Number	CS_73_76/WELL/4864
WELL.         ALBERTA ENERGY CO.LTD.         : Well_name    - WELL
LOC .         00/12-36-072-03W4/0            : Location     - LOCATION
UWI .         00/12-36-072-03W4/0            : Uwi          - UNIQUE WELL ID
ENTR.         JOETTE                         : Entered      - ENTERED BY
SRVC.         SCHLUMBERGER                   : Scn          - SERVICE COMPANY
DATE.         05/13/92                       : Date         - LOG DATE
STRT.M        345                            : top_depth    - START DEPTH
STOP.M        575                            : bot_depth    - STOP DEPTH
STEP.M        0.25                           : increment    - STEP LENGTH
 NULL. -999.2500:NULL Value
~CURVE INFORMATION BLOCK
#MNEM UNIT       ERCB CURVE CODE    CURVE DESCRIPTION
#-----------   ------------------   ----------------------------------
DEPT.M        00 001 00 00         : DEPTH        - DEPTH
ILD .OHMM     00 120 00 00         : RESD         - DEEP RESISTIVITY (DIL)
DPHI.V/V      00 890 00 00         : PHID         - DENSITY POROSITY (SANDSTONE)
NPHI.V/V      00 330 00 00         : PHIN         - NEUTRON POROSITY (SANDSTONE)
GR  .API      00 310 00 00         : GR           - GAMMA RAY
CALI.MM       00 280 01 00         : CAL          - CALIPER
~PARAMETER INFORMATION
#MNEM.UNIT           DATA             DESCRIPTION OF MNEMONIC
#---------         -----------     ------------------------------
GL  .M        698.81               : gl           - GROUND LEVEL ELEVATION
EREF.M        702.22               : kb           - ELEVATION OF DEPTH REFERENCE
DATM.M        702.22               : datum        - DATUM ELEVATION
TDD .M        588                  : tdd          - TOTAL DEPTH DRILLER
RUN .         ONE                  : Run          - RUN NUMBER
ENG .         BILL                 : Engineer     - RECORDING ENGINEER
WIT .         JIM                  : Witness      - WITNESSED BY
MUD .         GEL                  : Mud_type     - MUD TYPE
MATR.         SANDSTONE            : Logunit      - NEUTRON MATRIX
TMAX.C        30                   : BHT          - MAXIMUM RECORDED TEMPERATURE
BHTD.M        588                  : BHTDEP       - MAXIMUM RECORDED TEMPERATURE
MATR.         1                    : LOGUNIT      - NEUTRON MATRIX
RMT .C        12                   : MDTP         - TEMPERATURE OF MUD
NEUT.         1                    : NEUTRON      - NEUTRON TYPE
RESI.         0                    : RESIST       - RESISTIVITY TYPE
RMC .OHMM     2.7                  : RMC          - RESISTIVITY OF MUD CAKE
RMF .OHMM     2.6                  : RMF          - RESISTIVITY OF MUD FILTRATE
SUFT.C        15                   : SUFT         - SURFACE TEMPERATURE
~A  DEPTH     RESD     PHID     PHIN       GR      CAL
# ...
  527.500    2.903    0.272    0.414   52.255  153.934
  527.750    2.851    0.285    0.436   48.172  153.237
  528.000    2.748    0.310    0.436   41.130  153.282
  528.250    2.650    0.360    0.417   31.740  153.387
  528.500    2.652    0.355    0.384   26.489  153.432
  528.750    2.703    0.338    0.379   26.534  153.462
  529.000    2.971    0.322    0.379   27.758  153.536
  529.250    3.327    0.296    0.363   30.751  153.581
  529.500    3.589    0.269    0.396   38.462  153.656
  529.750    3.592    0.252    0.410   53.248  153.716
  530.000    3.528    0.246    0.418   69.224  153.775
  530.250    3.465    0.296    0.417   61.604  153.820
  530.500    3.467    0.310    0.409   50.445  153.109
  530.750    3.812    0.327    0.400   35.738  153.154
  531.000    4.189    0.292    0.391   29.886  153.243
  531.250    4.271    0.252    0.393   37.596  153.288
  531.500    4.195    0.237    0.405   52.394  153.363
  531.750    3.823    0.244    0.415   60.115  153.408
  532.000    3.684    0.276    0.400   57.200  153.482
  532.250    3.486    0.310    0.392   46.042  153.527
  532.500    3.361    0.328    0.387   33.114  153.587
  532.750    3.363    0.330    0.379   27.852  153.647
  533.000    3.430    0.313    0.368   33.215  153.721
  533.250    3.497    0.302    0.387   36.197  153.781
  533.500    3.499    0.312    0.398   36.253  153.841
  533.750    3.503    0.331    0.394   33.939  153.916
  534.000    3.440    0.316    0.375   34.563  153.960
  534.250    3.444    0.299    0.364   39.325  154.005
  534.500    3.511    0.283    0.371   45.277  154.095
  534.750    3.717    0.286    0.377   48.270  153.368
  535.000    3.790    0.297    0.380   45.956  153.413
  535.250    3.721    0.316    0.396   44.232  153.473
  535.500    3.522    0.318    0.404   44.277  153.533
  535.750    3.394    0.312    0.402   43.732  152.806
  536.000    3.271    0.307    0.413   44.968  152.866
  536.250    3.154    0.316    0.408   42.643  152.926
  536.500    3.041    0.331    0.403   37.381  153.016
  536.750    2.986    0.342    0.397   31.529  153.060
  537.000    2.878    0.344    0.395   30.395  153.105
  537.250    2.827    0.346    0.394   31.630  153.180
  537.500    2.829    0.339    0.388   34.634  153.225
  537.750    2.832    0.344    0.401   37.026  153.300
  538.000    2.887    0.362    0.414   35.291  153.374
  538.250    3.000    0.363    0.427   32.977  152.633
  538.500    3.058    0.349    0.418   33.033  152.693
  538.750    3.004    0.337    0.413   37.795  151.981
  539.000    2.951    0.326    0.403   38.441  152.041
  539.250    2.898    0.325    0.375   35.526  152.101
  539.500    2.846    0.333    0.376   34.403  152.146
  539.750    2.796    0.342    0.386   36.818  152.205
  540.000    2.798    0.330    0.373   38.031  152.280
  540.250    2.853    0.314    0.364   38.064  152.355
  540.500    2.965    0.300    0.364   44.006  152.385
  540.750    3.022    0.293    0.377   52.317  151.673
  541.000    3.082    0.310    0.399   60.027  151.733
  541.250    3.084    0.332    0.415   66.558  151.793
  541.500    2.918    0.353    0.416   55.400  151.852
  541.750    2.812    0.349    0.417   44.831  151.942
  542.000    2.711    0.320    0.423   47.234  151.987
  542.250    2.925    0.298    0.428   53.765  152.032
  542.500    3.214    0.293    0.414   65.614  152.092
  542.750    3.532    0.281    0.402   70.966  152.151
  543.000    3.811    0.259    0.396   76.907  152.226
  543.250    3.887    0.289    0.386   65.159  152.301
  543.500    3.889    0.303    0.379   57.538  151.544
  543.750    3.820    0.315    0.374   48.149  151.619
  544.000    3.822    0.297    0.363   39.927  151.694
  544.250    3.972    0.261    0.364   37.024  151.724
  544.500    4.449    0.219    0.384   45.925  152.585
  544.750    4.708    0.209    0.406   61.890  152.674
  545.000    5.078    0.237    0.413   88.480  152.704
  545.250    5.277    0.247    0.406   93.254  152.779
  545.500    5.280    0.263    0.400   58.487  152.824
  545.750    5.187    0.244    0.398   63.849  152.097
  546.000    5.095    0.230    0.404   76.277  152.157
  546.250    5.004    0.260    0.396   70.425  152.217
  546.500    4.914    0.262    0.382   58.677  152.277
  546.750    4.564    0.228    0.379   66.388  152.336
  547.000    4.316    0.235    0.392   76.456  152.396
  547.250    3.861    0.271    0.411   58.812  152.471
  547.500    3.721    0.283    0.405   45.294  152.546
  547.750    3.391    0.279    0.405   37.674  152.605
  548.000    3.208    0.312    0.412   32.401  152.650
  548.250    2.923    0.344    0.422   26.560  151.939
  548.500    2.766    0.353    0.424   26.015  151.998
  548.750    2.717    0.368    0.420   26.639  152.043
  549.000    2.669    0.374    0.418   28.463  152.118
  549.250    2.671    0.364    0.429   30.288  151.406
  549.500    2.723    0.361    0.434   30.322  151.451
  549.750    2.776    0.364    0.431   29.188  151.526
  550.000    2.831    0.331    0.410   26.874  151.556
  550.250    2.997    0.290    0.396   26.329  151.631
  550.500    3.173    0.266    0.392   28.143  151.690
  550.750    3.235    0.285    0.394   27.008  151.735
  551.000    3.299    0.297    0.383   25.284  151.009
  551.250    3.302    0.287    0.380   26.508  151.113
  551.500    3.183    0.302    0.379   27.733  150.372
  551.750    3.068    0.333    0.381   26.598  150.432
  552.000    2.957    0.345    0.387   26.654  150.477
  552.250    2.746    0.333    0.397   30.237  150.536
  552.500    2.747    0.326    0.403   35.589  150.611
  552.750    2.854    0.328    0.392   33.275  151.457
  553.000    3.023    0.310    0.384   33.909  151.502
  553.250    3.201    0.307    0.376   42.209  152.378
  553.500    3.325    0.295    0.381   48.751  152.423
  553.750    3.655    0.265    0.382   54.103  152.482
  554.000    3.868    0.250    0.370   52.379  152.542
  554.250    3.395    0.278    0.399   47.707  152.602
  554.500    3.036    0.279    0.405   47.751  152.662
  554.750    2.872    0.298    0.406   36.593  152.736
  555.000    2.823    0.361    0.399   28.371  152.781
  555.250    2.771    0.354    0.390   27.838  152.856
  555.500    2.773    0.339    0.390   32.611  152.901
  555.750    2.827    0.328    0.388   34.425  152.975
  556.000    2.830    0.320    0.373   33.880  153.050
  556.250    2.886    0.318    0.368   33.324  153.080
  556.500    2.942    0.318    0.373   33.380  153.155
  556.750    3.057    0.316    0.368   33.425  153.230
  557.000    3.298    0.304    0.339   33.458  153.259
  557.250    3.557    0.278    0.336   33.503  153.334
  557.500    3.837    0.262    0.336   38.866  153.394
  557.750    4.217    0.228    0.352   45.397  153.469
  558.000    4.723    0.211    0.361   51.338  153.528
  558.250    5.094    0.222    0.367   59.049  153.588
  558.500    5.292    0.234    0.369   61.475  152.862
  558.750    5.199    0.242    0.370   61.508  152.907
  559.000    5.011    0.256    0.377   65.091  152.966
  559.250    5.014    0.257    0.385   64.546  153.041
  559.500    4.927    0.250    0.380   62.232  152.315
  559.750    4.928    0.249    0.384   62.867  152.374
  560.000    4.933    0.255    0.381   59.374  152.419
  560.250    4.936    0.268    0.376   59.441  152.479
  560.500    4.941    0.266    0.382   59.463  152.539
  560.750    4.944    0.273    0.388   57.161  152.613
  561.000    4.947    0.282    0.386   54.246  152.673
  561.250    4.952    0.284    0.380   51.343  152.733
  561.500    4.954    0.256    0.376   51.977  152.793
  561.750    5.054    0.239    0.383   56.751  153.669
  562.000    5.153    0.229    0.386   60.934  153.713
  562.250    5.254    0.222    0.387   63.916  154.559
  562.500    5.777    0.203    0.382   68.088  155.405
  562.750    6.115    0.185    0.378   74.030  156.251
  563.000    6.352    0.169    0.388   83.520  156.311
  563.250    6.723    0.175    0.367   75.900  155.570
  563.500    7.390    0.179    0.358   77.124  152.485
  563.750    7.535    0.166    0.398   82.475  152.544
