~VERSION INFORMATION
 VERS.                 2.0:   CWLS LOG ASCII STANDARD -VERSION 2.0
 WRAP.                  NO:   ONE LINE PER DEPTH STEP
~WELL INFORMATION BLOCK
#MNEM.UNIT           DATA                    DESCRIPTION OF MNEMONIC
#---------    -------------------            -------------------------------
# Generated from Intellog Unique Number	CS_67_68/WELL/850
LOC .         00/11-32-068-16W4/0            : Location     - LOCATION
UWI .         00/11-32-068-16W4/0            : Uwi          - UNIQUE WELL ID
ENTR.         SP                             : Entered      - ENTERED BY
SRVC.         SCHLUMBERGER                   : Scn          - SERVICE COMPANY
STRT.M        243.84                         : top_depth    - START DEPTH
STOP.M        487.34                         : bot_depth    - STOP DEPTH
STEP.M        0.25                           : increment    - STEP LENGTH
 NULL. -999.2500:NULL Value
~CURVE INFORMATION BLOCK
#MNEM UNIT       ERCB CURVE CODE    CURVE DESCRIPTION
#-----------   ------------------   ----------------------------------
DEPT.M        00 001 00 00         : DEPTH        - DEPTH
GR  .API      00 310 00 00         : GR           - GAMMA RAY
DPHI.V/V      00 890 00 00         : PHID         - DENSITY POROSITY (SANDSTONE)
NPHI.V/V      00 330 00 00         : PHIN         - NEUTRON POROSITY (SANDSTONE)
ILD .OHMM     00 120 00 00         : RESD         - DEEP RESISTIVITY (DIL)
~PARAMETER INFORMATION
#MNEM.UNIT           DATA             DESCRIPTION OF MNEMONIC
#---------         -----------     ------------------------------
GL  .M        558.576              : gl           - GROUND LEVEL ELEVATION
EREF.M        562.234              : kb           - ELEVATION OF DEPTH REFERENCE
DATM.M        558.576              : datum        - DATUM ELEVATION
TDD .M        494.995              : tdd          - TOTAL DEPTH DRILLER
RUN .         ONE                  : Run          - RUN NUMBER
ENG .         BILL                 : Engineer     - RECORDING ENGINEER
WIT .         JIM                  : Witness      - WITNESSED BY
MUD .         GEL                  : Mud_type     - MUD TYPE
MATR.         SANDSTONE            : Logunit      - NEUTRON MATRIX
TMAX.C        23.8889              : BHT          - MAXIMUM RECORDED TEMPERATURE
BHTD.M        494.995              : BHTDEP       - MAXIMUM RECORDED TEMPERATURE
MATR.         1                    : LOGUNIT      - NEUTRON MATRIX
RMT .C        25                   : MDTP         - TEMPERATURE OF MUD
NEUT.         1                    : NEUTRON      - NEUTRON TYPE
RESI.         0                    : RESIST       - RESISTIVITY TYPE
RMC .OHMM     0.25                 : RMC          - RESISTIVITY OF MUD CAKE
RMF .OHMM     0.25                 : RMF          - RESISTIVITY OF MUD FILTRATE
SUFT.C        15                   : SUFT         - SURFACE TEMPERATURE
~A  DEPTH       GR     PHID     PHIN     RESD
# ...
  374.340   94.537    0.271    0.461    3.223
  374.590   97.271    0.242    0.455    3.466
  374.840   99.670    0.229    0.446    3.737
  375.090  100.653    0.225    0.447    3.950
  375.340  100.218    0.217    0.440    3.983
  375.590   99.778    0.219    0.434    4.072
  375.840  100.536    0.230    0.430    4.153
  376.090  102.934    0.224    0.424    4.201
  376.340  105.329    0.213    0.422    4.260
  376.590  107.275    0.220    0.436    4.279
  376.840  105.511    0.222    0.438    4.292
  377.090  101.838    0.217    0.454    4.305
  377.340   99.446    0.208    0.473    4.310
  377.590  101.787    0.210    0.468    4.325
  377.840  103.231    0.213    0.460    4.381
  378.090  104.430    0.209    0.462    4.441
  378.340  105.669    0.207    0.460    4.465
  378.590  105.718    0.205    0.455    4.475
  378.840  105.716    0.204    0.449    4.464
  379.090  102.507    0.205    0.447    4.114
  379.340  102.442    0.210    0.458    4.120
  379.590  104.076    0.210    0.457    4.066
  379.840  104.974    0.206    0.448    4.049
  380.090  105.685    0.208    0.445    4.040
  380.340  106.335    0.212    0.459    4.038
  380.590  106.927    0.208    0.468    4.046
  380.840  105.408    0.204    0.477    4.067
  381.090  102.514    0.206    0.478    4.073
  381.340  101.931    0.208    0.480    4.065
  381.590  103.914    0.209    0.484    4.040
  381.840  106.433    0.208    0.487    4.010
  382.090  108.686    0.205    0.484    3.970
  382.340  108.532    0.200    0.477    3.940
  382.590  106.386    0.196    0.472    3.914
  382.840  105.598    0.200    0.467    3.898
  383.090  106.724    0.209    0.467    3.860
  383.340  108.602    0.208    0.470    3.826
  383.590  109.810    0.208    0.469    3.807
  383.840  110.577    0.212    0.483    3.861
  384.090  108.509    0.223    0.477    3.880
  384.340  101.536    0.216    0.470    3.758
  384.590   97.345    0.230    0.467    3.636
  384.840   93.434    0.256    0.456    3.446
  385.090   92.755    0.282    0.447    3.241
  385.340   93.137    0.303    0.449    2.921
  385.590   96.360    0.317    0.485    2.650
  385.840  101.501    0.347    0.571    2.321
  386.090  106.329    0.364    0.602    2.048
  386.340  109.761    0.379    0.588    1.820
  386.590  110.764    0.286    0.581    1.699
  386.840  110.432    0.272    0.547    1.633
  387.090  110.146    0.258    0.518    1.703
  387.340  109.923    0.229    0.494    1.929
  387.590  109.484    0.203    0.472    2.215
  387.840  109.706    0.222    0.458    2.717
  388.090  110.975    0.231    0.453    3.062
  388.340  111.935    0.226    0.444    3.140
  388.590  114.423    0.229    0.443    3.086
  388.840  113.232    0.230    0.448    3.028
  389.090  108.232    0.239    0.442    2.989
  389.340  107.350    0.253    0.437    2.961
  389.590  107.245    0.248    0.442    2.982
  389.840  106.588    0.242    0.446    3.022
  390.090  105.103    0.238    0.449    3.086
  390.340  102.263    0.239    0.462    3.133
  390.590  100.126    0.243    0.475    3.176
  390.840   98.078    0.243    0.486    3.167
  391.090   96.081    0.252    0.489    3.140
  391.340   92.412    0.236    0.476    3.057
  391.590   87.960    0.212    0.464    2.762
  391.840   83.647    0.223    0.470    2.552
  392.090   84.001    0.261    0.470    2.335
  392.340   87.798    0.283    0.458    2.163
  392.590   90.219    0.314    0.455    2.071
  392.840   91.578    0.290    0.451    2.074
  393.090   87.944    0.278    0.456    2.160
  393.340   79.807    0.269    0.466    2.261
  393.590   76.955    0.305    0.466    2.315
  393.840   73.007    0.326    0.462    2.229
  394.090   69.663    0.337    0.469    2.114
  394.340   65.458    0.339    0.474    2.018
  394.590   62.750    0.332    0.478    1.954
  394.840   60.894    0.335    0.470    1.946
  395.090   59.487    0.291    0.431    1.999
  395.340   57.232    0.246    0.369    2.088
  395.590   55.533    0.187    0.271    2.268
  395.840   53.427    0.135    0.227    2.692
  396.090   51.884    0.151    0.345    3.155
  396.340   50.827    0.229    0.383    3.724
  396.590   53.339    0.261    0.417    4.202
  396.840   57.463    0.325    0.436    4.459
  397.090   59.068    0.331    0.433    3.853
  397.340   60.235    0.337    0.439    2.927
  397.590   61.523    0.336    0.447    2.422
  397.840   63.375    0.330    0.445    2.136
  398.090   65.568    0.323    0.439    1.933
  398.340   67.529    0.327    0.437    1.790
  398.590   69.280    0.326    0.428    1.688
  398.840   70.540    0.311    0.423    1.729
  399.090   70.063    0.319    0.437    1.773
  399.340   67.284    0.330    0.447    1.814
  399.590   66.623    0.317    0.460    1.854
  399.840   68.040    0.308    0.461    1.910
  400.090   68.322    0.299    0.453    1.969
  400.340   68.997    0.292    0.442    2.032
  400.590   70.431    0.288    0.435    2.087
  400.840   71.991    0.285    0.433    2.164
  401.090   71.424    0.310    0.444    2.211
  401.340   70.586    0.326    0.455    2.268
  401.590   70.826    0.328    0.448    2.299
  401.840   71.931    0.330    0.447    2.323
  402.090   73.069    0.315    0.439    2.342
  402.340   70.298    0.320    0.430    2.366
  402.590   69.276    0.331    0.428    2.389
  402.840   70.194    0.327    0.436    2.395
  403.090   71.014    0.327    0.443    2.414
  403.340   70.414    0.329    0.438    2.405
  403.590   68.729    0.334    0.433    2.386
  403.840   68.643    0.336    0.424    2.367
  404.090   70.163    0.330    0.442    2.353
  404.340   71.646    0.319    0.449    2.334
  404.590   73.308    0.314    0.450    2.310
  404.840   74.889    0.300    0.448    2.276
  405.090   76.376    0.302    0.440    2.221
  405.340   77.115    0.313    0.433    2.146
  405.590   78.686    0.324    0.440    2.082
  405.840   84.459    0.309    0.432    2.053
  406.090   90.526    0.265    0.424    2.107
  406.340   94.654    0.233    0.416    2.249
  406.590   97.321    0.221    0.414    2.419
  406.840   98.191    0.221    0.415    2.650
  407.090   99.005    0.219    0.422    2.919
  407.340  101.187    0.209    0.430    3.153
  407.590  102.774    0.196    0.422    3.319
  407.840  103.814    0.189    0.422    3.412
  408.090  103.410    0.194    0.429    3.431
  408.340  106.451    0.208    0.434    3.385
  408.590  105.289    0.212    0.440    3.335
  408.840  102.510    0.201    0.447    3.321
  409.090  100.945    0.197    0.456    3.378
  409.340  102.983    0.198    0.466    3.478
  409.590  105.813    0.213    0.474    3.614
  409.840  108.492    0.225    0.479    3.724
  410.090  110.512    0.227    0.471    3.835
  410.340  107.828    0.236    0.460    3.699
  410.590  107.480    0.249    0.466    3.131
  410.840  111.179    0.234    0.493    2.938
  411.090  115.944    0.234    0.513    2.801
  411.340  119.998    0.273    0.533    2.697
  411.590  119.004    0.263    0.537    2.629
  411.840  118.976    0.259    0.532    2.595
  412.090  119.001    0.273    0.528    2.578
  412.340  118.300    0.256    0.525    2.581
  412.590  116.542    0.240    0.520    2.590
  412.840  113.449    0.242    0.529    2.619
  413.090  112.408    0.257    0.539    2.621
  413.340  112.625    0.267    0.548    2.565
  413.590  113.569    0.267    0.549    2.446
  413.840  114.907    0.260    0.538    2.303
  414.090  116.023    0.250    0.526    2.256
  414.340  114.719    0.237    0.521    2.204
  414.590  113.754    0.224    0.507    2.179
  414.840  113.494    0.210    0.485    2.197
  415.090  113.790    0.199    0.466    2.238
  415.340  112.346    0.213    0.458    2.314
  415.590  111.280    0.224    0.475    2.426
  415.840  112.118    0.215    0.483    2.519
  416.090  112.010    0.233    0.492    2.631
  416.340  109.754    0.235    0.482    2.701
  416.590  101.415    0.224    0.467    2.755
  416.840   93.841    0.227    0.457    2.778
  417.090   88.509    0.242    0.462    2.852
  417.340   87.526    0.250    0.464    2.958
  417.590   87.634    0.267    0.454    3.126
