~VERSION INFORMATION
 VERS.                 2.0:   CWLS LOG ASCII STANDARD -VERSION 2.0
 WRAP.                  NO:   ONE LINE PER DEPTH STEP
~WELL INFORMATION BLOCK
#MNEM.UNIT           DATA                    DESCRIPTION OF MNEMONIC
#---------    -------------------            -------------------------------
# Generated from Intellog Unique Number	CW_76_78/WELL/903
WELL.         AMOCO ROCK  10-23              : Well_name    - WELL
LOC .         00/10-23-077-23W4/0            : Location     - LOCATION
UWI .         00/10-23-077-23W4/0            : Uwi          - UNIQUE WELL ID
ENTR.         jj                             : Entered      - ENTERED BY
SRVC.         WESTERN ATLAS                  : Scn          - SERVICE COMPANY
DATE.         17 MARCH 78                    : Date         - LOG DATE
STRT.M        332.232                        : top_depth    - START DEPTH
STOP.M        575.982                        : bot_depth    - STOP DEPTH
STEP.M        0.25                           : increment    - STEP LENGTH
 NULL. -999.2500:NULL Value
~CURVE INFORMATION BLOCK
#MNEM UNIT       ERCB CURVE CODE    CURVE DESCRIPTION
#-----------   ------------------   ----------------------------------
DEPT.M        00 001 00 00         : DEPTH        - DEPTH
ILD .OHMM     00 120 00 00         : RESD         - DEEP RESISTIVITY (DIL)
DPHI.V/V      00 890 00 00         : PHID         - DENSITY POROSITY (SANDSTONE)
NPHI.V/V      00 330 00 00         : PHIN         - NEUTRON POROSITY (SANDSTONE)
GR  .API      00 310 00 00         : GR           - GAMMA RAY
CALI.MM       00 280 01 00         : CAL          - CALIPER
~PARAMETER INFORMATION
#MNEM.UNIT           DATA             DESCRIPTION OF MNEMONIC
#---------         -----------     ------------------------------
GL  .M        654.101              : gl           - GROUND LEVEL ELEVATION
EREF.M        658.063              : kb           - ELEVATION OF DEPTH REFERENCE
DATM.M        654.101              : datum        - DATUM ELEVATION
TDD .M        577.291              : tdd          - TOTAL DEPTH DRILLER
RUN .         ONE                  : Run          - RUN NUMBER
ENG .         BURLET               : Engineer     - RECORDING ENGINEER
WIT .         DAHLSTEDT/REGAN      : Witness      - WITNESSED BY
BASE.         EDMONTON             : Branch       - HOME BASE OF LOGGING UNIT
MUD .         GEL BENDEX           : Mud_type     - MUD TYPE
MATR.         SANDSTONE            : Logunit      - NEUTRON MATRIX
TMAX.C        26.1111              : BHT          - MAXIMUM RECORDED TEMPERATURE
BHTD.M        575.767              : BHTDEP       - MAXIMUM RECORDED TEMPERATURE
RMT .C        21.1111              : MDTP         - TEMPERATURE OF MUD
MUDD.KG/M     1140                 : MWT          - MUD DENSITY
NEUT.         1                    : NEUTRON      - NEUTRON TYPE
RESI.         0                    : RESIST       - RESISTIVITY TYPE
RM  .OHMM     2.13                 : RM           - RESISTIVITY OF MUD
RMC .OHMM     2.9                  : RMC          - RESISTIVITY OF MUD CAKE
RMF .OHMM     2.2                  : RMF          - RESISTIVITY OF MUD FILTRATE
SUFT.C        4.5                  : SUFT         - SURFACE TEMPERATURE
~A  DEPTH     RESD     PHID     PHIN       GR      CAL
# ...
  551.232    9.548    0.295    0.415   66.358  224.454
  551.482    8.414    0.285    0.393   71.098  224.176
  551.732    7.555    0.283    0.403   83.560  223.906
  551.982    7.324    0.282    0.399   91.566  223.847
  552.232    7.400    0.282    0.392   95.802  223.891
  552.482    7.776    0.283    0.383   93.692  223.828
  552.732    8.907    0.296    0.372   86.311  224.095
  552.982   10.164    0.311    0.377   77.736  224.151
  553.232   10.842    0.311    0.377   68.156  224.294
  553.482   10.770    0.305    0.354   61.650  224.026
  553.732    9.350    0.294    0.359   51.317  223.975
  553.982    7.922    0.279    0.379   59.001  224.124
  554.232    6.737    0.253    0.400   66.822  224.059
  554.482    5.730    0.196    0.396   78.658  223.584
  554.732    5.301    0.195    0.424   87.483  223.210
  554.982    5.266    0.222    0.418  100.259  223.047
  555.232    5.789    0.274    0.407   97.839  222.983
  555.482    6.495    0.327    0.423   91.523  222.826
  555.732    7.369    0.350    0.402   73.652  222.444
  555.982    8.102    0.294    0.370   61.432  221.747
  556.232    8.168    0.295    0.342   60.141  221.259
  556.482    7.672    0.305    0.359   60.602  220.892
  556.732    7.273    0.295    0.372   62.709  220.833
  556.982    6.933    0.288    0.371   67.070  220.668
  557.232    6.610    0.293    0.364   73.253  220.499
  557.482    6.325    0.302    0.362   79.188  220.433
  557.732    6.099    0.314    0.383   85.998  220.271
  557.982    5.946    0.339    0.409   86.909  220.222
  558.232    5.830    0.365    0.425   98.744  220.256
  558.482    5.759    0.196    0.379   97.640  220.531
  558.732    5.743    0.203    0.367   86.489  221.098
  558.982    5.856    0.237    0.373   75.211  221.470
  559.232    6.120    0.259    0.360   63.685  221.416
  559.482    6.726    0.284    0.348   49.579  221.359
  559.732    6.861    0.297    0.360   55.322  220.872
  559.982    6.790    0.305    0.374   53.273  220.497
  560.232    6.657    0.313    0.383   49.097  220.017
  560.482    6.394    0.314    0.377   47.431  219.638
  560.732    6.028    0.306    0.358   52.735  219.261
  560.982    5.661    0.310    0.358   58.418  219.087
  561.232    5.337    0.275    0.344   61.458  219.233
  561.482    5.059    0.244    0.334   67.144  219.719
  561.732    4.769    0.221    0.340   67.230  220.410
  561.982    4.530    0.190    0.349   66.822  221.187
  562.232    4.342    0.185    0.341   73.822  221.880
  562.482    4.218    0.191    0.345   85.032  222.250
  562.732    4.175    0.193    0.393   96.742  222.506
  562.982    4.258    0.162    0.384   99.028  222.032
  563.232    4.750    0.144    0.375   92.401  220.477
  563.482    5.360    0.144    0.351   52.673  218.936
  563.732    6.151    0.161    0.324   26.824  216.005
  563.982    7.205    0.183    0.297   27.227  213.717
  564.232    7.743    0.259    0.310   30.581  211.531
  564.482    7.111    0.281    0.315   26.527  210.188
  564.732    5.600    0.287    0.325   22.033  209.491
  564.982    4.835    0.292    0.333   23.130  209.011
  565.232    4.317    0.300    0.335   28.056  208.637
  565.482    4.024    0.305    0.337   34.369  208.257
  565.732    3.801    0.297    0.338   41.432  208.191
  565.982    3.650    0.275    0.335   49.058  208.567
  566.232    3.506    0.243    0.332   58.575  209.039
  566.482    3.312    0.218    0.335   55.149  209.193
  566.732    3.128    0.236    0.339   52.098  209.134
  566.982    2.932    0.288    0.333   51.999  209.401
  567.232    2.667    0.303    0.336   44.366  209.662
  567.482    2.528    0.301    0.349   34.470  209.496
  567.732    2.433    0.302    0.329   29.601  209.224
  567.982    2.381    0.305    0.332   30.123  208.740
  568.232    2.379    0.304    0.351   28.023  208.679
  568.482    2.421    0.302    0.356   25.090  208.942
  568.732    2.578    0.299    0.352   26.695  208.987
  568.982    2.839    0.293    0.344   26.851  208.508
  569.232    3.132    0.279    0.345   28.640  208.025
  569.482    3.663    0.242    0.351   30.550  207.432
  569.732    4.210    0.196    0.356   28.757  206.412
  569.982    5.247    0.181    0.357   28.913  205.186
  570.232    6.550    0.189    0.355   30.511  203.323
  570.482    7.160    0.209    0.353   29.472  200.180
  570.732    6.699    0.280    0.350   30.067  195.549
  570.982    5.959    0.309    0.346   30.596  188.258
  571.232    5.106    0.334    0.347   29.745  180.434
  571.482    4.662    0.399    0.350   30.902  173.779
  571.732    4.210    0.414    0.355   30.934  171.381
  571.982    4.036    0.366    0.365   29.830  170.368
  572.232    3.935    0.337    0.373   29.543  169.775
  572.482    3.909    0.326    0.357   29.761  169.613
  572.732    3.935    0.340    0.352   28.654  169.130
  572.982    3.984    0.351    0.365   28.878  167.477
  573.232    4.009    0.353    0.370   30.663  164.970
  573.482    4.027    0.353    0.370   28.239  163.741
  573.732    4.031    0.356    0.369   29.462  163.153
  573.982    4.050    0.358    0.369   30.494  162.879
  574.232    4.054    0.348    0.372   29.205  162.400
  574.482    4.066    0.331    0.375   28.354  162.010
  574.732    4.069    0.336    0.377   30.016  161.751
  574.982    4.081    0.343    0.379   37.393  161.905
  575.232    4.107    0.342    0.375   33.589  162.270
  575.482    4.111    0.339    0.371   31.044  162.528
  575.732    4.099    0.328    0.363   31.073  162.898
  575.982    4.088    0.339    0.363   31.413  163.155
