~VERSION INFORMATION
 VERS.                 2.0:   CWLS LOG ASCII STANDARD -VERSION 2.0
 WRAP.                  NO:   ONE LINE PER DEPTH STEP
~WELL INFORMATION BLOCK
#MNEM.UNIT           DATA                    DESCRIPTION OF MNEMONIC
#---------    -------------------            -------------------------------
# Generated from Intellog Unique Number	CW_76_78/WELL/2585
NULL.         -999.25                        : NULL_VALUE
WELL.         SOBC ET AL SANDY LAKE          : Well_name    - WELL              
LOC .         11-36-078-22W4                 : Location     - LOCATION          
UWI .         00/11-36-078-22W4/0            : Uwi          - UNIQUE WELL ID    
ENTR.         MAX                            : Entered      - ENTERED BY        
SRVC.         SCHLUMBERGER                   : Scn          - SERVICE COMPANY   
DATE.         02 MAR 74                      : Date         - LOG DATE
STRT.M        213.36                         : top_depth    - START DEPTH       
STOP.M        429.86                         : bot_depth    - STOP DEPTH        
STEP.M        0.25                           : increment    - STEP LENGTH       
~CURVE INFORMATION BLOCK
#MNEM UNIT       ERCB CURVE CODE    CURVE DESCRIPTION
#-----------   ------------------   ----------------------------------
DEPT.M        00 001 00 00         : DEPTH        - DEPTH                       
ILD .OHMM     00 120 00 00         : RESD         - DEEP RESISTIVITY (DIL)      
NPHI.V/V      00 330 00 00         : PHIN         - NEUTRON POROSITY (SANDSTONE)
DPHI.V/V      00 890 00 00         : PHID         - DENSITY POROSITY (SANDSTONE)
CALI.MM       00 280 01 00         : CAL          - CALIPER                     
GR  .API      00 310 00 00         : GR           - GAMMA RAY                   
~PARAMETER INFORMATION       
#MNEM.UNIT           DATA             DESCRIPTION OF MNEMONIC
#---------         -----------     ------------------------------
GL  .M        562.966              : gl           - GROUND LEVEL ELEVATION      
EREF.M        565.404              : kb           - ELEVATION OF DEPTH REFERENCE
DATM.M        562.966              : datum        - DATUM ELEVATION             
TDD .M        434.34               : tdd          - TOTAL DEPTH DRILLER         
RUN .         ONE                  : Run          - RUN NUMBER                  
ENG .         BILL                 : Engineer     - RECORDING ENGINEER          
WIT .         JIM                  : Witness      - WITNESSED BY                
MUD .         GEL                  : Mud_type     - MUD TYPE                    
MATR.         SANDSTONE            : Logunit      - NEUTRON MATRIX              
TMAX.C        75                   : BHT          - MAXIMUM RECORDED TEMPERATURE
BHTD.M        434.34               : BHTDEP       - MAXIMUM RECORDED TEMPERATURE
RMT .C        14.4444              : MDTP         - TEMPERATURE OF MUD          
MUDD.KG/M     9200                 : MWT          - MUD DENSITY                 
NEUT.         1                    : NEUTRON      - NEUTRON TYPE                
RESI.         0                    : RESIST       - RESISTIVITY TYPE            
RM  .OHMM     7                    : RM           - RESISTIVITY OF MUD          
RMC .OHMM     0                    : RMC          - RESISTIVITY OF MUD CAKE     
RMF .OHMM     8.51                 : RMF          - RESISTIVITY OF MUD FILTRATE 
SUFT.C        -20.5556             : SUFT         - SURFACE TEMPERATURE         
~A  DEPTH     RESD     PHIN     PHID      CAL       GR
# ...
  322.860    8.238    0.505    0.229  201.586   87.418
  323.110    8.238    0.499    0.233  201.503   85.600
  323.360    8.073    0.495    0.240  200.930   81.722
  323.610    7.924    0.524    0.235  200.866   80.494
  323.860    7.911    0.521    0.235  200.293   81.635
  324.110    7.910    0.512    0.230  199.701   84.541
  324.360    7.972    0.495    0.232  199.637   82.433
  324.610    8.038    0.509    0.219  199.563   80.320
  324.860    8.104    0.514    0.216  199.989   81.751
  325.110    8.317    0.541    0.221  199.897   81.997
  325.360    8.851    0.528    0.217  199.823   81.653
  325.610    9.419    0.497    0.225  199.759   81.320
  325.860   10.298    0.485    0.232  199.658   82.746
  326.110   11.259    0.472    0.241  199.602   82.407
  326.360   12.532    0.452    0.254  198.511   79.704
  326.610   13.701    0.442    0.245  197.957   80.545
  326.860   15.115    0.450    0.230  196.857   78.148
  327.110   18.246    0.434    0.189  196.801   71.610
  327.360   19.946    0.409    0.112  196.673   66.547
  327.610   20.849    0.273    0.056  196.654   64.429
  327.860   20.091    0.247    0.027  196.562   65.576
  328.110   17.694    0.305    0.076  196.979   77.330
  328.360   14.498    0.365    0.168  197.404   80.820
  328.610   13.974    0.398    0.195  198.339   81.667
  328.860   13.345    0.432    0.209  198.755   83.688
  329.110   12.976    0.460    0.210  199.681   83.934
  329.360   12.619    0.483    0.209  199.616   82.415
  329.610   12.383    0.468    0.210  200.042   77.948
  329.860   12.261    0.449    0.211  200.949   79.674
  330.110   12.248    0.445    0.220  200.866   86.119
  330.360   12.350    0.456    0.219  200.792   87.545
  330.610   12.675    0.504    0.210  201.227   88.676
  330.860   13.009    0.532    0.202  201.154   88.337
  331.110   13.115    0.514    0.199  201.154   85.929
  331.360   13.343    0.493    0.192  200.969   83.531
  331.610   12.857    0.457    0.189  200.933   81.718
  331.860   11.951    0.451    0.210  200.831   84.034
  332.110   11.109    0.488    0.209  200.776   86.339
  332.360   10.708    0.495    0.208  200.185   85.411
  332.610   10.413    0.507    0.210  199.621   86.247
  332.860   10.404    0.509    0.198  199.038   87.394
  333.110   10.393    0.483    0.215  198.465   88.530
  333.360   10.393    0.457    0.222  198.891   86.111
  333.610   10.465    0.488    0.217  198.808   84.593
  333.860   10.650    0.513    0.210  199.234   83.965
  334.110   11.028    0.517    0.203  199.234   82.447
  334.360   11.118    0.492    0.199  199.568   80.918
  334.610   11.109    0.486    0.211  200.511   82.655
  334.860   10.900    0.503    0.225  201.427   86.150
  335.110   10.693    0.509    0.227  201.862   86.697
  335.360   10.589    0.504    0.223  201.780   86.342
  335.610   10.580    0.515    0.235  201.197   86.599
  335.860   10.382    0.531    0.237  201.133   88.030
  336.110   10.272    0.517    0.224  201.041   89.166
  336.360   10.087    0.510    0.216  200.976   88.233
  336.610    9.460    0.536    0.213  200.884   86.419
  336.860    8.794    0.512    0.220  201.319   88.441
  337.110    8.176    0.483    0.215  201.754   89.877
  337.360    7.329    0.520    0.200  202.171   90.118
  337.610    7.065    0.539    0.217  202.088   90.669
  337.860    7.059    0.556    0.236  202.023   92.691
  338.110    8.596    0.540    0.242  201.950   97.656
  338.360    9.066    0.529    0.232  201.368   94.078
  338.610   11.450    0.506    0.229  200.785   86.066
  338.860   11.967    0.434    0.213  199.713   83.368
  339.110   13.201    0.410    0.186  199.140   75.061
  339.360   14.431    0.454    0.185  198.557   72.942
  339.610   15.359    0.487    0.211  197.975   72.598
  339.860   16.790    0.490    0.218  196.903   70.496
  340.110   18.354    0.459    0.172  196.847   66.028
  340.360   19.886    0.331    0.130  196.847   62.446
  340.610   20.598    0.286    0.052  196.192   56.493
  340.860   19.851    0.250    0.078  196.118   59.994
  341.110   18.124    0.296    0.132  196.026   65.844
  341.360   16.400    0.331    0.188  195.952   72.884
  341.610   14.705    0.471    0.218  195.879   79.624
  341.860   14.705    0.468    0.241  195.814   83.999
  342.110   13.525    0.490    0.234  195.232   84.250
  342.360   13.279    0.503    0.241  195.158   84.207
  342.610   13.030    0.509    0.231  195.085   84.453
  342.860   12.902    0.498    0.230  195.002   85.600
  343.110   12.889    0.510    0.229  194.410   86.430
  343.360   12.878    0.514    0.223  194.355   86.092
  343.610   12.983    0.500    0.221  194.355   86.043
  343.860   13.089    0.489    0.218  194.208   85.410
  344.110   13.194    0.491    0.223  194.624   85.962
  344.360   13.182    0.475    0.220  195.050   85.623
  344.610   13.289    0.460    0.212  195.476   85.874
  344.860   13.277    0.472    0.212  196.392   86.415
  345.110   13.266    0.479    0.213  197.816   89.316
  345.360   13.133    0.489    0.220  199.223   89.272
  345.610   12.888    0.521    0.219  199.648   90.403
  345.860   12.760    0.520    0.219  199.593   90.960
  346.110   12.634    0.503    0.214  199.002   88.252
  346.360   12.634    0.511    0.211  198.419   87.329
  346.610   12.604    0.508    0.212  197.846   87.569
  346.860   12.600    0.502    0.212  197.273   85.751
  347.110   12.586    0.500    0.232  197.209   86.008
  347.360   12.690    0.512    0.237  197.126   88.329
  347.610   12.678    0.512    0.230  197.552   90.350
  347.860   12.663    0.497    0.228  197.987   87.636
  348.110   12.653    0.473    0.231  198.403   87.308
  348.360   12.642    0.476    0.232  199.328   88.740
  348.610   12.630    0.467    0.233  200.244   86.921
  348.860   12.619    0.485    0.228  200.679   87.162
  349.110   12.495    0.506    0.227  200.597   87.118
  349.360   12.484    0.481    0.221  200.514   86.790
  349.610   12.584    0.471    0.216  200.449   85.857
  349.860   12.687    0.485    0.219  200.376   84.333
  350.110   12.790    0.476    0.225  200.792   85.475
  350.360   12.777    0.470    0.226  199.711   90.145
  350.610   12.876    0.484    0.215  200.192   89.976
  350.860   12.869    0.479    0.216  200.135   89.648
  351.110   12.861    0.486    0.213  200.574   89.617
  351.360   12.738    0.501    0.209  200.536   89.594
  351.610   12.731    0.520    0.211  200.472   90.439
  351.860   12.731    0.506    0.216  200.414   92.176
  352.110   12.719    0.492    0.210  200.866   92.440
  352.360   12.597    0.473    0.219  201.300   90.939
  352.610   12.586    0.458    0.220  201.261   90.019
  352.860   12.471    0.456    0.216  201.203   91.169
  353.110   12.241    0.471    0.203  200.654   90.252
  353.360   12.014    0.466    0.205  200.654   89.046
  353.610   11.901    0.463    0.208  200.525   88.424
  353.860   11.786    0.464    0.210  199.498   88.393
  354.110   11.781    0.468    0.210  198.948   88.363
  354.360   11.774    0.486    0.210  198.890   91.273
  354.610   11.876    0.471    0.211  198.839   91.235
  354.860   12.194    0.457    0.206  198.787   90.330
  355.110   12.636    0.450    0.199  199.725   92.354
  355.360   12.976    0.443    0.198  200.172   94.966
  355.610   12.851    0.420    0.214  200.120   92.881
  355.860   12.390    0.431    0.210  200.075   91.079
  356.110   11.416    0.451    0.199  200.515   91.934
  356.360   10.239    0.448    0.191  201.453   94.550
  356.610    9.607    0.451    0.206  202.404   95.696
  356.860    9.512    0.456    0.210  204.835   95.371
  357.110    9.423    0.458    0.216  209.251   94.749
  357.360    9.591    0.460    0.218  207.713   93.249
  357.610   10.029    0.462    0.214  204.183   91.153
  357.860   10.486    0.458    0.206  201.138   91.424
  358.110   10.865    0.454    0.196  200.588   94.032
  358.360   11.057    0.463    0.203  201.035   93.711
  358.610   11.458    0.485    0.206  200.983   90.737
  358.860   12.534    0.458    0.192  200.919   86.293
  359.110   14.216    0.440    0.175  200.369   80.680
