~VERSION INFORMATION
 VERS.                 2.0:   CWLS LOG ASCII STANDARD -VERSION 2.0
 WRAP.                  NO:   ONE LINE PER DEPTH STEP
~WELL INFORMATION BLOCK
#MNEM.UNIT           DATA                    DESCRIPTION OF MNEMONIC
#---------    -------------------            -------------------------------
# Generated from Intellog Unique Number	CW_79_81/WELL/2490
WELL.         13-31-080-23W4                 : Well_name    - WELL
LOC .         00/13-31-080-23W4/0            : Location     - LOCATION
UWI .         00/13-31-080-23W4/0            : Uwi          - UNIQUE WELL ID
ENTR.         MAX                            : Entered      - ENTERED BY
SRVC.         SCHLUMBERGER                   : Scn          - SERVICE COMPANY
STRT.M        250                            : top_depth    - START DEPTH
STOP.M        479.75                         : bot_depth    - STOP DEPTH
STEP.M        0.25                           : increment    - STEP LENGTH
 NULL. -999.2500:NULL Value
~CURVE INFORMATION BLOCK
#MNEM UNIT       ERCB CURVE CODE    CURVE DESCRIPTION
#-----------   ------------------   ----------------------------------
DEPT.M        00 001 00 00         : DEPTH        - DEPTH
ILD .OHMM     00 120 00 00         : RESD         - DEEP RESISTIVITY (DIL)
NPHI.V/V      00 330 00 00         : PHIN         - NEUTRON POROSITY (SANDSTONE)
DPHI.V/V      00 890 00 00         : PHID         - DENSITY POROSITY (SANDSTONE)
GR  .API      00 310 00 00         : GR           - GAMMA RAY
CALI.MM       00 280 01 00         : CAL          - CALIPER
~PARAMETER INFORMATION
#MNEM.UNIT           DATA             DESCRIPTION OF MNEMONIC
#---------         -----------     ------------------------------
GL  .M        599.82               : gl           - GROUND LEVEL ELEVATION
EREF.M        604.05               : kb           - ELEVATION OF DEPTH REFERENCE
DATM.M        599.82               : datum        - DATUM ELEVATION
TDD .M        482                  : tdd          - TOTAL DEPTH DRILLER
RUN .         ONE                  : Run          - RUN NUMBER
ENG .         BILL                 : Engineer     - RECORDING ENGINEER
WIT .         JIM                  : Witness      - WITNESSED BY
MUD .         GEL                  : Mud_type     - MUD TYPE
MATR.         SANDSTONE            : Logunit      - NEUTRON MATRIX
TMAX.C        29                   : BHT          - MAXIMUM RECORDED TEMPERATURE
BHTD.M        482                  : BHTDEP       - MAXIMUM RECORDED TEMPERATURE
MATR.         1                    : LOGUNIT      - NEUTRON MATRIX
RMT .C        15                   : MDTP         - TEMPERATURE OF MUD
NEUT.         1                    : NEUTRON      - NEUTRON TYPE
RESI.         0                    : RESIST       - RESISTIVITY TYPE
RMC .OHMM     6.9                  : RMC          - RESISTIVITY OF MUD CAKE
RMF .OHMM     6.67                 : RMF          - RESISTIVITY OF MUD FILTRATE
SUFT.C        -20                  : SUFT         - SURFACE TEMPERATURE
~A  DEPTH     RESD     PHIN     PHID       GR      CAL
# ...
  432.500   10.584    0.406    0.153  103.412  213.292
  432.750   10.540    0.403    0.152  111.719  213.807
  433.000   10.234    0.407    0.175  113.990  215.950
  433.250   10.326    0.418    0.187  111.442  215.643
  433.500   11.293    0.443    0.195  106.234  213.858
  433.750   13.532    0.452    0.181  100.253  211.380
  434.000   17.142    0.422    0.142   93.737  209.193
  434.250   19.488    0.336    0.092   85.382  208.667
  434.500   20.131    0.356    0.114   85.929  209.587
  434.750   18.995    0.389    0.155   89.763  209.665
  435.000   17.721    0.408    0.177   94.839  209.455
  435.250   16.737    0.418    0.186   97.728  209.546
  435.500   16.278    0.421    0.187   96.597  209.635
  435.750   16.730    0.418    0.187   88.459  208.298
  436.000   17.693    0.407    0.207   74.718  207.176
  436.250   19.927    0.405    0.230   62.468  206.072
  436.500   22.094    0.409    0.247   53.593  205.887
  436.750   26.147    0.412    0.262   45.841  205.773
  437.000   33.011    0.406    0.275   38.797  205.628
  437.250   36.394    0.376    0.283   33.840  206.118
  437.500   34.817    0.363    0.280   33.649  206.209
  437.750   32.350    0.358    0.279   34.646  206.296
  438.000   29.553    0.352    0.281   36.180  206.383
  438.250   26.770    0.355    0.274   37.411  206.469
  438.500   24.331    0.369    0.262   37.869  206.556
  438.750   22.056    0.380    0.260   37.658  206.585
  439.000   20.159    0.378    0.271   38.702  206.292
  439.250   19.158    0.387    0.277   40.168  206.336
  439.500   17.906    0.397    0.282   42.169  206.418
  439.750   16.977    0.402    0.283   44.821  206.505
  440.000   16.447    0.402    0.278   48.478  206.588
  440.250   16.117    0.399    0.270   54.481  206.617
  440.500   16.140    0.417    0.279   58.229  206.289
  440.750   16.166    0.424    0.290   60.655  206.367
  441.000   16.104    0.415    0.279   62.716  206.458
  441.250   15.951    0.415    0.264   64.656  206.352
  441.500   15.857    0.418    0.252   66.421  206.142
  441.750   16.219    0.380    0.232   67.859  206.320
  442.000   16.759    0.352    0.214   68.904  206.821
  442.250   16.659    0.326    0.191   71.556  207.687
  442.500   16.192    0.328    0.173   74.382  208.560
  442.750   15.626    0.350    0.174   75.732  208.997
  443.000   15.226    0.380    0.191   74.837  208.947
  443.250   15.416    0.394    0.200   70.935  208.674
  443.500   16.303    0.381    0.201   66.557  208.327
  443.750   16.450    0.377    0.200   66.131  207.635
  444.000   16.505    0.369    0.187   67.482  207.521
  444.250   16.528    0.367    0.190   69.901  207.599
  444.500   16.792    0.377    0.214   71.314  207.484
  444.750   18.178    0.408    0.242   66.914  206.726
  445.000   19.992    0.439    0.279   60.074  206.397
  445.250   22.502    0.438    0.283   54.222  206.090
  445.500   25.220    0.423    0.281   52.789  206.374
  445.750   27.944    0.411    0.278   53.664  206.851
  446.000   30.453    0.411    0.278   55.666  207.329
  446.250   32.429    0.429    0.280   59.306  207.846
  446.500   31.493    0.438    0.277   63.059  207.936
  446.750   28.832    0.435    0.248   67.124  208.400
  447.000   24.450    0.409    0.179   74.563  208.883
  447.250   20.939    0.389    0.141   87.623  209.561
  447.500   17.341    0.392    0.151  100.802  210.427
  447.750   12.685    0.430    0.169   97.219  211.149
  448.000   12.133    0.427    0.176   79.040  210.428
  448.250   12.250    0.424    0.201   60.408  208.939
  448.500   12.560    0.421    0.235   49.223  207.739
  448.750   13.278    0.416    0.267   45.017  207.235
  449.000   14.533    0.409    0.290   46.073  207.322
  449.250   16.919    0.402    0.298   50.426  207.402
  449.500   20.964    0.410    0.298   55.411  207.502
  449.750   23.088    0.407    0.292   56.887  207.186
  450.000   25.450    0.408    0.286   57.823  206.883
  450.250   26.500    0.404    0.278   58.697  206.572
  450.500   25.660    0.397    0.268   59.927  206.350
  450.750   23.836    0.393    0.260   62.374  206.457
  451.000   22.800    0.389    0.254   64.891  206.557
  451.250   22.329    0.394    0.245   65.179  206.652
  451.500   21.999    0.396    0.243   66.358  206.729
  451.750   21.799    0.393    0.241   68.422  207.004
  452.000   21.596    0.386    0.235   70.958  207.386
  452.250   21.148    0.378    0.226   73.055  207.489
  452.500   21.175    0.374    0.222   72.617  207.571
  452.750   21.841    0.366    0.202   71.708  207.658
  453.000   22.901    0.349    0.175   70.279  208.040
  453.250   24.243    0.328    0.120   67.846  208.521
  453.500   26.075    0.295    0.057   64.823  209.002
  453.750   28.582    0.231    0.053   63.067  209.499
  454.000   25.727    0.269    0.090   65.825  209.581
  454.250   19.573    0.298    0.114   74.859  209.676
  454.500   15.795    0.331    0.117   84.608  210.048
  454.750   12.113    0.378    0.126   92.709  210.323
  455.000    9.216    0.433    0.150   96.907  210.414
  455.250    7.385    0.463    0.176   94.673  210.537
  455.500    6.904    0.439    0.191   92.752  210.627
  455.750    6.562    0.432    0.193   95.641  210.688
  456.000    5.888    0.451    0.199   97.998  210.775
  456.250    5.491    0.478    0.196   97.456  210.862
  456.500    5.515    0.490    0.180   94.551  210.947
  456.750    6.125    0.444    0.156   94.746  211.064
  457.000    6.843    0.403    0.144  104.891  211.127
  457.250    7.269    0.430    0.173  107.307  211.214
  457.500    7.563    0.447    0.190  100.327  211.307
  457.750    7.887    0.449    0.199   92.100  211.206
  458.000    8.442    0.436    0.204   85.703  211.000
  458.250    9.916    0.422    0.215   79.145  211.007
  458.500   12.384    0.461    0.239   79.194  210.696
  458.750   17.170    0.510    0.251   78.537  210.774
  459.000   21.283    0.513    0.292   75.926  210.557
  459.250   25.150    0.483    0.315   74.205  210.246
  459.500   29.168    0.448    0.306   74.082  210.035
  459.750   28.474    0.449    0.288   74.485  210.051
  460.000   22.416    0.426    0.279   76.263  209.740
  460.250   16.395    0.412    0.280   86.490  209.425
  460.500   14.118    0.460    0.285   92.806  208.826
  460.750   12.650    0.523    0.300   94.631  208.322
  461.000   11.177    0.578    0.341   92.321  208.011
  461.250    9.148    0.624    0.429   87.420  207.727
  461.500    7.584    0.625    0.418   88.711  207.799
  461.750    6.633    0.613    0.390   94.194  207.886
  462.000    6.050    0.600    0.334  102.527  207.967
  462.250    5.717    0.577    0.289  105.652  208.049
  462.500    5.559    0.557    0.273  102.978  208.136
  462.750    5.502    0.582    0.280  101.288  208.243
  463.000    5.384    0.583    0.275  100.850  208.343
  463.250    5.042    0.567    0.261  108.702  208.412
  463.500    4.804    0.553    0.252  113.719  208.508
  463.750    4.690    0.546    0.234  115.072  208.603
  464.000    4.681    0.548    0.208  112.286  208.686
  464.250    4.745    0.555    0.190  103.380  208.772
  464.500    4.864    0.543    0.166   94.071  208.853
  464.750    4.982    0.513    0.141   93.183  208.940
  465.000    5.018    0.488    0.178   95.297  209.027
  465.250    4.987    0.491    0.213  103.032  209.118
  465.500    4.939    0.512    0.211  110.418  209.310
  465.750    5.008    0.506    0.153  101.725  209.806
  466.000    5.339    0.496    0.094   95.874  209.878
  466.250    5.754    0.479    0.182   94.272  209.974
  466.500    6.403    0.439    0.206   93.024  210.063
  466.750    7.270    0.415    0.211   92.598  210.145
  467.000    8.148    0.412    0.212   93.115  210.226
  467.250    8.600    0.409    0.190   95.936  210.329
  467.500    9.311    0.427    0.179  103.870  210.411
  467.750    9.053    0.446    0.196  107.941  210.112
  468.000    8.311    0.469    0.216  111.125  209.801
  468.250    7.947    0.469    0.231  113.069  209.489
  468.500    8.062    0.451    0.236  110.934  209.082
  468.750    8.334    0.446    0.234   98.225  208.554
