~VERSION INFORMATION
 VERS.                 2.0:   CWLS LOG ASCII STANDARD -VERSION 2.0
 WRAP.                  NO:   ONE LINE PER DEPTH STEP
~WELL INFORMATION BLOCK
#MNEM.UNIT           DATA                    DESCRIPTION OF MNEMONIC
#---------    -------------------            -------------------------------
# Generated from Intellog Unique Number	CW_76_78/WELL/2579
WELL.         10-23-078-23W4                 : Well_name    - WELL
LOC .         00/10-23-078-23W4/0            : Location     - LOCATION
UWI .         00/10-23-078-23W4/0            : Uwi          - UNIQUE WELL ID
ENTR.         MAX                            : Entered      - ENTERED BY
SRVC.         SCHLUMBERGER                   : Scn          - SERVICE COMPANY
STRT.M        207.264                        : top_depth    - START DEPTH
STOP.M        493.764                        : bot_depth    - STOP DEPTH
STEP.M        0.25                           : increment    - STEP LENGTH
 NULL. -999.2500:NULL Value
~CURVE INFORMATION BLOCK
#MNEM UNIT       ERCB CURVE CODE    CURVE DESCRIPTION
#-----------   ------------------   ----------------------------------
DEPT.M        00 001 00 00         : DEPTH        - DEPTH
ILD .OHMM     00 120 00 00         : RESD         - DEEP RESISTIVITY (DIL)
NPHI.V/V      00 330 00 00         : PHIN         - NEUTRON POROSITY (SANDSTONE)
DPHI.V/V      00 890 00 00         : PHID         - DENSITY POROSITY (SANDSTONE)
CALI.MM       00 280 01 00         : CAL          - CALIPER
GR  .API      00 310 00 00         : GR           - GAMMA RAY
~PARAMETER INFORMATION
#MNEM.UNIT           DATA             DESCRIPTION OF MNEMONIC
#---------         -----------     ------------------------------
GL  .M        566.623              : gl           - GROUND LEVEL ELEVATION
EREF.M        570.159              : kb           - ELEVATION OF DEPTH REFERENCE
DATM.M        566.623              : datum        - DATUM ELEVATION
TDD .M        495.91               : tdd          - TOTAL DEPTH DRILLER
RUN .         ONE                  : Run          - RUN NUMBER
ENG .         BILL                 : Engineer     - RECORDING ENGINEER
WIT .         JIM                  : Witness      - WITNESSED BY
MUD .         GEL                  : Mud_type     - MUD TYPE
MATR.         SANDSTONE            : Logunit      - NEUTRON MATRIX
TMAX.C        21.6667              : BHT          - MAXIMUM RECORDED TEMPERATURE
BHTD.M        495.91               : BHTDEP       - MAXIMUM RECORDED TEMPERATURE
RMT .C        14.4444              : MDTP         - TEMPERATURE OF MUD
MUDD.KG/M     9000                 : MWT          - MUD DENSITY
NEUT.         1                    : NEUTRON      - NEUTRON TYPE
RESI.         0                    : RESIST       - RESISTIVITY TYPE
RM  .OHMM     6                    : RM           - RESISTIVITY OF MUD
RMC .OHMM     4.35                 : RMC          - RESISTIVITY OF MUD CAKE
RMF .OHMM     7.02                 : RMF          - RESISTIVITY OF MUD FILTRATE
SUFT.C        -6.66667             : SUFT         - SURFACE TEMPERATURE
~A  DEPTH     RESD     PHIN     PHID      CAL       GR
  207.264    4.057    0.609    0.205  208.669  103.239
  207.514    4.092    0.617    0.219  211.628  103.804
  207.764    4.089    0.581    0.238  211.589  105.836
  208.014    4.049    0.565    0.241  206.056  106.398
  208.264    4.010    0.585    0.232  205.529  106.672
  208.514    3.899    0.599    0.230  207.481  108.119
  208.764    3.792    0.609    0.224  207.930  110.743
  209.014    3.721    0.616    0.233  207.393  112.481
  209.264    3.752    0.599    0.236  208.354  112.164
  209.514    3.752    0.567    0.241  210.297  110.370
  209.764    3.815    0.578    0.253  206.772  109.759
  210.014    4.027    0.593    0.253  201.249  108.856
  210.264    4.407    0.557    0.247  201.713  107.948
  210.514    4.609    0.550    0.235  208.645  106.160
  210.764    4.999    0.541    0.238  210.090  102.019
  211.014    5.421    0.516    0.235  210.554   92.582
  211.264    6.098    0.481    0.223  213.004   90.500
  211.514    7.243    0.488    0.228  215.943   92.241
  211.764    7.238    0.499    0.216  215.416   99.570
  212.014    5.762    0.506    0.226  216.367  106.014
  212.264    4.933    0.518    0.233  214.839  106.279
  212.514    4.501    0.639    0.234  210.810  106.253
  212.764    4.221    0.603    0.236  209.272  106.530
  213.014    4.030    0.555    0.242  207.739  106.510
  213.264    3.991    0.530    0.254  206.698  105.013
  213.514    3.991    0.513    0.249  208.158  106.754
  213.764    4.021    0.521    0.242  209.612  108.493
  214.014    4.283    0.564    0.230  205.086  106.705
  214.264    4.396    0.518    0.235  206.536  103.740
  214.514    4.476    0.481    0.230  207.990   97.835
  214.764    4.989    0.440    0.231  205.964   79.281
  215.014    6.258    0.418    0.210  200.934   56.608
  215.264    7.780    0.385    0.214  199.401   42.759
  215.514    9.760    0.351    0.222  198.868   41.266
  215.764   10.682    0.311    0.234  198.819   49.474
  216.014    5.646    0.348    0.233  200.274   71.218
  216.264    4.537    0.459    0.222  203.223   89.132
  216.514    3.678    0.565    0.216  205.678   97.931
  216.764    3.207    0.612    0.243  211.107   98.499
  217.014    2.952    0.670    0.255  212.069   97.591
  217.264    2.952    0.676    0.254  210.530   94.621
  217.514    2.975    0.604    0.261  209.988   91.953
  217.764    3.534    0.523    0.244  209.455   85.754
  218.014    3.663    0.489    0.250  204.924   71.614
  218.264    4.194    0.481    0.257  203.894   65.703
  218.514    5.167    0.450    0.257  205.348   63.624
  218.764    6.251    0.466    0.260  206.300   63.012
  219.014    7.492    0.463    0.270  207.257   60.924
  219.264    8.053    0.460    0.274  205.220   57.081
  219.514    8.499    0.445    0.281  201.197   54.993
  219.764    8.728    0.422    0.290  200.664   57.322
  220.014    8.257    0.419    0.269  196.138   62.008
  220.264    7.958    0.412    0.259  197.592   65.514
  220.514    7.880    0.402    0.244  201.537   65.490
  220.764    7.875    0.426    0.241  204.481   66.641
  221.014    7.799    0.465    0.239  209.417   70.144
  221.264    7.313    0.468    0.251  207.390   73.061
  221.514    6.037    0.484    0.237  199.378   76.276
  221.764    5.169    0.561    0.233  198.342   84.782
  222.014    4.465    0.595    0.222  200.788   91.817
  222.264    4.302    0.586    0.226  203.238   90.912
  222.514    4.302    0.554    0.232  200.211   84.709
  222.764    4.335    0.542    0.245  199.176   73.507
  223.014    4.618    0.527    0.245  202.612   64.367
  223.264    6.287    0.475    0.252  202.085   62.570
  223.514    6.757    0.463    0.259  197.060   61.964
  223.764    7.262    0.466    0.257  195.029   57.821
  224.014    7.949    0.466    0.251  196.977   52.501
  224.264    8.858    0.468    0.267  199.427   48.360
  224.514    9.521    0.460    0.279  198.890   45.102
  224.764   10.140    0.457    0.298  198.846   42.723
  225.014   10.898    0.460    0.310  198.308   43.285
  225.264   12.257    0.473    0.314  197.766   43.852
  225.514   13.052    0.437    0.313  196.237   43.829
  225.764   13.043    0.406    0.322  195.695   44.974
  226.014   12.800    0.415    0.308  197.150   46.430
  226.264   12.001    0.415    0.300  197.598   49.347
  226.514   11.153    0.453    0.291  198.062   54.909
  226.764    9.902    0.490    0.271  200.020   56.059
  227.014    9.284    0.489    0.284  200.976   55.151
  227.264    9.195    0.442    0.308  199.931   55.428
  227.514    9.356    0.417    0.315  199.887   57.745
  227.764    9.182    0.405    0.300  200.345   59.201
  228.014    8.768    0.427    0.285  202.303   63.884
  228.264    8.221    0.439    0.270  207.239   69.151
  228.514    7.433    0.473    0.278  217.662   73.249
  228.764    6.192    0.517    0.261  212.145   77.343
  229.014    5.702    0.543    0.250  208.614   78.787
  229.264    5.108    0.554    0.260  205.084   77.585
  229.514    4.747    0.563    0.250  204.053   76.976
  229.764    4.411    0.547    0.246  205.503   79.303
  230.014    4.212    0.553    0.251  207.456   79.865
  230.264    4.212    0.569    0.244  214.389   80.724
  230.514    4.092    0.543    0.251  209.364   81.291
  230.764    4.016    0.518    0.251  209.823   81.265
  231.014    3.977    0.507    0.255  209.280   81.530
  231.264    3.903    0.522    0.260  205.262   84.157
  231.514    3.898    0.529    0.276  203.221   87.078
  231.764    3.827    0.533    0.262  204.670   88.228
  232.014    3.827    0.523    0.235  205.129   87.905
  232.264    3.718    0.527    0.234  208.576   88.767
  232.514    3.617    0.551    0.226  210.528   88.743
  232.764    3.485    0.561    0.238  211.978   86.955
  233.014    3.358    0.564    0.261  211.450   86.341
  233.264    3.207    0.537    0.244  209.419   87.791
  233.514    3.034    0.569    0.237  208.872   86.883
  233.764    2.976    0.593    0.248  209.828   85.974
  234.014    2.843    0.606    0.254  210.785   86.539
  234.264    2.666    0.619    0.258  212.733   88.866
  234.514    2.614    0.632    0.264  214.685   89.725
  234.764    2.521    0.624    0.273  215.637   89.704
  235.014    2.385    0.615    0.267  215.607   89.681
  235.264    2.319    0.631    0.276  214.562   89.652
  235.514    2.319    0.652    0.292  212.531   89.923
  235.764    2.253    0.676    0.297  210.499   91.073
  236.014    2.192    0.704    0.302  207.467   92.229
  236.264    2.192    0.695    0.291  203.946   94.853
  236.514    2.169    0.662    0.271  202.911   94.533
  236.764    2.128    0.640    0.265  202.862   94.215
  237.014    2.127    0.636    0.262  202.817   95.662
  237.264    2.125    0.644    0.270  202.290   96.525
  237.514    2.143    0.632    0.275  201.747   94.734
  237.764    2.141    0.606    0.274  201.703   91.181
  238.014    2.140    0.602    0.285  202.162   91.452
  238.264    2.178    0.635    0.271  202.615   90.249
  238.514    2.178    0.659    0.267  202.078   88.165
  238.764    2.175    0.609    0.250  206.028   86.965
  239.014    2.254    0.585    0.232  211.959   83.118
  239.264    2.401    0.610    0.223  213.419   78.975
  239.514    2.557    0.623    0.210  208.390   80.716
  239.764    2.650    0.613    0.195  207.857   87.751
  240.014    2.648    0.601    0.248  210.303   90.081
  240.264    2.648    0.611    0.252  211.259   90.352
  240.514    2.620    0.641    0.265  212.211   90.325
  240.764    2.595    0.670    0.274  211.679   92.652
  241.014    2.592    0.679    0.285  210.145   93.220
  241.264    2.591    0.666    0.285  206.117   94.079
  241.514    2.637    0.662    0.260  203.587   94.938
  241.764    2.733    0.670    0.263  207.034   92.556
  242.014    2.806    0.662    0.253  208.977   91.645
  242.264    2.856    0.618    0.248  208.937   91.924
  242.514    2.879    0.605    0.242  208.903   92.486
  242.764    2.931    0.617    0.257  208.864   91.875
  243.014    2.955    0.601    0.256  208.321   91.257
  243.264    2.955    0.615    0.250  207.286   91.237
  243.514    2.978    0.639    0.236  205.752   91.505
