~VERSION INFORMATION
 VERS.                 2.0:   CWLS LOG ASCII STANDARD -VERSION 2.0
 WRAP.                  NO:   ONE LINE PER DEPTH STEP
~WELL INFORMATION BLOCK
#MNEM.UNIT           DATA                    DESCRIPTION OF MNEMONIC
#---------    -------------------            -------------------------------
# Generated from Intellog Unique Number	CS_73_76/WELL/3228
WELL.         10-01-076-05W4                 : Well_name    - WELL
LOC .         00/10-01-076-05W4/0            : Location     - LOCATION
UWI .         00/10-01-076-05W4/0            : Uwi          - UNIQUE WELL ID
ENTR.         SP                             : Entered      - ENTERED BY
SRVC.         SCHLUMBERGER                   : Scn          - SERVICE COMPANY
STRT.M        228.6                          : top_depth    - START DEPTH
STOP.M        481.35                         : bot_depth    - STOP DEPTH
STEP.M        0.25                           : increment    - STEP LENGTH
 NULL. -999.2500:NULL Value
~CURVE INFORMATION BLOCK
#MNEM UNIT       ERCB CURVE CODE    CURVE DESCRIPTION
#-----------   ------------------   ----------------------------------
DEPT.M        00 001 00 00         : DEPTH        - DEPTH
GR  .API      00 310 00 00         : GR           - GAMMA RAY
DPHI.V/V      00 890 00 00         : PHID         - DENSITY POROSITY (SANDSTONE)
NPHI.V/V      00 330 00 00         : PHIN         - NEUTRON POROSITY (SANDSTONE)
ILD .OHMM     00 120 00 00         : RESD         - DEEP RESISTIVITY (DIL)
~PARAMETER INFORMATION
#MNEM.UNIT           DATA             DESCRIPTION OF MNEMONIC
#---------         -----------     ------------------------------
GL  .M        620.878              : gl           - GROUND LEVEL ELEVATION
EREF.M        624.23               : kb           - ELEVATION OF DEPTH REFERENCE
DATM.M        620.878              : datum        - DATUM ELEVATION
TDD .M        489.204              : tdd          - TOTAL DEPTH DRILLER
RUN .         ONE                  : Run          - RUN NUMBER
ENG .         BILL                 : Engineer     - RECORDING ENGINEER
WIT .         JIM                  : Witness      - WITNESSED BY
MUD .         GEL                  : Mud_type     - MUD TYPE
MATR.         SANDSTONE            : Logunit      - NEUTRON MATRIX
TMAX.C        33.3333              : BHT          - MAXIMUM RECORDED TEMPERATURE
BHTD.M        489.204              : BHTDEP       - MAXIMUM RECORDED TEMPERATURE
MATR.         1                    : LOGUNIT      - NEUTRON MATRIX
RMT .C        25                   : MDTP         - TEMPERATURE OF MUD
NEUT.         1                    : NEUTRON      - NEUTRON TYPE
RESI.         0                    : RESIST       - RESISTIVITY TYPE
RMC .OHMM     0.25                 : RMC          - RESISTIVITY OF MUD CAKE
RMF .OHMM     0.25                 : RMF          - RESISTIVITY OF MUD FILTRATE
SUFT.C        15                   : SUFT         - SURFACE TEMPERATURE
~A  DEPTH       GR     PHID     PHIN     RESD
  228.600  108.694    0.250    0.000    3.084
  228.850  111.424    0.223    0.536    3.273
  229.100  114.284    0.225    0.531    3.279
  229.350  113.610    0.231    0.527    3.335
  229.600  112.531    0.230    0.522    3.225
  229.850  112.795    0.231    0.510    3.344
  230.100  111.731    0.229    0.509    3.391
  230.350  111.862    0.220    0.515    3.466
  230.600  112.754    0.226    0.515    3.460
  230.850  109.889    0.243    0.497    3.461
  231.100  110.270    0.243    0.496    3.459
  231.350  109.813    0.230    0.508    3.459
  231.600  108.515    0.234    0.515    3.339
  231.850  107.073    0.247    0.532    3.187
  232.100  107.898    0.242    0.539    3.098
  232.350  109.204    0.243    0.522    3.101
  232.600  111.183    0.232    0.510    3.112
  232.850  111.064    0.220    0.495    3.158
  233.100  109.228    0.220    0.496    3.285
  233.350  104.970    0.213    0.475    3.414
  233.600   98.604    0.196    0.454    3.577
  233.850   90.117    0.150    0.414    3.804
  234.100   77.946    0.228    0.389    4.042
  234.350   72.718    0.247    0.445    4.049
  234.600   92.070    0.243    0.474    3.851
  234.850  107.847    0.229    0.502    3.819
  235.100  107.236    0.220    0.488    3.690
  235.350  102.118    0.220    0.497    3.446
  235.600   96.506    0.230    0.515    3.593
  235.850   91.822    0.235    0.520    4.060
  236.100   87.008    0.250    0.494    5.318
  236.350   83.641    0.260    0.468    6.443
  236.600   82.542    0.270    0.414    8.456
  236.850   85.318    0.287    0.425   10.044
  237.100   86.635    0.289    0.431   10.530
  237.350   89.031    0.283    0.435   10.648
  237.600   90.703    0.269    0.417   10.550
  237.850   91.025    0.258    0.400   10.569
  238.100   92.922    0.257    0.389   10.612
  238.350   93.763    0.252    0.399   10.966
  238.600   86.603    0.239    0.410   11.433
  238.850   82.142    0.262    0.404   12.194
  239.100   79.099    0.272    0.398   12.529
  239.350   80.825    0.260    0.404   12.521
  239.600   81.180    0.257    0.410   12.489
  239.850   85.227    0.252    0.401   11.484
  240.100   89.028    0.242    0.412   11.258
  240.350   88.733    0.243    0.412   10.787
  240.600   90.492    0.249    0.413   10.800
  240.850   93.870    0.253    0.411   10.854
  241.100   96.620    0.239    0.400   11.441
  241.350   92.269    0.227    0.388   12.613
  241.600   91.076    0.220    0.407   14.064
  241.850   95.257    0.257    0.420   15.389
  242.100   94.287    0.293    0.434   15.763
  242.350   91.501    0.308    0.445   15.224
  242.600   92.585    0.306    0.444   15.198
  242.850   94.797    0.289    0.439   14.895
  243.100   96.284    0.277    0.437   14.598
  243.350  101.454    0.271    0.434   14.337
  243.600  101.654    0.280    0.429   14.357
  243.850   98.812    0.295    0.426   14.368
  244.100   95.685    0.290    0.423   14.827
  244.350   92.289    0.273    0.414   15.224
  244.600   85.695    0.261    0.384   15.202
  244.850   79.102    0.259    0.383   15.033
  245.100   81.458    0.272    0.403   15.005
  245.350   72.353    0.289    0.417   15.213
  245.600   63.021    0.304    0.419   15.839
  245.850   56.277    0.327    0.411   16.449
  246.100   52.327    0.347    0.407   17.275
  246.350   59.236    0.337    0.411   18.041
  246.600   63.208    0.334    0.416   18.401
  246.850   68.680    0.338    0.411   18.760
  247.100   72.071    0.335    0.409   18.746
  247.350   76.431    0.332    0.417   18.748
  247.600   86.001    0.331    0.422   18.794
  247.850   82.693    0.335    0.429   18.393
  248.100   72.793    0.327    0.426   18.092
  248.350   69.447    0.328    0.416   17.355
  248.600   72.250    0.322    0.411   16.720
  248.850   78.187    0.316    0.411   15.966
  249.100   83.685    0.308    0.413   14.723
  249.350   90.615    0.273    0.420   13.218
  249.600   95.303    0.248    0.438   11.342
  249.850   99.849    0.246    0.455    9.887
  250.100   96.345    0.242    0.463    8.489
  250.350   84.319    0.253    0.415    8.029
  250.600   73.600    0.264    0.390    8.705
  250.850   63.432    0.269    0.395    9.938
  251.100   67.729    0.274    0.415   11.007
  251.350   63.270    0.295    0.425   12.433
  251.600   55.194    0.318    0.421   13.637
  251.850   50.459    0.330    0.424   14.535
  252.100   51.680    0.339    0.434   15.092
  252.350   57.565    0.332    0.445   14.361
  252.600   65.830    0.315    0.456   13.307
  252.850   71.703    0.271    0.473   11.479
  253.100   75.965    0.224    0.386   10.628
  253.350   77.507    0.238    0.389   10.341
  253.600   76.540    0.234    0.396   10.575
  253.850   69.579    0.248    0.409   11.730
  254.100   65.129    0.236    0.373   12.191
  254.350   62.684    0.158    0.340   12.506
  254.600   64.798    0.187    0.368   12.288
  254.850   69.906    0.221    0.386   11.273
  255.100   79.692    0.234    0.407    9.593
  255.350   93.030    0.212    0.416    8.252
  255.600  109.637    0.199    0.437    7.446
  255.850  118.568    0.193    0.455    6.554
  256.100  121.876    0.200    0.468    5.979
  256.350  126.676    0.195    0.478    5.575
  256.600  131.221    0.201    0.487    5.258
  256.850  130.807    0.205    0.506    4.700
  257.100  129.949    0.200    0.522    4.385
  257.350  132.268    0.206    0.537    4.129
  257.600  133.332    0.210    0.542    3.781
  257.850  134.166    0.212    0.546    3.512
  258.100  135.223    0.214    0.552    3.263
  258.350  134.590    0.235    0.556    3.115
  258.600  134.100    0.251    0.551    2.918
  258.850  133.569    0.244    0.526    2.810
  259.100  127.450    0.256    0.522    2.981
  259.350  116.454    0.251    0.515    3.298
  259.600  105.781    0.259    0.502    4.958
  259.850   97.415    0.277    0.477    7.225
  260.100   85.913    0.265    0.458    8.560
  260.350   83.226    0.268    0.442    8.643
  260.600   84.226    0.272    0.429    8.652
  260.850   85.936    0.251    0.416    8.556
  261.100   86.081    0.237    0.411    8.509
  261.350   85.912    0.257    0.405    8.353
  261.600   88.944    0.256    0.405    8.334
  261.850   89.634    0.254    0.415    8.534
  262.100   89.030    0.251    0.426    8.806
  262.350   89.194    0.240    0.425    9.223
  262.600   87.084    0.257    0.425    9.931
  262.850   85.899    0.280    0.436   10.903
  263.100   81.193    0.297    0.448   11.897
  263.350   76.848    0.298    0.450   12.639
  263.600   80.046    0.296    0.441   13.026
  263.850   80.245    0.295    0.429   13.394
  264.100   80.928    0.310    0.428   13.375
  264.350   84.254    0.300    0.419   13.236
  264.600   87.053    0.288    0.415   13.145
  264.850   89.571    0.277    0.417   13.127
  265.100   90.625    0.272    0.422   13.529
  265.350   93.279    0.284    0.430   13.969
  265.600   92.966    0.290    0.425   14.688
  265.850   90.651    0.282    0.423   14.700
  266.100   93.192    0.280    0.432   15.023
  266.350   94.125    0.279    0.428   15.500
  266.600   92.289    0.286    0.409   16.008
  266.850   84.215    0.285    0.397   16.187
  267.100   65.925    0.282    0.381   16.692
  267.350   57.491    0.283    0.369   17.146
  267.600   54.826    0.296    0.362   17.442
  267.850   57.226    0.296    0.375   17.507
  268.100   61.703    0.292    0.381   17.172
  268.350   63.823    0.302    0.386   17.505
  268.600   62.059    0.309    0.392   17.614
  268.850   56.306    0.298    0.392   18.191
  269.100   54.500    0.293    0.381   18.834
  269.350   52.526    0.298    0.365   18.486
  269.600   56.592    0.304    0.355   18.164
  269.850   62.487    0.285    0.360   17.308
  270.100   68.470    0.270    0.372   16.433
  270.350   77.152    0.289    0.387   15.964
  270.600   73.730    0.293    0.386   16.054
  270.850   71.288    0.284    0.393   17.368
  271.100   60.470    0.289    0.402   18.768
  271.350   48.807    0.298    0.394   19.989
  271.600   37.937    0.305    0.379   21.247
  271.850   36.393    0.312    0.372   21.927
