~VERSION INFORMATION
 VERS.                 2.0:   CWLS LOG ASCII STANDARD -VERSION 2.0
 WRAP.                  NO:   ONE LINE PER DEPTH STEP
~WELL INFORMATION BLOCK
#MNEM.UNIT           DATA                    DESCRIPTION OF MNEMONIC
#---------    -------------------            -------------------------------
# Generated from Intellog Unique Number	CS_69_70/WELL/900
WELL.         ET AL HEART LAKE               : Well_name    - WELL
LOC .         00/12-13-069-11W4/0            : Location     - LOCATION
UWI .         00/12-13-069-11W4/0            : Uwi          - UNIQUE WELL ID
ENTR.         SP                             : Entered      - ENTERED BY
SRVC.         SCHLUMBERGER                   : Scn          - SERVICE COMPANY
STRT.M        300                            : top_depth    - START DEPTH
STOP.M        495                            : bot_depth    - STOP DEPTH
STEP.M        0.25                           : increment    - STEP LENGTH
 NULL. -999.2500:NULL Value
~CURVE INFORMATION BLOCK
#MNEM UNIT       ERCB CURVE CODE    CURVE DESCRIPTION
#-----------   ------------------   ----------------------------------
DEPT.M        00 001 00 00         : DEPTH        - DEPTH
ILD .OHMM     00 120 00 00         : RESD         - DEEP RESISTIVITY (DIL)
DPHI.V/V      00 890 00 00         : PHID         - DENSITY POROSITY (LIMESTONE)
NPHI.V/V      00 330 00 00         : PHIN         - NEUTRON POROSITY (LIMESTONE)
GR  .API      00 310 00 00         : GR           - GAMMA RAY
~PARAMETER INFORMATION
#MNEM.UNIT           DATA             DESCRIPTION OF MNEMONIC
#---------         -----------     ------------------------------
GL  .M        617.8                : gl           - GROUND LEVEL ELEVATION
EREF.M        621                  : kb           - ELEVATION OF DEPTH REFERENCE
DATM.M        617.8                : datum        - DATUM ELEVATION
TDD .M        498                  : tdd          - TOTAL DEPTH DRILLER
RUN .         ONE                  : Run          - RUN NUMBER
ENG .         BILL                 : Engineer     - RECORDING ENGINEER
WIT .         JIM                  : Witness      - WITNESSED BY
MUD .         GEL                  : Mud_type     - MUD TYPE
MATR.         LIMESTONE            : Logunit      - NEUTRON MATRIX
TMAX.C        23                   : BHT          - MAXIMUM RECORDED TEMPERATURE
BHTD.M        498                  : BHTDEP       - MAXIMUM RECORDED TEMPERATURE
MATR.         1                    : LOGUNIT      - NEUTRON MATRIX
RMT .C        25                   : MDTP         - TEMPERATURE OF MUD
NEUT.         1                    : NEUTRON      - NEUTRON TYPE
RESI.         0                    : RESIST       - RESISTIVITY TYPE
RMC .OHMM     0.25                 : RMC          - RESISTIVITY OF MUD CAKE
RMF .OHMM     0.25                 : RMF          - RESISTIVITY OF MUD FILTRATE
SUFT.C        15                   : SUFT         - SURFACE TEMPERATURE
~A  DEPTH     RESD     PHID     PHIN       GR
# ...
  430.500    2.442    0.231    0.503   95.036
  430.750    2.560    0.251    0.478   95.200
  431.000    2.725    0.265    0.458   93.902
  431.250    2.830    0.274    0.444   91.382
  431.500    2.950    0.239    0.451   88.438
  431.750    3.093    0.219    0.459   85.982
  432.000    3.170    0.235    0.468   84.318
  432.250    3.243    0.249    0.464   88.135
  432.500    3.368    0.240    0.450   89.705
  432.750    3.432    0.220    0.445   89.443
  433.000    3.565    0.217    0.441   87.469
  433.250    3.730    0.229    0.445   86.172
  433.500    3.867    0.235    0.443   84.570
  433.750    4.023    0.244    0.441   85.647
  434.000    4.186    0.248    0.440   86.725
  434.250    4.266    0.245    0.441   87.682
  434.500    4.323    0.242    0.447   88.942
  434.750    4.373    0.236    0.455   89.838
  435.000    4.390    0.231    0.461   90.183
  435.250    4.423    0.226    0.467   89.985
  435.500    4.457    0.229    0.471   85.880
  435.750    4.508    0.228    0.456   83.058
  436.000    4.526    0.223    0.443   85.902
  436.250    4.552    0.229    0.451   87.469
  436.500    4.544    0.223    0.472   89.034
  436.750    4.510    0.211    0.466   89.992
  437.000    4.476    0.202    0.456   90.766
  437.250    4.351    0.211    0.455   91.538
  437.500    4.270    0.222    0.467   92.250
  437.750    4.206    0.214    0.458   92.900
  438.000    4.113    0.212    0.437   93.251
  438.250    4.082    0.208    0.425   94.020
  438.500    4.067    0.205    0.437   94.493
  438.750    4.082    0.220    0.428   94.837
  439.000    4.106    0.227    0.435   94.943
  439.250    4.122    0.226    0.445   93.278
  439.500    4.138    0.218    0.434   91.615
  439.750    4.114    0.214    0.427   91.960
  440.000    4.115    0.217    0.429   93.100
  440.250    4.115    0.214    0.433   95.885
  440.500    4.100    0.212    0.437   99.401
  440.750    4.100    0.219    0.441  103.650
  441.000    4.085    0.219    0.454  107.897
  441.250    4.032    0.215    0.446  110.378
  441.500    3.949    0.211    0.462   99.508
  441.750    3.781    0.200    0.419   89.006
  442.000    3.655    0.192    0.404   81.734
  442.250    3.567    0.217    0.446   84.334
  442.500    3.474    0.258    0.443   90.837
  442.750    3.422    0.231    0.426   96.244
  443.000    3.358    0.219    0.431   98.847
  443.250    3.321    0.224    0.437   96.694
  443.500    3.308    0.228    0.437   94.297
  443.750    3.315    0.224    0.430   92.755
  444.000    3.385    0.220    0.424   91.823
  444.250    3.495    0.216    0.441   90.826
  444.500    3.596    0.212    0.462   89.713
  444.750    3.637    0.208    0.464   86.278
  445.000    3.529    0.205    0.454   85.103
  445.250    3.139    0.214    0.446   85.329
  445.500    2.725    0.223    0.522   89.819
  445.750    2.278    0.230    0.562   92.605
  446.000    2.026    0.237    0.554   93.013
  446.250    1.882    0.250    0.528   93.419
  446.500    1.772    0.260    0.530   95.108
  446.750    1.739    0.253    0.532   96.428
  447.000    1.749    0.237    0.510   94.091
  447.250    1.793    0.227    0.484   92.366
  447.500    1.945    0.226    0.460   91.801
  447.750    2.101    0.233    0.438   91.962
  448.000    2.275    0.241    0.447   93.043
  448.250    2.385    0.244    0.473   90.343
  448.500    2.515    0.234    0.491   87.519
  448.750    2.592    0.212    0.466   89.087
  449.000    2.692    0.209    0.454   89.311
  449.250    2.817    0.219    0.435   86.426
  449.500    3.032    0.228    0.407   84.640
  449.750    3.252    0.235    0.381   88.338
  450.000    3.534    0.238    0.401   91.186
  450.250    3.726    0.238    0.440   91.046
  450.500    3.921    0.200    0.384   86.151
  450.750    4.111    0.168    0.339   84.180
  451.000    4.158    0.170    0.334   85.442
  451.250    4.151    0.178    0.383   88.410
  451.500    4.020    0.159    0.424   91.682
  451.750    3.930    0.120    0.397   94.162
  452.000    3.821    0.093    0.407   96.034
  452.250    3.707    0.142    0.440   97.112
  452.500    3.563    0.182    0.448   95.995
  452.750    3.367    0.199    0.440   93.965
  453.000    3.188    0.212    0.432   94.493
  453.250    3.024    0.222    0.423   98.804
  453.500    2.929    0.222    0.442  104.635
  453.750    2.794    0.208    0.483  104.190
  454.000    2.591    0.209    0.514  102.953
  454.250    2.380    0.213    0.511  102.934
  454.500    2.253    0.203    0.512  105.047
  454.750    2.174    0.197    0.499  106.492
  455.000    2.145    0.194    0.489  107.631
  455.250    2.158    0.198    0.488  108.404
  455.500    2.195    0.208    0.508  109.239
  455.750    2.233    0.199    0.514  104.223
  456.000    2.267    0.186    0.489  107.556
  456.250    2.284    0.189    0.473  112.352
  456.500    2.284    0.201    0.493  115.077
  456.750    2.272    0.210    0.509  112.009
  457.000    2.217    0.214    0.524  114.063
  457.250    2.175    0.222    0.540  117.334
  457.500    2.135    0.233    0.552  119.266
  457.750    2.127    0.239    0.566  109.130
  458.000    2.247    0.232    0.530   96.007
  458.250    2.526    0.198    0.437   85.078
  458.500    3.092    0.145    0.394   77.318
  458.750    3.871    0.090    0.331   71.569
  459.000    5.459    0.090    0.309   67.528
  459.250    7.085    0.137    0.325   65.131
  459.500    8.011    0.185    0.352   66.088
  459.750    8.011    0.223    0.370   64.728
  460.000    7.457    0.246    0.387   64.343
  460.250    7.208    0.253    0.397   64.628
  460.500    7.047    0.252    0.402   65.581
  460.750    7.035    0.245    0.395   66.055
  461.000    7.075    0.239    0.394   65.487
  461.250    7.143    0.250    0.388   66.321
  461.500    7.293    0.240    0.383   66.484
  461.750    7.517    0.220    0.383   62.869
  462.000    7.690    0.171    0.367   60.045
  462.250    7.867    0.145    0.354   61.308
  462.500    7.957    0.137    0.347   65.311
  462.750    7.988    0.138    0.344   72.180
  463.000    7.958    0.148    0.340   77.770
  463.250    7.780    0.154    0.365   83.236
  463.500    7.093    0.166    0.396   88.519
  463.750    6.134    0.186    0.426   89.477
  464.000    6.157    0.246    0.434   80.071
  464.250    7.594    0.274    0.423   74.138
  464.500    9.347    0.299    0.397   72.841
  464.750   11.770    0.277    0.374   83.062
  465.000   12.742    0.214    0.356   96.271
  465.250   10.792    0.190    0.355  103.139
  465.500    7.539    0.180    0.383   86.054
  465.750    5.316    0.204    0.407   62.629
  466.000    4.829    0.244    0.397   49.262
  466.250    4.512    0.263    0.378   40.953
  466.500    4.320    0.274    0.366   45.930
  466.750    4.256    0.271    0.359   54.934
  467.000    4.329    0.261    0.356   61.925
  467.250    4.840    0.261    0.354   65.320
  467.500    5.180    0.268    0.353   71.211
  467.750    5.672    0.260    0.348   79.239
  468.000    6.164    0.249    0.346   88.790
  468.250    6.511    0.234    0.356   96.817
  468.500    6.574    0.224    0.382  101.187
  468.750    6.259    0.224    0.397  100.437
  469.000    5.904    0.231    0.397   97.125
  469.250    5.600    0.232    0.401   97.716
  469.500    5.010    0.243    0.408   99.770
  469.750    4.101    0.252    0.421  100.605
  470.000    3.587    0.259    0.433   74.254
  470.250    3.326    0.257    0.399   60.155
  470.500    3.185    0.250    0.369   50.629
  470.750    3.044    0.251    0.342   41.831
  471.000    3.062    0.254    0.339   44.493
  471.250    3.253    0.254    0.330   49.718
  471.500    3.404    0.258    0.324   59.387
  471.750    3.664    0.251    0.334   71.073
  472.000    3.937    0.239    0.345   80.199
  472.250    4.294    0.212    0.357   88.347
  472.500    4.605    0.200    0.364   93.387
  472.750    4.893    0.200    0.367   96.477
  473.000    5.043    0.201    0.363   89.631
  473.250    5.208    0.203    0.357   81.810
  473.500    5.298    0.210    0.332   76.489
  473.750    5.288    0.210    0.309   85.979
