~VERSION INFORMATION
 VERS.                 2.0:   CWLS LOG ASCII STANDARD -VERSION 2.0
 WRAP.                  NO:   ONE LINE PER DEPTH STEP
~WELL INFORMATION BLOCK
#MNEM.UNIT           DATA                    DESCRIPTION OF MNEMONIC
#---------    -------------------            -------------------------------
# Generated from Intellog Unique Number	CS_71_72/WELL/914
WELL.         PEX PHILLIPS AEC GRIST         : Well_name    - WELL
LOC .         00/11-35-071-08W4/0            : Location     - LOCATION
UWI .         00/11-35-071-08W4/0            : Uwi          - UNIQUE WELL ID
ENTR.         SP                             : Entered      - ENTERED BY
SRVC.         SCHLUMBERGER                   : Scn          - SERVICE COMPANY
STRT.M        300                            : top_depth    - START DEPTH
STOP.M        525                            : bot_depth    - STOP DEPTH
STEP.M        0.25                           : increment    - STEP LENGTH
 NULL. -999.2500:NULL Value
~CURVE INFORMATION BLOCK
#MNEM UNIT       ERCB CURVE CODE    CURVE DESCRIPTION
#-----------   ------------------   ----------------------------------
DEPT.M        00 001 00 00         : DEPTH        - DEPTH
ILD .OHMM     00 120 00 00         : RESD         - DEEP RESISTIVITY (DIL)
DPHI.V/V      00 890 00 00         : PHID         - DENSITY POROSITY (LIMESTONE)
NPHI.V/V      00 330 00 00         : PHIN         - NEUTRON POROSITY (LIMESTONE)
GR  .API      00 310 00 00         : GR           - GAMMA RAY
~PARAMETER INFORMATION
#MNEM.UNIT           DATA             DESCRIPTION OF MNEMONIC
#---------         -----------     ------------------------------
GL  .M        663.86               : gl           - GROUND LEVEL ELEVATION
EREF.M        666.86               : kb           - ELEVATION OF DEPTH REFERENCE
DATM.M        663.86               : datum        - DATUM ELEVATION
TDD .M        530                  : tdd          - TOTAL DEPTH DRILLER
RUN .         ONE                  : Run          - RUN NUMBER
ENG .         BILL                 : Engineer     - RECORDING ENGINEER
WIT .         JIM                  : Witness      - WITNESSED BY
MUD .         GEL                  : Mud_type     - MUD TYPE
MATR.         LIMESTONE            : Logunit      - NEUTRON MATRIX
TMAX.C        22                   : BHT          - MAXIMUM RECORDED TEMPERATURE
BHTD.M        530                  : BHTDEP       - MAXIMUM RECORDED TEMPERATURE
MATR.         1                    : LOGUNIT      - NEUTRON MATRIX
RMT .C        25                   : MDTP         - TEMPERATURE OF MUD
NEUT.         1                    : NEUTRON      - NEUTRON TYPE
RESI.         0                    : RESIST       - RESISTIVITY TYPE
RMC .OHMM     0.25                 : RMC          - RESISTIVITY OF MUD CAKE
RMF .OHMM     0.25                 : RMF          - RESISTIVITY OF MUD FILTRATE
SUFT.C        15                   : SUFT         - SURFACE TEMPERATURE
~A  DEPTH     RESD     PHID     PHIN       GR
# ...
  474.000    9.827    0.220    0.312   94.189
  474.250    9.935    0.213    0.310   99.926
  474.500   10.370    0.210    0.310  103.396
  474.750   10.784    0.212    0.313  102.024
  475.000   11.025    0.231    0.311   98.076
  475.250   10.711    0.232    0.333   92.843
  475.500   10.447    0.234    0.344   90.367
  475.750   10.229    0.235    0.345   93.956
  476.000   10.013    0.240    0.330   97.552
  476.250    9.972    0.231    0.327   92.010
  476.500   10.060    0.199    0.343   99.159
  476.750   10.171    0.058    0.331  100.237
  477.000   10.320    0.110    0.319   87.830
  477.250   10.451    0.199    0.303   75.671
  477.500   10.486    0.269    0.280   56.215
  477.750   10.480    0.243    0.270   55.638
  478.000   10.417    0.229    0.280   62.112
  478.250   10.294    0.222    0.290   57.490
  478.500   10.155    0.249    0.298   57.341
  478.750    9.942    0.266    0.304   63.083
  479.000    9.515    0.268    0.310   73.538
  479.250    8.769    0.247    0.316   84.060
  479.500    8.253    0.228    0.314   88.633
  479.750    7.663    0.220    0.297   91.365
  480.000    7.391    0.219    0.303   94.837
  480.250    7.181    0.215    0.303  100.206
  480.500    6.978    0.197    0.293  103.371
  480.750    7.040    0.200    0.300  103.835
  481.000    7.225    0.193    0.313  106.140
  481.250    7.429    0.184    0.315  106.915
  481.500    7.566    0.178    0.300  104.070
  481.750    7.576    0.183    0.291   95.773
  482.000    7.545    0.190    0.308   82.751
  482.250    7.386    0.205    0.357   74.514
  482.500    7.204    0.267    0.379   79.394
  482.750    6.960    0.354    0.327   77.531
  483.000    6.637    0.283    0.284   66.903
  483.250    6.316    0.262    0.276   77.361
  483.500    6.160    0.232    0.290   96.400
  483.750    6.134    0.162    0.303  111.333
  484.000    6.236    0.174    0.315  101.195
  484.250    6.340    0.189    0.308   95.163
  484.500    6.493    0.210    0.288   75.831
  484.750    6.664    0.240    0.309   58.397
  485.000    6.787    0.274    0.315   47.647
  485.250    6.926    0.307    0.302   45.232
  485.500    7.028    0.264    0.291   64.701
  485.750    7.199    0.230    0.288   74.361
  486.000    7.803    0.216    0.306   78.199
  486.250    8.522    0.242    0.315   69.347
  486.500    9.923    0.260    0.324   63.133
  486.750   13.925    0.273    0.339   75.426
  487.000   18.327    0.249    0.356   80.739
  487.250   23.538    0.278    0.353   58.892
  487.500   47.974    0.331    0.328   44.034
  487.750   61.382    0.316    0.311   45.910
  488.000   67.923    0.310    0.312   53.242
  488.250   49.093    0.308    0.310   57.202
  488.500   29.385    0.305    0.319   55.400
  488.750   18.931    0.301    0.308   51.758
  489.000   12.688    0.300    0.303   51.977
  489.250    9.559    0.302    0.305   55.819
  489.500    7.577    0.313    0.305   60.636
  489.750    6.248    0.311    0.295   63.369
  490.000    5.463    0.298    0.299   60.651
  490.250    4.969    0.290    0.298   51.492
  490.500    4.676    0.285    0.292   52.633
  490.750    4.450    0.289    0.296   55.183
  491.000    4.365    0.301    0.300   53.074
  491.250    4.354    0.312    0.295   52.071
  491.500    4.352    0.302    0.288   55.112
  491.750    4.408    0.277    0.288   58.334
  492.000    4.610    0.262    0.273   59.109
  492.250    4.997    0.257    0.258   52.645
  492.500    6.213    0.247    0.236   54.279
  492.750    6.864    0.200    0.222   55.789
  493.000    8.176    0.162    0.206   54.784
  493.250    9.812    0.118    0.160   61.928
  493.500   12.625    0.033    0.119   69.017
  493.750   15.323    0.093    0.146   72.058
  494.000   16.176    0.107    0.180   65.597
  494.250   13.492    0.117    0.218   69.742
  494.500   11.317    0.120    0.239   72.967
  494.750    9.456    0.132    0.262   74.905
  495.000    8.083    0.158    0.286   82.604
  495.250    6.922    0.226    0.306   87.912
  495.500    6.284    0.213    0.319   94.139
  495.750    6.129    0.203    0.318  100.553
  496.000    6.091    0.196    0.311  106.782
  496.250    6.100    0.194    0.305  113.130
  496.500    6.248    0.200    0.301  117.952
  496.750    6.559    0.180    0.316  123.995
  497.000    6.859    0.156    0.335  117.656
  497.250    7.119    0.131    0.329  124.744
  497.500    7.238    0.107    0.326  110.498
  497.750    7.275    0.053    0.329  108.818
  498.000    7.175    0.124    0.326  116.029
  498.250    7.105    0.165    0.314  120.419
  498.500    6.930    0.152    0.298  114.448
  498.750    6.709    0.129    0.311  110.930
  499.000    6.555    0.138    0.319  106.308
  499.250    6.454    0.146    0.317  113.516
  499.500    6.378    0.142    0.322  116.375
  499.750    6.423    0.138    0.316  104.643
  500.000    6.555    0.137    0.315  108.480
  500.250    6.726    0.143    0.322  114.709
  500.500    6.787    0.130    0.328  112.907
  500.750    6.884    0.131    0.325  106.631
  501.000    6.883    0.141    0.323  111.203
  501.250    6.879    0.135    0.318  112.222
  501.500    6.862    0.146    0.317  104.536
  501.750    6.848    0.166    0.327  111.744
  502.000    6.843    0.149    0.330  115.399
  502.250    6.840    0.139    0.324  111.452
  502.500    6.837    0.127    0.344  108.730
  502.750    6.834    0.127    0.341  108.522
  503.000    6.831    0.117    0.333  109.538
  503.250    6.840    0.119    0.336  111.171
  503.500    6.849    0.128    0.329  106.549
  503.750    6.859    0.136    0.311  109.037
  504.000    6.907    0.148    0.305  113.917
  504.250    6.878    0.163    0.308  109.053
  504.500    6.902    0.167    0.325  110.131
  504.750    6.897    0.157    0.334  112.558
  505.000    6.895    0.125    0.324  110.942
  505.250    6.931    0.113    0.315  105.033
  505.500    6.927    0.116    0.316  101.820
  505.750    6.923    0.126    0.320  104.310
  506.000    6.881    0.128    0.313  107.167
  506.250    6.852    0.149    0.310  104.937
  506.500    6.823    0.148    0.316  109.508
  506.750    6.768    0.159    0.321  112.733
  507.000    6.702    0.153    0.316  111.239
  507.250    6.636    0.140    0.321  125.864
  507.500    6.532    0.130    0.321  136.201
  507.750    6.505    0.112    0.313  147.700
  508.000    6.440    0.140    0.305  141.363
  508.250    6.390    0.153    0.303  121.908
  508.500    6.326    0.143    0.310  118.757
  508.750    6.287    0.148    0.308  124.556
  509.000    6.248    0.128    0.311  119.200
  509.250    6.222    0.116    0.325  123.221
  509.500    6.172    0.109    0.321  127.181
  509.750    6.169    0.103    0.302  119.985
  510.000    6.144    0.110    0.288  123.394
  510.250    6.115    0.124    0.301  119.386
  510.500    6.114    0.137    0.308  129.230
  510.750    6.077    0.130    0.313  128.163
  511.000    6.074    0.121    0.321  126.055
  511.250    6.048    0.125    0.331  132.652
  511.500    6.068    0.131    0.318  121.227
  511.750    6.054    0.124    0.313  108.329
  512.000    6.063    0.122    0.311  104.996
  512.250    6.082    0.121    0.318  104.665
  512.500    6.102    0.115    0.330  114.815
  512.750    6.111    0.109    0.322  112.216
  513.000    6.119    0.102    0.312  114.583
  513.250    6.093    0.124    0.311  110.392
  513.500    6.090    0.110    0.307   99.089
  513.750    6.064    0.100    0.302  100.535
  514.000    6.050    0.131    0.318  107.496
  514.250    6.058    0.128    0.333  105.695
  514.500    6.045    0.134    0.326  101.751
  514.750    6.006    0.121    0.319   98.355
  515.000    5.993    0.106    0.320  106.913
  515.250    5.888    0.121    0.359  120.126
  515.500    5.787    0.143    0.354  124.579
  515.750    5.644    0.138    0.338  126.762
  516.000    5.568    0.142    0.321  103.751
  516.250    5.472    0.155    0.306   90.732
  516.500    5.356    0.167    0.293   90.586
  516.750    5.294    0.168    0.298  100.738
  517.000    5.262    0.171    0.306  103.655
  517.250    5.279    0.175    0.315   95.601
