~VERSION INFORMATION
 VERS.                 2.0:   CWLS LOG ASCII STANDARD -VERSION 2.0
 WRAP.                  NO:   ONE LINE PER DEPTH STEP
~WELL INFORMATION BLOCK
#MNEM.UNIT           DATA                    DESCRIPTION OF MNEMONIC
#---------    -------------------            -------------------------------
# Generated from Intellog Unique Number	CX_WELLS/WELL/3044
WELL.         10-06-082-14W4                 : Well_name    - WELL
LOC .         00/10-06-082-14W4/0            : Location     - LOCATION
UWI .         00/10-06-082-14W400            : Uwi          - UNIQUE WELL ID
ENTR.         T                              : Entered      - ENTERED BY
SRVC.         SCHLUMBERGER                   : Scn          - SERVICE COMPANY
STRT.M        135                            : top_depth    - START DEPTH
STOP.M        350                            : bot_depth    - STOP DEPTH
STEP.M        0.25                           : increment    - STEP LENGTH
 NULL. -999.2500:NULL Value
~CURVE INFORMATION BLOCK
#MNEM UNIT       ERCB CURVE CODE    CURVE DESCRIPTION
#-----------   ------------------   ----------------------------------
DEPT.M        00 001 00 00         : DEPTH        - DEPTH
GR  .API      00 310 00 00         : GR           - GAMMA RAY
NPHI.V/V      00 330 00 00         : PHIN         - NEUTRON POROSITY (SANDSTONE)
DPHI.V/V      00 890 00 00         : PHID         - DENSITY POROSITY (SANDSTONE)
ILD .OHMM     00 120 00 00         : RESD         - DEEP RESISTIVITY (OTHER)
~PARAMETER INFORMATION
#MNEM.UNIT           DATA             DESCRIPTION OF MNEMONIC
#---------         -----------     ------------------------------
GL  .M        578                  : gl           - GROUND LEVEL ELEVATION
EREF.M        581.8                : kb           - ELEVATION OF DEPTH REFERENCE
DATM.M        581.8                : datum        - DATUM ELEVATION
TDD .M        352                  : tdd          - TOTAL DEPTH DRILLER
RUN .         ONE                  : Run          - RUN NUMBER
ENG .         BILL                 : Engineer     - RECORDING ENGINEER
WIT .         JIM                  : Witness      - WITNESSED BY
MUD .         GEL                  : Mud_type     - MUD TYPE
MATR.         SANDSTONE            : Logunit      - NEUTRON MATRIX
TMAX.C        29                   : BHT          - MAXIMUM RECORDED TEMPERATURE
BHTD.M        352                  : BHTDEP       - MAXIMUM RECORDED TEMPERATURE
MATR.         1                    : LOGUNIT      - NEUTRON MATRIX
RMT .C        25                   : MDTP         - TEMPERATURE OF MUD
NEUT.         1                    : NEUTRON      - NEUTRON TYPE
RESI.         2.6                  : RESIST       - RESISTIVITY TYPE
RMC .OHMM     1.5                  : RMC          - RESISTIVITY OF MUD CAKE
RMF .OHMM     3                    : RMF          - RESISTIVITY OF MUD FILTRATE
SUFT.C        4                    : SUFT         - SURFACE TEMPERATURE
~A  DEPTH       GR     PHIN     PHID     RESD
  135.000   99.652    0.498    0.232    4.094
  135.250   99.705    0.489    0.229    4.098
  135.500   99.165    0.490    0.229    4.027
  135.750   99.197    0.498    0.228    4.031
  136.000   98.646    0.508    0.227    4.037
  136.250  100.467    0.519    0.227    4.039
  136.500  100.520    0.535    0.226    4.045
  136.750   99.959    0.543    0.226    4.129
  137.000  100.605    0.538    0.225    4.055
  137.250  101.230    0.528    0.225    3.983
  137.500  101.876    0.505    0.224    3.991
  137.750  102.511    0.503    0.224    3.995
  138.000  103.739    0.510    0.224    3.997
  138.250  103.781    0.511    0.225    4.080
  138.500  102.648    0.512    0.225    4.084
  138.750  102.680    0.509    0.229    4.331
  139.000  102.129    0.468    0.234    4.418
  139.250   96.835    0.459    0.181    4.775
  139.500   90.354    0.448    0.186    5.159
  139.750   79.723    0.434    0.222    5.573
  140.000   73.243    0.422    0.235    6.020
  140.250   72.109    0.412    0.257    7.153
  140.500   72.734    0.399    0.264    8.339
  140.750   75.170    0.387    0.240   10.103
  141.000   75.784    0.392    0.246   11.560
  141.250   77.023    0.400    0.252   12.019
  141.500   78.240    0.420    0.257   11.369
  141.750   80.676    0.428    0.258   10.545
  142.000   81.311    0.424    0.261    9.602
  142.250   81.946    0.415    0.263    8.738
  142.500   82.592    0.411    0.267    8.583
  142.750   83.206    0.414    0.269    9.276
  143.000   82.677    0.415    0.271   10.217
  143.250   79.150    0.412    0.275   11.463
  143.500   75.031    0.396    0.284   13.369
  143.750   64.993    0.261    0.315   15.292
  144.000   54.955    0.217    0.364   16.834
  144.250   50.264    0.199    0.392   20.393
  144.500   48.538    0.197    0.412   24.233
  144.750   47.976    0.202    0.419   31.073
  145.000   46.822    0.222    0.402   32.336
  145.250   45.689    0.244    0.381   31.156
  145.500   45.138    0.286    0.268   30.019
  145.750   44.598    0.377    0.257   27.342
  146.000   44.026    0.418    0.280   25.847
  146.250   44.672    0.430    0.299   23.085
  146.500   45.890    0.425    0.299   19.848
  146.750   50.687    0.415    0.286   17.065
  147.000   54.880    0.396    0.264   11.679
  147.250   70.340    0.383    0.245   10.833
  147.500   83.438    0.428    0.240    9.672
  147.750   91.200    0.426    0.247    8.159
  148.000   94.800    0.407    0.257    7.015
  148.250   91.284    0.385    0.270    6.510
  148.500   65.818    0.402    0.285    6.516
  148.750   64.674    0.403    0.310    7.458
  149.000   73.611    0.362    0.332    7.906
  149.250   77.212    0.371    0.321    8.069
  149.500   71.917    0.416    0.297    7.924
  149.750   79.086    0.463    0.277    7.934
  150.000   86.837    0.468    0.284    7.943
  150.250   88.658    0.462    0.299    7.805
  150.500   83.956    0.459    0.322    7.812
  150.750   75.104    0.450    0.319    8.283
  151.000   68.031    0.435    0.316    8.946
  151.250   62.143    0.389    0.314   10.630
  151.500   63.371    0.361    0.307   12.632
  151.750   67.575    0.366    0.297   16.197
  152.000   64.642    0.376    0.285   19.258
  152.250   61.126    0.384    0.271   18.929
  152.500   63.541    0.384    0.250   18.232
  152.750   75.453    0.386    0.235   16.916
  153.000   82.018    0.392    0.205   15.403
  153.250   89.769    0.400    0.196   14.557
  153.500   96.938    0.407    0.200   12.519
  153.750   99.363    0.412    0.202   11.612
  154.000  101.184    0.418    0.201   10.181
  154.250  103.598    0.428    0.201    9.807
  154.500  106.002    0.440    0.207    9.454
  154.750  109.612    0.452    0.211    9.468
  155.000  109.062    0.453    0.222    9.295
  155.250   99.616    0.451    0.243    9.306
  155.500   93.125    0.433    0.264    9.496
  155.750   83.680    0.414    0.286   10.263
  156.000   80.164    0.406    0.286   11.301
  156.250   80.228    0.409    0.287   12.209
  156.500   80.853    0.416    0.289   13.966
  156.750   82.674    0.438    0.293   14.804
  157.000   84.506    0.455    0.295   15.111
  157.250   83.955    0.463    0.299   15.429
  157.500   82.801    0.455    0.303   15.735
  157.750   79.878    0.432    0.308   17.010
  158.000   78.141    0.420    0.311   17.347
  158.250   78.194    0.411    0.318   17.701
  158.500   80.026    0.423    0.325   18.063
  158.750   80.640    0.453    0.330   18.084
  159.000   84.855    0.452    0.325   18.459
  159.250   86.665    0.443    0.306   18.486
  159.500   86.718    0.425    0.303   18.503
  159.750   86.168    0.423    0.307   18.524
  160.000   85.627    0.411    0.316   18.197
  160.250   85.649    0.399    0.319   18.218
  160.500   85.701    0.385    0.318   17.896
  160.750   86.326    0.412    0.317   17.928
  161.000   87.576    0.415    0.313   17.939
  161.250   88.793    0.420    0.301   17.960
  161.500   88.835    0.398    0.291   18.684
  161.750   84.134    0.330    0.281   19.811
  162.000   76.468    0.237    0.292   21.398
  162.250   64.047    0.158    0.349   24.947
  162.500   54.008    0.164    0.375   30.794
  162.750   47.528    0.194    0.352   34.560
  163.000   40.454    0.266    0.332   31.469
  163.250   31.009    0.287    0.321   29.749
  163.500   27.494    0.318    0.322   26.578
  163.750   25.757    0.342    0.323   24.666
  164.000   25.799    0.375    0.324   24.222
  164.250   27.631    0.367    0.325   23.345
  164.500   28.266    0.359    0.325   22.945
  164.750   28.298    0.345    0.328   22.533
  165.000   27.758    0.339    0.334   22.566
  165.250   27.800    0.336    0.333   22.160
  165.500   27.843    0.334    0.325   21.775
  165.750   27.292    0.330    0.321   21.788
  166.000   26.741    0.327    0.324   21.814
  166.250   27.969    0.327    0.326   21.428
  166.500   28.615    0.326    0.323   21.061
  166.750   28.065    0.326    0.318   20.682
  167.000   25.735    0.333    0.311   19.939
  167.250   24.591    0.360    0.299   19.217
  167.500   25.809    0.372    0.274   18.172
  167.750   32.374    0.391    0.258   17.845
  168.000   47.844    0.422    0.219   15.642
  168.250   88.220    0.442    0.196   12.699
  168.500  103.097    0.456    0.169    9.376
  168.750  112.034    0.481    0.160    7.760
  169.000  115.635    0.505    0.169    6.800
  169.250  115.698    0.530    0.183    5.960
  169.500  116.333    0.536    0.169    5.745
  169.750  115.783    0.522    0.155    5.862
  170.000  112.267    0.496    0.147    5.871
  170.250  109.344    0.498    0.146    5.874
  170.500  111.155    0.503    0.153    5.881
  170.750  112.976    0.505    0.163    5.565
  171.000  116.587    0.508    0.182    5.361
  171.250  119.001    0.490    0.216    5.167
  171.500  122.019    0.470    0.232    4.979
  171.750  123.247    0.457    0.236    4.798
  172.000  122.104    0.447    0.252    5.187
  172.250  118.578    0.436    0.265    5.822
  172.500  107.946    0.429    0.281    6.409
  172.750   99.687    0.427    0.296    7.764
  173.000   94.975    0.420    0.287    8.878
  173.250  100.957    0.419    0.263   10.759
  173.500  106.930    0.420    0.242   11.624
  173.750  108.158    0.414    0.233   11.641
  174.000  104.642    0.411    0.240   11.431
  174.250  104.092    0.416    0.245   11.442
  174.500  105.320    0.426    0.239   11.242
  174.750  112.488    0.439    0.229   10.431
  175.000  113.124    0.440    0.236    9.495
  175.250  108.422    0.431    0.252    8.976
  175.500  103.128    0.431    0.266    8.989
  175.750  101.391    0.431    0.276    9.000
  176.000  100.258    0.437    0.285    9.546
  176.250   99.697    0.449    0.287    9.735
  176.500   97.367    0.452    0.282   10.125
  176.750   93.862    0.435    0.276   10.530
  177.000   90.347    0.433    0.268   10.748
  177.250   87.413    0.436    0.262   10.558
  177.500   81.526    0.444    0.268   10.374
  177.750   76.824    0.446    0.275   10.185
  178.000   70.344    0.441    0.282   10.005
  178.250   68.607    0.436    0.285   10.212
