~VERSION INFORMATION
 VERS.                 2.0:   CWLS LOG ASCII STANDARD -VERSION 2.0
 WRAP.                  NO:   ONE LINE PER DEPTH STEP
~WELL INFORMATION BLOCK
#MNEM.UNIT           DATA                    DESCRIPTION OF MNEMONIC
#---------    -------------------            -------------------------------
# Generated from Intellog Unique Number	CS_77_79/WELL/954
WELL.         MESA PORTAGE                   : Well_name    - WELL
LOC .         00/10-14-078-18W4/0            : Location     - LOCATION
UWI .         00/10-14-078-18W4/0            : Uwi          - UNIQUE WELL ID
ENTR.         JHS                            : Entered      - ENTERED BY
SRVC.         SCHLUMBERGER                   : Scn          - SERVICE COMPANY
STRT.M        179.832                        : top_depth    - START DEPTH
STOP.M        380.832                        : bot_depth    - STOP DEPTH
STEP.M        0.25                           : increment    - STEP LENGTH
 NULL. -999.2500:NULL Value
~CURVE INFORMATION BLOCK
#MNEM UNIT       ERCB CURVE CODE    CURVE DESCRIPTION
#-----------   ------------------   ----------------------------------
DEPT.M        00 001 00 00         : DEPTH        - DEPTH
GR  .API      00 310 00 00         : GR           - GAMMA RAY
DPHI.V/V      00 890 00 00         : PHID         - DENSITY POROSITY (SANDSTONE)
NPHI.V/V      00 330 00 00         : PHIN         - NEUTRON POROSITY (SANDSTONE)
ILD .OHMM     00 120 00 00         : RESD         - DEEP RESISTIVITY (DIL)
~PARAMETER INFORMATION
#MNEM.UNIT           DATA             DESCRIPTION OF MNEMONIC
#---------         -----------     ------------------------------
GL  .M        551.139              : gl           - GROUND LEVEL ELEVATION
EREF.M        554.553              : kb           - ELEVATION OF DEPTH REFERENCE
DATM.M        554.553              : datum        - DATUM ELEVATION
TDD .M        390.144              : tdd          - TOTAL DEPTH DRILLER
RUN .         ONE                  : Run          - RUN NUMBER
ENG .         BILL                 : Engineer     - RECORDING ENGINEER
WIT .         JIM                  : Witness      - WITNESSED BY
MUD .         GEL                  : Mud_type     - MUD TYPE
MATR.         SANDSTONE            : Logunit      - NEUTRON MATRIX
TMAX.C        60                   : BHT          - MAXIMUM RECORDED TEMPERATURE
BHTD.M        390.144              : BHTDEP       - MAXIMUM RECORDED TEMPERATURE
MATR.         1                    : LOGUNIT      - NEUTRON MATRIX
RMT .C        25                   : MDTP         - TEMPERATURE OF MUD
NEUT.         1                    : NEUTRON      - NEUTRON TYPE
RESI.         0                    : RESIST       - RESISTIVITY TYPE
RMC .OHMM     0.25                 : RMC          - RESISTIVITY OF MUD CAKE
RMF .OHMM     0.25                 : RMF          - RESISTIVITY OF MUD FILTRATE
SUFT.C        15                   : SUFT         - SURFACE TEMPERATURE
~A  DEPTH       GR     PHID     PHIN     RESD
# ...
  353.832   94.785    0.102    0.497    8.740
  354.082   97.429    0.092    0.461    8.450
  354.332  104.806    0.079    0.432    7.945
  354.582  109.687    0.094    0.428    7.330
  354.832  111.345    0.131    0.454    6.931
  355.082  115.197    0.154    0.480    6.740
  355.332  116.351    0.194    0.476    6.860
  355.582  115.654    0.187    0.477    7.336
  355.832  109.304    0.179    0.468    8.614
  356.082  106.104    0.190    0.452    9.704
  356.332  101.556    0.153    0.445    9.641
  356.582   90.653    0.118    0.441    9.295
  356.832   79.099    0.119    0.428    8.170
  357.082   69.951    0.193    0.415    7.737
  357.332   88.183    0.212    0.441    7.627
  357.582  102.088    0.184    0.545    7.827
  357.832  102.188    0.161    0.610    9.462
  358.082   87.549    0.175    0.627   12.449
  358.332   76.386    0.196    0.534   15.597
  358.582   75.407    0.196    0.551   15.673
  358.832   85.685    0.183    0.583   15.354
  359.082  104.143    0.191    0.586   15.054
  359.332  123.306    0.203    0.553   15.093
  359.582  140.084    0.186    0.440   15.017
  359.832  151.613    0.169    0.460   14.555
  360.082  139.877    0.160    0.472   14.140
  360.332  120.966    0.153    0.445   13.804
  360.582  128.457    0.155    0.427   13.568
  360.832  140.319    0.142    0.448   13.561
  361.082  155.986    0.136    0.520   13.888
  361.332  156.905    0.155    0.582   13.858
  361.582  154.837    0.195    0.559   14.297
  361.832  147.770    0.204    0.513   14.746
  362.082  137.915    0.261    0.502   14.266
  362.332  130.522    0.330    0.518   13.620
  362.582  116.012    0.235    0.472   12.372
  362.832  120.996    0.146    0.367   11.082
  363.082  132.760    0.126    0.353   10.064
  363.332  141.226    0.123    0.370    9.079
  363.582  147.147    0.122    0.468    8.638
  363.832  152.146    0.142    0.483    8.639
  364.082  152.854    0.109    0.458    9.264
  364.332  146.502    0.152    0.438   10.860
  364.582  136.973    0.070    0.426   12.103
  364.832  126.228    0.080    0.447   13.244
  365.082  117.180    0.038    0.466   14.816
  365.332  104.302   -0.000    0.487   16.630
  365.582   97.775    0.000    0.472   18.488
  365.832   97.513    0.001    0.458   21.390
  366.082   97.423    0.019    0.465   23.651
  366.332   91.092    0.110    0.440   26.834
  366.582   82.739    0.119    0.452   29.250
  366.832   77.919    0.080    0.444   30.713
  367.082   73.802    0.017    0.401   32.354
  367.332   67.003    0.000    0.374   33.386
  367.582   65.188    0.013    0.366   33.910
  367.832   66.660    0.040    0.376   33.265
  368.082   69.166    0.067    0.397   32.549
  368.332   66.288    0.102    0.380   31.707
  368.582   69.263    0.100    0.400   29.484
  368.832   74.827    0.123    0.422   28.067
  369.082   75.831    0.126    0.417   25.525
  369.332   71.073    0.145    0.405   24.520
  369.582   71.942    0.127    0.400   23.038
  369.832   71.427    0.100    0.417   23.041
  370.082   65.465    0.094    0.375   23.652
  370.332   67.544    0.117    0.333   24.912
  370.582   71.037    0.132    0.319   24.943
  370.832   72.444    0.149    0.321   25.002
  371.082   69.194    0.166    0.344   24.623
  371.332   66.246    0.097    0.350   24.128
  371.582   66.560    0.067    0.361   23.624
  371.832   63.404    0.112    0.385   22.898
  372.082   63.816    0.151    0.399   22.553
  372.332   70.508    0.127    0.412   21.627
  372.582   76.359    0.110    0.393   21.005
  372.832   76.193    0.094    0.391   20.619
  373.082   72.696    0.087    0.396   20.926
  373.332   67.145    0.126    0.385   21.227
  373.582   63.798    0.109    0.374   21.360
  373.832   64.678    0.094    0.362   21.409
  374.082   65.843    0.102    0.359   21.670
  374.332   64.344    0.129    0.372   21.879
  374.582   60.206    0.100    0.387   23.352
  374.832   58.603    0.110    0.403   26.509
  375.082   53.957    0.086    0.421   28.681
  375.332   47.656    0.066    0.433   31.601
  375.582   40.227    0.070    0.442   33.563
  375.832   37.786    0.129    0.441   33.895
  376.082   46.330    0.145    0.421   33.510
  376.332   56.789    0.164    0.407   32.338
  376.582   62.316    0.176    0.407   34.588
  376.832   69.483    0.138    0.433   36.863
  377.082   74.655    0.117    0.428   38.180
  377.332   74.467    0.104    0.424   38.230
  377.582   68.371    0.093    0.428   37.154
  377.832   50.372    0.100    0.406   36.116
  378.082   30.854    0.076    0.367   34.011
  378.332   27.747    0.060    0.364   30.951
  378.582   25.345    0.058    0.388   29.564
  378.832   19.591    0.123    0.477   30.592
  379.082   17.549    0.105    0.408   31.784
  379.332   19.605    0.098    0.396   33.195
  379.582   26.692    0.095    0.390   34.509
  379.832   30.464    0.085    0.408   35.262
  380.082   30.271    0.108    0.419   35.232
  380.332   24.195    0.106    0.389   35.530
  380.582   20.417    0.094    0.368   37.560
  380.832   17.423    0.075    0.366   38.745
