~VERSION INFORMATION
 VERS.                 2.0:   CWLS LOG ASCII STANDARD -VERSION 2.0
 WRAP.                  NO:   ONE LINE PER DEPTH STEP
~WELL INFORMATION BLOCK
#MNEM.UNIT           DATA                    DESCRIPTION OF MNEMONIC
#---------    -------------------            -------------------------------
# Generated from Intellog Unique Number	CS_71_72/WELL/907
WELL.         KISSINGER PETROLEUM LIMITE     : Well_name    - WELL
LOC .         00/11-29-071-11W4/0            : Location     - LOCATION
UWI .         00/11-29-071-11W4/0            : Uwi          - UNIQUE WELL ID
ENTR.         SP                             : Entered      - ENTERED BY
SRVC.         SCHLUMBERGER                   : Scn          - SERVICE COMPANY
STRT.M        250                            : top_depth    - START DEPTH
STOP.M        470                            : bot_depth    - STOP DEPTH
STEP.M        0.25                           : increment    - STEP LENGTH
 NULL. -999.2500:NULL Value
~CURVE INFORMATION BLOCK
#MNEM UNIT       ERCB CURVE CODE    CURVE DESCRIPTION
#-----------   ------------------   ----------------------------------
DEPT.M        00 001 00 00         : DEPTH        - DEPTH
ILD .OHMM     00 120 00 00         : RESD         - DEEP RESISTIVITY (DIL)
DPHI.V/V      00 890 00 00         : PHID         - DENSITY POROSITY (LIMESTONE)
NPHI.V/V      00 330 00 00         : PHIN         - NEUTRON POROSITY (LIMESTONE)
GR  .API      00 310 00 00         : GR           - GAMMA RAY
~PARAMETER INFORMATION
#MNEM.UNIT           DATA             DESCRIPTION OF MNEMONIC
#---------         -----------     ------------------------------
GL  .M        590.76               : gl           - GROUND LEVEL ELEVATION
EREF.M        594.59               : kb           - ELEVATION OF DEPTH REFERENCE
DATM.M        590.76               : datum        - DATUM ELEVATION
TDD .M        479                  : tdd          - TOTAL DEPTH DRILLER
RUN .         ONE                  : Run          - RUN NUMBER
ENG .         BILL                 : Engineer     - RECORDING ENGINEER
WIT .         JIM                  : Witness      - WITNESSED BY
MUD .         GEL                  : Mud_type     - MUD TYPE
MATR.         LIMESTONE            : Logunit      - NEUTRON MATRIX
TMAX.C        28                   : BHT          - MAXIMUM RECORDED TEMPERATURE
BHTD.M        479                  : BHTDEP       - MAXIMUM RECORDED TEMPERATURE
MATR.         1                    : LOGUNIT      - NEUTRON MATRIX
RMT .C        25                   : MDTP         - TEMPERATURE OF MUD
NEUT.         1                    : NEUTRON      - NEUTRON TYPE
RESI.         0                    : RESIST       - RESISTIVITY TYPE
RMC .OHMM     0.25                 : RMC          - RESISTIVITY OF MUD CAKE
RMF .OHMM     0.25                 : RMF          - RESISTIVITY OF MUD FILTRATE
SUFT.C        15                   : SUFT         - SURFACE TEMPERATURE
~A  DEPTH     RESD     PHID     PHIN       GR
# ...
  380.500    4.956    0.213    0.438   97.534
  380.750    4.994    0.210    0.450   99.346
  381.000    5.024    0.211    0.444   98.407
  381.250    5.045    0.221    0.414   98.629
  381.500    5.018    0.227    0.400   99.888
  381.750    5.007    0.216    0.414  100.112
  382.000    4.922    0.223    0.437   97.463
  382.250    4.821    0.234    0.444   95.912
  382.500    4.703    0.230    0.430   96.009
  382.750    4.618    0.228    0.433   95.806
  383.000    4.639    0.228    0.401   94.746
  383.250    4.686    0.223    0.383   92.097
  383.500    4.789    0.229    0.397   88.837
  383.750    4.917    0.234    0.421   89.489
  384.000    5.077    0.229    0.409   91.666
  384.250    5.156    0.223    0.388   92.558
  384.500    5.372    0.219    0.371   91.560
  384.750    5.404    0.228    0.364   88.362
  385.000    5.466    0.233    0.367   86.263
  385.250    5.471    0.222    0.393   86.115
  385.500    5.443    0.217    0.405   86.827
  385.750    5.400    0.213    0.412   88.147
  386.000    5.356    0.210    0.422   90.386
  386.250    5.270    0.217    0.422   92.497
  386.500    5.137    0.207    0.434   93.212
  386.750    4.872    0.200    0.451   92.883
  387.000    4.370    0.200    0.441   92.310
  387.250    3.770    0.213    0.428   93.877
  387.500    3.039    0.226    0.426   96.359
  387.750    2.562    0.236    0.436   98.229
  388.000    2.305    0.238    0.458   97.780
  388.250    2.220    0.234    0.488   99.466
  388.500    2.225    0.238    0.480  102.006
  388.750    2.541    0.245    0.453  103.265
  389.000    2.996    0.248    0.441  103.490
  389.250    3.492    0.257    0.431   95.284
  389.500    3.865    0.262    0.421   85.552
  389.750    4.205    0.256    0.416   79.913
  390.000    4.366    0.254    0.415   77.325
  390.250    4.412    0.261    0.425   80.599
  390.500    4.352    0.267    0.418   83.507
  390.750    4.226    0.268    0.384   85.926
  391.000    4.108    0.263    0.370   87.313
  391.250    4.065    0.255    0.373   88.505
  391.500    4.094    0.248    0.378   89.157
  391.750    4.214    0.243    0.384   90.481
  392.000    4.448    0.248    0.387   93.324
  392.250    4.764    0.247    0.393   94.834
  392.500    5.579    0.233    0.397   93.894
  392.750    6.598    0.188    0.397   87.094
  393.000    8.378    0.082    0.386   77.789
  393.250    9.626    0.031    0.371   67.202
  393.500   10.073    0.023    0.232   57.347
  393.750    8.802    0.070    0.230   55.982
  394.000    7.883    0.114    0.263   67.132
  394.250    6.882    0.145    0.315   75.966
  394.500    5.963    0.170    0.349   82.601
  394.750    5.355    0.198    0.373   87.465
  395.000    5.155    0.213    0.395   88.358
  395.250    5.021    0.217    0.409   86.320
  395.500    4.961    0.209    0.409   86.479
  395.750    4.908    0.201    0.374   88.655
  396.000    4.922    0.204    0.382   91.382
  396.250    4.919    0.214    0.380   93.434
  396.500    4.940    0.224    0.377   94.633
  396.750    4.976    0.220    0.374   95.526
  397.000    4.989    0.216    0.362   96.299
  397.250    4.978    0.216    0.353   97.071
  397.500    4.967    0.221    0.347   94.724
  397.750    4.964    0.226    0.367   93.301
  398.000    4.946    0.227    0.388   92.486
  398.250    4.927    0.224    0.399   92.646
  398.500    4.899    0.221    0.394   93.479
  398.750    4.879    0.218    0.395   95.410
  399.000    4.844    0.216    0.407   93.126
  399.250    4.808    0.216    0.420   90.907
  399.500    4.798    0.226    0.402   90.457
  399.750    4.778    0.233    0.394   93.487
  400.000    4.758    0.225    0.410   96.153
  400.250    4.738    0.219    0.431   94.786
  400.500    4.752    0.217    0.402   93.908
  400.750    4.831    0.220    0.388   95.659
  401.000    4.893    0.226    0.389   97.710
  401.250    4.899    0.222    0.384   98.728
  401.500    4.667    0.218    0.393   99.188
  401.750    4.336    0.221    0.409   98.133
  402.000    4.170    0.231    0.421   93.162
  402.250    3.945    0.240    0.433   91.553
  402.500    3.820    0.227    0.423   93.116
  402.750    3.678    0.219    0.406   94.070
  403.000    3.495    0.213    0.384   94.593
  403.250    3.075    0.213    0.367   94.455
  403.500    2.622    0.232    0.365   93.823
  403.750    2.291    0.250    0.407   93.922
  404.000    2.035    0.256    0.438   94.633
  404.250    1.844    0.243    0.457   96.137
  404.500    1.718    0.235    0.465   98.617
  404.750    1.740    0.229    0.464  100.915
  405.000    1.827    0.235    0.468  102.298
  405.250    2.020    0.244    0.450  102.765
  405.500    2.319    0.252    0.427  100.178
  405.750    2.619    0.239    0.421   95.085
  406.000    2.992    0.224    0.412   91.828
  406.250    3.283    0.213    0.398   88.081
  406.500    3.427    0.206    0.384   85.738
  406.750    3.490    0.218    0.368   85.222
  407.000    3.422    0.229    0.358   86.975
  407.250    3.279    0.228    0.372   90.494
  407.500    3.276    0.234    0.394   92.365
  407.750    3.371    0.240    0.405   92.160
  408.000    3.589    0.237    0.390   91.708
  408.250    4.060    0.223    0.375   92.480
  408.500    4.654    0.213    0.366   91.481
  408.750    5.240    0.179    0.365   84.254
  409.000    5.588    0.078    0.304   69.942
  409.250    5.635    0.036    0.308   70.591
  409.500    5.427    0.081    0.327   83.148
  409.750    4.868    0.134    0.359   91.797
  410.000    4.260    0.167    0.385   91.467
  410.250    3.602    0.200    0.394   89.490
  410.500    3.231    0.216    0.398   86.904
  410.750    2.934    0.208    0.413   90.850
  411.000    2.734    0.198    0.432   95.712
  411.250    2.584    0.190    0.446   98.074
  411.500    2.441    0.199    0.435  100.494
  411.750    2.397    0.216    0.421  102.670
  412.000    2.319    0.227    0.414  104.053
  412.250    2.293    0.220    0.419  102.198
  412.500    2.250    0.212    0.440  101.993
  412.750    2.206    0.207    0.459  103.739
  413.000    2.154    0.218    0.462  103.960
  413.250    2.110    0.211    0.456  101.193
  413.500    2.090    0.200    0.474   98.117
  413.750    2.250    0.191    0.450   97.851
  414.000    2.435    0.199    0.417  101.796
  414.250    2.547    0.211    0.396  104.951
  414.500    2.503    0.221    0.380  105.293
  414.750    2.443    0.216    0.387  104.287
  415.000    2.505    0.216    0.406  103.966
  415.250    2.584    0.220    0.425  104.066
  415.500    2.671    0.210    0.441  103.188
  415.750    2.782    0.202    0.444   98.585
  416.000    2.778    0.197    0.428   97.339
  416.250    2.678    0.196    0.412  100.740
  416.500    2.503    0.206    0.405  105.297
  416.750    2.295    0.216    0.407  109.181
  417.000    2.154    0.223    0.422  110.322
  417.250    2.060    0.211    0.439  109.933
  417.500    2.074    0.196    0.453  109.667
  417.750    2.226    0.187    0.448  108.848
  418.000    2.420    0.191    0.437  105.588
  418.250    2.694    0.199    0.432  100.682
  418.500    3.027    0.201    0.421   96.936
  418.750    3.326    0.202    0.358   93.126
  419.000    3.618    0.206    0.340   91.821
  419.250    3.819    0.211    0.346   93.019
  419.500    4.019    0.220    0.372   92.996
  419.750    4.164    0.229    0.382   87.724
  420.000    4.407    0.235    0.351   81.595
  420.250    5.009    0.239    0.326   74.243
  420.500    5.987    0.245    0.306   65.426
  420.750    6.933    0.238    0.283   61.253
  421.000    8.075    0.207    0.266   57.872
  421.250    9.634    0.019    0.259   55.281
  421.500   11.602    0.004    0.258   53.182
  421.750   11.803   -0.005    0.267   52.187
  422.000   10.729    0.074    0.291   62.791
  422.250    8.812    0.106    0.313   88.783
  422.500    7.509    0.149    0.333   92.239
  422.750    6.581    0.183    0.337   92.581
  423.000    5.908    0.209    0.334   92.377
  423.250    5.291    0.226    0.327   91.441
  423.500    4.765    0.237    0.321   89.768
  423.750    4.614    0.237    0.318   88.520
