~VERSION INFORMATION
 VERS.                 2.0:   CWLS LOG ASCII STANDARD -VERSION 2.0
 WRAP.                  NO:   ONE LINE PER DEPTH STEP
~WELL INFORMATION BLOCK
#MNEM.UNIT           DATA                    DESCRIPTION OF MNEMONIC
#---------    -------------------            -------------------------------
# Generated from Intellog Unique Number	CN_91_93/WELL/2795
WELL.         PARAMOUNT RESOURCES LTD.       : Well_name    - WELL
LOC .         00/15-35-093-21W4/0            : Location     - LOCATION
UWI .         00/15-35-093-21W4/0            : Uwi          - UNIQUE WELL ID
ENTR.         JOETTE                         : Entered      - ENTERED BY
SRVC.         COMPUTALOG                     : Scn          - SERVICE COMPANY
DATE.         03/24/92                       : Date         - LOG DATE
STRT.M        190                            : top_depth    - START DEPTH
STOP.M        358                            : bot_depth    - STOP DEPTH
STEP.M        0.25                           : increment    - STEP LENGTH
 NULL. -999.2500:NULL Value
~CURVE INFORMATION BLOCK
#MNEM UNIT       ERCB CURVE CODE    CURVE DESCRIPTION
#-----------   ------------------   ----------------------------------
DEPT.M        00 001 00 00         : DEPTH        - DEPTH
CALI.MM       00 280 01 00         : CAL          - CALIPER
GR  .API      00 310 00 00         : GR           - GAMMA RAY
NPHI.V/V      00 330 00 00         : PHIN         - NEUTRON POROSITY (SANDSTONE)
DPHI.V/V      00 890 00 00         : PHID         - DENSITY POROSITY (SANDSTONE)
ILD .OHMM     00 120 00 00         : RESD         - DEEP RESISTIVITY (DIL)
~PARAMETER INFORMATION
#MNEM.UNIT           DATA             DESCRIPTION OF MNEMONIC
#---------         -----------     ------------------------------
GL  .M        665.6                : gl           - GROUND LEVEL ELEVATION
EREF.M        669                  : kb           - ELEVATION OF DEPTH REFERENCE
DATM.M        669                  : datum        - DATUM ELEVATION
TDD .M        356.5                : tdd          - TOTAL DEPTH DRILLER
RUN .         ONE                  : Run          - RUN NUMBER
ENG .         BILL                 : Engineer     - RECORDING ENGINEER
WIT .         JIM                  : Witness      - WITNESSED BY
MUD .         GEL                  : Mud_type     - MUD TYPE
MATR.         SANDSTONE            : Logunit      - NEUTRON MATRIX
TMAX.C        27                   : BHT          - MAXIMUM RECORDED TEMPERATURE
BHTD.M        356.5                : BHTDEP       - MAXIMUM RECORDED TEMPERATURE
RMT .C        13                   : MDTP         - TEMPERATURE OF MUD
MUDD.KG/M     1100                 : MWT          - MUD DENSITY
NEUT.         1                    : NEUTRON      - NEUTRON TYPE
RESI.         0                    : RESIST       - RESISTIVITY TYPE
RM  .OHMM     1.5                  : RM           - RESISTIVITY OF MUD
RMC .OHMM     1.5                  : RMC          - RESISTIVITY OF MUD CAKE
RMF .OHMM     1.5                  : RMF          - RESISTIVITY OF MUD FILTRATE
SUFT.C        4                    : SUFT         - SURFACE TEMPERATURE
~A  DEPTH      CAL       GR     PHIN     PHID     RESD
# ...
  299.500  174.885  113.457    0.432    0.227    5.410
  299.750  171.867  107.818    0.427    0.218    5.422
  300.000  169.816   92.692    0.411    0.166    6.360
  300.250  166.769   78.849    0.384    0.081    7.608
  300.500  165.859   68.817    0.361    0.145    8.410
  300.750  165.945   78.354    0.366    0.214    9.122
  301.000  167.171   84.747    0.367    0.259    9.133
  301.250  168.311   89.892    0.368    0.279    9.341
  301.500  169.480   88.064    0.370    0.289    9.176
  301.750  170.620   88.765    0.379    0.289    8.515
  302.000  172.871   93.260    0.396    0.268    7.730
  302.250  174.011  100.285    0.428    0.264    6.007
  302.500  175.180  106.713    0.453    0.263    5.247
  302.750  177.403  105.499    0.463    0.257    4.863
  303.000  178.572  103.022    0.450    0.236    4.599
  303.250  175.582   99.928    0.439    0.195    4.613
  303.500  175.639  101.279    0.422    0.178    4.624
  303.750  173.646  103.878    0.416    0.186    4.723
  304.000  171.653  107.126    0.417    0.192    5.120
  304.250  170.714  106.545    0.414    0.187    5.663
  304.500  169.803  105.349    0.409    0.178    6.017
  304.750  168.864  102.889    0.402    0.179    6.651
  305.000  168.979   99.796    0.402    0.182    7.352
  305.250  169.094   97.967    0.406    0.200    7.974
  305.500  169.295   98.053    0.411    0.215    8.317
  305.750  169.352   98.122    0.402    0.217    8.497
  306.000  168.384   97.559    0.385    0.197    8.862
  306.250  167.502   93.833    0.374    0.172    9.426
  306.500  167.560   89.458    0.360    0.117    9.623
  306.750  169.811   85.100    0.359    0.105   10.031
  307.000  173.088   85.169    0.412    0.195   10.463
  307.250  175.311   90.297    0.415    0.205   10.481
  307.500  176.479   96.724    0.402    0.224   10.114
  307.750  176.566   94.246    0.391    0.270    9.936
  308.000  170.385   87.974    0.360    0.299    9.760
  308.250  164.148   76.643    0.373    0.305    9.599
  308.500  163.208   67.226    0.371    0.280    9.812
  308.750  166.485   66.030    0.352    0.148   10.846
  309.000  168.736   71.808    0.317    0.112   11.536
  309.250  168.823   79.465    0.352    0.186   11.792
  309.500  167.912   86.508    0.375    0.248   11.827
  309.750  166.973   85.944    0.395    0.271   11.841
  310.000  168.142   84.731    0.417    0.279   11.876
  310.250  170.393   84.185    0.411    0.284   11.440
  310.500  173.670   84.886    0.413    0.276   10.819
  310.750  175.893   88.100    0.428    0.261   10.028
  311.000  177.090   96.407    0.437    0.241    9.109
  311.250  177.176  102.184    0.435    0.233    6.803
  311.500  176.208  104.133    0.434    0.235    5.606
  311.750  174.301  105.467    0.434    0.239    4.714
  312.000  173.305  108.065    0.444    0.236    4.282
  312.250  170.257  108.766    0.466    0.205    4.050
  312.500  169.290  100.614    0.477    0.182    4.390
  312.750  167.296   91.197    0.443    0.224    5.144
  313.000  165.332   84.293    0.408    0.265    6.271
  313.250  164.364   79.952    0.388    0.277    7.955
  313.500  165.533   80.021    0.391    0.268    9.145
  313.750  167.756   80.073    0.382    0.216   10.109
  314.000  167.870   75.715    0.339    0.123   10.543
  314.250  165.935   70.725    0.315    0.129   10.363
  314.500  164.938   70.161    0.340    0.198    9.236
  314.750  162.945   80.998    0.360    0.243    7.911
  315.000  163.060   92.450    0.388    0.238    6.918
  315.250  165.282  100.142    0.405    0.231    6.535
  315.500  169.613   98.313    0.424    0.233    6.303
  315.750  177.134   95.853    0.431    0.240    6.314
  316.000  176.195   96.554    0.416    0.238    6.333
  316.250  172.123   96.623    0.425    0.230    6.731
  316.500  170.101   92.248    0.417    0.212    7.151
  316.750  166.057   85.343    0.396    0.206    8.066
  317.000  166.115   82.900    0.375    0.186    8.917
  317.250  166.230   81.071    0.354    0.128   10.256
  317.500  167.398   81.140    0.331    0.134   11.331
  317.750  169.621   83.106    0.337    0.152   12.774
  318.000  169.736   88.234    0.351    0.144   14.120
  318.250  168.825   92.730    0.375    0.146   13.618
  318.500  164.753   97.225    0.376    0.195   12.130
  318.750  164.810  100.473    0.369    0.213   10.818
  319.000  165.979  101.790    0.375    0.223   10.421
  319.250  169.256  107.567    0.387    0.233    9.670
  319.500  172.533  106.389    0.414    0.226    9.315
  319.750  174.813  102.031    0.406    0.213    9.156
  320.000  174.870   99.553    0.384    0.210    8.820
  320.250  171.852  100.254    0.376    0.218    8.669
  320.500  169.830  106.015    0.386    0.221    8.356
  320.750  165.729  109.245    0.396    0.216    7.902
  321.000  166.926  105.520    0.410    0.216    7.324
  321.250  170.203   88.497    0.409    0.218    6.789
  321.500  171.372   83.524    0.403    0.191    6.543
  321.750  163.083   82.944    0.385    0.184    6.684
  322.000  153.655   84.910    0.375    0.195    7.110
  322.250  157.986   93.849    0.381    0.211    7.411
  322.500  165.536   99.609    0.391    0.213    7.882
  322.750  170.920  105.387    0.406    0.211    8.212
  323.000  175.251  104.841    0.397    0.215    8.389
  323.250  173.229  105.525    0.384    0.221    8.749
  323.500  170.211  109.388    0.374    0.215    8.943
  323.750  169.243  112.619    0.360    0.207    9.142
  324.000  168.304  110.790    0.352    0.205    9.163
  324.250  170.555  108.962    0.354    0.204    9.551
  324.500  171.695  109.663    0.360    0.203    9.962
  324.750  173.918  110.365    0.366    0.206    9.986
  325.000  176.141  109.169    0.362    0.217   10.207
  325.250  176.284  108.605    0.359    0.219   10.231
  325.500  175.316  112.486    0.360    0.213   10.249
  325.750  172.298  111.922    0.378    0.220   10.279
  326.000  170.276  108.197    0.393    0.229   10.501
  326.250  168.283  103.822    0.393    0.120   11.169
  326.500  161.020   96.951    0.356    0.096   12.114
  326.750  148.487   91.927    0.321    0.043   12.390
  327.000  157.034   85.689    0.304    0.079   12.412
  327.250  168.799   88.903    0.361    0.171   12.434
  327.500  169.968   99.739    0.374    0.182   11.759
  327.750  173.245  109.926    0.384    0.183   10.899
  328.000  180.709  114.439    0.385    0.184   10.302
  328.250  183.985  114.525    0.384    0.198    9.923
  328.500  184.100  111.415    0.389    0.191    9.760
  328.750  185.298  113.381    0.400    0.191    9.593
  329.000  187.520  114.732    0.413    0.198    9.610
  329.250  189.743  114.784    0.411    0.202    9.633
  329.500  190.912  112.323    0.410    0.204    9.852
  329.750  187.865  106.718    0.407    0.196   10.070
  330.000  181.684  102.975    0.391    0.189   10.287
  330.250  178.609   97.985    0.363    0.212   10.942
  330.500  174.479   96.139    0.331    0.224   12.096
  330.750  168.270   98.105    0.317    0.219   13.635
  331.000  165.223  101.388    0.325    0.166   14.781
  331.250  164.312  100.790    0.328    0.126   15.416
  331.500  165.481   97.697    0.328    0.146   15.153
  331.750  167.704   97.133    0.328    0.200   14.322
  332.000  168.872  101.014    0.340    0.222   13.274
  332.250  172.149  104.227    0.388    0.218   12.311
  332.500  177.534  108.740    0.377    0.209   11.852
  332.750  179.757  111.321    0.365    0.202   10.998
  333.000  180.925  118.996    0.362    0.202   10.804
  333.250  181.040  120.329    0.367    0.204   10.613
  333.500  176.968  118.501    0.371    0.189   10.230
  333.750  173.921  116.673    0.373    0.185   10.055
  334.000  174.035  116.109    0.371    0.213    9.889
  334.250  174.150  114.913    0.373    0.220    9.918
  334.500  172.157  114.982    0.379    0.227    9.936
  334.750  168.027  114.419    0.392    0.209    9.953
  335.000  166.034  115.137    0.404    0.195   10.186
  335.250  173.527  117.086    0.408    0.196   10.210
  335.500  178.911  117.805    0.401    0.193   10.029
  335.750  180.080  112.797    0.391    0.174    9.858
