~VERSION INFORMATION
 VERS.                 2.0:   CWLS LOG ASCII STANDARD -VERSION 2.0
 WRAP.                  NO:   ONE LINE PER DEPTH STEP
~WELL INFORMATION BLOCK
#MNEM.UNIT           DATA                    DESCRIPTION OF MNEMONIC
#---------    -------------------            -------------------------------
# Generated from Intellog Unique Number	CS_73_76/WELL/2209
WELL.         PEX WAPPAU                     : Well_name    - WELL
LOC .         00/12-10-074-11W4/0            : Location     - LOCATION
UWI .         00/12-10-074-11W4/0            : Uwi          - UNIQUE WELL ID
ENTR.         SP                             : Entered      - ENTERED BY
SRVC.         SCHLUMBERGER                   : Scn          - SERVICE COMPANY
STRT.M        330                            : top_depth    - START DEPTH
STOP.M        530                            : bot_depth    - STOP DEPTH
STEP.M        0.25                           : increment    - STEP LENGTH
 NULL. -999.2500:NULL Value
~CURVE INFORMATION BLOCK
#MNEM UNIT       ERCB CURVE CODE    CURVE DESCRIPTION
#-----------   ------------------   ----------------------------------
DEPT.M        00 001 00 00         : DEPTH        - DEPTH
ILD .OHMM     00 120 00 00         : RESD         - DEEP RESISTIVITY (DIL)
DPHI.V/V      00 890 00 00         : PHID         - DENSITY POROSITY (LIMESTONE)
NPHI.V/V      00 330 00 00         : PHIN         - NEUTRON POROSITY (LIMESTONE)
GR  .API      00 310 00 00         : GR           - GAMMA RAY
~PARAMETER INFORMATION
#MNEM.UNIT           DATA             DESCRIPTION OF MNEMONIC
#---------         -----------     ------------------------------
GL  .M        656.9                : gl           - GROUND LEVEL ELEVATION
EREF.M        660.1                : kb           - ELEVATION OF DEPTH REFERENCE
DATM.M        656.9                : datum        - DATUM ELEVATION
TDD .M        780                  : tdd          - TOTAL DEPTH DRILLER
RUN .         ONE                  : Run          - RUN NUMBER
ENG .         BILL                 : Engineer     - RECORDING ENGINEER
WIT .         JIM                  : Witness      - WITNESSED BY
MUD .         GEL                  : Mud_type     - MUD TYPE
MATR.         LIMESTONE            : Logunit      - NEUTRON MATRIX
TMAX.C        21                   : BHT          - MAXIMUM RECORDED TEMPERATURE
BHTD.M        780                  : BHTDEP       - MAXIMUM RECORDED TEMPERATURE
MATR.         1                    : LOGUNIT      - NEUTRON MATRIX
RMT .C        25                   : MDTP         - TEMPERATURE OF MUD
NEUT.         1                    : NEUTRON      - NEUTRON TYPE
RESI.         0                    : RESIST       - RESISTIVITY TYPE
RMC .OHMM     0.25                 : RMC          - RESISTIVITY OF MUD CAKE
RMF .OHMM     0.25                 : RMF          - RESISTIVITY OF MUD FILTRATE
SUFT.C        15                   : SUFT         - SURFACE TEMPERATURE
~A  DEPTH     RESD     PHID     PHIN       GR
  330.000    6.177    0.192    0.489   97.745
  330.250    6.294    0.197    0.484   96.515
  330.500    6.293    0.198    0.468   95.285
  330.750    6.061    0.198    0.448   93.440
  331.000    5.729    0.203    0.443   98.972
  331.250    5.315    0.210    0.451  100.815
  331.500    5.315    0.213    0.457   99.585
  331.750    5.315    0.214    0.462   98.355
  332.000    5.518    0.212    0.468   97.124
  332.250    5.729    0.200    0.449   94.665
  332.500    5.837    0.196    0.453   94.664
  332.750    5.948    0.196    0.462   92.819
  333.000    6.060    0.203    0.470   92.818
  333.250    6.175    0.204    0.477   92.203
  333.500    6.292    0.204    0.486   94.661
  333.750    6.175    0.204    0.473   96.504
  334.000    5.947    0.189    0.457   95.888
  334.250    5.414    0.191    0.472   94.658
  334.500    4.929    0.196    0.481   94.658
  334.750    4.747    0.193    0.485   96.501
  335.000    4.929    0.192    0.473   96.500
  335.250    5.214    0.192    0.459   96.500
  335.500    5.413    0.192    0.448   92.810
  335.750    5.835    0.196    0.440   90.965
  336.000    5.946    0.202    0.433   90.350
  336.250    5.835    0.201    0.439   92.808
  336.500    5.620    0.205    0.456   94.651
  336.750    5.945    0.213    0.465   92.806
  337.000    6.654    0.214    0.454   89.117
  337.250    7.878    0.202    0.449   84.813
  337.500    9.685    0.191    0.445   81.739
  337.750   10.440    0.201    0.438   79.894
  338.000   12.131    0.205    0.449   81.123
  338.250   12.361    0.217    0.471   79.278
  338.500   12.595    0.230    0.469   79.891
  338.750   12.360    0.239    0.453   84.808
  339.000   12.130    0.241    0.456   85.423
  339.250   11.683    0.215    0.477   82.348
  339.500   11.252    0.068    0.380   77.429
  339.750   11.043    0.145    0.348   70.666
  340.000   10.837    0.185    0.348   78.657
  340.250   10.243    0.203    0.434   85.418
  340.500    9.682    0.212    0.443   85.418
  340.750    9.682    0.209    0.448   87.261
  341.000    9.682    0.210    0.445   88.490
  341.250    9.865    0.210    0.444   84.801
  341.500    9.865    0.212    0.465   86.030
  341.750   10.052    0.222    0.478   86.644
  342.000    9.864    0.228    0.486   87.873
  342.250    9.501    0.236    0.455   97.708
  342.500    8.980    0.239    0.439  100.166
  342.750    8.649    0.231    0.442   97.706
  343.000    8.175    0.220    0.455   97.705
  343.250    8.023    0.206    0.474  102.008
  343.500    8.023    0.231    0.486  105.696
  343.750    8.023    0.246    0.444  100.162
  344.000    8.175    0.256    0.433   96.473
  344.250    8.174    0.261    0.438   98.931
  344.500    8.329    0.240    0.444  103.233
  344.750    8.648    0.225    0.432  103.233
  345.000    8.978    0.228    0.422   97.084
  345.250    8.978    0.246    0.444   93.395
  345.500    8.811    0.251    0.450   91.550
  345.750    8.486    0.231    0.447   95.238
  346.000    8.173    0.213    0.460   93.393
  346.250    7.725    0.218    0.481   91.548
  346.500    7.441    0.234    0.497   97.080
  346.750    7.166    0.224    0.469  100.767
  347.000    6.902    0.215    0.466  100.152
  347.250    6.902    0.211    0.477   96.463
  347.500    6.902    0.231    0.486   94.003
  347.750    7.032    0.250    0.493   92.773
  348.000    7.440    0.275    0.504   91.542
  348.250    8.171    0.272    0.470   91.542
  348.500    8.644    0.255    0.436   93.385
  348.750    8.644    0.238    0.465   94.614
  349.000    8.644    0.257    0.492   94.613
  349.250    8.808    0.266    0.469   94.612
  349.500    8.974    0.270    0.453   90.923
  349.750    9.144    0.263    0.459   87.234
  350.000    9.674    0.256    0.481   85.389
  350.250    9.857    0.248    0.495   81.085
  350.500    9.857    0.238    0.445   76.781
  350.750    9.673    0.240    0.436   71.247
  351.000   10.233    0.240    0.431   70.632
  351.250   10.826    0.251    0.426   66.942
  351.500   13.061    0.260    0.420   62.639
  351.750   14.079    0.278    0.406   60.794
  352.000   14.894    0.291    0.400   59.563
  352.250   15.463    0.294    0.410   58.333
  352.500   15.756    0.293    0.409   56.488
  352.750   15.756    0.291    0.393   53.413
  353.000   15.755    0.291    0.379   54.028
  353.250   15.755    0.291    0.371   63.248
  353.500   15.174    0.284    0.378   64.477
  353.750   14.343    0.280    0.380   65.091
  354.000   13.814    0.271    0.374   69.393
  354.250   12.815    0.260    0.395   74.310
  354.500   11.887    0.245    0.405   77.383
  354.750   11.027    0.232    0.415   79.842
  355.000   10.039    0.224    0.404   80.456
  355.250    9.669    0.219    0.432   81.070
  355.500    9.489    0.241    0.442   84.757
  355.750    9.669    0.273    0.464   84.757
  356.000    9.851    0.266    0.452   81.067
  356.250   10.038    0.254    0.458   76.763
  356.500   10.228    0.250    0.444   76.148
  356.750   10.228    0.249    0.430   80.450
  357.000    9.851    0.240    0.431   83.523
  357.250    9.311    0.238    0.453   83.522
  357.500    8.637    0.232    0.464   86.595
  357.750    8.476    0.240    0.471   84.750
  358.000    8.476    0.251    0.475   81.676
  358.250    8.476    0.255    0.455   77.987
  358.500    8.967    0.255    0.449   74.297
  358.750    9.486    0.264    0.462   73.067
  359.000    9.849    0.253    0.459   73.066
  359.250   10.035    0.276    0.449   70.606
  359.500   10.225    0.292    0.448   69.376
  359.750   10.616    0.282    0.460   71.835
  360.000   10.616    0.260    0.470   71.834
  360.250   10.816    0.244    0.428   69.989
  360.500   11.230    0.224    0.393   76.135
  360.750   11.443    0.234    0.398   79.208
  361.000   12.806    0.260    0.432   76.749
  361.250   13.296    0.285    0.469   68.756
  361.500   14.881    0.302    0.432   64.452
  361.750   15.450    0.314    0.419   61.378
  362.000   16.040    0.325    0.433   58.303
  362.250   16.040    0.337    0.436   57.072
  362.500   16.039    0.344    0.428   58.301
  362.750   16.653    0.344    0.425   61.374
  363.000   16.039    0.342    0.452   62.603
  363.250   14.878    0.335    0.464   58.914
  363.500   14.601    0.324    0.454   58.298
  363.750   14.063    0.317    0.441   62.601
  364.000   13.801    0.313    0.459   63.830
  364.250   13.292    0.319    0.470   61.985
  364.500   13.045    0.322    0.448   61.369
  364.750   12.564    0.318    0.451   63.828
  365.000   11.876    0.301    0.440   66.900
  365.250   11.655    0.290    0.430   65.670
  365.500   11.016    0.288    0.442   67.514
  365.750   10.811    0.295    0.446   69.357
  366.000   10.811    0.299    0.421   70.586
  366.250   10.810    0.306    0.433   70.585
  366.500   10.810    0.307    0.443   74.887
  366.750   10.609    0.272    0.424   79.190
  367.000   10.412    0.247    0.425   82.263
  367.250   10.028    0.236    0.431   82.877
  367.500    8.793    0.222    0.437   82.876
  367.750    8.468    0.211    0.443   83.490
  368.000    8.311    0.223    0.449   86.563
  368.250    8.004    0.238    0.453   85.333
  368.500    7.709    0.247    0.437   83.488
  368.750    7.425    0.232    0.418   84.717
  369.000    7.287    0.223    0.435   88.404
  369.250    7.018    0.222    0.441   85.945
  369.500    6.888    0.222    0.453   83.485
  369.750    6.759    0.238    0.458   84.714
  370.000    6.887    0.261    0.462   77.951
  370.250    7.424    0.291    0.458   72.417
  370.500    8.466    0.312    0.443   66.269
  370.750    8.627    0.297    0.447   66.883
  371.000    8.154    0.277    0.461   72.415
  371.250    7.853    0.269    0.473   74.258
  371.500    7.707    0.284    0.458   73.028
  371.750    7.423    0.282    0.453   76.101
  372.000    7.016    0.270    0.457   81.018
  372.250    6.509    0.261    0.466   84.091
  372.500    6.038    0.265    0.469   83.476
  372.750    5.497    0.268    0.485   83.475
  373.000    5.196    0.281    0.494   85.318
  373.250    4.911    0.271    0.512   89.006
