~VERSION INFORMATION
 VERS.                 2.0:   CWLS LOG ASCII STANDARD -VERSION 2.0
 WRAP.                  NO:   ONE LINE PER DEPTH STEP
~WELL INFORMATION BLOCK
#MNEM.UNIT           DATA                    DESCRIPTION OF MNEMONIC
#---------    -------------------            -------------------------------
# Generated from Intellog Unique Number	CS_73_76/WELL/842
WELL.         HOUSTON OILS LIMITED           : Well_name    - WELL
LOC .         00/10-36-073-16W4/0            : Location     - LOCATION
UWI .         00/10-36-073-16W4/0            : Uwi          - UNIQUE WELL ID
ENTR.         SP                             : Entered      - ENTERED BY
SRVC.         SCHLUMBERGER                   : Scn          - SERVICE COMPANY
STRT.M        265.176                        : top_depth    - START DEPTH
STOP.M        481.426                        : bot_depth    - STOP DEPTH
STEP.M        0.25                           : increment    - STEP LENGTH
 NULL. -999.2500:NULL Value
~CURVE INFORMATION BLOCK
#MNEM UNIT       ERCB CURVE CODE    CURVE DESCRIPTION
#-----------   ------------------   ----------------------------------
DEPT.M        00 001 00 00         : DEPTH        - DEPTH
GR  .API      00 310 00 00         : GR           - GAMMA RAY
DPHI.V/V      00 890 00 00         : PHID         - DENSITY POROSITY (SANDSTONE)
NPHI.V/V      00 330 00 00         : PHIN         - NEUTRON POROSITY (SANDSTONE)
ILD .OHMM     00 120 00 00         : RESD         - DEEP RESISTIVITY (DIL)
~PARAMETER INFORMATION
#MNEM.UNIT           DATA             DESCRIPTION OF MNEMONIC
#---------         -----------     ------------------------------
GL  .M        609.295              : gl           - GROUND LEVEL ELEVATION
EREF.M        612.038              : kb           - ELEVATION OF DEPTH REFERENCE
DATM.M        609.295              : datum        - DATUM ELEVATION
TDD .M        485.546              : tdd          - TOTAL DEPTH DRILLER
RUN .         ONE                  : Run          - RUN NUMBER
ENG .         BILL                 : Engineer     - RECORDING ENGINEER
WIT .         JIM                  : Witness      - WITNESSED BY
MUD .         GEL                  : Mud_type     - MUD TYPE
MATR.         SANDSTONE            : Logunit      - NEUTRON MATRIX
TMAX.C        25.5556              : BHT          - MAXIMUM RECORDED TEMPERATURE
BHTD.M        485.546              : BHTDEP       - MAXIMUM RECORDED TEMPERATURE
MATR.         1                    : LOGUNIT      - NEUTRON MATRIX
RMT .C        25                   : MDTP         - TEMPERATURE OF MUD
NEUT.         1                    : NEUTRON      - NEUTRON TYPE
RESI.         0                    : RESIST       - RESISTIVITY TYPE
RMC .OHMM     0.25                 : RMC          - RESISTIVITY OF MUD CAKE
RMF .OHMM     0.25                 : RMF          - RESISTIVITY OF MUD FILTRATE
SUFT.C        15                   : SUFT         - SURFACE TEMPERATURE
~A  DEPTH       GR     PHID     PHIN     RESD
# ...
  352.176   99.564    0.231    0.564    4.309
  352.426   93.781    0.225    0.590    3.780
  352.676   97.428    0.247    0.594    3.088
  352.926   94.685    0.262    0.570    2.685
  353.176   89.741    0.306    0.611    2.786
  353.426   86.820    0.389    0.627    2.862
  353.676   86.980    0.372    0.599    3.220
  353.926   85.167    0.309    0.547    3.430
  354.176   85.017    0.316    0.560    3.621
  354.426   87.189    0.347    0.579    3.738
  354.676   89.540    0.379    0.622    3.761
  354.926   89.910    0.356    0.675    3.646
  355.176   86.266    0.350    0.642    3.269
  355.426   84.161    0.333    0.525    3.022
  355.676   81.010    0.315    0.499    3.625
  355.926   79.067    0.301    0.491    4.062
  356.176   77.852    0.308    0.483    4.648
  356.426   74.153    0.311    0.488    5.292
  356.676   69.716    0.329    0.510    5.761
  356.926   71.277    0.350    0.506    6.179
  357.176   70.141    0.359    0.488    6.099
  357.426   67.681    0.346    0.483    6.077
  357.676   69.907    0.340    0.494    5.962
  357.926   68.991    0.341    0.501    5.960
  358.176   66.290    0.345    0.501    5.958
  358.426   65.770    0.344    0.516    5.959
  358.676   66.521    0.338    0.536    5.959
  358.926   66.586    0.333    0.515    5.957
  359.176   69.222    0.340    0.519    6.051
  359.426   71.626    0.336    0.513    6.069
  359.676   74.302    0.330    0.513    6.072
  359.926   76.790    0.323    0.512    6.074
  360.176   77.617    0.317    0.538    6.078
  360.426   74.242    0.329    0.559    6.072
  360.676   69.913    0.353    0.571    6.386
  360.926   73.653    0.362    0.524    6.571
  361.176   76.381    0.341    0.514    6.772
  361.426   79.966    0.323    0.535    6.992
  361.676   83.571    0.293    0.536    7.043
  361.926   83.552    0.323    0.516    6.932
  362.176   79.865    0.331    0.540    6.926
  362.426   77.722    0.310    0.535    6.771
  362.676   78.672    0.299    0.512    6.672
  362.926   79.531    0.303    0.549    6.531
  363.176   77.145    0.323    0.534    6.545
  363.426   77.472    0.335    0.510    6.543
  363.676   82.705    0.320    0.494    6.514
  363.926   85.492    0.305    0.481    6.426
  364.176   87.219    0.285    0.483    6.359
  364.426   87.459    0.271    0.509    6.321
  364.676   88.484    0.265    0.527    6.210
  364.926   90.744    0.257    0.543    6.199
  365.176   87.560    0.271    0.494    6.186
  365.426   88.175    0.288    0.481    6.090
  365.676   89.033    0.269    0.506    5.927
  365.926   87.325    0.255    0.528    5.755
  366.176   87.333    0.269    0.494    5.587
  366.426   86.786    0.254    0.525    5.453
  366.676   78.421    0.281    0.561    5.356
  366.926   74.095    0.315    0.537    5.361
  367.176   72.785    0.331    0.498    5.376
  367.426   71.897    0.337    0.525    5.548
  367.676   69.067    0.327    0.512    5.702
  367.926   69.950    0.302    0.407    6.165
  368.176   67.838    0.172    0.262    6.718
  368.426   67.588    0.113    0.230    7.653
  368.676   72.238    0.092    0.224    8.709
  368.926   78.543    0.134    0.334    9.669
  369.176   82.002    0.242    0.419   10.326
  369.426   88.042    0.283    0.523    9.808
  369.676   92.373    0.296    0.509    8.583
  369.926   92.871    0.299    0.490    7.540
  370.176   92.806    0.304    0.496    6.471
  370.426   86.600    0.325    0.497    5.839
  370.676   70.210    0.322    0.504    5.657
  370.926   65.011    0.320    0.495    5.761
  371.176   60.748    0.307    0.485    5.985
  371.426   59.683    0.314    0.405    6.363
  371.676   59.733    0.325    0.468    6.869
  371.926   59.970    0.323    0.491    7.322
  372.176   60.306    0.304    0.486    7.614
  372.426   60.249    0.299    0.484    7.610
  372.676   60.965    0.298    0.474    7.612
  372.926   60.904    0.308    0.464    7.613
  373.176   61.657    0.330    0.464    7.615
  373.426   62.963    0.321    0.459    7.623
  373.676   65.020    0.317    0.455    7.485
  373.926   65.717    0.313    0.475    7.493
  374.176   65.623    0.333    0.497    7.314
  374.426   64.532    0.339    0.499    7.089
  374.676   64.158    0.334    0.507    7.029
  374.926   64.541    0.329    0.524    6.806
  375.176   64.411    0.336    0.545    6.708
  375.426   65.050    0.340    0.526    6.576
  375.676   66.324    0.344    0.510    6.457
  375.926   67.701    0.346    0.492    6.476
  376.176   68.827    0.338    0.478    6.332
  376.426   69.882    0.326    0.471    6.344
  376.676   69.843    0.315    0.475    6.271
  376.926   71.825    0.325    0.478    6.216
  377.176   73.318    0.335    0.461    6.012
  377.426   75.375    0.328    0.480    5.963
  377.676   76.701    0.319    0.483    5.789
  377.926   79.191    0.323    0.468    5.701
  378.176   81.588    0.333    0.451    5.642
  378.426   83.128    0.335    0.472    5.579
  378.676   79.798    0.344    0.507    5.473
  378.926   76.253    0.330    0.528    5.448
  379.176   76.461    0.335    0.516    5.384
  379.426   79.265    0.340    0.507    5.315
  379.676   78.264    0.331    0.499    5.265
  379.926   78.044    0.331    0.491    5.190
  380.176   78.243    0.336    0.522    5.189
  380.426   76.325    0.332    0.556    5.180
  380.676   80.139    0.320    0.576    5.012
  380.926   83.278    0.313    0.530    4.971
  381.176   86.314    0.319    0.506    4.815
  381.426   90.347    0.316    0.515    4.630
  381.676   92.000    0.279    0.557    4.041
  381.926   93.263    0.276    0.596    3.449
  382.176   93.533    0.282    0.595    2.991
  382.426   95.387    0.296    0.587    2.854
  382.676   97.429    0.307    0.603    2.783
  382.926   94.438    0.290    0.624    2.809
  383.176   92.529    0.302    0.610    2.988
  383.426   92.638    0.330    0.586    3.387
  383.676   93.212    0.304    0.537    3.595
  383.926   94.496    0.271    0.513    3.907
  384.176   95.559    0.249    0.536    4.142
  384.426   95.957    0.249    0.548    4.371
  384.676   94.879    0.256    0.531    4.499
  384.926   92.445    0.256    0.501    4.644
  385.176   91.614    0.251    0.480    4.658
  385.426   95.660    0.267    0.502    4.661
  385.676   98.579    0.276    0.523    4.603
  385.926   97.775    0.271    0.543    4.579
  386.176   97.380    0.289    0.522    4.577
  386.426   96.772    0.270    0.495    4.577
  386.676   94.695    0.264    0.503    4.578
  386.926   90.997    0.274    0.539    4.578
  387.176   90.766    0.289    0.556    4.579
  387.426   91.375    0.276    0.537    4.580
  387.676   90.307    0.266    0.541    4.572
  387.926   87.918    0.267    0.550    4.666
  388.176   85.228    0.269    0.561    4.755
  388.426   82.359    0.298    0.507    4.809
  388.676   80.115    0.324    0.508    4.960
  388.926   77.025    0.325    0.498    5.116
  389.176   73.692    0.315    0.477    5.176
  389.426   73.737    0.305    0.469    5.208
  389.676   76.296    0.315    0.466    5.218
  389.926   79.545    0.312    0.462    5.118
  390.176   82.552    0.290    0.475    5.008
  390.426   83.373    0.278    0.503    4.854
  390.676   77.045    0.287    0.529    4.810
  390.926   66.791    0.314    0.549    4.767
  391.176   60.953    0.358    0.531    4.843
  391.426   58.815    0.348    0.502    4.967
  391.676   60.172    0.315    0.509    5.221
  391.926   59.407    0.241    0.466    5.378
  392.176   57.541    0.192    0.401    5.543
  392.426   59.457    0.200    0.353    5.719
  392.676   59.855    0.291    0.406    5.791
  392.926   58.895    0.329    0.484    5.679
  393.176   58.950    0.341    0.493    5.337
  393.426   59.242    0.340    0.471    5.126
  393.676   59.520    0.337    0.477    4.928
  393.926   59.532    0.342    0.469    4.849
  394.176   59.531    0.351    0.463    4.854
  394.426   59.532    0.365    0.474    4.857
  394.676   59.114    0.352    0.475    5.006
  394.926   57.952    0.334    0.480    5.334
  395.176   55.928    0.301    0.449    5.623
  395.426   54.199    0.239    0.391    5.781
