~VERSION INFORMATION
 VERS.                 2.0:   CWLS LOG ASCII STANDARD -VERSION 2.0
 WRAP.                  NO:   ONE LINE PER DEPTH STEP
~WELL INFORMATION BLOCK
#MNEM.UNIT           DATA                    DESCRIPTION OF MNEMONIC
#---------    -------------------            -------------------------------
# Generated from Intellog Unique Number	CS_73_76/WELL/3237
WELL.         10-16-076-05W4                 : Well_name    - WELL
LOC .         00/10-16-076-05W4/0            : Location     - LOCATION
UWI .         00/10-16-076-05W4/0            : Uwi          - UNIQUE WELL ID
ENTR.         SP                             : Entered      - ENTERED BY
SRVC.         SCHLUMBERGER                   : Scn          - SERVICE COMPANY
STRT.M        210.312                        : top_depth    - START DEPTH
STOP.M        447.812                        : bot_depth    - STOP DEPTH
STEP.M        0.25                           : increment    - STEP LENGTH
 NULL. -999.2500:NULL Value
~CURVE INFORMATION BLOCK
#MNEM UNIT       ERCB CURVE CODE    CURVE DESCRIPTION
#-----------   ------------------   ----------------------------------
DEPT.M        00 001 00 00         : DEPTH        - DEPTH
GR  .API      00 310 00 00         : GR           - GAMMA RAY
DPHI.V/V      00 890 00 00         : PHID         - DENSITY POROSITY (SANDSTONE)
NPHI.V/V      00 330 00 00         : PHIN         - NEUTRON POROSITY (SANDSTONE)
ILD .OHMM     00 120 00 00         : RESD         - DEEP RESISTIVITY (DIL)
~PARAMETER INFORMATION
#MNEM.UNIT           DATA             DESCRIPTION OF MNEMONIC
#---------         -----------     ------------------------------
GL  .M        580.949              : gl           - GROUND LEVEL ELEVATION
EREF.M        584.302              : kb           - ELEVATION OF DEPTH REFERENCE
DATM.M        580.949              : datum        - DATUM ELEVATION
TDD .M        451.104              : tdd          - TOTAL DEPTH DRILLER
RUN .         ONE                  : Run          - RUN NUMBER
ENG .         BILL                 : Engineer     - RECORDING ENGINEER
WIT .         JIM                  : Witness      - WITNESSED BY
MUD .         GEL                  : Mud_type     - MUD TYPE
MATR.         SANDSTONE            : Logunit      - NEUTRON MATRIX
TMAX.C        17.2222              : BHT          - MAXIMUM RECORDED TEMPERATURE
BHTD.M        451.104              : BHTDEP       - MAXIMUM RECORDED TEMPERATURE
MATR.         1                    : LOGUNIT      - NEUTRON MATRIX
RMT .C        25                   : MDTP         - TEMPERATURE OF MUD
NEUT.         1                    : NEUTRON      - NEUTRON TYPE
RESI.         0                    : RESIST       - RESISTIVITY TYPE
RMC .OHMM     0.25                 : RMC          - RESISTIVITY OF MUD CAKE
RMF .OHMM     0.25                 : RMF          - RESISTIVITY OF MUD FILTRATE
SUFT.C        15                   : SUFT         - SURFACE TEMPERATURE
~A  DEPTH       GR     PHID     PHIN     RESD
  210.312   58.333    0.280    0.360   17.432
  210.562   67.240    0.288    0.364   14.767
  210.812   86.278    0.275    0.386   12.057
  211.062  107.918    0.275    0.437   10.330
  211.312  121.110    0.240    0.494    8.791
  211.562  125.702    0.231    0.520    7.830
  211.812  124.928    0.224    0.510    6.857
  212.062  126.083    0.201    0.507    5.856
  212.312  127.982    0.209    0.520    5.384
  212.562  126.653    0.213    0.543    5.149
  212.812  122.730    0.227    0.561    4.998
  213.062  121.995    0.245    0.574    4.954
  213.312  119.739    0.243    0.576    5.379
  213.562  111.577    0.236    0.569    6.435
  213.812  104.898    0.241    0.532    7.945
  214.062   96.814    0.241    0.478    9.980
  214.312   88.246    0.226    0.407   12.565
  214.562   80.289    0.249    0.410   15.793
  214.812   72.420    0.279    0.415   18.667
  215.062   65.497    0.311    0.415   20.507
  215.312   60.120    0.332    0.421   21.794
  215.562   54.968    0.325    0.427   22.369
  215.812   52.195    0.321    0.431   22.357
  216.062   50.011    0.334    0.438   22.336
  216.312   51.004    0.347    0.436   22.989
  216.562   52.969    0.343    0.433   23.226
  216.812   57.008    0.342    0.432   23.710
  217.062   59.223    0.343    0.428   23.792
  217.312   61.218    0.330    0.434   24.134
  217.562   62.051    0.329    0.436   24.186
  217.812   65.301    0.342    0.423   23.675
  218.062   68.198    0.335    0.416   23.723
  218.312   70.466    0.352    0.428   23.723
  218.562   72.663    0.346    0.435   23.701
  218.812   69.275    0.328    0.432   23.293
  219.062   63.827    0.342    0.420   23.154
  219.312   57.558    0.325    0.419   22.915
  219.562   52.264    0.316    0.414   22.226
  219.812   55.412    0.311    0.405   21.603
  220.062   60.044    0.310    0.399   20.587
  220.312   63.647    0.307    0.401   19.578
  220.562   67.646    0.314    0.409   18.945
  220.812   71.721    0.305    0.402   18.455
  221.062   75.096    0.291    0.396   18.080
  221.312   77.642    0.281    0.393   18.084
  221.562   82.548    0.284    0.408   17.801
  221.812   88.710    0.296    0.422   17.851
  222.062   92.461    0.311    0.435   17.491
  222.312   96.480    0.314    0.442   17.321
  222.562   98.955    0.300    0.433   16.333
  222.812   98.733    0.288    0.418   15.700
  223.062   94.076    0.276    0.412   15.212
  223.312   89.148    0.259    0.402   15.085
  223.562   84.628    0.240    0.397   14.886
  223.812   81.255    0.235    0.391   15.062
  224.062   78.672    0.241    0.383   15.210
  224.312   76.040    0.241    0.386   15.717
  224.562   78.364    0.242    0.403   16.233
  224.812   79.224    0.261    0.416   16.386
  225.062   79.806    0.273    0.417   16.680
  225.312   77.780    0.291    0.402   16.674
  225.562   79.955    0.274    0.390   16.681
  225.812   85.010    0.285    0.386   16.717
  226.062   88.679    0.287    0.378   16.339
  226.312   92.183    0.269    0.379   16.702
  226.562   91.829    0.263    0.391   16.870
  226.812   85.905    0.282    0.397   17.350
  227.062   81.009    0.300    0.406   17.650
  227.312   82.356    0.319    0.406   17.703
  227.562   82.242    0.313    0.409   17.318
  227.812   85.329    0.295    0.416   16.531
  228.062   89.142    0.285    0.412   16.498
  228.312   92.957    0.276    0.408   16.145
  228.562   95.297    0.264    0.413   16.407
  228.812   90.980    0.250    0.412   16.419
  229.062   91.015    0.258    0.405   17.112
  229.312   90.748    0.284    0.403   17.347
  229.562   87.995    0.293    0.412   17.005
  229.812   85.770    0.285    0.421   16.525
  230.062   86.000    0.300    0.417   15.889
  230.312   91.679    0.318    0.399   14.917
  230.562   95.614    0.307    0.392   13.594
  230.812   97.971    0.276    0.392   12.585
  231.062   98.743    0.253    0.391   11.385
  231.312  103.325    0.248    0.395   10.385
  231.562  108.441    0.257    0.401    9.708
  231.812  114.478    0.251    0.410    8.862
  232.062  120.354    0.242    0.428    8.357
  232.312  120.262    0.227    0.447    7.896
  232.562  117.205    0.236    0.456    7.831
  232.812  114.927    0.241    0.452    7.761
  233.062  112.018    0.240    0.457    8.015
  233.312  111.194    0.230    0.461    8.410
  233.562  113.507    0.239    0.465    9.423
  233.812  115.000    0.249    0.462    9.982
  234.062  116.529    0.242    0.470   11.188
  234.312  115.913    0.233    0.475   11.942
  234.562  112.076    0.243    0.480   12.695
  234.812  105.423    0.248    0.464   13.094
  235.062   98.062    0.264    0.444   13.126
  235.312  101.816    0.284    0.430   13.136
  235.562  104.259    0.272    0.429   12.678
  235.812  105.696    0.256    0.440   12.451
  236.062  103.541    0.248    0.440   12.239
  236.312  101.897    0.255    0.423   12.482
  236.562  100.908    0.269    0.426   12.809
  236.812   98.301    0.281    0.436   13.611
  237.062   95.314    0.263    0.446   14.900
  237.312   83.805    0.255    0.454   16.358
  237.562   67.936    0.249    0.453   18.783
  237.812   57.435    0.274    0.441   21.006
  238.062   52.082    0.321    0.424   23.447
  238.312   49.326    0.337    0.407   25.644
  238.562   50.328    0.326    0.399   26.795
  238.812   52.296    0.317    0.404   25.603
  239.062   54.750    0.338    0.412   24.482
  239.312   58.024    0.343    0.400   22.128
  239.562   61.576    0.332    0.393   20.297
  239.812   65.425    0.321    0.394   18.732
  240.062   70.971    0.317    0.397   17.742
  240.312   77.895    0.307    0.407   17.807
  240.562   80.898    0.297    0.418   17.903
  240.812   78.341    0.284    0.434   18.878
  241.062   77.441    0.299    0.436   19.731
  241.312   76.415    0.303    0.425   20.344
  241.562   76.102    0.301    0.417   19.517
  241.812   76.243    0.292    0.408   18.236
  242.062   80.383    0.284    0.406   15.836
  242.312   83.736    0.272    0.422   14.624
  242.562   90.005    0.265    0.430   13.350
  242.812   95.186    0.261    0.427   12.517
  243.062   98.094    0.252    0.433   11.780
  243.312   97.482    0.260    0.418   11.496
  243.562   96.749    0.259    0.425   11.760
  243.812   94.424    0.253    0.439   11.921
  244.062   90.376    0.254    0.446   12.219
  244.312   87.230    0.250    0.453   12.209
  244.562   83.113    0.255    0.443   12.067
  244.812   84.976    0.242    0.431   11.774
  245.062   87.414    0.224    0.411   11.567
  245.312   88.427    0.224    0.411   11.489
  245.562   87.535    0.234    0.407   11.953
  245.812   84.551    0.238    0.397   13.115
  246.062   80.663    0.251    0.392   15.428
  246.312   76.783    0.261    0.404   17.625
  246.562   72.800    0.263    0.419   19.607
  246.812   69.269    0.288    0.433   20.689
  247.062   65.741    0.323    0.431   21.285
  247.312   63.181    0.336    0.423   21.269
  247.562   62.145    0.345    0.430   21.314
  247.812   61.156    0.353    0.439   20.894
  248.062   61.065    0.359    0.443   21.203
  248.312   60.506    0.364    0.447   21.270
  248.562   60.612    0.370    0.438   21.717
  248.812   59.990    0.360    0.437   22.238
  249.062   59.106    0.351    0.447   22.535
  249.312   57.681    0.361    0.441   22.540
  249.562   56.978    0.368    0.436   23.027
  249.812   57.024    0.362    0.433   22.987
  250.062   57.014    0.345    0.430   23.366
  250.312   56.785    0.339    0.420   23.242
  250.562   55.736    0.347    0.410   23.038
  250.812   54.118    0.347    0.405   23.044
  251.062   54.011    0.357    0.408   23.081
  251.312   54.650    0.358    0.422   22.640
  251.562   56.377    0.350    0.436   21.980
  251.812   58.410    0.347    0.442   21.347
  252.062   59.381    0.349    0.434   20.709
  252.312   59.562    0.345    0.429   20.712
  252.562   62.010    0.343    0.428   20.721
  252.812   62.920    0.345    0.454   20.699
  253.062   63.236    0.335    0.477   21.165
  253.312   63.480    0.335    0.490   21.160
  253.562   63.004    0.344    0.488   21.881
