~VERSION INFORMATION
 VERS.                 2.0:   CWLS LOG ASCII STANDARD -VERSION 2.0
 WRAP.                  NO:   ONE LINE PER DEPTH STEP
~WELL INFORMATION BLOCK
#MNEM.UNIT           DATA                    DESCRIPTION OF MNEMONIC
#---------    -------------------            -------------------------------
# Generated from Intellog Unique Number	CS_77_79/WELL/1007
WELL.         CAVALIER ENERGY INC            : Well_name    - WELL
LOC .         00/11-33-077-17W4/0            : Location     - LOCATION
UWI .         00/11-33-077-17W4/0            : Uwi          - UNIQUE WELL ID
ENTR.         SP                             : Entered      - ENTERED BY
SRVC.         SCHLUMBERGER                   : Scn          - SERVICE COMPANY
STRT.M        182.88                         : top_depth    - START DEPTH
STOP.M        389.88                         : bot_depth    - STOP DEPTH
STEP.M        0.25                           : increment    - STEP LENGTH
 NULL. -999.2500:NULL Value
~CURVE INFORMATION BLOCK
#MNEM UNIT       ERCB CURVE CODE    CURVE DESCRIPTION
#-----------   ------------------   ----------------------------------
DEPT.M        00 001 00 00         : DEPTH        - DEPTH
GR  .API      00 310 00 00         : GR           - GAMMA RAY
DPHI.V/V      00 890 00 00         : PHID         - DENSITY POROSITY (SANDSTONE)
NPHI.V/V      00 330 00 00         : PHIN         - NEUTRON POROSITY (SANDSTONE)
ILD .OHMM     00 120 00 00         : RESD         - DEEP RESISTIVITY (DIL)
~PARAMETER INFORMATION
#MNEM.UNIT           DATA             DESCRIPTION OF MNEMONIC
#---------         -----------     ------------------------------
GL  .M        568.452              : gl           - GROUND LEVEL ELEVATION
EREF.M        571.5                : kb           - ELEVATION OF DEPTH REFERENCE
DATM.M        568.452              : datum        - DATUM ELEVATION
TDD .M        389.839              : tdd          - TOTAL DEPTH DRILLER
RUN .         ONE                  : Run          - RUN NUMBER
ENG .         BILL                 : Engineer     - RECORDING ENGINEER
WIT .         JIM                  : Witness      - WITNESSED BY
MUD .         GEL                  : Mud_type     - MUD TYPE
MATR.         SANDSTONE            : Logunit      - NEUTRON MATRIX
TMAX.C        20                   : BHT          - MAXIMUM RECORDED TEMPERATURE
BHTD.M        389.839              : BHTDEP       - MAXIMUM RECORDED TEMPERATURE
MATR.         1                    : LOGUNIT      - NEUTRON MATRIX
RMT .C        25                   : MDTP         - TEMPERATURE OF MUD
NEUT.         1                    : NEUTRON      - NEUTRON TYPE
RESI.         0                    : RESIST       - RESISTIVITY TYPE
RMC .OHMM     0.25                 : RMC          - RESISTIVITY OF MUD CAKE
RMF .OHMM     0.25                 : RMF          - RESISTIVITY OF MUD FILTRATE
SUFT.C        15                   : SUFT         - SURFACE TEMPERATURE
~A  DEPTH       GR     PHID     PHIN     RESD
# ...
  356.880   99.416    0.198    0.429    6.235
  357.130   97.563    0.180    0.433    6.208
  357.380   95.010    0.191    0.439    6.000
  357.630   92.160    0.200    0.427    5.693
  357.880   90.739    0.203    0.408    5.094
  358.130   92.381    0.200    0.395    4.467
  358.380   94.756    0.217    0.410    3.714
  358.630   95.639    0.239    0.422    2.946
  358.880   96.187    0.255    0.438    2.837
  359.130   94.038    0.278    0.454    2.538
  359.380   91.745    0.299    0.497    2.226
  359.630   89.562    0.315    0.542    2.237
  359.880   88.167    0.315    0.552    2.221
  360.130   84.085    0.322    0.540    2.443
  360.380   84.823    0.334    0.532    2.697
  360.630   87.809    0.299    0.526    3.097
  360.880   90.635    0.271    0.517    3.437
  361.130   88.769    0.261    0.508    3.944
  361.380   84.791    0.243    0.449    5.180
  361.630   83.243    0.219    0.392    5.586
  361.880   87.361    0.204    0.377    6.793
  362.130   86.844    0.184    0.397    7.505
  362.380   83.224    0.206    0.401    8.007
  362.630   81.864    0.211    0.391    8.284
  362.880   82.860    0.179    0.382    8.046
  363.130   83.471    0.167    0.368    7.952
  363.380   87.185    0.158    0.380    6.969
  363.630   88.749    0.196    0.406    6.071
  363.880   91.531    0.194    0.414    5.402
  364.130   93.700    0.204    0.420    5.019
  364.380   93.554    0.214    0.417    4.878
  364.630   91.284    0.214    0.407    4.862
  364.880   89.958    0.201    0.434    5.104
  365.130   88.847    0.192    0.460    5.074
  365.380   89.679    0.191    0.464    5.388
  365.630   89.895    0.183    0.447    5.715
  365.880   87.120    0.176    0.426    6.038
  366.130   83.345    0.167    0.409    6.296
  366.380   81.443    0.142    0.403    6.502
  366.630   80.143    0.111    0.380    6.475
  366.880   84.450    0.132    0.367    6.723
  367.130   88.551    0.160    0.394    6.705
  367.380   89.593    0.190    0.407    6.708
  367.630   88.746    0.175    0.402    6.711
  367.880   85.705    0.139    0.377    6.715
  368.130   87.965    0.131    0.367    6.731
  368.380   96.317    0.173    0.396    6.481
  368.630  102.529    0.211    0.428    6.335
  368.880  103.157    0.218    0.442    6.105
  369.130   98.612    0.231    0.453    6.128
  369.380   94.499    0.221    0.452    6.267
  369.630   89.098    0.210    0.441    6.606
  369.880   89.735    0.207    0.442    6.935
  370.130   93.108    0.185    0.449    7.221
  370.380   96.622    0.129    0.440    8.022
  370.630  101.414    0.123    0.435    8.506
  370.880  103.563    0.147    0.437    8.766
  371.130  102.425    0.195    0.396    8.504
  371.380  102.842    0.199    0.370    8.168
  371.630  102.544    0.191    0.372    8.141
  371.880  102.195    0.196    0.397    8.380
  372.130  101.168    0.198    0.406    8.707
  372.380  100.254    0.208    0.402    9.040
  372.630   97.937    0.200    0.399    9.370
  372.880   95.746    0.196    0.393   10.062
  373.130   94.784    0.195    0.433   10.539
  373.380   93.876    0.209    0.451   11.151
  373.630   90.825    0.210    0.466   11.751
  373.880   91.779    0.209    0.486   11.257
  374.130   97.059    0.213    0.455   10.760
  374.380   99.508    0.217    0.434   11.309
  374.630   95.430    0.227    0.438   11.637
  374.880   91.512    0.233    0.390   11.989
  375.130   92.451    0.238    0.348   11.990
  375.380   99.863    0.236    0.381   11.752
  375.630  110.766    0.225    0.407   11.096
  375.880  115.436    0.214    0.363   10.453
  376.130  115.811    0.204    0.380    9.796
  376.380  112.942    0.192    0.399    9.672
  376.630  112.104    0.185    0.413    9.600
  376.880  107.079    0.185    0.422    9.789
  377.130  101.307    0.205    0.386   10.137
  377.380   89.941    0.218    0.384   10.213
  377.630   82.949    0.209    0.384   10.049
  377.880   89.311    0.199    0.385    9.727
  378.130   94.252    0.192    0.393    9.414
  378.380  101.430    0.192    0.391    9.402
  378.630  107.627    0.205    0.384   10.063
  378.880  108.465    0.211    0.380   11.054
  379.130  102.820    0.238    0.390   11.976
  379.380   98.600    0.269    0.399   13.692
  379.630   99.528    0.265    0.406   15.569
  379.880  100.133    0.262    0.410   17.654
  380.130  100.936    0.253    0.413   19.999
  380.380  101.357    0.241    0.406   21.205
  380.630  101.655    0.225    0.410   21.104
  380.880  100.964    0.237    0.422   20.718
  381.130   97.931    0.240    0.414   20.052
  381.380   94.844    0.242    0.405   19.488
  381.630   90.857    0.247    0.413   19.421
  381.880   87.712    0.248    0.413   19.566
  382.130   93.169    0.239    0.408   19.964
  382.380   98.323    0.251    0.400   20.634
  382.630  102.437    0.251    0.389   21.976
  382.880  105.996    0.260    0.379   23.050
  383.130  108.976    0.267    0.370   25.148
  383.380  102.862    0.262    0.365   26.268
  383.630   96.162    0.263    0.385   27.029
  383.880   98.874    0.271    0.399   27.043
  384.130  102.076    0.269    0.405   25.894
  384.380  100.515    0.252    0.410   21.848
  384.630  100.449    0.237    0.409   17.964
  384.880  100.405    0.214    0.396   14.677
  385.130   94.980    0.182    0.393   13.267
  385.380   89.592    0.176    0.405   13.310
  385.630   87.402    0.179    0.416   13.396
  385.880   87.383    0.179    0.421   14.273
  386.130   83.160    0.145    0.424   16.083
  386.380   74.998    0.116    0.433   20.861
  386.630   71.911    0.106    0.442   24.751
  386.880   69.541    0.084    0.432   26.303
  387.130   69.460    0.100    0.415   24.151
  387.380   68.894    0.100    0.419   20.926
  387.630   68.493    0.092    0.429   17.917
  387.880   68.812    0.113    0.436   17.309
  388.130   67.757    0.157    0.441   17.807
  388.380   68.515    0.136    0.442   18.128
  388.630   73.010    0.102    0.446   17.902
  388.880   74.556    0.101    0.435   17.718
  389.130   74.095    0.146    0.410   17.441
  389.380   68.865    0.175    0.399   17.319
  389.630   67.103    0.222    0.399   17.323
  389.880   67.773    0.238    0.388   17.331
