~VERSION INFORMATION
 VERS.                 2.0:   CWLS LOG ASCII STANDARD -VERSION 2.0
 WRAP.                  NO:   ONE LINE PER DEPTH STEP
~WELL INFORMATION BLOCK
#MNEM.UNIT           DATA                    DESCRIPTION OF MNEMONIC
#---------    -------------------            -------------------------------
# Generated from Intellog Unique Number	CS_69_70/WELL/2878
WELL.         AEC FISHER 10-27-69-03 W4M     : Well_name    - WELL
LOC .         00/10-27-069-03W4/0            : Location     - LOCATION
UWI .         00/10-27-069-03W4/0            : Uwi          - UNIQUE WELL ID
ENTR.         ANDERSEN                       : Entered      - ENTERED BY
SRVC.         SCHLUMBERGER                   : Scn          - SERVICE COMPANY
STRT.M        365                            : top_depth    - START DEPTH
STOP.M        605                            : bot_depth    - STOP DEPTH
STEP.M        0.25                           : increment    - STEP LENGTH
 NULL. -999.2500:NULL Value
~CURVE INFORMATION BLOCK
#MNEM UNIT       ERCB CURVE CODE    CURVE DESCRIPTION
#-----------   ------------------   ----------------------------------
DEPT.M        00 001 00 00         : DEPTH        - DEPTH
ILD .OHMM     00 120 00 00         : RESD         - DEEP RESISTIVITY (DIL)
GR  .API      00 310 00 00         : GR           - GAMMA RAY
CALI.MM       00 280 01 00         : CAL          - CALIPER
NPHI.V/V      00 330 00 00         : PHIN         - NEUTRON POROSITY (SANDSTONE)
DPHI.V/V      00 890 00 00         : PHID         - DENSITY POROSITY (SANDSTONE)
~PARAMETER INFORMATION
#MNEM.UNIT           DATA             DESCRIPTION OF MNEMONIC
#---------         -----------     ------------------------------
GL  .M        707                  : gl           - GROUND LEVEL ELEVATION
EREF.M        710.3                : kb           - ELEVATION OF DEPTH REFERENCE
DATM.M        710.3                : datum        - DATUM ELEVATION
TDD .M        612                  : tdd          - TOTAL DEPTH DRILLER
RUN .         ONE                  : Run          - RUN NUMBER
ENG .         BILL                 : Engineer     - RECORDING ENGINEER
WIT .         JIM                  : Witness      - WITNESSED BY
MUD .         GEL                  : Mud_type     - MUD TYPE
MATR.         SANDSTONE            : Logunit      - NEUTRON MATRIX
TMAX.C        25                   : BHT          - MAXIMUM RECORDED TEMPERATURE
BHTD.M        612                  : BHTDEP       - MAXIMUM RECORDED TEMPERATURE
MATR.         1                    : LOGUNIT      - NEUTRON MATRIX
RMT .C        22                   : MDTP         - TEMPERATURE OF MUD
NEUT.         1                    : NEUTRON      - NEUTRON TYPE
RESI.         0                    : RESIST       - RESISTIVITY TYPE
RMC .OHMM     2.54                 : RMC          - RESISTIVITY OF MUD CAKE
RMF .OHMM     4.82                 : RMF          - RESISTIVITY OF MUD FILTRATE
SUFT.C        15                   : SUFT         - SURFACE TEMPERATURE
~A  DEPTH     RESD       GR      CAL     PHIN     PHID
# ...
  474.500    2.745  105.209  161.736    0.461    0.229
  474.750    2.959  105.235  161.769    0.474    0.230
  475.000    3.436  105.261  162.761    0.492    0.231
  475.250    3.506  108.141  163.754    0.505    0.227
  475.500    3.384  109.306  163.797    0.500    0.230
  475.750    3.208  108.193  162.902    0.478    0.239
  476.000    3.041  104.795  161.996    0.495    0.244
  476.250    2.829  101.973  162.061    0.518    0.243
  476.500    2.995  101.442  163.032    0.535    0.235
  476.750    3.056   99.760  164.024    0.523    0.235
  477.000    3.177   99.216  164.078    0.502    0.240
  477.250    3.424  100.951  164.121    0.478    0.245
  477.500    4.049  103.248  162.266    0.495    0.241
  477.750    4.365  102.135  163.269    0.501    0.251
  478.000    4.538   93.617  163.302    0.468    0.267
  478.250    4.546   85.669  163.356    0.428    0.289
  478.500    4.470   87.980  163.388    0.411    0.290
  478.750    4.396   91.993  162.493    0.410    0.285
  479.000    4.325   97.145  162.536    0.445    0.274
  479.250    4.251  100.589  160.681    0.465    0.241
  479.500    4.337  105.184  158.825    0.474    0.241
  479.750    4.765  102.932  156.970    0.471    0.238
  480.000    5.233  100.673  157.024    0.479    0.224
  480.250    5.642   97.857  157.078    0.496    0.226
  480.500    6.083   97.314  157.110    0.512    0.231
  480.750    6.439   95.631  157.164    0.545    0.250
  481.000    6.942   92.233  157.197    0.555    0.286
  481.250    7.485   85.424  157.240    0.505    0.305
  481.500    7.782   82.038  157.294    0.461    0.326
  481.750    7.652   82.634  158.287    0.430    0.337
  482.000    7.807   83.229  158.319    0.436    0.329
  482.250    8.264   80.977  159.322    0.454    0.314
  482.500    8.592   79.870  160.315    0.449    0.325
  482.750    8.606   82.168  160.358    0.425    0.342
  483.000    8.620   85.048  160.412    0.396    0.351
  483.250    8.630   83.359  160.456    0.371    0.356
  483.500    8.648   81.676  160.499    0.377    0.364
  483.750    8.501   78.854  160.531    0.371    0.369
  484.000    8.522   75.463  160.574    0.379    0.371
  484.250    8.227   71.508  160.628    0.397    0.371
  484.500    7.943   70.964  160.672    0.402    0.364
  484.750    7.529   70.990  160.726    0.409    0.357
  485.000    7.404   74.434  160.769    0.417    0.349
  485.250    7.553   77.308  159.874    0.427    0.341
  485.500    7.850   76.770  159.895    0.436    0.330
  485.750    8.005   73.948  159.938    0.442    0.318
  486.000    8.474   71.696  159.054    0.446    0.315
  486.250    9.144   71.159  158.148    0.455    0.337
  486.500    9.506   72.324  158.180    0.466    0.338
  486.750    9.691   70.078  158.224    0.473    0.342
  487.000    9.533   68.389  158.278    0.449    0.329
  487.250    9.371   67.275  158.310    0.406    0.304
  487.500    9.047   71.852  158.353    0.316    0.251
  487.750    8.897   77.010  158.418    0.360    0.224
  488.000    8.589   73.049  158.461    0.453    0.254
  488.250    8.450   66.240  158.505    0.425    0.208
  488.500    8.309   60.576  158.548    0.335    0.245
  488.750    8.323   60.026  158.591    0.401    0.286
  489.000    8.185   64.039  159.573    0.436    0.311
  489.250    8.049   64.635  159.627    0.427    0.315
  489.500    7.915   65.230  159.670    0.423    0.320
  489.750    7.928   68.111  158.764    0.432    0.319
  490.000    7.941   72.130  159.757    0.440    0.318
  490.250    7.957   72.156  159.800    0.445    0.325
  490.500    7.970   71.613  159.854    0.445    0.327
  490.750    8.132   72.202  159.897    0.435    0.323
  491.000    8.148   79.069  158.991    0.416    0.317
  491.250    7.867   88.209  158.085    0.404    0.308
  491.500    7.320   91.659  158.128    0.394    0.298
  491.750    6.809   92.817  158.171    0.403    0.289
  492.000    6.107   90.565  158.215    0.411    0.271
  492.250    5.280   87.743  158.258    0.413    0.252
  492.500    4.735   84.927  157.362    0.424    0.236
  492.750    4.408   83.251  157.406    0.439    0.254
  493.000    4.177   81.568  157.449    0.448    0.292
  493.250    3.611   80.455  157.503    0.448    0.321
  493.500    3.121   83.322  157.535    0.456    0.324
  493.750    2.602   90.183  160.427    0.468    0.305
  494.000    2.465   91.925  161.419    0.483    0.298
  494.250    2.337   91.957  161.462    0.483    0.299
  494.500    2.258   97.672  160.556    0.494    0.294
  494.750    2.260  104.533  157.762    0.524    0.305
  495.000    2.482  106.838  155.907    0.583    0.319
  495.250    2.628  102.313  155.950    0.573    0.320
  495.500    2.680  100.637  156.943    0.530    0.305
  495.750    2.684  101.802  159.845    0.498    0.284
  496.000    2.691  101.822  161.797    0.482    0.272
  496.250    2.694  101.278  161.851    0.487    0.262
  496.500    2.800  100.734  161.884    0.538    0.256
  496.750    2.964  100.760  160.967    0.549    0.253
  497.000    3.377  100.799  161.010    0.544    0.253
  497.250    4.143  100.256  161.053    0.534    0.255
  497.500    5.081   96.858  161.097    0.524    0.261
  497.750    6.348   92.327  161.140    0.511    0.276
  498.000    7.646   88.935  158.335    0.496    0.289
  498.250    8.874   84.404  159.339    0.489    0.303
  498.500   10.685   79.873  162.230    0.506    0.307
  498.750   12.405   79.330  164.172    0.512    0.316
  499.000   12.892   74.229  164.215    0.491    0.331
  499.250   12.913   70.844  163.309    0.479    0.343
  499.500   12.703   69.161  161.464    0.486    0.347
  499.750   12.492   68.048  161.507    0.489    0.349
  500.000   12.285   69.213  162.511    0.476    0.357
  500.250   12.305   70.954  164.453    0.484    0.362
  500.500   12.325   69.265  165.445    0.489    0.362
  500.750   12.345   67.595  165.488    0.485    0.357
  501.000   12.600   68.178  165.532    0.492    0.356
  501.250   12.621   71.058  165.575    0.490    0.357
  501.500   12.642   72.799  166.578    0.488    0.358
  501.750   14.136   70.540  167.571    0.495    0.356
  502.000   20.468   66.579  167.614    0.499    0.356
  502.250   18.699   62.048  167.657    0.475    0.344
  502.500   14.211   56.948  167.700    0.438    0.237
  502.750   11.621   53.556  167.744    0.309    0.136
  503.000   10.237   52.443  167.787    0.243    0.175
  503.250    9.703   54.754  167.830    0.340    0.242
  503.500    9.719   59.330  166.935    0.395    0.291
  503.750    9.739   65.058  166.029    0.430    0.320
  504.000    9.751   71.926  166.072    0.455    0.321
  504.250    9.767   72.522  166.115    0.477    0.321
  504.500    9.783   74.250  166.158    0.468    0.326
  504.750    9.620   74.858  166.202    0.458    0.326
  505.000    9.460   73.739  166.245    0.465    0.323
  505.250    9.303   72.056  166.299    0.475    0.320
  505.500    9.152   70.942  166.353    0.480    0.320
  505.750    9.000   70.399  166.375    0.461    0.322
  506.000    8.689   72.134  165.469    0.442    0.322
  506.250    8.389   75.584  164.584    0.452    0.322
  506.500    8.249   75.609  163.667    0.451    0.318
  506.750    7.964   77.914  162.772    0.447    0.306
  507.000    7.689   82.496  161.866    0.442    0.295
  507.250    7.561   84.801  160.021    0.441    0.287
  507.500    7.435   83.694  159.104    0.431    0.280
  507.750    7.178   83.720  159.158    0.424    0.270
  508.000    7.062   84.322  159.180    0.434    0.268
  508.250    6.693   84.918  159.223    0.443    0.267
  508.500    6.462   84.374  160.227    0.451    0.257
  508.750    6.236   83.830  162.179    0.449    0.256
  509.000    5.805   84.426  163.161    0.445    0.257
  509.250    5.711   86.154  164.164    0.462    0.253
  509.500    5.614   89.034  165.157    0.487    0.250
  509.750    5.623   91.345  166.149    0.494    0.257
  510.000    5.844   89.086  167.153    0.475    0.264
  510.250    6.073   87.973  168.156    0.447    0.269
  510.500    6.311   87.429  168.189    0.445    0.267
  510.750    6.439   92.012  167.272    0.456    0.255
