~VERSION INFORMATION
 VERS.                 2.0:   CWLS LOG ASCII STANDARD -VERSION 2.0
 WRAP.                  NO:   ONE LINE PER DEPTH STEP
~WELL INFORMATION BLOCK
#MNEM.UNIT           DATA                    DESCRIPTION OF MNEMONIC
#---------    -------------------            -------------------------------
# Generated from Intellog Unique Number	CC_80_83/WELL/920
WELL.         PARAMOUNT RES.                 : Well_name    - WELL
LOC .         00/14-20-081-06W4/0            : Location     - LOCATION
UWI .         00/14-20-081-06W4/0            : Uwi          - UNIQUE WELL ID
ENTR.         TIM                            : Entered      - ENTERED BY
SRVC.         SCHLUMBERGER                   : Scn          - SERVICE COMPANY
STRT.M        65                             : top_depth    - START DEPTH
STOP.M        280                            : bot_depth    - STOP DEPTH
STEP.M        0.25                           : increment    - STEP LENGTH
 NULL. -999.2500:NULL Value
~CURVE INFORMATION BLOCK
#MNEM UNIT       ERCB CURVE CODE    CURVE DESCRIPTION
#-----------   ------------------   ----------------------------------
DEPT.M        00 001 00 00         : DEPTH        - DEPTH
GR  .API      00 310 00 00         : GR           - GAMMA RAY
NPHI.V/V      00 330 00 00         : PHIN         - NEUTRON POROSITY (SANDSTONE)
DPHI.V/V      00 890 00 00         : PHID         - DENSITY POROSITY (SANDSTONE)
ILD .OHMM     00 120 00 00         : RESD         - DEEP RESISTIVITY (DIL)
~PARAMETER INFORMATION
#MNEM.UNIT           DATA             DESCRIPTION OF MNEMONIC
#---------         -----------     ------------------------------
GL  .M        500.9                : gl           - GROUND LEVEL ELEVATION
EREF.M        504                  : kb           - ELEVATION OF DEPTH REFERENCE
DATM.M        504                  : datum        - DATUM ELEVATION
TDD .M        278                  : tdd          - TOTAL DEPTH DRILLER
RUN .         ONE                  : Run          - RUN NUMBER
ENG .         BILL                 : Engineer     - RECORDING ENGINEER
WIT .         JIM                  : Witness      - WITNESSED BY
MUD .         GEL                  : Mud_type     - MUD TYPE
MATR.         SANDSTONE            : Logunit      - NEUTRON MATRIX
TMAX.C        18                   : BHT          - MAXIMUM RECORDED TEMPERATURE
BHTD.M        278                  : BHTDEP       - MAXIMUM RECORDED TEMPERATURE
MATR.         1                    : LOGUNIT      - NEUTRON MATRIX
RMT .C        11                   : MDTP         - TEMPERATURE OF MUD
NEUT.         1                    : NEUTRON      - NEUTRON TYPE
RESI.         6                    : RESIST       - RESISTIVITY TYPE
RMC .OHMM     7                    : RMC          - RESISTIVITY OF MUD CAKE
RMF .OHMM     5                    : RMF          - RESISTIVITY OF MUD FILTRATE
SUFT.C        4                    : SUFT         - SURFACE TEMPERATURE
~A  DEPTH       GR     PHIN     PHID     RESD
# ...
  195.500  100.086    0.494    0.244    5.062
  195.750  100.554    0.495    0.252    5.242
  196.000  101.113    0.485    0.262    5.846
  196.250  101.000    0.452    0.290    6.408
  196.500   97.909    0.433    0.317    7.283
  196.750   90.540    0.415    0.331    8.591
  197.000   84.985    0.407    0.334    9.581
  197.250   80.080    0.402    0.325    9.389
  197.500   81.780    0.429    0.309    8.543
  197.750   85.921    0.457    0.276    6.459
  198.000   91.294    0.463    0.258    5.357
  198.250   96.645    0.505    0.257    4.874
  198.500  107.436    0.514    0.260    4.603
  198.750  105.554    0.466    0.265    4.769
  199.000   90.303    0.422    0.270    5.519
  199.250   86.585    0.391    0.274    6.390
  199.500   83.471    0.364    0.281    7.399
  199.750   80.334    0.345    0.291    8.571
  200.000   77.848    0.320    0.267   10.491
  200.250   72.293    0.283    0.206   12.842
  200.500   66.761    0.235    0.095   14.869
  200.750   62.438    0.322    0.063   14.035
  201.000   57.487    0.367    0.041   13.501
  201.250   61.024    0.393    0.188   12.749
  201.500   70.629    0.406    0.256   12.733
  201.750   72.934    0.416    0.297    9.449
  202.000   72.238    0.393    0.304    9.610
  202.250   70.915    0.386    0.281    9.764
  202.500   70.265    0.369    0.247    9.939
  202.750   69.547    0.358    0.093    9.922
  203.000   70.083    0.359    0.067    9.532
  203.250   76.643    0.387    0.116    9.174
  203.500   86.225    0.419    0.182    8.191
  203.750   90.971    0.429    0.207    7.741
  204.000   90.880    0.441    0.230    7.041
  204.250   92.626    0.445    0.237    6.773
  204.500   96.162    0.436    0.233    6.762
  204.750   97.862    0.422    0.232    7.263
  205.000   98.353    0.423    0.231    7.390
  205.250   98.308    0.426    0.231    7.522
  205.500   98.821    0.423    0.232    7.789
  205.750   99.312    0.420    0.232    8.066
  206.000   99.803    0.413    0.231    8.056
  206.250  100.340    0.406    0.231    8.042
  206.500  100.876    0.408    0.231    7.318
  206.750  101.994    0.440    0.230    6.537
  207.000  100.694    0.446    0.228    5.839
  207.250   98.744    0.461    0.226    5.617
  207.500   97.444    0.471    0.226    4.656
  207.750   96.771    0.477    0.233    4.159
  208.000   96.053    0.487    0.249    3.647
  208.250   95.962    0.495    0.260    3.319
  208.500   95.894    0.509    0.268    3.018
  208.750   96.385    0.526    0.275    2.747
  209.000   95.666    0.526    0.278    2.546
  209.250   95.016    0.517    0.278    2.449
  209.500   93.671    0.496    0.270    2.537
  209.750   92.998    0.475    0.263    2.728
  210.000   91.652    0.468    0.248    2.933
  210.250   91.584    0.461    0.238    3.332
  210.500   91.493    0.454    0.228    3.860
  210.750   91.379    0.430    0.230    4.724
  211.000   91.939    0.411    0.236    5.570
  211.250   92.452    0.404    0.239    5.776
  211.500   92.339    0.400    0.237    5.658
  211.750   92.270    0.406    0.232    5.340
  212.000   92.157    0.437    0.219    5.137
  212.250   93.275    0.450    0.219    4.760
  212.500   96.812    0.453    0.230    4.581
  212.750  100.348    0.458    0.232    4.328
  213.000  102.676    0.468    0.231    4.008
  213.250  103.794    0.474    0.232    3.857
  213.500  103.726    0.479    0.231    3.641
  213.750  103.635    0.479    0.232    3.502
  214.000  102.939    0.479    0.236    3.432
  214.250  102.848    0.482    0.238    3.303
  214.500  102.757    0.487    0.240    3.236
  214.750  102.644    0.492    0.240    3.230
  215.000  102.553    0.493    0.239    3.164
  215.250  103.066    0.494    0.239    3.160
  215.500  102.998    0.489    0.242    3.212
  215.750  103.512    0.483    0.242    3.210
  216.000  104.607    0.477    0.243    3.383
  216.250  104.539    0.475    0.241    3.443
  216.500  105.634    0.468    0.241    3.503
  216.750  106.148    0.465    0.240    3.763
  217.000  102.384    0.444    0.241    3.830
  217.250  100.525    0.417    0.241    4.118
  217.500   97.411    0.415    0.237    4.679
  217.750   92.438    0.415    0.233    5.032
  218.000   91.743    0.422    0.230    5.827
  218.250   91.652    0.434    0.220    6.036
  218.500   89.747    0.411    0.198    6.139
  218.750   85.447    0.400    0.189    6.600
  219.000   78.683    0.383    0.168    7.225
  219.250   73.128    0.360    0.206    7.765
  219.500   70.618    0.346    0.256    8.051
  219.750   68.714    0.327    0.303    8.807
  220.000   68.600    0.314    0.319    9.132
  220.250   69.114    0.307    0.314    9.464
  220.500   70.232    0.314    0.307    9.625
  220.750   71.977    0.323    0.300    9.967
  221.000   74.887    0.347    0.276    9.763
  221.250   76.050    0.373    0.270    9.400
  221.500   80.192    0.380    0.258    7.790
  221.750   83.728    0.403    0.249    6.830
  222.000   87.869    0.430    0.241    6.215
  222.250   91.383    0.434    0.245    5.658
  222.500   93.710    0.435    0.256    4.866
  222.750   90.619    0.407    0.273    4.681
  223.000   82.669    0.394    0.289    4.851
  223.250   72.277    0.347    0.306    5.311
  223.500   68.536    0.319    0.328    6.384
  223.750   64.795    0.289    0.342    7.675
  224.000   67.145    0.275    0.352    9.931
  224.250   69.495    0.273    0.341   11.288
  224.500   73.032    0.280    0.336   11.913
  224.750   74.754    0.298    0.332   11.888
  225.000   75.246    0.328    0.325   11.868
  225.250   75.177    0.349    0.308   11.847
  225.500   76.273    0.357    0.297   12.049
  225.750   76.182    0.346    0.286   12.258
  226.000   73.672    0.276    0.293   13.179
  226.250   68.140    0.265    0.306   15.259
  226.500   65.586    0.241    0.317   19.384
  226.750   67.331    0.230    0.330   23.727
  227.000   70.286    0.222    0.336   29.044
  227.250   74.427    0.204    0.341   29.524
  227.500   79.777    0.187    0.344   26.854
  227.750   84.546    0.175    0.332   25.854
  228.000   89.896    0.212    0.279   23.526
  228.250   84.969    0.277    0.270   21.799
  228.500   72.763    0.277    0.275   21.761
  228.750   64.185    0.211    0.289   26.159
  229.000   59.258    0.164    0.331   37.833
  229.250   57.958    0.146    0.355   49.874
  229.500   58.449    0.124    0.364   51.669
  229.750   58.940    0.118    0.367   49.683
  230.000   59.476    0.119    0.364   47.814
  230.250   60.571    0.125    0.353   45.113
  230.500   62.340    0.135    0.346   44.246
  230.750   65.226    0.147    0.339   42.546
  231.000   66.949    0.148    0.343   42.473
  231.250   67.508    0.138    0.354   41.605
  231.500   69.835    0.134    0.343   41.569
  231.750   69.140    0.149    0.316   42.257
  232.000   66.631    0.181    0.310   42.167
  232.250   62.867    0.175    0.340   42.113
  232.500   60.358    0.149    0.350   43.592
  232.750   60.848    0.138    0.356   43.555
  233.000   62.594    0.128    0.358   43.462
  233.250   64.944    0.119    0.356   42.592
  233.500   69.062    0.121    0.351   40.237
  233.750   71.413    0.123    0.348   34.633
  234.000   70.112    0.157    0.343   25.219
  234.250   64.580    0.203    0.337   20.533
  234.500   59.653    0.232    0.322   17.349
  234.750   55.912    0.269    0.301   14.652
  235.000   61.262    0.298    0.281   12.606
  235.250   67.844    0.335    0.268   11.690
  235.500   66.544    0.350    0.273   11.039
  235.750   60.989    0.356    0.279   10.229
  236.000   57.225    0.353    0.287    9.840
  236.250   55.343    0.345    0.295    9.465
  236.500   54.066    0.333    0.299    8.934
  236.750   52.138    0.325    0.293    8.591
  237.000   52.047    0.318    0.291    8.584
  237.250   55.002    0.319    0.283    8.412
  237.500   60.352    0.325    0.273    8.551
  237.750   65.076    0.333    0.276    8.692
  238.000   63.753    0.336    0.282    8.844
  238.250   62.498    0.343    0.292    8.832
  238.500   59.966    0.344    0.295    8.978
  238.750   58.666    0.348    0.289    8.963
