~VERSION INFORMATION
 VERS.                 2.0:   CWLS LOG ASCII STANDARD -VERSION 2.0
 WRAP.                  NO:   ONE LINE PER DEPTH STEP
~WELL INFORMATION BLOCK
#MNEM.UNIT           DATA                    DESCRIPTION OF MNEMONIC
#---------    -------------------            -------------------------------
# Generated from Intellog Unique Number	CS_67_68/WELL/2191
WELL.         MANNVILLE et al ATMORE         : Well_name    - WELL
LOC .         00/10-06-067-15W4/0            : Location     - LOCATION
UWI .         00/10-06-067-15W4/0            : Uwi          - UNIQUE WELL ID
ENTR.         SP                             : Entered      - ENTERED BY
SRVC.         SCHLUMBERGER                   : Scn          - SERVICE COMPANY
STRT.M        345                            : top_depth    - START DEPTH
STOP.M        534                            : bot_depth    - STOP DEPTH
STEP.M        0.25                           : increment    - STEP LENGTH
 NULL. -999.2500:NULL Value
~CURVE INFORMATION BLOCK
#MNEM UNIT       ERCB CURVE CODE    CURVE DESCRIPTION
#-----------   ------------------   ----------------------------------
DEPT.M        00 001 00 00         : DEPTH        - DEPTH
ILD .OHMM     00 120 00 00         : RESD         - DEEP RESISTIVITY (DIL)
DPHI.V/V      00 890 00 00         : PHID         - DENSITY POROSITY (LIMESTONE)
NPHI.V/V      00 330 00 00         : PHIN         - NEUTRON POROSITY (LIMESTONE)
GR  .API      00 310 00 00         : GR           - GAMMA RAY
CALI.MM       00 280 01 00         : CAL          - CALIPER
~PARAMETER INFORMATION
#MNEM.UNIT           DATA             DESCRIPTION OF MNEMONIC
#---------         -----------     ------------------------------
GL  .M        588                  : gl           - GROUND LEVEL ELEVATION
EREF.M        592.1                : kb           - ELEVATION OF DEPTH REFERENCE
DATM.M        592.1                : datum        - DATUM ELEVATION
TDD .M        534.7                : tdd          - TOTAL DEPTH DRILLER
RUN .         ONE                  : Run          - RUN NUMBER
ENG .         BILL                 : Engineer     - RECORDING ENGINEER
WIT .         JIM                  : Witness      - WITNESSED BY
MUD .         GEL                  : Mud_type     - MUD TYPE
MATR.         LIMESTONE            : Logunit      - NEUTRON MATRIX
TMAX.C        27                   : BHT          - MAXIMUM RECORDED TEMPERATURE
BHTD.M        535                  : BHTDEP       - MAXIMUM RECORDED TEMPERATURE
MATR.         1                    : LOGUNIT      - NEUTRON MATRIX
RMT .C        25                   : MDTP         - TEMPERATURE OF MUD
NEUT.         1                    : NEUTRON      - NEUTRON TYPE
RESI.         0                    : RESIST       - RESISTIVITY TYPE
RMC .OHMM     0.25                 : RMC          - RESISTIVITY OF MUD CAKE
RMF .OHMM     0.25                 : RMF          - RESISTIVITY OF MUD FILTRATE
SUFT.C        15                   : SUFT         - SURFACE TEMPERATURE
~A  DEPTH     RESD     PHID     PHIN       GR      CAL
# ...
  418.000    3.259    0.177    0.371  103.755  164.152
  418.250    2.949    0.173    0.407  106.145  165.266
  418.500    2.720    0.180    0.440  114.443  166.685
  418.750    2.537    0.196    0.465  121.572  169.949
  419.000    2.362    0.209    0.493  126.239  172.804
  419.250    2.271    0.219    0.498  118.965  172.581
  419.500    2.167    0.228    0.471  113.970  167.023
  419.750    2.494    0.220    0.448  109.773  162.798
  420.000    2.533    0.208    0.422  106.684  159.702
  420.250    2.449    0.247    0.405  101.381  158.352
  420.500    2.413    0.266    0.399   92.752  156.790
  420.750    2.414    0.271    0.396   87.572  156.265
  421.000    2.475    0.265    0.398   88.853  155.425
  421.250    2.581    0.261    0.404   90.444  154.998
  421.500    2.656    0.267    0.414   87.108  154.775
  421.750    2.770    0.271    0.423   85.375  154.345
  422.000    2.745    0.276    0.416   82.532  153.814
  422.250    2.679    0.276    0.402   85.967  153.489
  422.500    2.650    0.266    0.395   88.974  155.419
  422.750    2.661    0.241    0.409   97.518  160.428
  423.000    2.698    0.222    0.421  107.232  164.617
  423.250    2.755    0.226    0.413  106.483  168.395
  423.500    2.857    0.253    0.401   96.007  171.043
  423.750    2.980    0.269    0.390   89.718  159.330
  424.000    3.289    0.283    0.403   85.646  154.900
  424.250    3.827    0.295    0.256   78.803  153.447
  424.500    4.794    0.114    0.240   73.806  153.835
  424.750    6.380    0.076    0.235   69.118  154.538
  425.000    7.812    0.057    0.247   64.922  155.136
  425.250    9.567    0.083    0.254   61.218  154.907
  425.500   11.007    0.122    0.265   63.361  154.481
  425.750   10.171    0.148    0.223   65.997  154.055
  426.000    8.095    0.075    0.162   68.141  153.629
  426.250    6.935    0.024    0.150   68.623  154.534
  426.500    5.853    0.037    0.202   69.043  155.439
  426.750    5.015    0.218    0.300   73.894  155.833
  427.000    4.329    0.249    0.342   79.916  155.710
  427.250    3.723    0.262    0.377   82.428  154.668
  427.500    3.184    0.252    0.401   84.141  153.622
  427.750    2.987    0.238    0.424   87.885  153.196
  428.000    3.085    0.227    0.448   89.228  153.281
  428.250    3.199    0.216    0.436   89.894  153.673
  428.500    3.407    0.203    0.407   90.499  153.752
  428.750    3.593    0.194    0.388   90.303  153.842
  429.000    3.790    0.181    0.377   90.476  154.541
  429.250    3.990    0.172    0.391   92.004  155.442
  429.500    4.161    0.167    0.403   93.841  155.942
  429.750    4.314    0.166    0.403   95.492  155.922
  430.000    4.449    0.175    0.398   95.112  155.802
  430.250    4.425    0.180    0.401   93.745  155.374
  430.500    4.151    0.184    0.408   93.489  155.150
  430.750    3.814    0.189    0.412   94.586  155.647
  431.000    3.558    0.199    0.417   94.823  156.346
  431.250    3.395    0.213    0.412   94.320  156.942
  431.500    3.301    0.227    0.413   94.985  157.234
  431.750    3.241    0.225    0.416   95.283  157.009
  432.000    3.218    0.211    0.425   93.917  156.480
  432.250    3.287    0.203    0.435   95.200  155.431
  432.500    3.376    0.197    0.436   96.665  155.005
  432.750    3.448    0.194    0.421   97.514  155.092
  433.000    3.502    0.191    0.410   98.306  155.382
  433.250    3.517    0.188    0.407  100.326  155.976
  433.500    3.525    0.183    0.416  102.716  156.165
  433.750    3.539    0.183    0.424  105.044  156.764
  434.000    3.547    0.192    0.432  106.757  158.182
  434.250    3.576    0.195    0.442  102.621  158.983
  434.500    3.625    0.190    0.429   99.716  159.377
  434.750    3.674    0.184    0.420   98.538  159.050
  435.000    3.704    0.178    0.412   97.727  158.521
  435.250    3.705    0.175    0.421   97.100  158.501
  435.500    3.699    0.173    0.424   98.134  158.689
  435.750    3.666    0.167    0.394   98.371  158.360
  436.000    3.585    0.160    0.379   93.991  157.523
  436.250    3.467    0.176    0.391   87.886  157.405
  436.500    3.358    0.195    0.403   86.891  158.104
  436.750    3.217    0.200    0.416   89.650  159.318
  437.000    3.128    0.201    0.425   96.532  159.504
  437.250    3.213    0.217    0.424   99.784  158.768
  437.500    3.351    0.230    0.412   98.050  157.417
  437.750    3.521    0.221    0.404   96.007  156.063
  438.000    3.665    0.205    0.399   96.428  155.532
  438.250    3.815    0.188    0.391   98.079  155.412
  438.500    3.963    0.169    0.402  100.284  155.702
  438.750    4.095    0.160    0.413  102.858  156.400
  439.000    4.142    0.154    0.400  104.139  156.794
  439.250    4.215    0.159    0.387  103.760  156.467
  439.500    4.281    0.164    0.397   99.933  155.733
  439.750    4.340    0.165    0.406   98.382  154.891
  440.000    4.366    0.167    0.416   97.450  155.082
  440.250    4.359    0.171    0.423   96.146  155.879
  440.500    4.361    0.175    0.431   95.212  156.687
  440.750    4.322    0.171    0.424   94.954  158.101
  441.000    4.195    0.165    0.415   94.206  158.906
  441.250    4.094    0.160    0.406   95.732  159.609
  441.500    3.944    0.160    0.399   97.875  160.512
  441.750    3.843    0.169    0.392   99.035  160.598
  442.000    3.701    0.172    0.404  100.317  160.579
  442.250    3.572    0.170    0.416  102.522  160.560
  442.500    3.467    0.173    0.423  104.727  160.544
  442.750    3.582    0.169    0.427  106.870  160.524
  443.000    3.463    0.170    0.449  108.028  160.199
  443.250    3.412    0.178    0.458  108.141  160.079
  443.500    3.375    0.184    0.441  109.976  159.650
  443.750    3.364    0.186    0.430  108.920  159.531
  444.000    3.391    0.184    0.430  105.340  159.307
  444.250    3.379    0.175    0.431  102.435  159.188
  444.500    3.317    0.166    0.431  104.148  158.756
  444.750    3.250    0.158    0.431  104.384  158.330
  445.000    3.215    0.159    0.426  104.433  157.798
  445.250    3.198    0.173    0.421  106.517  157.473
  445.500    3.229    0.183    0.417  108.475  157.661
  445.750    3.311    0.193    0.415  109.511  157.744
  446.000    3.408    0.204    0.401  109.500  157.728
  446.250    3.448    0.181    0.373   94.347  157.710
  446.500    3.430    0.145    0.347   85.351  157.282
  446.750    3.373    0.133    0.332   82.078  156.238
  447.000    3.299    0.159    0.355   88.898  155.297
  447.250    3.263    0.178    0.380   93.012  153.941
  447.500    3.320    0.201    0.397   96.140  153.208
  447.750    3.353    0.202    0.416   98.529  152.573
  448.000    3.386    0.203    0.397   96.427  153.582
  448.250    3.426    0.201    0.377   96.416  156.128
  448.500    3.434    0.198    0.364   97.143  156.522
  448.750    3.345    0.199    0.381   97.132  155.887
  449.000    3.192    0.197    0.411  100.261  155.870
  449.250    3.017    0.189    0.425  102.835  156.467
  449.500    2.863    0.183    0.403   97.900  156.860
  449.750    2.711    0.178    0.392   94.195  156.329
  450.000    2.577    0.192    0.405   91.537  154.156
  450.250    2.445    0.209    0.413   89.065  151.266
  450.500    2.320    0.223    0.416   87.209  148.991
  450.750    2.260    0.238    0.398   86.336  150.305
  451.000    2.462    0.245    0.385   86.633  151.313
  451.250    2.692    0.236    0.404   84.530  152.938
  451.500    2.965    0.245    0.418   73.255  154.357
  451.750    3.260    0.258    0.387   63.704  155.158
  452.000    3.518    0.271    0.353   57.661  155.449
  452.250    3.710    0.197    0.297   53.958  154.917
  452.500    3.352    0.128    0.244   51.300  154.591
  452.750    2.943    0.096    0.252   51.535  154.264
  453.000    2.522    0.084    0.349   55.278  154.248
  453.250    2.202    0.190    0.374   59.146  153.717
  453.500    2.023    0.239    0.396   62.950  152.982
  453.750    1.934    0.267    0.407   65.218  152.450
  454.000    1.884    0.284    0.412   67.114  152.125
  454.250    1.874    0.295    0.410   68.520  151.900
