~VERSION INFORMATION
 VERS.                 2.0:   CWLS LOG ASCII STANDARD -VERSION 2.0
 WRAP.                  NO:   ONE LINE PER DEPTH STEP
~WELL INFORMATION BLOCK
#MNEM.UNIT           DATA                    DESCRIPTION OF MNEMONIC
#---------    -------------------            -------------------------------
# Generated from Intellog Unique Number	CW_82_90/WELL/3449
WELL.         CHEVRON FINA TROUT             : Well_name    - WELL
LOC .         00/11-18-088-02W5/0            : Location     - LOCATION
UWI .         00/11-18-088-02W5/0            : Uwi          - UNIQUE WELL ID
ENTR.         MAX                            : Entered      - ENTERED BY
SRVC.         SCHLUMBERGER                   : Scn          - SERVICE COMPANY
STRT.M        381                            : top_depth    - START DEPTH
STOP.M        551.75                         : bot_depth    - STOP DEPTH
STEP.M        0.25                           : increment    - STEP LENGTH
 NULL. -999.2500:NULL Value
~CURVE INFORMATION BLOCK
#MNEM UNIT       ERCB CURVE CODE    CURVE DESCRIPTION
#-----------   ------------------   ----------------------------------
DEPT.M        00 001 00 00         : DEPTH        - DEPTH
ILD .OHMM     00 120 00 00         : RESD         - DEEP RESISTIVITY (DIL)
NPHI.V/V      00 330 00 00         : PHIN         - NEUTRON POROSITY (SANDSTONE)
DPHI.V/V      00 890 00 00         : PHID         - DENSITY POROSITY (SANDSTONE)
CALI.MM       00 280 01 00         : CAL          - CALIPER
GR  .API      00 310 00 00         : GR           - GAMMA RAY
~PARAMETER INFORMATION
#MNEM.UNIT           DATA             DESCRIPTION OF MNEMONIC
#---------         -----------     ------------------------------
GL  .M        738.896              : gl           - GROUND LEVEL ELEVATION
EREF.M        742.493              : kb           - ELEVATION OF DEPTH REFERENCE
DATM.M        738.896              : datum        - DATUM ELEVATION
TDD .M        555.041              : tdd          - TOTAL DEPTH DRILLER
RUN .         ONE                  : Run          - RUN NUMBER
ENG .         BILL                 : Engineer     - RECORDING ENGINEER
WIT .         JIM                  : Witness      - WITNESSED BY
MUD .         GEL                  : Mud_type     - MUD TYPE
MATR.         SANDSTONE            : Logunit      - NEUTRON MATRIX
TMAX.C        23.3333              : BHT          - MAXIMUM RECORDED TEMPERATURE
BHTD.M        555.041              : BHTDEP       - MAXIMUM RECORDED TEMPERATURE
MATR.         1                    : LOGUNIT      - NEUTRON MATRIX
RMT .C        17.2222              : MDTP         - TEMPERATURE OF MUD
NEUT.         1                    : NEUTRON      - NEUTRON TYPE
RESI.         0                    : RESIST       - RESISTIVITY TYPE
RMC .OHMM     5.05                 : RMC          - RESISTIVITY OF MUD CAKE
RMF .OHMM     8.05                 : RMF          - RESISTIVITY OF MUD FILTRATE
SUFT.C        -23.3333             : SUFT         - SURFACE TEMPERATURE
~A  DEPTH     RESD     PHIN     PHID      CAL       GR
# ...
  417.500    2.195    0.593    0.247  205.731   79.387
  417.750    2.431    0.588    0.239  207.338   75.651
  418.000    2.791    0.592    0.234  214.459   75.729
  418.250    3.446    0.592    0.234  214.592   76.697
  418.500    4.216    0.583    0.236  209.242   77.372
  418.750    4.930    0.568    0.243  204.903   78.331
  419.000    5.266    0.555    0.241  203.081   78.996
  419.250    4.999    0.557    0.242  202.700   79.357
  419.500    4.532    0.580    0.252  201.358   79.455
  419.750    3.653    0.592    0.247  199.006   79.817
  420.000    3.109    0.611    0.236  198.642   83.729
  420.250    2.553    0.632    0.214  198.757   86.155
  420.500    2.336    0.655    0.217  198.409   84.756
  420.750    2.217    0.669    0.220  198.061   84.560
  421.000    2.201    0.684    0.226  198.194   82.868
  421.250    2.330    0.692    0.238  198.310   80.012
  421.500    2.534    0.666    0.246  197.978   77.156
  421.750    2.857    0.633    0.241  198.094   76.657
  422.000    3.280    0.596    0.236  199.220   75.610
  422.250    3.700    0.572    0.235  198.872   75.933
  422.500    3.914    0.556    0.247  198.060   75.444
  422.750    4.105    0.536    0.252  198.176   75.806
  423.000    4.305    0.521    0.244  197.795   77.351
  423.250    4.473    0.524    0.243  196.934   76.852
  423.500    4.564    0.522    0.258  197.066   73.390
  423.750    4.140    0.540    0.274  196.702   73.791
  424.000    3.654    0.557    0.286  196.834   75.923
  424.250    3.254    0.584    0.271  197.000   79.806
  424.500    2.952    0.602    0.257  199.616   86.642
  424.750    2.751    0.613    0.234  200.726   89.968
  425.000    2.564    0.626    0.210  201.371   88.862
  425.250    2.500    0.636    0.197  201.024   87.776
  425.500    2.484    0.645    0.187  200.659   88.158
  425.750    2.534    0.653    0.191  200.775   90.583
  426.000    2.586    0.647    0.231  200.940   93.312
  426.250    2.663    0.633    0.243  201.073   92.510
  426.500    2.793    0.633    0.233  201.685   92.305
  426.750    2.929    0.645    0.222  202.348   89.732
  427.000    2.989    0.647    0.216  203.457   88.637
  427.250    2.995    0.634    0.217  204.086   88.421
  427.500    3.030    0.599    0.218  205.229   88.216
  427.750    3.092    0.611    0.223  204.865   88.294
  428.000    3.097    0.627    0.235  204.020   88.372
  428.250    3.133    0.645    0.226  204.649   88.754
  428.500    3.140    0.641    0.209  205.295   90.005
  428.750    3.146    0.634    0.204  205.410   92.128
  429.000    3.183    0.639    0.208  205.046   93.096
  429.250    3.188    0.637    0.214  203.721   90.533
  429.500    3.195    0.629    0.214  202.843   89.448
  429.750    3.203    0.626    0.215  200.988   88.645
  430.000    3.209    0.612    0.213  200.160   87.843
  430.250    3.276    0.590    0.186  199.762   86.454
  430.500    3.282    0.583    0.176  199.911   84.175
  430.750    3.289    0.572    0.163  200.043   83.373
  431.000    3.327    0.575    0.172  200.176   86.699
  431.250    3.364    0.589    0.205  200.325   89.124
  431.500    3.465    0.559    0.189  200.474   92.440
  431.750    3.666    0.535    0.198  200.606   93.105
  432.000    3.916    0.523    0.207  200.258   91.716
  432.250    4.296    0.505    0.211  199.397   87.980
  432.500    4.507    0.491    0.202  199.512   81.006
  432.750    4.394    0.514    0.211  199.645   80.497
  433.000    3.808    0.602    0.225  199.280   84.703
  433.250    3.583    0.588    0.233  196.928   84.194
  433.500    3.589    0.567    0.228  196.597   78.981
  433.750    3.938    0.545    0.225  196.216   74.071
  434.000    4.562    0.533    0.225  195.884   62.696
  434.250    5.484    0.512    0.224  195.503   55.145
  434.500    6.184    0.486    0.217  194.659   53.756
  434.750    6.366    0.447    0.160  194.774   56.779
  435.000    6.381    0.380    0.112  195.420   59.488
  435.250    6.114    0.422    0.248  195.553   63.684
  435.500    5.747    0.455    0.277  193.217   66.725
  435.750    5.260    0.460    0.261  193.846   68.251
  436.000    4.902    0.476    0.266  193.962   70.980
  436.250    4.912    0.483    0.244  193.614   73.708
  436.500    4.970    0.488    0.231  194.773   72.623
  436.750    5.024    0.473    0.235  194.922   70.344
  437.000    5.128    0.467    0.233  195.022   66.011
  437.250    5.234    0.463    0.238  195.170   64.945
  437.500    5.293    0.486    0.260  194.823   62.949
  437.750    5.352    0.519    0.275  194.441   60.093
  438.000    5.412    0.494    0.276  194.557   58.704
  438.250    5.474    0.480    0.248  194.706   60.553
  438.500    5.584    0.508    0.253  194.839   64.162
  438.750    5.804    0.508    0.236  194.987   68.651
  439.000    5.869    0.462    0.214  194.640   73.424
  439.250    5.672    0.444    0.217  193.762   76.739
  439.500    5.383    0.470    0.217  193.894   75.350
  439.750    5.203    0.509    0.224  194.540   75.125
  440.000    4.762    0.506    0.250  195.666   75.800
  440.250    4.359    0.499    0.235  198.282   76.759
  440.500    4.137    0.515    0.224  200.419   77.424
  440.750    4.072    0.539    0.224  200.568   77.511
  441.000    4.079    0.521    0.216  197.719   77.306
  441.250    4.127    0.504    0.222  194.887   75.917
  441.500    4.098    0.509    0.235  194.522   76.572
  441.750    3.616    0.526    0.246  194.671   80.181
  442.000    3.221    0.563    0.242  194.770   84.680
  442.250    3.141    0.611    0.236  200.898   85.639
  442.500    3.008    0.628    0.236  200.534   83.956
  442.750    2.631    0.647    0.240  197.685   85.502
  443.000    2.386    0.653    0.243  196.823   88.514
  443.250    2.327    0.639    0.254  196.459   90.372
  443.500    2.249    0.624    0.256  196.591   90.460
  443.750    2.115    0.618    0.266  196.740   91.115
  444.000    2.026    0.629    0.274  196.873   92.367
  444.250    1.994    0.629    0.258  197.021   95.096
  444.500    1.998    0.631    0.244  197.154   97.531
  444.750    2.002    0.646    0.247  197.270   97.316
  445.000    2.062    0.630    0.244  196.922   94.157
  445.250    2.163    0.618    0.235  197.071   91.311
  445.500    2.289    0.626    0.236  197.186   91.398
  445.750    2.443    0.629    0.241  197.319   91.760
  446.000    2.657    0.616    0.236  196.474   90.665
  446.250    2.811    0.602    0.233  196.606   86.635
  446.500    3.114    0.589    0.234  196.275   81.129
  446.750    3.355    0.576    0.235  195.380   72.991
  447.000    3.649    0.561    0.249  195.033   67.201
  447.250    3.896    0.544    0.256  194.685   60.237
  447.500    4.275    0.520    0.254  193.823   58.848
  447.750    4.821    0.504    0.239  193.939   63.327
  448.000    5.147    0.501    0.216  194.071   61.938
  448.250    5.302    0.464    0.169  195.264   65.547
  448.500    5.410    0.445    0.151  195.843   74.438
  448.750    5.523    0.439    0.155  197.466   75.690
  449.000    5.482    0.453    0.219  199.619   74.907
  449.250    5.205    0.467    0.222  199.768   77.919
  449.500    4.940    0.470    0.221  199.867   80.061
  449.750    4.520    0.472    0.213  200.016   80.726
  450.000    4.251    0.517    0.226  200.149   80.501
  450.250    4.071    0.538    0.247  200.297   80.002
  450.500    3.935    0.547    0.248  200.463   81.254
  450.750    3.803    0.565    0.229  200.562   83.973
  451.000    3.881    0.560    0.235  200.694   83.778
  451.250    3.959    0.546    0.226  200.843   81.802
  451.500    4.115    0.551    0.216  200.976   79.523
  451.750    4.395    0.555    0.222  201.605   75.796
  452.000    4.737    0.539    0.223  201.737   76.168
  452.250    5.056    0.515    0.213  200.893   74.182
  452.500    5.254    0.494    0.192  200.528   71.913
  452.750    5.363    0.467    0.207  200.164   70.240
  453.000    5.474    0.445    0.212  197.315   69.155
  453.250    5.584    0.444    0.204  196.453   69.830
  453.500    5.699    0.440    0.210  195.642   70.191
  453.750    5.660    0.424    0.217  195.774   69.379
