~VERSION INFORMATION
 VERS.                 2.0:   CWLS LOG ASCII STANDARD -VERSION 2.0
 WRAP.                  NO:   ONE LINE PER DEPTH STEP
~WELL INFORMATION BLOCK
#MNEM.UNIT           DATA                    DESCRIPTION OF MNEMONIC
#---------    -------------------            -------------------------------
# Generated from Intellog Unique Number	CS_73_76/WELL/819
WELL.         NEWPORT PETROLEUMS LTD         : Well_name    - WELL
LOC .         00/10-14-073-10W4/0            : Location     - LOCATION
UWI .         00/10-14-073-10W4/0            : Uwi          - UNIQUE WELL ID
ENTR.         SP                             : Entered      - ENTERED BY
SRVC.         SCHLUMBERGER                   : Scn          - SERVICE COMPANY
STRT.M        300                            : top_depth    - START DEPTH
STOP.M        490                            : bot_depth    - STOP DEPTH
STEP.M        0.25                           : increment    - STEP LENGTH
 NULL. -999.2500:NULL Value
~CURVE INFORMATION BLOCK
#MNEM UNIT       ERCB CURVE CODE    CURVE DESCRIPTION
#-----------   ------------------   ----------------------------------
DEPT.M        00 001 00 00         : DEPTH        - DEPTH
GR  .API      00 310 00 00         : GR           - GAMMA RAY
NPHI.V/V      00 330 00 00         : PHIN         - NEUTRON POROSITY (LIMESTONE)
DPHI.V/V      00 890 00 00         : PHID         - DENSITY POROSITY (LIMESTONE)
ILD .OHMM     00 120 00 00         : RESD         - DEEP RESISTIVITY (DIL)
~PARAMETER INFORMATION
#MNEM.UNIT           DATA             DESCRIPTION OF MNEMONIC
#---------         -----------     ------------------------------
GL  .M        660.4                : gl           - GROUND LEVEL ELEVATION
EREF.M        663.8                : kb           - ELEVATION OF DEPTH REFERENCE
DATM.M        660.4                : datum        - DATUM ELEVATION
TDD .M        610                  : tdd          - TOTAL DEPTH DRILLER
RUN .         ONE                  : Run          - RUN NUMBER
ENG .         BILL                 : Engineer     - RECORDING ENGINEER
WIT .         JIM                  : Witness      - WITNESSED BY
MUD .         GEL                  : Mud_type     - MUD TYPE
MATR.         LIMESTONE            : Logunit      - NEUTRON MATRIX
TMAX.C        23.8                 : BHT          - MAXIMUM RECORDED TEMPERATURE
BHTD.M        610                  : BHTDEP       - MAXIMUM RECORDED TEMPERATURE
MATR.         1                    : LOGUNIT      - NEUTRON MATRIX
RMT .C        25                   : MDTP         - TEMPERATURE OF MUD
NEUT.         1                    : NEUTRON      - NEUTRON TYPE
RESI.         0                    : RESIST       - RESISTIVITY TYPE
RMC .OHMM     0.25                 : RMC          - RESISTIVITY OF MUD CAKE
RMF .OHMM     0.25                 : RMF          - RESISTIVITY OF MUD FILTRATE
SUFT.C        15                   : SUFT         - SURFACE TEMPERATURE
~A  DEPTH       GR     PHIN     PHID     RESD
# ...
  343.500   90.310    0.395    0.261   11.947
  343.750   90.912    0.398    0.267   12.182
  344.000   90.909    0.413    0.261   12.421
  344.250   92.117    0.422    0.256   13.395
  344.500   92.720    0.426    0.269   14.442
  344.750   90.298    0.424    0.282   16.477
  345.000   84.852    0.424    0.289   17.438
  345.250   78.197    0.423    0.291   18.111
  345.500   74.565    0.421    0.291   18.461
  345.750   78.796    0.430    0.280   17.799
  346.000   80.004    0.444    0.270   16.226
  346.250   81.211    0.441    0.267   15.643
  346.500   84.838    0.443    0.271   15.085
  346.750   86.045    0.450    0.275   14.817
  347.000   81.204    0.439    0.271   14.550
  347.250   82.412    0.421    0.261   13.768
  347.500   85.433    0.417    0.256   13.025
  347.750   85.431    0.417    0.254   11.022
  348.000   83.009    0.434    0.244   10.046
  348.250   89.055    0.441    0.238    8.500
  348.500   99.939    0.450    0.241    7.747
  348.750  104.776    0.445    0.247    7.329
  349.000  101.749    0.448    0.247    7.474
  349.250   91.464    0.449    0.250    7.909
  349.500   87.834    0.443    0.263    9.193
  349.750   83.597    0.450    0.267    9.728
  350.000   81.175    0.409    0.244   10.104
  350.250   79.963    0.399    0.235   10.899
  350.500   80.566    0.394    0.233   10.903
  350.750   82.982    0.390    0.235   10.320
  351.000   83.585    0.388    0.219    9.765
  351.250   82.373    0.387    0.212    9.592
  351.500   81.161    0.421    0.232    9.422
  351.750   83.578    0.432    0.248    9.427
  352.000   84.785    0.423    0.253    9.793
  352.250   85.388    0.438    0.247   10.761
  352.500   85.385    0.445    0.243   11.387
  352.750   85.383    0.445    0.243   11.827
  353.000   80.542    0.399    0.247   12.518
  353.250   73.282    0.371    0.249   13.503
  353.500   78.118    0.370    0.248   13.765
  353.750   80.535    0.376    0.253   14.032
  354.000   76.904    0.388    0.263   14.314
  354.250   75.087    0.384    0.254   14.058
  354.500   77.504    0.400    0.251   13.806
  354.750   81.130    0.432    0.248   13.557
  355.000   83.547    0.442    0.252   12.594
  355.250   84.754    0.417    0.262   11.917
  355.500   85.962    0.397    0.265   11.924
  355.750   88.983    0.384    0.251   11.714
  356.000   91.400    0.398    0.219   11.503
  356.250   92.003    0.405    0.198   11.090
  356.500   91.396    0.415    0.220   10.692
  356.750   88.369    0.410    0.232   10.308
  357.000   86.552    0.406    0.240    9.937
  357.250   84.130    0.426    0.273    9.582
  357.500   80.499    0.450    0.292    9.234
  357.750   76.263    0.460    0.309    8.903
  358.000   78.075    0.493    0.311    8.745
  358.250   79.887    0.498    0.304    8.917
  358.500   77.465    0.468    0.315    9.983
  358.750   68.390    0.433    0.311   10.564
  359.000   62.945    0.404    0.303   11.829
  359.250   59.919    0.393    0.296   12.519
  359.500   64.149    0.392    0.293   12.761
  359.750   65.357    0.400    0.291   13.260
  360.000   67.774    0.415    0.288   13.267
  360.250   70.796    0.422    0.276   13.028
  360.500   74.421    0.406    0.265   12.562
  360.750   76.234    0.395    0.253   12.337
  361.000   73.208    0.399    0.254   11.893
  361.250   69.576    0.400    0.258   11.255
  361.500   71.388    0.400    0.262   11.055
  361.750   73.201    0.399    0.258   10.862
  362.000   73.803    0.410    0.249   10.867
  362.250   69.567    0.427    0.269   11.503
  362.500   60.492    0.442    0.298   12.172
  362.750   52.627    0.439    0.318   14.145
  363.000   46.576    0.413    0.318   15.831
  363.250   43.550    0.402    0.308   18.744
  363.500   41.733    0.389    0.305   21.379
  363.750   41.124    0.381    0.318   22.201
  364.000   41.123    0.370    0.321   24.395
  364.250   40.515    0.364    0.323   24.873
  364.500   40.514    0.370    0.333   24.887
  364.750   41.115    0.375    0.344   25.377
  365.000   41.718    0.372    0.348   25.400
  365.250   42.319    0.368    0.352   24.951
  365.500   42.318    0.385    0.351   24.974
  365.750   42.921    0.398    0.344   24.994
  366.000   42.919    0.390    0.337   25.012
  366.250   44.126    0.381    0.330   25.502
  366.500   44.728    0.376    0.326   25.517
  366.750   45.935    0.372    0.332   25.530
  367.000   48.352    0.380    0.335   25.543
  367.250   50.769    0.372    0.337   25.566
  367.500   51.372    0.390    0.340   25.118
  367.750   51.369    0.390    0.343   24.664
  368.000   51.367    0.382    0.345   24.224
  368.250   53.180    0.392    0.346   24.242
  368.500   51.967    0.396    0.343   23.812
  368.750   51.965    0.392    0.345   23.390
  369.000   52.567    0.392    0.346   23.406
  369.250   56.193    0.407    0.346   22.990
  369.500   58.611    0.421    0.343   23.009
  369.750   59.214    0.427    0.346   23.022
  370.000   58.001    0.432    0.348   23.049
  370.250   58.604    0.438    0.345   23.061
  370.500   59.207    0.430    0.345   23.509
  370.750   59.204    0.437    0.345   23.537
  371.000   57.387    0.438    0.340   23.991
  371.250   54.360    0.432    0.325   24.464
  371.500   51.334    0.435    0.317   24.488
  371.750   51.332    0.440    0.314   24.964
  372.000   53.748    0.429    0.309   24.978
  372.250   54.351    0.418    0.308   25.000
  372.500   52.534    0.414    0.309   25.009
  372.750   48.902    0.409    0.314   24.566
  373.000   47.085    0.407    0.324   23.682
  373.250   46.479    0.407    0.330   22.833
  373.500   47.686    0.420    0.336   22.427
  373.750   49.496    0.425    0.340   21.623
  374.000   50.099    0.433    0.341   21.642
  374.250   50.703    0.438    0.339   21.652
  374.500   50.096    0.442    0.337   23.347
  374.750   49.489    0.444    0.340   25.653
  375.000   51.301    0.443    0.336   27.660
  375.250   48.879    0.358    0.347   27.682
  375.500   47.062    0.324    0.354   26.196
  375.750   48.873    0.340    0.350   24.332
  376.000   50.081    0.379    0.337   23.016
  376.250   52.498    0.407    0.334   21.380
  376.500   53.101    0.402    0.335   20.995
  376.750   51.284    0.402    0.334   20.241
  377.000   48.862    0.392    0.330   19.518
  377.250   48.255    0.398    0.333   19.174
  377.500   48.858    0.403    0.329   18.830
  377.750   50.064    0.409    0.330   18.499
  378.000   50.666    0.418    0.331   18.507
  378.250   52.479    0.425    0.325   18.182
  378.500   56.710    0.437    0.319   17.854
  378.750   59.128    0.446    0.320   16.899
  379.000   60.939    0.441    0.326   16.595
  379.250   62.147    0.426    0.328   16.307
  379.500   62.749    0.415    0.324   16.015
  379.750   62.747    0.437    0.320   16.024
  380.000   57.301    0.440    0.323   15.737
  380.250   54.880    0.443    0.329   15.460
  380.500   57.297    0.453    0.324   15.185
  380.750   60.923    0.460    0.317   15.197
  381.000   62.131    0.454    0.319   15.208
  381.250   62.732    0.453    0.328   15.215
  381.500   63.335    0.465    0.333   14.949
  381.750   62.728    0.479    0.331   14.958
  382.000   60.909    0.475    0.320   15.252
  382.250   60.907    0.468    0.312   15.555
  382.500   60.301    0.460    0.308   15.565
  382.750   60.299    0.466    0.303   15.867
  383.000   60.296    0.471    0.296   15.876
  383.250   60.295    0.456    0.291   16.193
  383.500   60.897    0.446    0.292   16.200
  383.750   60.895    0.446    0.295   16.212
  384.000   61.497    0.448    0.301   15.631
  384.250   62.704    0.451    0.303   15.354
  384.500   63.911    0.440    0.297   15.077
  384.750   63.909    0.414    0.290   15.091
  385.000   65.117    0.402    0.285   15.101
  385.250   65.719    0.404    0.293   15.112
  385.500   65.717    0.415    0.302   15.994
  385.750   70.553    0.431    0.314   16.615
  386.000   74.784    0.445    0.324   16.941
  386.250   79.015    0.452    0.322   15.732
  386.500   85.061    0.452    0.316   12.352
  386.750   87.478    0.469    0.307    9.170
