~VERSION INFORMATION
 VERS.                 2.0:   CWLS LOG ASCII STANDARD -VERSION 2.0
 WRAP.                  NO:   ONE LINE PER DEPTH STEP
~WELL INFORMATION BLOCK
#MNEM.UNIT           DATA                    DESCRIPTION OF MNEMONIC
#---------    -------------------            -------------------------------
# Generated from Intellog Unique Number	CS_71_72/WELL/904
WELL.         HUDSON'S BAY OIL & GAS         : Well_name    - WELL
LOC .         00/11-25-071-12W4/0            : Location     - LOCATION
UWI .         00/11-25-071-12W4/0            : Uwi          - UNIQUE WELL ID
ENTR.         SP                             : Entered      - ENTERED BY
SRVC.         SCHLUMBERGER                   : Scn          - SERVICE COMPANY
STRT.M        260                            : top_depth    - START DEPTH
STOP.M        480                            : bot_depth    - STOP DEPTH
STEP.M        0.25                           : increment    - STEP LENGTH
 NULL. -999.2500:NULL Value
~CURVE INFORMATION BLOCK
#MNEM UNIT       ERCB CURVE CODE    CURVE DESCRIPTION
#-----------   ------------------   ----------------------------------
DEPT.M        00 001 00 00         : DEPTH        - DEPTH
ILD .OHMM     00 120 00 00         : RESD         - DEEP RESISTIVITY (DIL)
DPHI.V/V      00 890 00 00         : PHID         - DENSITY POROSITY (LIMESTONE)
NPHI.V/V      00 330 00 00         : PHIN         - NEUTRON POROSITY (LIMESTONE)
GR  .API      00 310 00 00         : GR           - GAMMA RAY
~PARAMETER INFORMATION
#MNEM.UNIT           DATA             DESCRIPTION OF MNEMONIC
#---------         -----------     ------------------------------
GL  .M        599.3                : gl           - GROUND LEVEL ELEVATION
EREF.M        602.9                : kb           - ELEVATION OF DEPTH REFERENCE
DATM.M        599.3                : datum        - DATUM ELEVATION
TDD .M        486                  : tdd          - TOTAL DEPTH DRILLER
RUN .         ONE                  : Run          - RUN NUMBER
ENG .         BILL                 : Engineer     - RECORDING ENGINEER
WIT .         JIM                  : Witness      - WITNESSED BY
MUD .         GEL                  : Mud_type     - MUD TYPE
MATR.         LIMESTONE            : Logunit      - NEUTRON MATRIX
TMAX.C        18                   : BHT          - MAXIMUM RECORDED TEMPERATURE
BHTD.M        486                  : BHTDEP       - MAXIMUM RECORDED TEMPERATURE
MATR.         1                    : LOGUNIT      - NEUTRON MATRIX
RMT .C        25                   : MDTP         - TEMPERATURE OF MUD
NEUT.         1                    : NEUTRON      - NEUTRON TYPE
RESI.         0                    : RESIST       - RESISTIVITY TYPE
RMC .OHMM     0.25                 : RMC          - RESISTIVITY OF MUD CAKE
RMF .OHMM     0.25                 : RMF          - RESISTIVITY OF MUD FILTRATE
SUFT.C        15                   : SUFT         - SURFACE TEMPERATURE
~A  DEPTH     RESD     PHID     PHIN       GR
# ...
  303.500    5.425    0.263    0.557   93.989
  303.750    5.701    0.274    0.508   88.940
  304.000    6.059    0.288    0.452   83.466
  304.250    6.475    0.306    0.495   76.658
  304.500    6.893    0.328    0.527   71.548
  304.750    7.151    0.339    0.540   68.075
  305.000    7.391    0.342    0.516   66.664
  305.250    7.540    0.342    0.513   67.073
  305.500    7.593    0.340    0.491   65.843
  305.750    7.633    0.339    0.458   64.979
  306.000    7.629    0.340    0.440   64.538
  306.250    7.641    0.338    0.469   63.976
  306.500    7.624    0.333    0.413   63.535
  306.750    7.606    0.328    0.396   64.975
  307.000    7.520    0.324    0.437   66.474
  307.250    7.270    0.321    0.464   66.641
  307.500    6.976    0.320    0.520   67.351
  307.750    6.757    0.282    0.515   70.366
  308.000    6.830    0.245    0.469   73.141
  308.250    7.033    0.227    0.445   75.855
  308.500    7.255    0.242    0.482   77.658
  308.750    7.471    0.251    0.508   76.611
  309.000    7.735    0.255    0.507   80.476
  309.250    7.834    0.258    0.493   83.068
  309.500    7.831    0.259    0.465   84.993
  309.750    7.727    0.250    0.456   83.520
  310.000    7.539    0.239    0.472   86.231
  310.250    6.946    0.229    0.496   91.855
  310.500    6.579    0.222    0.514   93.296
  310.750    6.373    0.219    0.504   88.186
  311.000    6.276    0.222    0.494   94.174
  311.250    6.204    0.233    0.491  102.285
  311.500    6.353    0.245    0.477   94.991
  311.750    6.664    0.254    0.487   87.697
  312.000    6.990    0.251    0.480   89.073
  312.250    7.145    0.243    0.461   89.969
  312.500    7.358    0.238    0.454   89.893
  312.750    7.479    0.249    0.471   89.210
  313.000    7.644    0.273    0.483   83.857
  313.250    7.974    0.293    0.489   77.777
  313.500    8.396    0.311    0.474   73.031
  313.750    8.790    0.314    0.454   69.740
  314.000    9.019    0.307    0.437   68.995
  314.250    9.183    0.302    0.441   67.950
  314.500    9.283    0.297    0.450   64.113
  314.750    9.313    0.293    0.454   66.947
  315.000    9.361    0.295    0.482   70.085
  315.250    9.358    0.299    0.486   73.706
  315.500    9.354    0.287    0.469   77.450
  315.750    9.351    0.273    0.462   80.768
  316.000    9.396    0.268    0.461   84.028
  316.250    9.395    0.283    0.465   84.862
  316.500    9.409    0.295    0.490   77.447
  316.750    9.457    0.290    0.473   81.612
  317.000    9.454    0.283    0.436   84.751
  317.250    9.433    0.279    0.452   82.008
  317.500    9.429    0.265    0.462   86.296
  317.750    9.443    0.244    0.424   90.463
  318.000    9.456    0.224    0.402   91.663
  318.250    9.470    0.220    0.396   90.737
  318.500    9.413    0.229    0.393   87.991
  318.750    9.272    0.235    0.399   85.004
  319.000    8.980    0.231    0.421   84.683
  319.250    8.633    0.228    0.447   83.394
  319.500    8.378    0.228    0.438   82.713
  319.750    8.130    0.234    0.425   87.607
  320.000    7.874    0.237    0.414   86.316
  320.250    7.655    0.235    0.406   83.089
  320.500    7.428    0.231    0.432   87.921
  320.750    7.329    0.234    0.460   92.274
  321.000    7.395    0.246    0.452   97.231
  321.250    7.572    0.272    0.432   72.715
  321.500    7.754    0.294    0.450   71.607
  321.750    8.074    0.330    0.444   76.382
  322.000    8.422    0.303    0.426   75.517
  322.250    8.593    0.287    0.427   69.375
  322.500    8.782    0.278    0.424   72.877
  322.750    8.894    0.266    0.410   78.437
  323.000    9.089    0.255    0.404   79.757
  323.250    9.257    0.270    0.402   72.585
  323.500    9.479    0.291    0.402   66.322
  323.750    9.653    0.310    0.443   64.488
  324.000    9.793    0.326    0.501   64.108
  324.250    9.844    0.323    0.510   61.606
  324.500    9.858    0.317    0.522   59.831
  324.750    9.909    0.318    0.539   60.966
  325.000    9.905    0.324    0.527   57.372
  325.250    9.957    0.318    0.471   55.053
  325.500    9.934    0.308    0.468   55.643
  325.750    9.857    0.300    0.487   60.962
  326.000    9.762    0.294    0.502   63.010
  326.250    9.650    0.291    0.487   63.660
  326.500    9.575    0.280    0.473   65.828
  326.750    9.447    0.269    0.461   74.544
  327.000    9.322    0.259    0.418   79.380
  327.250    9.233    0.267    0.407   83.123
  327.500    9.076    0.275    0.421   88.201
  327.750    8.726    0.270    0.439   84.665
  328.000    8.205    0.262    0.467   81.195
  328.250    7.757    0.258    0.480   84.333
  328.500    7.583    0.258    0.428   83.345
  328.750    7.595    0.257    0.399   79.994
  329.000    8.056    0.255    0.415   76.037
  329.250    8.721    0.255    0.432   70.501
  329.500    9.476    0.283    0.445   67.211
  329.750   10.239    0.302    0.473   59.311
  330.000   10.900    0.322    0.478   50.927
  330.250   11.082    0.337    0.468   48.302
  330.500   11.516    0.335    0.471   48.283
  330.750   11.880    0.324    0.461   47.360
  331.000   12.076    0.320    0.427   46.253
  331.250   12.183    0.325    0.425   44.173
  331.500   12.225    0.332    0.427   43.916
  331.750   12.286    0.339    0.418   45.296
  332.000   12.350    0.347    0.425   47.160
  332.250   12.368    0.352    0.467   50.054
  332.500   12.388    0.350    0.525   51.373
  332.750   12.382    0.346    0.567   46.626
  333.000   12.447    0.340    0.523   46.064
  333.250   12.604    0.336    0.455   55.205
  333.500   12.740    0.334    0.434   57.312
  333.750   12.736    0.331    0.424   54.930
  334.000   12.801    0.332    0.441   50.972
  334.250   12.796    0.337    0.463   53.322
  334.500   12.720    0.341    0.496   53.002
  334.750   12.572    0.345    0.514   49.894
  335.000   12.451    0.346    0.473   47.572
  335.250   12.402    0.343    0.475   47.070
  335.500   12.327    0.339    0.484   47.541
  335.750   12.277    0.336    0.447   48.435
  336.000   12.274    0.335    0.448   48.358
  336.250   12.267    0.334    0.443   47.917
  336.500   12.263    0.339    0.451   51.904
  336.750   12.236    0.338    0.467   51.099
  337.000   12.186    0.336    0.486   48.172
  337.250   12.181    0.337    0.495   46.094
  337.500   12.109    0.337    0.497   50.019
  337.750   12.126    0.335    0.515   49.155
  338.000   12.118    0.334    0.495   43.071
  338.250   12.071    0.333    0.445   46.029
  338.500   12.065    0.331    0.410   48.561
  338.750   11.555    0.338    0.381   49.090
  339.000   11.901    0.343    0.374   47.310
  339.250   11.809    0.345    0.400   46.208
  339.500   11.717    0.346    0.422   45.040
  339.750   11.669    0.345    0.450   45.570
  340.000   11.686    0.344    0.472   48.101
  340.250   11.787    0.343    0.411   47.478
  340.500   11.764    0.342    0.396   48.371
  340.750   11.716    0.341    0.400   50.902
  341.000   11.666    0.339    0.410   48.339
  341.250   11.684    0.336    0.422   44.442
  341.500   11.702    0.335    0.362   47.214
  341.750   11.739    0.334    0.347   49.079
  342.000   11.671    0.334    0.374   49.064
  342.250   11.473    0.337    0.402   48.257
  342.500   11.092    0.340    0.422   47.333
  342.750   10.985    0.342    0.432   49.681
  343.000   11.124    0.335    0.403   52.696
  343.250   11.495    0.329    0.364   55.108
  343.500   11.621    0.323    0.382   56.546
  343.750   11.725    0.319    0.394   55.803
  344.000   11.720    0.319    0.382   55.666
  344.250   11.651    0.321    0.359   52.861
  344.500   11.603    0.326    0.363   50.055
  344.750   11.577    0.328    0.376   51.552
  345.000   11.507    0.323    0.327   52.747
  345.250   11.458    0.322    0.255   51.463
  345.500   11.414    0.325    0.229   45.321
  345.750   11.451    0.331    0.302   41.606
  346.000   11.468    0.327    0.347   44.744
  346.250   11.442    0.321    0.360   48.365
  346.500   11.438    0.316    0.354   51.623
  346.750   11.307    0.313    0.343   53.124
