~VERSION INFORMATION
 VERS.                 2.0:   CWLS LOG ASCII STANDARD -VERSION 2.0
 WRAP.                  NO:   ONE LINE PER DEPTH STEP
~WELL INFORMATION BLOCK
#MNEM.UNIT           DATA                    DESCRIPTION OF MNEMONIC
#---------    -------------------            -------------------------------
# Generated from Intellog Unique Number	CS_73_76/WELL/3257
WELL.         CANADIAN WORLDWIDE ENERGY      : Well_name    - WELL
LOC .         00/11-07-076-03W4/0            : Location     - LOCATION
UWI .         00/11-07-076-03W4/0            : Uwi          - UNIQUE WELL ID
ENTR.         SP                             : Entered      - ENTERED BY
SRVC.         SCHLUMBERGER                   : Scn          - SERVICE COMPANY
STRT.M        225                            : top_depth    - START DEPTH
STOP.M        485                            : bot_depth    - STOP DEPTH
STEP.M        0.25                           : increment    - STEP LENGTH
 NULL. -999.2500:NULL Value
~CURVE INFORMATION BLOCK
#MNEM UNIT       ERCB CURVE CODE    CURVE DESCRIPTION
#-----------   ------------------   ----------------------------------
DEPT.M        00 001 00 00         : DEPTH        - DEPTH
DPHI.V/V      00 890 00 00         : PHID         - DENSITY POROSITY (LIMESTONE)
NPHI.V/V      00 330 00 00         : PHIN         - NEUTRON POROSITY (LIMESTONE)
GR  .API      00 310 00 00         : GR           - GAMMA RAY
ILD .OHMM     00 120 00 00         : RESD         - DEEP RESISTIVITY (DIL)
~PARAMETER INFORMATION
#MNEM.UNIT           DATA             DESCRIPTION OF MNEMONIC
#---------         -----------     ------------------------------
GL  .M        617.13               : gl           - GROUND LEVEL ELEVATION
EREF.M        620.23               : kb           - ELEVATION OF DEPTH REFERENCE
DATM.M        617.13               : datum        - DATUM ELEVATION
TDD .M        492                  : tdd          - TOTAL DEPTH DRILLER
RUN .         ONE                  : Run          - RUN NUMBER
ENG .         BILL                 : Engineer     - RECORDING ENGINEER
WIT .         JIM                  : Witness      - WITNESSED BY
MUD .         GEL                  : Mud_type     - MUD TYPE
MATR.         LIMESTONE            : Logunit      - NEUTRON MATRIX
TMAX.C        18                   : BHT          - MAXIMUM RECORDED TEMPERATURE
BHTD.M        492                  : BHTDEP       - MAXIMUM RECORDED TEMPERATURE
MATR.         1                    : LOGUNIT      - NEUTRON MATRIX
RMT .C        25                   : MDTP         - TEMPERATURE OF MUD
NEUT.         1                    : NEUTRON      - NEUTRON TYPE
RESI.         0                    : RESIST       - RESISTIVITY TYPE
RMC .OHMM     0.25                 : RMC          - RESISTIVITY OF MUD CAKE
RMF .OHMM     0.25                 : RMF          - RESISTIVITY OF MUD FILTRATE
SUFT.C        15                   : SUFT         - SURFACE TEMPERATURE
~A  DEPTH     PHID     PHIN       GR     RESD
# ...
  442.500    0.212    0.348   69.491    5.519
  442.750    0.228    0.348   67.665    5.415
  443.000    0.246    0.360   64.005    5.313
  443.250    0.256    0.366   47.489    5.214
  443.500    0.274    0.374   38.323    4.927
  443.750    0.294    0.343   32.827    4.656
  444.000    0.296    0.314   34.068    4.401
  444.250    0.291    0.324   35.308    4.237
  444.500    0.284    0.318   35.332    4.158
  444.750    0.270    0.300   35.345    4.235
  445.000    0.256    0.284   35.358    4.480
  445.250    0.293    0.292   30.476    4.479
  445.500    0.308    0.304   26.205    4.395
  445.750    0.299    0.311   24.996    4.232
  446.000    0.297    0.314   29.306    4.075
  446.250    0.298    0.314   31.151    3.998
  446.500    0.299    0.307   41.578    4.073
  446.750    0.281    0.309   88.737    4.308
  447.000    0.243    0.334  118.754    4.557
  447.250    0.261    0.346  113.872    4.642
  447.500    0.278    0.351  111.445    4.641
  447.750    0.286    0.365  109.007    4.640
  448.000    0.306    0.371  104.126    4.553
  448.250    0.291    0.316  180.063    4.815
  448.500    0.267    0.326  192.935    5.190
  448.750    0.248    0.312  224.789    5.593
  449.000    0.233    0.289  152.558    5.592
  449.250    0.224    0.290  101.756    5.385
  449.500    0.251    0.312   69.934    4.633
  449.750    0.289    0.388   50.971    4.461
  450.000    0.312    0.350   41.804    4.296
  450.250    0.279    0.296   35.695    4.295
  450.500    0.274    0.283   25.304    4.294
  450.750    0.290    0.289   30.220    4.374
  451.000    0.308    0.315   37.586    4.373
  451.250    0.307    0.339   44.945    4.291
  451.500    0.316    0.380   55.981    4.210
  451.750    0.327    0.399   47.429    4.131
  452.000    0.319    0.347   37.033    4.053
  452.250    0.314    0.329   26.031    3.903
  452.500    0.322    0.319   26.658    3.830
  452.750    0.318    0.314   27.898    3.829
  453.000    0.313    0.312   26.692    3.828
  453.250    0.307    0.306   27.319    3.827
  453.500    0.299    0.306   29.178    3.899
  453.750    0.293    0.313   29.799    3.825
  454.000    0.299    0.310   26.754    3.754
  454.250    0.316    0.329   29.223    3.614
  454.500    0.334    0.352   30.460    3.546
  454.750    0.348    0.359   33.544    3.546
  455.000    0.335    0.354   35.390    3.479
  455.250    0.326    0.357   29.899    3.478
  455.500    0.324    0.344   26.240    3.477
  455.750    0.332    0.327   25.032    3.412
  456.000    0.337    0.348   25.051    3.411
  456.250    0.336    0.350   26.903    3.411
  456.500    0.334    0.344   29.364    3.410
  456.750    0.342    0.359   31.830    3.346
  457.000    0.336    0.350   30.622    3.345
  457.250    0.328    0.338   22.068    3.407
  457.500    0.323    0.327   20.858    3.407
  457.750    0.324    0.343   20.876    3.343
  458.000    0.324    0.353   22.728    3.342
  458.250    0.316    0.353   23.970    3.341
  458.500    0.307    0.346   23.987    3.341
  458.750    0.293    0.334   27.064    3.340
  459.000    0.284    0.328   31.364    3.402
  459.250    0.292    0.329   38.727    3.466
  459.500    0.311    0.358   33.845    3.531
  459.750    0.318    0.388   27.738    3.597
  460.000    0.316    0.350   24.695    3.664
  460.250    0.317    0.334   23.487    3.804
  460.500    0.307    0.320   22.892    3.875
  460.750    0.302    0.328   24.133    3.947
  461.000    0.289    0.313   25.982    4.097
  461.250    0.279    0.296   28.449    4.174
  461.500    0.269    0.290   32.138    4.253
  461.750    0.275    0.288   37.665    4.498
  462.000    0.269    0.283   49.925    4.497
  462.250    0.258    0.286   46.270    4.330
  462.500    0.288    0.335   35.264    3.941
  462.750    0.314    0.364   25.483    3.795
  463.000    0.321    0.381   19.987    3.655
  463.250    0.320    0.377   20.616    3.454
  463.500    0.322    0.349   25.530    3.326
  463.750    0.328    0.346   29.223    3.325
  464.000    0.315    0.341   31.688    3.324
  464.250    0.295    0.348   31.091    3.451
  464.500    0.293    0.352   28.046    3.515
  464.750    0.314    0.377   22.550    3.449
  465.000    0.326    0.383   20.729    3.384
  465.250    0.331    0.376   21.357    3.321
  465.500    0.323    0.370   24.435    3.258
  465.750    0.328    0.365   23.838    3.258
  466.000    0.334    0.361   22.020    3.196
  466.250    0.343    0.359   20.810    3.136
  466.500    0.340    0.374   19.603    3.136
  466.750    0.332    0.377   17.172    3.076
  467.000    0.336    0.369   15.352    3.076
  467.250    0.344    0.379   17.203    3.075
  467.500    0.340    0.371   20.278    3.017
  467.750    0.342    0.361   21.519    3.017
  468.000    0.351    0.416   18.475    3.016
  468.250    0.358    0.400   15.431    3.015
  468.500    0.351    0.384   14.833    3.015
  468.750    0.341    0.352   14.856    3.014
  469.000    0.332    0.359   15.477    3.071
  469.250    0.329    0.361   15.495    3.070
  469.500    0.334    0.362   13.679    3.012
  469.750    0.340    0.367   11.863    3.011
  470.000    0.338    0.370   11.872    3.011
  470.250    0.331    0.371   12.498    2.954
  470.500    0.326    0.369   13.131    2.898
  470.750    0.331    0.365   13.754    2.898
  471.000    0.335    0.364   15.608    2.897
  471.250    0.338    0.364   16.234    2.952
  471.500    0.336    0.360   18.089    3.122
  471.750    0.326    0.350   20.558    3.302
  472.000    0.301    0.339   23.021    3.428
  472.250    0.271    0.327   27.933    3.625
  472.500    0.250    0.309   33.462    3.835
  472.750    0.262    0.343   38.985    4.056
  473.000    0.267    0.383   37.165    4.055
  473.250    0.277    0.372   34.120    3.978
  473.500    0.289    0.375   30.462    3.690
  473.750    0.309    0.365   20.683    3.621
  474.000    0.322    0.346   17.638    3.552
  474.250    0.323    0.339   20.105    3.552
  474.500    0.316    0.334   25.019    3.618
  474.750    0.281    0.318   32.995    3.686
  475.000    0.245    0.352   45.867    3.826
  475.250    0.240    0.384   42.207    3.972
  475.500    0.252    0.340   28.142    4.201
  475.750    0.258    0.323   22.036    3.970
  476.000    0.268    0.322   17.771    3.682
  476.250    0.297    0.329   15.948    3.613
  476.500    0.319    0.358   15.353    3.479
  476.750    0.329    0.367   15.977    3.413
  477.000    0.331    0.364   16.610    3.349
  477.250    0.328    0.357   18.469    3.348
  477.500    0.324    0.343   19.091    3.411
  477.750    0.312    0.331   20.332    3.475
  478.000    0.305    0.342   22.183    3.540
  478.250    0.296    0.336   25.262    3.815
  478.500    0.288    0.326   28.949    4.350
  478.750    0.296    0.346   39.373    4.959
  479.000    0.289    0.371   81.635    5.550
  479.250    0.243    0.408   92.061    6.447
  479.500    0.203    0.337   98.199    7.490
  479.750    0.073    0.283  103.113    8.540
  480.000    0.067    0.293  108.639    9.379
  480.250    0.064    0.319  108.046    9.554
  480.500    0.045    0.349  103.161    9.918
  480.750    0.000    0.364  104.406   11.307
  481.000    0.008    0.311  104.421   13.639
  481.250    0.014    0.255  102.602   15.846
  481.500    0.000    0.235  103.230   17.731
  481.750    0.000    0.214  105.080   19.841
  482.000    0.013    0.206  105.716   22.621
  482.250    0.021    0.213  105.727   24.842
  482.500    0.018    0.206  105.740   26.275
  482.750    0.016    0.202  105.767   27.791
  483.000    0.028    0.196  105.777   30.519
  483.250    0.024    0.193  105.791   34.797
  483.500    0.015    0.195  105.814   41.973
  483.750    0.000    0.196  105.214   50.626
  484.000    0.000    0.196  105.229   62.224
  484.250    0.005    0.196  105.243   70.948
  484.500    0.023    0.197  105.257   79.387
  484.750    0.022    0.197  105.885   83.967
  485.000    0.012    0.198  105.914   87.160
