~VERSION INFORMATION
 VERS.                 2.0:   CWLS LOG ASCII STANDARD -VERSION 2.0
 WRAP.                  NO:   ONE LINE PER DEPTH STEP
~WELL INFORMATION BLOCK
#MNEM.UNIT           DATA                    DESCRIPTION OF MNEMONIC
#---------    -------------------            -------------------------------
# Generated from Intellog Unique Number	CN_91_93/WELL/1169
WELL.         11-15-091-17W4                 : Well_name    - WELL
LOC .         00/11-15-091-17W4/0            : Location     - LOCATION
UWI .         00/11-15-091-17W400            : Uwi          - UNIQUE WELL ID
ENTR.         JOETTE                         : Entered      - ENTERED BY
SRVC.         SCHLUMBERGER                   : Scn          - SERVICE COMPANY
DATE.         01/30/92                       : Date         - LOG DATE
STRT.F        344.488                        : top_depth    - START DEPTH
STOP.F        803.806                        : bot_depth    - STOP DEPTH
STEP.F        0.82                           : increment    - STEP LENGTH
 NULL. -999.2500:NULL Value
~CURVE INFORMATION BLOCK
#MNEM UNIT       ERCB CURVE CODE    CURVE DESCRIPTION
#-----------   ------------------   ----------------------------------
DEPT.F        00 001 00 00         : DEPTH        - DEPTH
ILD .OHMM     00 120 00 00         : RESD         - DEEP RESISTIVITY (DIL)
DPHI.V/V      00 890 00 00         : PHID         - DENSITY POROSITY (SANDSTONE)
NPHI.V/V      00 330 00 00         : PHIN         - NEUTRON POROSITY (SANDSTONE)
CALI.IN       00 280 01 00         : CAL          - CALIPER
GR  .API      00 310 00 00         : GR           - GAMMA RAY
~PARAMETER INFORMATION
#MNEM.UNIT           DATA             DESCRIPTION OF MNEMONIC
#---------         -----------     ------------------------------
GL  .M        504                  : gl           - GROUND LEVEL ELEVATION
EREF.M        507.8                : kb           - ELEVATION OF DEPTH REFERENCE
DATM.M        507.8                : datum        - DATUM ELEVATION
TDD .M        246                  : tdd          - TOTAL DEPTH DRILLER
RUN .         ONE                  : Run          - RUN NUMBER
ENG .         BILL                 : Engineer     - RECORDING ENGINEER
WIT .         JIM                  : Witness      - WITNESSED BY
MUD .         GEL                  : Mud_type     - MUD TYPE
MATR.         SANDSTONE            : Logunit      - NEUTRON MATRIX
TMAX.F        69.8                 : BHT          - MAXIMUM RECORDED TEMPERATURE
BHTD.F        807.087              : BHTDEP       - MAXIMUM RECORDED TEMPERATURE
RMT .F        47                   : MDTP         - TEMPERATURE OF MUD
MUDD.LB/G     10                   : MWT          - MUD DENSITY
NEUT.         1                    : NEUTRON      - NEUTRON TYPE
RESI.         0                    : RESIST       - RESISTIVITY TYPE
RM  .OHMM     2.8                  : RM           - RESISTIVITY OF MUD
RMC .OHMM     7.42                 : RMC          - RESISTIVITY OF MUD CAKE
RMF .OHMM     2.28                 : RMF          - RESISTIVITY OF MUD FILTRATE
SUFT.F        39.2                 : SUFT         - SURFACE TEMPERATURE
~A  DEPTH     RESD     PHID     PHIN      CAL       GR
  344.488    7.872    0.351    0.432    6.650   61.334
  345.308    7.531    0.351    0.458    6.692   61.843
  346.129    7.073    0.353    0.477    6.733   62.965
  346.949    6.765    0.355    0.482    9.072   66.511
  347.769    7.103    0.352    0.472   10.096   67.020
  348.589    6.793    0.333    0.442    9.941   66.304
  349.409    5.498    0.286    0.429    9.688   64.975
  350.230    4.576    0.258    0.433    9.063   64.846
  351.050    4.297    0.285    0.468    8.947   65.329
  351.870    3.887    0.308    0.538    9.539   65.864
  352.690    3.518    0.341    0.563   10.386   64.510
  353.510    3.726    0.356    0.570   10.683   63.156
  354.331    4.137    0.376    0.548   11.196   61.827
  355.151    4.144    0.329    0.556   10.020   60.499
  355.971    4.039    0.304    0.578    8.923   59.783
  356.791    4.049    0.286    0.559    8.867   58.377
  357.612    5.070    0.284    0.538    8.968   57.712
  358.432    5.681    0.287    0.478    9.107   56.358
  359.252    6.077    0.296    0.450    9.404   55.642
  360.072    6.089    0.297    0.462    9.446   54.900
  360.892    7.843    0.244    0.463    9.291   54.133
  361.713    9.552    0.196    0.424    9.058   54.055
  362.533   11.418    0.215    0.408    8.786   53.926
  363.353   11.769    0.237    0.450    8.750   53.822
  364.173   10.648    0.262    0.466    8.831   53.106
  364.993    9.632    0.273    0.453    8.911   50.553
  365.814    8.561    0.281    0.463    9.091   46.161
  366.634    7.961    0.288    0.488    9.269   48.508
  367.454    7.135    0.295    0.519    9.409   53.918
  368.274    6.638    0.306    0.525    9.215   62.390
  369.094    8.470    0.244    0.509    8.767   64.125
  369.915   13.889    0.225    0.484    8.533   66.446
  370.735   17.888    0.234    0.469    8.281   66.929
  371.555   23.697    0.256    0.433    8.343   66.826
  372.375   25.810    0.279    0.420    8.305   64.884
  373.196   28.133    0.245    0.406    8.052   61.054
  374.016   26.906    0.231    0.405    7.603   61.563
  374.836   24.807    0.263    0.457    7.036   63.936
  375.656   22.860    0.278    0.476    7.608   66.283
  376.476   21.875    0.294    0.447    7.984   69.855
  377.297   21.517    0.298    0.423    8.124   74.652
  378.117   21.557    0.305    0.420    8.126   78.836
  378.937   23.268    0.308    0.424    8.070   83.633
  379.757   26.802    0.288    0.435    6.030   82.917
  380.577   27.116    0.273    0.452    6.465   76.662
  381.398   24.994    0.251    0.472    6.565   76.507
  382.218   23.247    0.273    0.484    6.391   80.718
  383.038   22.452    0.271    0.403    8.632   86.740
  383.858   24.695    0.237    0.406    8.654   92.762
  384.678   26.402    0.234    0.422    8.343   96.334
  385.499   26.458    0.238    0.406    8.483   95.006
  386.319   25.560    0.198    0.389    8.662   93.064
  387.139   25.363    0.189    0.382    8.723   86.171
  387.959   24.490    0.238    0.385    8.765   84.230
  388.780   22.790    0.267    0.392    8.886   84.127
  389.600   20.813    0.292    0.461    8.947   84.023
  390.420   18.831    0.284    0.459    8.969   82.056
  391.240   18.183    0.271    0.435    8.972   76.388
  392.060   17.390    0.273    0.429    8.994   72.023
  392.881   14.469    0.287    0.429    8.997   68.805
  393.701    9.998    0.266    0.453    9.097   68.701
  394.521    6.476    0.235    0.480    9.394   69.797
  395.341    4.820    0.213    0.507    9.573   70.306
  396.161    4.443    0.228    0.504    9.556   70.841
  396.982    4.707    0.243    0.498    9.539   70.126
  397.802    5.082    0.254    0.521    9.502   68.133
  398.622    5.046    0.266    0.526    9.505   66.778
  399.442    4.916    0.272    0.530    9.468   66.701
  400.262    4.837    0.267    0.525    9.353   66.572
  401.083    4.837    0.267    0.529    9.218   66.468
  401.903    4.861    0.271    0.540    9.063   65.752
  402.723    5.099    0.273    0.543    8.947   65.010
  403.543    6.816    0.276    0.479    8.852   64.294
  404.364    8.779    0.281    0.435    8.796   63.578
  405.184   10.791    0.275    0.432    8.700   61.637
  406.004   11.019    0.278    0.447    8.624   58.445
  406.824    7.757    0.285    0.466    8.548   57.091
  407.644    6.638    0.286    0.520    8.452   55.072
  408.465    5.322    0.215    0.533    8.297   54.408
  409.285    4.188    0.115    0.415    7.671   53.666
  410.105    5.598    0.099    0.420    7.340   53.537
  410.925   36.328    0.101    0.414    6.970   54.098
  411.745   28.588    0.061    0.305    7.208   55.806
  412.566   33.869    0.084    0.277    7.603   57.541
  413.386   63.261    0.110    0.293    7.684   56.799
  414.206   54.122    0.145    0.307    7.746   56.057
  415.026   35.045    0.184    0.339    7.866   56.566
  415.846   20.300    0.243    0.362    8.006   57.688
  416.667    9.318    0.272    0.398    8.617   59.422
  417.487    7.683    0.275    0.517    8.934   61.156
  418.307    7.218    0.266    0.515    8.897   62.891
  419.127    8.789    0.281    0.498    8.742   64.012
  419.948   10.904    0.298    0.476    8.430   65.721
  420.768   14.441    0.308    0.450    8.355   68.042
  421.588   19.309    0.304    0.417    8.436   71.639
  422.408   21.232    0.293    0.401    8.635   76.437
  423.228   20.890    0.277    0.392    8.813   79.983
  424.049   16.743    0.252    0.407    9.013   78.680
  424.869   11.360    0.244    0.422    9.192   77.352
  425.689    8.775    0.279    0.448    9.391   78.447
  426.509    7.369    0.294    0.465    9.531   80.794
  427.329    7.456    0.277    0.475    9.533   83.754
  428.150    7.901    0.274    0.480    9.497   89.137
  428.970    8.294    0.280    0.502    9.440   92.123
  429.790    8.870    0.283    0.494    9.364   91.381
  430.610    9.488    0.282    0.483    9.364   87.576
  431.430    9.870    0.270    0.474    9.330   81.934
  432.251    9.800    0.265    0.473    9.293   76.930
  433.071    9.283    0.253    0.469    9.293   74.963
  433.891    8.557    0.245    0.476    9.279   74.886
  434.711    8.112    0.249    0.490    9.261   75.369
  435.531    8.052    0.240    0.499    9.205   77.077
  436.352    8.859    0.232    0.457    9.129   78.225
  437.172    8.859    0.247    0.461    8.974   69.520
  437.992   10.820    0.251    0.468    8.780   46.700
  438.812   12.335    0.223    0.469    8.780   45.346
  439.633   20.420    0.162    0.423    8.707   48.305
  440.453   18.822    0.156    0.392    8.611   51.877
  441.273   12.188    0.190    0.349    8.613   56.061
  442.093    8.987    0.221    0.388    8.616   62.084
  442.913    7.342    0.232    0.412    8.619   68.106
  443.734    5.671    0.211    0.447    8.601   72.290
  444.554    5.230    0.197    0.483    8.584   77.700
  445.374    6.250    0.181    0.502    8.528   76.984
  446.194    6.036    0.204    0.499    8.528   71.342
  447.014    5.463    0.222    0.516    8.494   62.024
  447.835    5.371    0.189    0.496    8.417   57.633
  448.655    5.371    0.186    0.485    8.381   55.666
  449.475    5.393    0.201    0.507    8.383   55.562
  450.295    5.406    0.211    0.521    8.366   57.297
  451.115    5.318    0.211    0.530    8.309   60.817
  451.936    5.849    0.175    0.524    8.214   63.802
  452.756    6.800    0.164    0.493    8.098   69.824
  453.576    9.177    0.176    0.455    7.885   76.485
  454.396   11.070    0.217    0.424    7.534   80.031
  455.217   13.237    0.268    0.413    7.340   79.928
  456.037   16.581    0.279    0.428    7.363   79.186
  456.857   17.732    0.260    0.432    7.463   79.082
  457.677   18.111    0.265    0.442    7.544   80.817
  458.497   18.314    0.254    0.441    7.291   82.525
  459.318   18.696    0.198    0.418    6.882   84.872
  460.138   19.999    0.221    0.442    6.882   86.606
  460.958   21.381    0.241    0.458    6.867   79.765
  461.778   23.958    0.198    0.461    6.867   77.159
  462.598   27.342   -0.003    0.144    6.756   75.218
  463.419   36.210   -0.001    0.149    6.756   67.738
