~VERSION INFORMATION
 VERS.                 2.0:   CWLS LOG ASCII STANDARD -VERSION 2.0
 WRAP.                  NO:   ONE LINE PER DEPTH STEP
~WELL INFORMATION BLOCK
#MNEM.UNIT           DATA                    DESCRIPTION OF MNEMONIC
#---------    -------------------            -------------------------------
# Generated from Intellog Unique Number	CS_73_76/WELL/3238
WELL.         10-20-075-18W4                 : Well_name    - WELL
LOC .         00/10-20-075-18W4/0            : Location     - LOCATION
UWI .         00/10-20-075-18W4/0            : Uwi          - UNIQUE WELL ID
ENTR.         SP                             : Entered      - ENTERED BY
SRVC.         SCHLUMBERGER                   : Scn          - SERVICE COMPANY
STRT.M        237.744                        : top_depth    - START DEPTH
STOP.M        441.744                        : bot_depth    - STOP DEPTH
STEP.M        0.25                           : increment    - STEP LENGTH
 NULL. -999.2500:NULL Value
~CURVE INFORMATION BLOCK
#MNEM UNIT       ERCB CURVE CODE    CURVE DESCRIPTION
#-----------   ------------------   ----------------------------------
DEPT.M        00 001 00 00         : DEPTH        - DEPTH
GR  .API      00 310 00 00         : GR           - GAMMA RAY
DPHI.V/V      00 890 00 00         : PHID         - DENSITY POROSITY (SANDSTONE)
NPHI.V/V      00 330 00 00         : PHIN         - NEUTRON POROSITY (SANDSTONE)
ILD .OHMM     00 120 00 00         : RESD         - DEEP RESISTIVITY (DIL)
~PARAMETER INFORMATION
#MNEM.UNIT           DATA             DESCRIPTION OF MNEMONIC
#---------         -----------     ------------------------------
GL  .M        580.644              : gl           - GROUND LEVEL ELEVATION
EREF.M        583.692              : kb           - ELEVATION OF DEPTH REFERENCE
DATM.M        580.644              : datum        - DATUM ELEVATION
TDD .M        448.056              : tdd          - TOTAL DEPTH DRILLER
RUN .         ONE                  : Run          - RUN NUMBER
ENG .         BILL                 : Engineer     - RECORDING ENGINEER
WIT .         JIM                  : Witness      - WITNESSED BY
MUD .         GEL                  : Mud_type     - MUD TYPE
MATR.         SANDSTONE            : Logunit      - NEUTRON MATRIX
TMAX.C        10.5556              : BHT          - MAXIMUM RECORDED TEMPERATURE
BHTD.M        448.056              : BHTDEP       - MAXIMUM RECORDED TEMPERATURE
MATR.         1                    : LOGUNIT      - NEUTRON MATRIX
RMT .C        25                   : MDTP         - TEMPERATURE OF MUD
NEUT.         1                    : NEUTRON      - NEUTRON TYPE
RESI.         0                    : RESIST       - RESISTIVITY TYPE
RMC .OHMM     0.25                 : RMC          - RESISTIVITY OF MUD CAKE
RMF .OHMM     0.25                 : RMF          - RESISTIVITY OF MUD FILTRATE
SUFT.C        15                   : SUFT         - SURFACE TEMPERATURE
~A  DEPTH       GR     PHID     PHIN     RESD
# ...
  411.744   91.938    0.212    0.505    3.165
  411.994   88.644    0.208    0.486    3.512
  412.244   92.392    0.197    0.463    4.098
  412.494   94.672    0.190    0.452    4.550
  412.744   96.637    0.190    0.447    5.355
  412.994   97.153    0.153    0.436    5.983
  413.244   97.356    0.128    0.427    6.763
  413.494   93.316    0.100    0.410    7.132
  413.744   86.150    0.080    0.339    7.398
  413.994   86.125    0.085    0.365    6.460
  414.244   90.799    0.142    0.394    6.010
  414.494   91.033    0.162    0.416    5.656
  414.744   91.006    0.164    0.423    5.537
  414.994   90.644    0.167    0.421    5.608
  415.244   91.212    0.155    0.427    5.783
  415.494   91.941    0.166    0.441    5.965
  415.744   90.723    0.169    0.458    6.032
  415.994   87.611    0.141    0.458    6.168
  416.244   83.263    0.086    0.440    6.025
  416.494   89.342    0.134    0.436    6.045
  416.744   95.813    0.166    0.460    5.928
  416.994   98.101    0.177    0.474    5.813
  417.244   94.923    0.191    0.472    5.820
  417.494   95.246    0.183    0.467    5.779
  417.744   96.595    0.182    0.462    5.718
  417.994   95.717    0.172    0.467    5.724
  418.244   95.743    0.159    0.476    5.794
  418.494   94.199    0.154    0.470    5.827
  418.744   93.463    0.172    0.464    5.588
  418.994   93.124    0.152    0.455    5.375
  419.244   94.179    0.155    0.450    5.045
  419.494   93.515    0.172    0.456    4.814
  419.744   93.578    0.165    0.462    4.397
  419.994   96.573    0.173    0.454    4.139
  420.244  101.253    0.164    0.452    3.978
  420.494  104.273    0.162    0.451    3.821
  420.744  102.973    0.181    0.466    3.806
  420.994  103.915    0.188    0.480    3.925
  421.244  104.892    0.194    0.494    4.046
  421.494  104.990    0.189    0.490    3.973
  421.744  103.472    0.187    0.465    3.874
  421.994  101.947    0.179    0.442    3.832
  422.244  102.678    0.158    0.456    3.909
  422.494  103.249    0.166    0.473    4.175
  422.744  105.331    0.193    0.497    4.492
  422.994  107.219    0.180    0.497    5.050
  423.244  105.237    0.161    0.480    5.684
  423.494  102.856    0.148    0.455    6.052
  423.744  101.103    0.149    0.442    5.853
  423.994  103.249    0.163    0.434    5.629
  424.244  107.135    0.178    0.419    5.555
  424.494  111.986    0.171    0.448    5.532
  424.744  114.978    0.167    0.462    5.530
  424.994  113.579    0.179    0.453    5.573
  425.244  110.637    0.167    0.437    5.842
  425.494  108.593    0.154    0.436    6.149
  425.744  103.489    0.134    0.430    6.405
  425.994  100.918    0.115    0.436    6.827
  426.244   99.258    0.136    0.457    7.498
  426.494  101.077    0.198    0.453    8.128
  426.744  101.341    0.200    0.374    9.450
  426.994  101.689    0.176    0.365    9.828
  427.244  104.738    0.161    0.371   10.402
  427.494  108.512    0.150    0.379   10.489
  427.744  110.250    0.145    0.377   10.314
  427.994  113.643    0.155    0.366   10.097
  428.244  116.085    0.165    0.358   10.126
  428.494  117.775    0.162    0.348    9.848
  428.744  117.932    0.155    0.351    9.357
  428.994  117.902    0.161    0.360    8.960
  429.244  118.772    0.166    0.378    8.191
  429.494  121.305    0.156    0.392    7.477
  429.744  124.660    0.145    0.392    6.704
  429.994  129.342    0.132    0.395    6.502
  430.244  131.876    0.087    0.405    6.941
  430.494  128.156    0.127    0.416    7.462
  430.744  123.013    0.148    0.396    8.268
  430.994  117.315    0.159    0.377    8.921
  431.244  115.582    0.167    0.372    9.343
  431.494  118.864    0.175    0.368    9.804
  431.744  122.503    0.159    0.375    9.778
  431.994  124.820    0.142    0.380    9.448
  432.244  127.984    0.141    0.384    8.253
  432.494  126.749    0.139    0.379    6.995
  432.744  122.088    0.145    0.374    6.220
  432.994  118.188    0.137    0.382    6.081
  433.244  114.252    0.128    0.395    6.239
  433.494  109.201    0.118    0.412    6.833
  433.744  104.140    0.125    0.444    7.324
  433.994  108.456    0.143    0.495    7.967
  434.244  113.674    0.146    0.428    8.358
  434.494   98.578    0.130    0.373    8.762
  434.744   83.813    0.162    0.380    9.109
  434.994   63.151    0.178    0.393    9.609
  435.244   51.073    0.231    0.409   10.102
  435.494   48.684    0.273    0.403   10.541
  435.744   50.965    0.285    0.378   10.972
  435.994   57.147    0.255    0.353   11.843
  436.244   62.523    0.193    0.334   12.941
  436.494   73.365    0.155    0.322   14.455
  436.744   85.973    0.137    0.331   16.064
  436.994   93.352    0.126    0.329   18.058
  437.244   96.461    0.120    0.347   23.599
  437.494   88.576    0.125    0.368   29.593
  437.744   59.377    0.161    0.399   35.018
  437.994   40.603    0.032    0.383   37.820
  438.244   32.275    0.004    0.251   42.967
  438.494   31.295    0.000    0.173   48.303
  438.744   42.908   -0.000    0.202   48.038
  438.994   49.060   -0.000    0.230   47.665
  439.244   44.886   -0.000    0.218   46.066
  439.494   44.648    0.000    0.207   43.261
  439.744   45.560    0.000    0.214   41.090
  439.994   45.838   -0.000    0.219   40.811
  440.244   43.495    0.000    0.214   40.732
  440.494   35.149    0.000    0.174   41.670
  440.744   28.639   -0.000    0.153   40.849
  440.994   25.324   -0.000    0.198   37.350
  441.244   25.209   -0.001    0.239   34.261
  441.494   28.265    0.011    0.264   32.293
  441.744   33.702    0.030    0.264   31.295
