~VERSION INFORMATION
 VERS.                 2.0:   CWLS LOG ASCII STANDARD -VERSION 2.0
 WRAP.                  NO:   ONE LINE PER DEPTH STEP
~WELL INFORMATION BLOCK
#MNEM.UNIT           DATA                    DESCRIPTION OF MNEMONIC
#---------    -------------------            -------------------------------
# Generated from Intellog Unique Number	CS_77_79/WELL/972
WELL.         BRALORNE RESOURCES LIMITED     : Well_name    - WELL
LOC .         00/10-27-077-15W4/0            : Location     - LOCATION
UWI .         00/10-27-077-15W4/0            : Uwi          - UNIQUE WELL ID
ENTR.         SP                             : Entered      - ENTERED BY
SRVC.         SCHLUMBERGER                   : Scn          - SERVICE COMPANY
STRT.M        275                            : top_depth    - START DEPTH
STOP.M        535                            : bot_depth    - STOP DEPTH
STEP.M        0.25                           : increment    - STEP LENGTH
 NULL. -999.2500:NULL Value
~CURVE INFORMATION BLOCK
#MNEM UNIT       ERCB CURVE CODE    CURVE DESCRIPTION
#-----------   ------------------   ----------------------------------
DEPT.M        00 001 00 00         : DEPTH        - DEPTH
ILD .OHMM     00 120 00 00         : RESD         - DEEP RESISTIVITY (DIL)
DPHI.V/V      00 890 00 00         : PHID         - DENSITY POROSITY (LIMESTONE)
NPHI.V/V      00 330 00 00         : PHIN         - NEUTRON POROSITY (LIMESTONE)
GR  .API      00 310 00 00         : GR           - GAMMA RAY
~PARAMETER INFORMATION
#MNEM.UNIT           DATA             DESCRIPTION OF MNEMONIC
#---------         -----------     ------------------------------
GL  .M        669.41               : gl           - GROUND LEVEL ELEVATION
EREF.M        673.69               : kb           - ELEVATION OF DEPTH REFERENCE
DATM.M        669.41               : datum        - DATUM ELEVATION
TDD .M        552                  : tdd          - TOTAL DEPTH DRILLER
RUN .         ONE                  : Run          - RUN NUMBER
ENG .         BILL                 : Engineer     - RECORDING ENGINEER
WIT .         JIM                  : Witness      - WITNESSED BY
MUD .         GEL                  : Mud_type     - MUD TYPE
MATR.         LIMESTONE            : Logunit      - NEUTRON MATRIX
TMAX.C        25                   : BHT          - MAXIMUM RECORDED TEMPERATURE
BHTD.M        552                  : BHTDEP       - MAXIMUM RECORDED TEMPERATURE
MATR.         1                    : LOGUNIT      - NEUTRON MATRIX
RMT .C        25                   : MDTP         - TEMPERATURE OF MUD
NEUT.         1                    : NEUTRON      - NEUTRON TYPE
RESI.         0                    : RESIST       - RESISTIVITY TYPE
RMC .OHMM     0.25                 : RMC          - RESISTIVITY OF MUD CAKE
RMF .OHMM     0.25                 : RMF          - RESISTIVITY OF MUD FILTRATE
SUFT.C        15                   : SUFT         - SURFACE TEMPERATURE
~A  DEPTH     RESD     PHID     PHIN       GR
# ...
  449.000    6.408    0.195    0.479   88.325
  449.250    6.652    0.203    0.478   88.319
  449.500    6.906    0.211    0.478   87.701
  449.750    7.581    0.219    0.475   86.480
  450.000    7.871    0.208    0.459   82.221
  450.250    8.170    0.159    0.446   79.178
  450.500    8.327    0.150    0.432   77.954
  450.750    8.330    0.170    0.400   82.802
  451.000    8.030    0.194    0.369   85.833
  451.250    8.031    0.208    0.387   91.895
  451.500    8.036    0.213    0.423   94.315
  451.750    8.039    0.208    0.435   94.308
  452.000    8.192    0.198    0.441   94.906
  452.250    8.194    0.202    0.450   94.899
  452.500    8.351    0.211    0.461   95.498
  452.750    8.509    0.204    0.475   95.490
  453.000    9.002    0.200    0.486   95.477
  453.250    9.173    0.206    0.479   95.472
  453.500    9.347    0.203    0.474   94.248
  453.750    9.526    0.198    0.468   94.242
  454.000    9.529    0.188    0.463   95.445
  454.250    9.533    0.180    0.454   95.440
  454.500    9.535    0.181    0.445   96.038
  454.750    9.191    0.183    0.432   96.028
  455.000    8.536    0.200    0.428   96.018
  455.250    7.928    0.214    0.422   96.621
  455.500    7.786    0.205    0.430   99.649
  455.750    7.504    0.218    0.447  104.498
  456.000    7.233    0.228    0.463  106.918
  456.250    7.235    0.227    0.466  106.302
  456.500    6.973    0.237    0.455  104.471
  456.750    6.848    0.235    0.444  102.642
  457.000    6.600    0.234    0.444  101.421
  457.250    6.130    0.243    0.447   99.588
  457.500    5.485    0.240    0.449   97.759
  457.750    4.557    0.239    0.459   95.931
  458.000    3.582    0.228    0.473   92.883
  458.250    3.326    0.208    0.468   91.662
  458.500    2.815    0.217    0.460   92.262
  458.750    2.566    0.229    0.465   93.466
  459.000    2.428    0.252    0.469   91.638
  459.250    2.297    0.283    0.528   88.594
  459.500    2.215    0.309    0.566   91.619
  459.750    2.215    0.306    0.594   91.612
  460.000    2.257    0.307    0.581   90.998
  460.250    2.300    0.302    0.566   90.989
  460.500    2.525    0.296    0.559   92.797
  460.750    2.986    0.285    0.558   94.006
  461.000    3.339    0.278    0.558   92.177
  461.250    4.174    0.266    0.563   90.344
  461.500    4.754    0.249    0.566   90.339
  461.750    5.317    0.226    0.551   91.545
  462.000    5.729    0.197    0.476   90.930
  462.250    6.059    0.175    0.429   92.742
  462.500    6.291    0.162    0.436   95.161
  462.750    6.411    0.160    0.448   96.976
  463.000    6.657    0.151    0.427   96.968
  463.250    6.910    0.169    0.404   95.140
  463.500    7.308    0.177    0.412   89.664
  463.750    7.729    0.172    0.419   87.835
  464.000    8.175    0.154    0.425   87.219
  464.250    8.332    0.131    0.430   89.034
  464.500    8.334    0.122    0.431   92.061
  464.750    7.598    0.188    0.375   94.480
  465.000    6.552    0.200    0.383   95.080
  465.250    6.198    0.189    0.423   95.072
  465.500    5.651    0.208    0.444   93.240
  465.750    5.447    0.223    0.457   92.019
  466.000    5.448    0.213    0.461   92.010
  466.250    5.450    0.207    0.467   93.217
  466.500    5.352    0.201    0.476   93.817
  466.750    5.158    0.205    0.492   92.595
  467.000    4.448    0.176    0.484   98.656
  467.250    3.980    0.153    0.469  102.294
  467.500    3.629    0.224    0.468  106.536
  467.750    3.630    0.241    0.486  109.565
  468.000    3.632    0.239    0.504  111.377
  468.250    3.633    0.226    0.519  112.583
  468.500    3.842    0.220    0.534  110.146
  468.750    4.063    0.211    0.522  108.918
  469.000    4.298    0.217    0.496  108.302
  469.250    4.806    0.208    0.493  107.688
  469.500    5.475    0.198    0.493  106.468
  469.750    6.238    0.201    0.484  103.423
  470.000    7.106    0.187    0.458   99.773
  470.250    7.800    0.171    0.456   93.693
  470.500    7.949    0.189    0.450   83.361
  470.750    7.661    0.192    0.426   73.637
  471.000    6.984    0.183    0.402   63.912
  471.250    5.591    0.158    0.382   73.012
  471.500    5.594    0.165    0.366   83.934
  471.750    6.026    0.229    0.436   83.320
  472.000    7.819    0.242    0.451   74.200
  472.250    9.418    0.236    0.466   68.728
  472.500   10.338    0.236    0.431   65.685
  472.750   10.934    0.247    0.401   71.746
  473.000   11.142    0.247    0.393   75.989
  473.250   11.147    0.241    0.407   77.805
  473.500   10.743    0.239    0.413   74.758
  473.750    9.794    0.237    0.407   83.859
  474.000    8.929    0.240    0.385   99.030
  474.250    8.293    0.244    0.366  107.524
  474.500    8.142    0.237    0.368  115.412
  474.750    7.849    0.227    0.380  117.831
  475.000   11.387    0.205    0.434   96.326
  475.250   12.264    0.179    0.431   92.043
  475.500   12.966    0.146    0.422   92.027
  475.750   13.456    0.160    0.415   93.842
  476.000   13.963    0.183    0.410   92.604
  476.250   13.963    0.201    0.408   91.983
  476.500   14.223    0.220    0.408   90.749
  476.750   13.960    0.222    0.408   89.507
  477.000   13.702    0.221    0.408   89.498
  477.250   13.449    0.209    0.398   90.700
  477.500   13.957    0.191    0.387   91.296
  477.750   15.032    0.178    0.380   88.844
  478.000   15.600    0.180    0.376   83.337
  478.250   18.436    0.203    0.367   77.223
  478.500   19.491    0.207    0.363   73.556
  478.750   19.854    0.225    0.371   68.056
  479.000   19.488    0.243    0.376   64.379
  479.250   18.091    0.220    0.386   69.242
  479.500   16.182    0.210    0.394   79.584
  479.750   15.592    0.219    0.399   83.231
  480.000   14.208    0.196    0.388   85.659
  480.250   13.437    0.176    0.396   88.694
  480.500   12.946    0.171    0.399   88.676
  480.750   12.707    0.169    0.395   88.662
  481.000   12.706    0.186    0.376   89.861
  481.250   12.943    0.203    0.370   90.461
  481.500   13.432    0.203    0.374   92.275
  481.750   14.737    0.203    0.378   89.208
  482.000   15.581    0.206    0.385   83.705
  482.250   17.742    0.198    0.384   78.817
  482.500   19.108    0.194    0.384   72.704
  482.750   19.465    0.192    0.389   65.371
  483.000   19.463    0.222    0.381   62.312
  483.250   19.104    0.258    0.377   64.126
  483.500   18.407    0.238    0.399   64.721
  483.750   16.464    0.211    0.405   65.919
  484.000   15.863    0.201    0.399   67.729
  484.250   15.002    0.176    0.388   71.372
  484.500   14.188    0.218    0.391   75.016
  484.750   13.926    0.239    0.409   78.660
  485.000   13.669    0.231    0.423   80.474
  485.250   13.924    0.234    0.437   79.855
  485.500   14.721    0.222    0.446   77.396
  485.750   15.562    0.234    0.428   76.777
  486.000   16.150    0.239    0.425   73.710
  486.250   16.760    0.225    0.431   71.867
  486.500   18.734    0.216    0.423   68.804
  486.750   19.806    0.211    0.415   67.572
  487.000   20.176    0.202    0.421   66.944
  487.250   20.174    0.178    0.436   66.314
  487.500   18.728    0.154    0.421   64.479
  487.750   17.387    0.131    0.267   61.414
  488.000   13.913    0.165    0.282   70.539
  488.250   11.341    0.211    0.315   74.186
  488.500    9.775    0.236    0.392   80.269
  488.750    8.908    0.236    0.382   88.790
  489.000    8.743    0.218    0.376   99.748
  489.250    8.742    0.146    0.381  110.098
  489.500    8.742    0.159    0.401  108.248
  489.750    9.072    0.171    0.410  106.408
  490.000    9.771    0.169    0.404  102.122
  490.250   10.921    0.168    0.395   99.059
  490.500   11.546    0.190    0.371   98.438
  490.750   11.982    0.207    0.364  102.076
  491.000   12.667    0.218    0.362  102.067
  491.250   12.904    0.222    0.375   99.000
  491.500   13.391    0.237    0.398   99.594
  491.750   13.641    0.246    0.395  101.412
  492.000   14.967    0.241    0.386  106.878
  492.250   15.246    0.241    0.396  108.084
