~VERSION INFORMATION
 VERS.                 2.0:   CWLS LOG ASCII STANDARD -VERSION 2.0
 WRAP.                  NO:   ONE LINE PER DEPTH STEP
~WELL INFORMATION BLOCK
#MNEM.UNIT           DATA                    DESCRIPTION OF MNEMONIC
#---------    -------------------            -------------------------------
# Generated from Intellog Unique Number	CW_70_72/WELL/1039
NULL.         -999.25                        : NULL_VALUE
WELL.         MCMORGAN DOME SMITH 10-18      : Well_name    - WELL              
LOC .         10-18-071-24W4                 : Location     - LOCATION          
UWI .         00/10-18-071-24W4/0            : Uwi          - UNIQUE WELL ID    
ENTR.         JAYE                           : Entered      - ENTERED BY        
SRVC.         SCHLUMBERGER                   : Scn          - SERVICE COMPANY   
DATE.         16 MAR 72                      : Date         - LOG DATE          
STRT.M        434.645                        : top_depth    - START DEPTH       
STOP.M        646.145                        : bot_depth    - STOP DEPTH        
STEP.M        0.25                           : increment    - STEP LENGTH       
~CURVE INFORMATION BLOCK
#MNEM UNIT       ERCB CURVE CODE    CURVE DESCRIPTION
#-----------   ------------------   ----------------------------------
DEPT.M        00 001 00 00         : DEPTH        - DEPTH                       
DPHI.V/V      00 890 00 00         : PHID         - DENSITY POROSITY (SANDSTONE)
NPHI.V/V      00 330 00 00         : PHIN         - NEUTRON POROSITY (SANDSTONE)
GR  .API      00 310 00 00         : GR           - GAMMA RAY                   
CALI.MM       00 280 01 00         : CAL          - CALIPER                     
ILD .OHMM     00 120 00 00         : RESD         - DEEP RESISTIVITY (DIL)      
~PARAMETER INFORMATION       
#MNEM.UNIT           DATA             DESCRIPTION OF MNEMONIC
#---------         -----------     ------------------------------
GL  .M        638.861              : gl           - GROUND LEVEL ELEVATION      
EREF.M        642.518              : kb           - ELEVATION OF DEPTH REFERENCE
DATM.M        638.861              : datum        - DATUM ELEVATION             
TDD .M        612.648              : tdd          - TOTAL DEPTH DRILLER         
RUN .         ONE                  : Run          - RUN NUMBER                  
ENG .         HAYWOOD              : Engineer     - RECORDING ENGINEER          
WIT .         GRAD                 : Witness      - WITNESSED BY                
BASE.         EDM                  : Branch       - HOME BASE OF LOGGING UNIT   
MUD .         FGM                  : Mud_type     - MUD TYPE                    
MATR.         SANDSTONE            : Logunit      - NEUTRON MATRIX              
TMAX.C        28.3333              : BHT          - MAXIMUM RECORDED TEMPERATURE
BHTD.M        612.648              : BHTDEP       - MAXIMUM RECORDED TEMPERATURE
RMT .C        20                   : MDTP         - TEMPERATURE OF MUD          
MUDD.KG/M     1104                 : MWT          - MUD DENSITY                 
NEUT.         1                    : NEUTRON      - NEUTRON TYPE                
RESI.         0                    : RESIST       - RESISTIVITY TYPE            
RM  .OHMM     2.62                 : RM           - RESISTIVITY OF MUD          
RMC .OHMM     0                    : RMC          - RESISTIVITY OF MUD CAKE     
RMF .OHMM     2.67                 : RMF          - RESISTIVITY OF MUD FILTRATE 
SUFT.C        0                    : SUFT         - SURFACE TEMPERATURE         
~A  DEPTH     PHID     PHIN       GR      CAL     RESD
# ...
  580.645    0.144    0.425   98.104  209.731    4.267
  580.895    0.161    0.410  100.290  209.707    4.282
  581.145    0.163    0.419   97.837  209.690    4.321
  581.395    0.159    0.420   94.591  209.672    4.466
  581.645    0.142    0.397   92.568  209.343    4.574
  581.895    0.116    0.389   93.776  208.705    4.650
  582.145    0.148    0.402   99.319  209.202    4.666
  582.395    0.166    0.424  106.874  210.423    4.657
  582.645    0.169    0.428  106.925  210.920    4.631
  582.895    0.157    0.411  103.129  209.143    4.647
  583.145    0.166    0.395   98.663  208.298    4.647
  583.395    0.176    0.385   92.549  207.866    4.655
  583.645    0.163    0.385   90.461  207.948    4.645
  583.895    0.172    0.401   89.963  207.827    4.645
  584.145    0.170    0.410   89.951  207.912    4.627
  584.395    0.141    0.414   87.927  208.099    4.661
  584.645    0.097    0.406   85.292  207.770    4.686
  584.895    0.098    0.392   82.839  206.718    4.668
  585.145    0.142    0.384   86.733  206.388    4.667
  585.395    0.163    0.394   95.266  206.988    4.624
  585.645    0.173    0.396   96.475  207.693    4.522
  585.895    0.175    0.400   95.853  208.192    4.406
  586.145    0.151    0.405   96.635  208.378    4.285
  586.395    0.154    0.401   97.844  208.360    4.308
  586.645    0.165    0.389   99.541  208.548    4.396
  586.895    0.177    0.393  100.873  208.732    4.485
  587.145    0.163    0.412  101.106  208.814    4.518
  587.395    0.165    0.405   98.041  208.795    4.542
  587.645    0.164    0.394   95.591  208.470    4.525
  587.895    0.157    0.396   93.382  208.555    4.533
  588.145    0.145    0.396   95.080  208.430    4.574
  588.395    0.135    0.399   97.510  208.308    4.641
  588.645    0.149    0.437   96.827  208.185    4.718
  588.895    0.160    0.426   93.154  208.165    4.868
  589.145    0.163    0.410   89.236  208.144    5.192
  589.395    0.176    0.404   85.930  208.233    5.641
  589.645    0.196    0.398   82.989  208.420    6.106
  589.895    0.184    0.393   79.499  208.710    6.708
  590.145    0.189    0.382   75.644  209.310    7.520
  590.395    0.201    0.378   74.228  209.601    8.540
  590.645    0.201    0.377   76.292  209.788    9.521
  590.895    0.192    0.376   77.441  209.977   10.117
  591.145    0.181    0.371   77.428  210.060   10.323
  591.395    0.170    0.367   78.089  209.835   10.398
  591.645    0.156    0.360   79.724  209.607   10.301
  591.895    0.147    0.353   82.216  209.277   10.130
  592.145    0.133    0.354   84.829  209.156    9.762
  592.395    0.147    0.375   85.550  208.825    9.355
  592.645    0.150    0.389   82.731  208.808    8.998
  592.895    0.134    0.401   79.669  208.790    8.113
  593.145    0.130    0.388   77.400  208.771    7.316
  593.395    0.123    0.369   74.887  208.442    6.769
  593.645    0.102    0.347   70.359  208.318    6.681
  593.895    0.072    0.322   65.466  208.197    7.139
  594.145    0.039    0.337   59.839  207.972    8.018
  594.395    0.057    0.353   66.298  207.743    9.840
  594.645    0.078    0.357   74.158  207.623   11.133
  594.895    0.105    0.391   79.150  207.496   10.948
  595.145    0.125    0.384   81.336  207.582    9.220
  595.395    0.142    0.381   84.741  207.564    7.694
  595.645    0.160    0.389   88.941  207.649    6.686
  595.895    0.171    0.397   92.531  207.734    5.736
  596.145    0.170    0.401   93.252  208.227    4.994
  596.395    0.167    0.400   92.814  208.109    4.689
  596.645    0.163    0.393   91.947  207.055    4.620
  596.895    0.157    0.386   91.266  206.830    4.636
  597.145    0.147    0.378   89.362  207.327    4.731
  597.395    0.139    0.379   88.619  207.721    4.827
  597.645    0.146    0.383   88.729  208.011    4.889
  597.895    0.154    0.379   90.854  207.994    4.943
  598.145    0.161    0.379   91.880  208.075    4.969
  598.395    0.158    0.384   88.086  208.369    4.987
  598.645    0.151    0.395   87.584  208.553    5.070
  598.895    0.133    0.389   86.903  208.641    5.260
  599.145    0.118    0.353   85.244  208.620    5.397
  599.395    0.101    0.316   81.816  208.602    5.724
  599.645    0.069    0.320   80.156  208.687    5.994
  599.895    0.099    0.353   86.614  208.559    6.609
  600.145    0.130    0.389   93.560  208.438    7.140
  600.395    0.138    0.374   94.891  208.317    7.152
  600.645    0.149    0.369   91.950  208.504    6.956
  600.895    0.151    0.377   90.108  208.486    6.642
  601.145    0.135    0.377   89.059  208.157    6.134
  601.395    0.113    0.360   87.095  208.447    5.644
  601.645    0.084    0.319   87.876  208.427    5.696
  601.895    0.060    0.309   91.039  208.410    5.888
  602.145    0.079    0.321   94.080  208.487    6.385
  602.395    0.102    0.337   99.988  208.369    7.027
  602.645    0.097    0.348   94.667  208.352    7.290
  602.895    0.111    0.357   95.570  208.540    7.209
  603.145    0.123    0.363   97.940  209.036    7.037
  603.395    0.133    0.367  100.309  209.947    6.731
  603.645    0.143    0.365   97.856  210.653    6.403
  603.895    0.116    0.364  100.164  210.011    5.979
  604.145    0.128    0.365  102.593  209.064    5.553
  604.395    0.127    0.355   97.700  208.010    5.312
  604.645    0.131    0.342   86.704  207.476    5.195
  604.895    0.127    0.331   86.388  207.558    5.399
  605.145    0.114    0.339   87.963  207.745    5.855
  605.395    0.106    0.343   87.952  207.832    6.385
  605.645    0.100    0.335   88.062  208.122    6.760
  605.895    0.110    0.340   88.844  208.103    6.872
  606.145    0.120    0.348   85.842  207.669    6.634
  606.395    0.103    0.366   81.864  207.237    6.230
  606.645    0.179    0.382   87.101  206.906    5.818
  606.895    0.274    0.394   91.789  207.199    5.131
  607.145    0.307    0.405   95.621  207.384    4.508
  607.395    0.274    0.414   97.381  207.367    3.666
  607.645    0.289    0.435   98.896  207.553    2.992
  607.895    0.304    0.442   99.677  207.533    2.380
  608.145    0.319    0.449   95.821  207.517    2.150
  608.395    0.237    0.450   93.979  207.601    2.091
  608.645    0.166    0.436   94.212  207.270    2.090
  608.895    0.142    0.386   95.725  207.148    2.141
  609.145    0.113    0.393   96.875  207.026    2.267
  609.395    0.133    0.419   95.887  206.904    2.522
  609.645    0.126    0.429   93.068  207.091    2.791
  609.895    0.146    0.434   94.461  207.174    2.955
  610.145    0.120    0.436   95.059  207.049    2.740
  610.395    0.141    0.426   90.959  206.826    1.769
  610.645    0.120    0.406   91.496  207.014    1.637
  610.895    0.134    0.388   91.607  206.890    0.397
  611.145    0.107    0.384   91.718  206.976    0.386
  611.395    0.063    0.387   91.464  206.956    0.505
  611.645    0.041    0.367   90.476  206.831    1.391
  611.895    0.002    0.320   83.934  206.712    2.742
  612.145   -0.017    0.292   78.797  206.484    3.643
  612.395    0.039    0.326   82.691  206.569    6.028
  612.645    0.061    0.370   93.604  206.447    8.112
  612.895    0.111    0.374   99.267  206.326    7.948
  613.145    0.104    0.364  100.111  206.203    6.596
  613.395    0.116    0.364   93.570  206.081    5.936
  613.645    0.136    0.366   88.248  206.060    5.827
  613.895    0.121    0.359   85.064  206.043    5.858
  614.145    0.103    0.337   83.527  206.125    5.890
  614.395    0.098    0.322   84.310  206.211    6.021
  614.645    0.133    0.347   89.118  206.395    6.121
  614.895    0.147    0.365   92.830  206.790    6.154
  615.145    0.139    0.371   95.809  207.289    6.052
  615.395    0.115    0.381   97.751  207.684    5.631
  615.645    0.134    0.388   99.143  207.768    5.278
  615.895    0.137    0.389  100.472  207.953    4.974
  616.145    0.114    0.387   99.669  208.245    4.680
  616.395    0.123    0.380   98.437  208.330    4.477
  616.645    0.104    0.381   99.462  208.206    4.314
  616.895    0.090    0.386   99.086  207.775    4.126
