~VERSION INFORMATION
 VERS.                 2.0:   CWLS LOG ASCII STANDARD -VERSION 2.0
 WRAP.                  NO:   ONE LINE PER DEPTH STEP
~WELL INFORMATION BLOCK
#MNEM.UNIT           DATA                    DESCRIPTION OF MNEMONIC
#---------    -------------------            -------------------------------
# Generated from Intellog Unique Number	CS_67_68/WELL/2201
WELL.         ICG ET AL TWEEDIE              : Well_name    - WELL
LOC .         00/10-34-067-13W4/0            : Location     - LOCATION
UWI .         00/10-34-067-13W4/0            : Uwi          - UNIQUE WELL ID
ENTR.         SP                             : Entered      - ENTERED BY
SRVC.         SCHLUMBERGER                   : Scn          - SERVICE COMPANY
STRT.M        289.56                         : top_depth    - START DEPTH
STOP.M        457.06                         : bot_depth    - STOP DEPTH
STEP.M        0.25                           : increment    - STEP LENGTH
 NULL. -999.2500:NULL Value
~CURVE INFORMATION BLOCK
#MNEM UNIT       ERCB CURVE CODE    CURVE DESCRIPTION
#-----------   ------------------   ----------------------------------
DEPT.M        00 001 00 00         : DEPTH        - DEPTH
CALI.MM       00 280 01 00         : CAL          - CALIPER
GR  .API      00 310 00 00         : GR           - GAMMA RAY
DPHI.V/V      00 890 00 00         : PHID         - DENSITY POROSITY (SANDSTONE)
NPHI.V/V      00 330 00 00         : PHIN         - NEUTRON POROSITY (SANDSTONE)
ILD .OHMM     00 120 00 00         : RESD         - DEEP RESISTIVITY (DIL)
~PARAMETER INFORMATION
#MNEM.UNIT           DATA             DESCRIPTION OF MNEMONIC
#---------         -----------     ------------------------------
GL  .M        575.158              : gl           - GROUND LEVEL ELEVATION
EREF.M        577.901              : kb           - ELEVATION OF DEPTH REFERENCE
DATM.M        577.901              : datum        - DATUM ELEVATION
TDD .M        463.906              : tdd          - TOTAL DEPTH DRILLER
RUN .         ONE                  : Run          - RUN NUMBER
ENG .         BILL                 : Engineer     - RECORDING ENGINEER
WIT .         JIM                  : Witness      - WITNESSED BY
MUD .         GEL                  : Mud_type     - MUD TYPE
MATR.         SANDSTONE            : Logunit      - NEUTRON MATRIX
TMAX.C        23.8889              : BHT          - MAXIMUM RECORDED TEMPERATURE
BHTD.M        464.21               : BHTDEP       - MAXIMUM RECORDED TEMPERATURE
MATR.         1                    : LOGUNIT      - NEUTRON MATRIX
RMT .C        25                   : MDTP         - TEMPERATURE OF MUD
NEUT.         1                    : NEUTRON      - NEUTRON TYPE
RESI.         0                    : RESIST       - RESISTIVITY TYPE
RMC .OHMM     0.25                 : RMC          - RESISTIVITY OF MUD CAKE
RMF .OHMM     0.25                 : RMF          - RESISTIVITY OF MUD FILTRATE
SUFT.C        15                   : SUFT         - SURFACE TEMPERATURE
~A  DEPTH      CAL       GR     PHID     PHIN     RESD
# ...
  362.560  148.934   81.444    0.359    0.432    2.122
  362.810  148.642   86.228    0.343    0.426    2.250
  363.060  148.606   90.697    0.350    0.416    2.412
  363.310  148.756   97.320    0.343    0.411    2.558
  363.560  152.593  102.273    0.286    0.412    2.630
  363.810  154.663  106.641    0.293    0.485    2.624
  364.060  153.224  100.467    0.305    0.488    2.490
  364.310  149.284   91.984    0.338    0.472    2.301
  364.560  147.061   87.440    0.359    0.458    2.135
  364.810  145.303   83.355    0.360    0.445    2.034
  365.060  146.968   85.239    0.366    0.436    1.960
  365.310  147.463   86.349    0.377    0.428    1.939
  365.560  148.228   84.305    0.354    0.435    1.973
  365.810  148.992   83.175    0.347    0.430    2.048
  366.060  149.023   82.240    0.346    0.427    2.140
  366.310  149.112   80.507    0.347    0.428    2.248
  366.560  148.674   79.666    0.354    0.430    2.357
  366.810  146.673   79.191    0.346    0.423    2.406
  367.060  148.981   79.127    0.338    0.417    2.440
  367.310  149.528   79.644    0.337    0.407    2.491
  367.560  147.370   80.557    0.344    0.341    2.688
  367.810  146.742   79.136    0.283    0.305    3.046
  368.060  149.041   73.685    0.221    0.275    3.395
  368.310  152.539   69.724    0.182    0.255    3.703
  368.560  156.419   65.011    0.162    0.244    4.088
  368.810  158.601   66.951    0.156    0.249    4.482
  369.060  159.461   68.928    0.147    0.258    4.938
  369.310  157.419   70.605    0.161    0.260    5.634
  369.560  153.081   67.607    0.129    0.187    6.530
  369.810  149.181   62.971    0.080    0.153    7.591
  370.060  148.687   58.426    0.066    0.139    8.536
  370.310  152.846   55.596    0.060    0.134   10.076
  370.560  156.648   55.777    0.061    0.132   12.166
  370.810  159.235   63.828    0.056    0.133   14.382
  371.060  160.414   69.724    0.068    0.149   15.398
  371.310  159.005   74.998    0.095    0.180   12.153
  371.560  156.861   79.349    0.142    0.266    8.630
  371.810  153.332   83.124    0.221    0.366    6.108
  372.060  149.805   85.113    0.302    0.401    3.585
  372.310  146.786   84.544    0.346    0.422    2.423
  372.560  144.906   84.156    0.367    0.430    2.053
  372.810  144.185   84.235    0.373    0.434    1.828
  373.060  144.298   85.127    0.384    0.437    1.735
  373.310  145.784   86.356    0.364    0.433    1.790
  373.560  148.633   88.016    0.354    0.426    1.875
  373.810  151.243   89.643    0.340    0.424    1.984
  374.060  153.236   91.925    0.324    0.430    2.068
  374.310  149.998   95.065    0.308    0.437    2.113
  374.560  150.784   94.180    0.306    0.442    2.208
  374.810  154.008   90.279    0.323    0.440    2.240
  375.060  152.327   92.353    0.330    0.433    2.252
  375.310  148.921   93.506    0.318    0.430    2.222
  375.560  150.753   91.383    0.328    0.445    2.234
  375.810  152.140   90.980    0.343    0.441    2.255
  376.060  148.577   91.017    0.348    0.456    2.253
  376.310  147.144   91.218    0.337    0.463    2.234
  376.560  151.766   91.326    0.327    0.461    2.164
  376.810  153.545   92.067    0.345    0.453    2.108
  377.060  150.278   93.121    0.354    0.445    2.064
  377.310  148.295   95.039    0.352    0.437    2.072
  377.560  147.306   96.501    0.353    0.431    2.093
  377.810  148.766   98.423    0.346    0.427    2.126
  378.060  150.115   99.183    0.324    0.427    2.236
  378.310  151.734   98.255    0.308    0.432    2.351
  378.560  153.024   98.088    0.310    0.428    2.466
  378.810  152.691  100.573    0.319    0.433    2.574
  379.060  148.758  102.388    0.324    0.441    2.666
  379.310  148.132  103.555    0.298    0.447    2.748
  379.560  151.175  100.447    0.299    0.436    2.818
  379.810  153.310   97.831    0.309    0.424    2.884
  380.060  154.940   97.327    0.297    0.414    2.940
  380.310  156.409   99.257    0.292    0.407    2.993
  380.560  155.918   98.707    0.292    0.400    3.074
  380.810  155.379   97.971    0.287    0.400    3.125
  381.060  155.000   98.677    0.277    0.411    3.167
  381.310  155.015   96.518    0.279    0.418    3.191
  381.560  154.834   91.609    0.285    0.411    3.225
  381.810  154.720   91.725    0.291    0.404    3.205
  382.060  154.672   95.043    0.311    0.417    3.041
  382.310  154.315   96.722    0.324    0.430    3.059
  382.560  154.077   99.203    0.343    0.437    3.092
  382.810  154.088  101.963    0.332    0.443    3.166
  383.060  154.187  104.562    0.320    0.448    3.234
  383.310  154.406  106.328    0.310    0.444    3.295
  383.560  154.739  106.421    0.298    0.430    3.330
  383.810  155.112  106.966    0.286    0.410    3.255
  384.060  155.262  108.518    0.279    0.418    3.111
  384.310  155.794  110.633    0.275    0.430    2.998
  384.560  155.889  111.822    0.273    0.438    2.917
  384.810  156.119  112.565    0.265    0.444    2.872
  385.060  156.411  108.733    0.261    0.449    2.936
  385.310  156.803  103.452    0.272    0.456    3.015
  385.560  157.000  104.984    0.266    0.459    3.117
  385.810  157.131  106.703    0.256    0.447    3.190
  386.060  157.350  107.680    0.262    0.447    3.249
  386.310  157.330  107.318    0.248    0.447    3.272
  386.560  157.276  105.421    0.253    0.447    3.283
  386.810  157.327  102.662    0.267    0.461    3.277
  387.060  156.952  103.691    0.260    0.463    3.242
  387.310  156.777  105.909    0.242    0.449    3.207
  387.560  156.564  109.571    0.233    0.449    3.182
  387.810  156.168  111.175    0.272    0.462    3.129
  388.060  155.605  112.667    0.281    0.453    2.845
  388.310  154.335  112.977    0.271    0.454    2.466
  388.560  157.357  113.310    0.295    0.478    2.224
  388.810  168.939  113.342    0.287    0.502    2.052
  389.060  178.574  113.447    0.315    0.528    2.076
  389.310  177.414  114.321    0.297    0.542    2.238
  389.560  164.853  115.370    0.296    0.508    2.393
  389.810  158.585  117.021    0.261    0.465    2.534
  390.060  156.545  117.952    0.245    0.476    2.639
  390.310  154.742  115.314    0.258    0.486    2.697
  390.560  153.932  113.797    0.256    0.500    2.747
  390.810  153.236  113.212    0.256    0.465    2.791
  391.060  152.607  112.299    0.286    0.449    2.821
  391.310  152.861  109.194    0.294    0.433    2.827
  391.560  154.005  107.627    0.282    0.436    2.831
  391.810  155.086  108.801    0.278    0.447    2.832
  392.060  154.326  109.802    0.272    0.457    2.776
  392.310  151.562  107.303    0.289    0.468    2.658
  392.560  149.094  100.479    0.311    0.459    2.512
  392.810  148.101   97.098    0.331    0.435    2.388
  393.060  147.871   94.728    0.317    0.443    2.357
  393.310  148.935   92.934    0.285    0.452    2.334
  393.560  150.724   90.839    0.298    0.445    2.304
  393.810  151.654   88.305    0.300    0.444    2.262
  394.060  150.976   83.201    0.296    0.452    2.192
  394.310  145.632   79.694    0.309    0.450    2.103
  394.560  144.068   79.171    0.345    0.446    2.048
  394.810  145.946   81.694    0.353    0.441    2.001
  395.060  147.662   83.609    0.332    0.437    1.991
  395.310  148.719   77.294    0.341    0.438    1.972
  395.560  148.881   74.519    0.349    0.434    1.960
  395.810  148.575   72.274    0.351    0.429    1.956
  396.060  146.839   71.015    0.360    0.424    1.952
  396.310  145.781   70.424    0.343    0.423    1.966
  396.560  145.591   72.542    0.263    0.427    2.066
  396.810  145.830   73.803    0.212    0.414    2.394
  397.060  146.185   74.838    0.173    0.399    3.023
  397.310  146.452   73.658    0.153    0.368    4.452
  397.560  148.825   68.515    0.139    0.258    6.044
  397.810  151.939   64.234    0.127    0.224    6.801
  398.060  153.981   63.787    0.123    0.226    6.241
  398.310  153.468   67.130    0.161    0.277    4.079
  398.560  150.518   70.840    0.268    0.350    2.977
  398.810  148.419   73.769    0.325    0.417    2.462
