~VERSION INFORMATION
 VERS.                 2.0:   CWLS LOG ASCII STANDARD -VERSION 2.0
 WRAP.                  NO:   ONE LINE PER DEPTH STEP
~WELL INFORMATION BLOCK
#MNEM.UNIT           DATA                    DESCRIPTION OF MNEMONIC
#---------    -------------------            -------------------------------
# Generated from Intellog Unique Number	CW_70_72/WELL/1067
NULL.         -999.25                        : NULL_VALUE
WELL.         WINCAN ET AL CALL W 12-30      : Well_name    - WELL              
LOC .         12-30-071-19W4                 : Location     - LOCATION          
UWI .         00/12-30-071-19W4/0            : Uwi          - UNIQUE WELL ID    
ENTR.         JAYE                           : Entered      - ENTERED BY        
SRVC.         SCHLUMBERGER                   : Scn          - SERVICE COMPANY   
DATE.         19 FEB 80                      : Date         - LOG DATE          
STRT.M        305                            : top_depth    - START DEPTH       
STOP.M        495                            : bot_depth    - STOP DEPTH        
STEP.M        0.25                           : increment    - STEP LENGTH       
~CURVE INFORMATION BLOCK
#MNEM UNIT       ERCB CURVE CODE    CURVE DESCRIPTION
#-----------   ------------------   ----------------------------------
DEPT.M        00 001 00 00         : DEPTH        - DEPTH                       
DPHI.V/V      00 890 00 00         : PHID         - DENSITY POROSITY (SANDSTONE)
NPHI.V/V      00 330 00 00         : PHIN         - NEUTRON POROSITY (SANDSTONE)
GR  .API      00 310 00 00         : GR           - GAMMA RAY                   
CALI.MM       00 280 01 00         : CAL          - CALIPER                     
ILD .OHMM     00 120 00 00         : RESD         - DEEP RESISTIVITY (DIL)      
~PARAMETER INFORMATION       
#MNEM.UNIT           DATA             DESCRIPTION OF MNEMONIC
#---------         -----------     ------------------------------
GL  .M        592.17               : gl           - GROUND LEVEL ELEVATION      
EREF.M        596.27               : kb           - ELEVATION OF DEPTH REFERENCE
DATM.M        592.17               : datum        - DATUM ELEVATION             
TDD .M        498                  : tdd          - TOTAL DEPTH DRILLER         
RUN .         ONE                  : Run          - RUN NUMBER                  
ENG .         HOOK                 : Engineer     - RECORDING ENGINEER          
WIT .         WAUNCH               : Witness      - WITNESSED BY                
BASE.         EDM                  : Branch       - HOME BASE OF LOGGING UNIT   
MUD .         GEL CHEM             : Mud_type     - MUD TYPE                    
MATR.         SANDSTONE            : Logunit      - NEUTRON MATRIX              
TMAX.C        27.5                 : BHT          - MAXIMUM RECORDED TEMPERATURE
BHTD.M        498                  : BHTDEP       - MAXIMUM RECORDED TEMPERATURE
RMT .C        18.9                 : MDTP         - TEMPERATURE OF MUD          
MUDD.KG/M     9.5                  : MWT          - MUD DENSITY                 
NEUT.         1                    : NEUTRON      - NEUTRON TYPE                
RESI.         0                    : RESIST       - RESISTIVITY TYPE            
RM  .OHMM     4.68                 : RM           - RESISTIVITY OF MUD          
RMC .OHMM     0                    : RMC          - RESISTIVITY OF MUD CAKE     
RMF .OHMM     4.03                 : RMF          - RESISTIVITY OF MUD FILTRATE 
SUFT.C        0                    : SUFT         - SURFACE TEMPERATURE         
~A  DEPTH     PHID     PHIN       GR      CAL     RESD
# ...
  378.000    0.298    0.484   61.151  144.389    4.586
  378.250    0.298    0.482   59.003  144.243    4.618
  378.500    0.297    0.478   61.290  144.311    4.669
  378.750    0.287    0.469   64.455  144.573    4.729
  379.000    0.274    0.461   65.307  144.751    4.772
  379.250    0.274    0.459   64.595  144.809    4.770
  379.500    0.283    0.460   64.945  144.777    4.768
  379.750    0.284    0.459   65.921  144.727    4.784
  380.000    0.289    0.462   67.649  144.794    4.836
  380.250    0.302    0.461   68.937  144.969    4.907
  380.500    0.290    0.457   70.224  145.338    4.961
  380.750    0.276    0.450   72.765  145.392    5.043
  381.000    0.257    0.451   73.115  145.466    5.167
  381.250    0.247    0.453   71.966  145.219    5.243
  381.500    0.243    0.455   72.315  145.276    5.279
  381.750    0.245    0.456   73.543  145.242    5.287
  382.000    0.251    0.455   74.456  145.411    5.277
  382.250    0.247    0.452   75.181  145.474    5.274
  382.500    0.242    0.448   75.782  145.434    5.243
  382.750    0.234    0.440   76.759  145.399    5.271
  383.000    0.227    0.433   77.920  146.400    5.309
  383.250    0.217    0.429   78.275  147.915    5.388
  383.500    0.225    0.427   79.061  148.920    5.426
  383.750    0.227    0.423   80.228  150.027    5.393
  384.000    0.215    0.414   79.078  150.824    5.412
  384.250    0.205    0.421   77.553  151.814    5.441
  384.500    0.194    0.429   74.778  152.403    5.489
  384.750    0.189    0.435   74.064  152.891    5.559
  385.000    0.188    0.446   72.729  153.474    5.620
  385.250    0.195    0.445   72.891  151.767    5.671
  385.500    0.217    0.435   76.933  148.600    5.669
  385.750    0.212    0.440   79.847  146.062    5.533
  386.000    0.207    0.455   80.009  148.311    5.427
  386.250    0.203    0.465   79.232  151.497    5.227
  386.500    0.210    0.459   78.584  153.645    4.932
  386.750    0.217    0.448   79.183  154.753    4.568
  387.000    0.208    0.439   82.163  154.920    4.333
  387.250    0.198    0.444   82.327  154.677    4.149
  387.500    0.197    0.452   78.990  154.320    4.071
  387.750    0.208    0.460   75.340  154.065    4.018
  388.000    0.220    0.468   75.562  153.719    4.023
  388.250    0.236    0.474   76.602  153.057    4.059
  388.500    0.247    0.465   78.890  152.180    4.143
  388.750    0.242    0.441   80.183  150.365    4.203
  389.000    0.248    0.437   78.781  148.769    4.274
  389.250    0.244    0.444   76.632  146.531    4.352
  389.500    0.253    0.451   74.545  145.768    4.450
  389.750    0.254    0.458   73.456  146.038    4.532
  390.000    0.247    0.464   73.622  146.833    4.589
  390.250    0.238    0.465   72.471  147.524    4.623
  390.500    0.232    0.458   69.506  147.795    4.569
  390.750    0.237    0.446   67.359  147.861    4.459
  391.000    0.255    0.438   64.335  147.499    4.287
  391.250    0.276    0.434   63.498  147.148    4.089
  391.500    0.298    0.429   61.598  146.479    3.923
  391.750    0.319    0.431   58.009  146.030    3.821
  392.000    0.341    0.445   58.858  145.573    3.756
  392.250    0.338    0.450   60.337  145.220    3.763
  392.500    0.334    0.445   61.438  145.285    3.775
  392.750    0.333    0.437   61.096  145.342    3.794
  393.000    0.334    0.430   60.452  145.514    3.814
  393.250    0.331    0.425   59.362  145.581    3.835
  393.500    0.327    0.433   58.841  145.534    3.870
  393.750    0.319    0.445   58.628  145.598    3.897
  394.000    0.310    0.451   57.853  145.767    3.927
  394.250    0.312    0.451   57.703  145.937    3.924
  394.500    0.322    0.449   57.741  146.108    3.893
  394.750    0.331    0.446   57.405  146.173    3.856
  395.000    0.331    0.440   56.569  146.340    3.827
  395.250    0.333    0.433   53.732  146.294    3.789
  395.500    0.339    0.422   54.080  146.348    3.767
  395.750    0.337    0.425   56.497  146.523    3.745
  396.000    0.333    0.437   60.286  146.600    3.758
  396.250    0.327    0.446   60.947  146.868    3.777
  396.500    0.320    0.453   61.052  146.930    3.819
  396.750    0.308    0.470   62.026  146.992    3.860
  397.000    0.301    0.466   62.876  146.951    3.917
  397.250    0.307    0.461   62.854  146.906    3.952
  397.500    0.315    0.458   62.203  147.077    4.026
  397.750    0.315    0.460   61.681  146.828    4.100
  398.000    0.315    0.473   61.219  146.784    4.137
  398.250    0.318    0.488   61.257  146.755    4.143
  398.500    0.319    0.502   63.358  146.809    4.120
  398.750    0.312    0.486   64.710  146.878    4.104
  399.000    0.305    0.468   64.749  146.938    4.078
  399.250    0.305    0.444   64.097  147.110    4.054
  399.500    0.305    0.428   63.012  147.283    4.024
  399.750    0.301    0.414   65.234  147.441    3.993
  400.000    0.296    0.415   66.274  147.719    3.947
  400.250    0.300    0.424   65.252  147.782    3.916
  400.500    0.310    0.433   64.288  147.741    3.899
  400.750    0.308    0.445   62.391  147.594    3.869
  401.000    0.306    0.458   61.115  147.565    3.839
  401.250    0.305    0.451   59.653  147.626    3.809
  401.500    0.308    0.442   58.065  147.586    3.786
  401.750    0.314    0.451   56.604  147.546    3.750
  402.000    0.324    0.448   55.455  147.402    3.721
  402.250    0.325    0.437   54.805  147.457    3.705
  402.500    0.317    0.427   54.717  147.427    3.725
  402.750    0.303    0.425   54.630  147.279    3.787
  403.000    0.310    0.425   53.604  147.240    3.865
  403.250    0.307    0.424   52.209  146.994    3.914
  403.500    0.297    0.425   51.741  144.864    3.958
  403.750    0.286    0.429   52.285  144.095    3.993
  404.000    0.287    0.432   53.258  145.306    3.991
  404.250    0.271    0.437   54.364  147.349    3.990
  404.500    0.308    0.444   56.777  149.600    3.989
  404.750    0.331    0.451   59.004  148.938    3.981
  405.000    0.331    0.461   60.104  147.641    3.979
  405.250    0.339    0.482   61.268  147.087    3.970
  405.500    0.342    0.475   62.307  147.354    3.968
  405.750    0.331    0.461   62.220  147.943    3.976
  406.000    0.331    0.450   60.884  148.524    3.959
  406.250    0.316    0.446   58.670  149.010    3.958
  406.500    0.314    0.439   56.084  149.701    3.941
  406.750    0.316    0.433   55.247  150.285    3.926
  407.000    0.311    0.435   56.783  150.973    3.902
  407.250    0.310    0.447   61.137  151.033    3.858
  407.500    0.310    0.457   62.425  150.254    3.857
  407.750    0.311    0.483   60.902  149.694    3.862
  408.000    0.310    0.492   58.563  149.454    3.897
  408.250    0.313    0.478   58.916  149.091    3.925
  408.500    0.317    0.468   61.141  149.154    3.991
  408.750    0.316    0.460   60.991  149.633    4.103
  409.000    0.334    0.458   59.714  149.818    4.209
  409.250    0.327    0.456   59.193  150.191    4.231
  409.500    0.313    0.450   59.795  150.667    4.254
  409.750    0.304    0.438   62.644  150.937    4.269
  410.000    0.290    0.435   65.998  151.218    4.269
  410.250    0.281    0.435   69.538  150.963    4.282
  410.500    0.287    0.433   72.578  150.826    4.297
  410.750    0.285    0.417   67.989  150.886    4.312
  411.000    0.276    0.425   64.401  150.847    4.310
  411.250    0.277    0.431   65.063  150.806    4.333
  411.500    0.295    0.431   67.661  150.343    4.364
  411.750    0.281    0.427   69.644  150.308    4.397
  412.000    0.290    0.428   71.740  149.741    4.419
  412.250    0.299    0.435   70.969  149.175    4.416
  412.500    0.302    0.446   68.007  149.044    4.423
  412.750    0.300    0.434   66.166  149.418    4.422
  413.000    0.296    0.416   65.518  149.798    4.420
  413.250    0.301    0.402   65.307  150.064    4.420
  413.500    0.304    0.403   65.347  150.027    4.425
  413.750    0.295    0.411   65.449  149.568    4.417
  414.000    0.285    0.419   65.924  149.116    4.399
  414.250    0.272    0.439   67.523  148.963    4.364
