~VERSION INFORMATION
 VERS.                 2.0:   CWLS LOG ASCII STANDARD -VERSION 2.0
 WRAP.                  NO:   ONE LINE PER DEPTH STEP
~WELL INFORMATION BLOCK
#MNEM.UNIT           DATA                    DESCRIPTION OF MNEMONIC
#---------    -------------------            -------------------------------
# Generated from Intellog Unique Number	CC_80_83/WELL/2352
NULL.         -999.25                        : NULL_VALUE
WELL.         ARCO ET AL PONY                : Well_name    - WELL              
LOC .         10-14-080-08W4                 : Location     - LOCATION          
UWI .         00/10-14-080-08W400            : Uwi          - UNIQUE WELL ID    
ENTR.         DW                             : Entered      - ENTERED BY        
SRVC.         SCHLUMBERGER                   : Scn          - SERVICE COMPANY   
DATE.         17 feb 70                      : Date         - LOG DATE
STRT.M        198.12                         : top_depth    - START DEPTH       
STOP.M        420.933                        : bot_depth    - STOP DEPTH        
STEP.M        0.305                          : increment    - STEP LENGTH       
~CURVE INFORMATION BLOCK
#MNEM UNIT       ERCB CURVE CODE    CURVE DESCRIPTION
#-----------   ------------------   ----------------------------------
DEPT.M        00 001 00 00         : DEPTH        - DEPTH                       
DPHI.V/V      00 890 00 00         : PHID         - DENSITY POROSITY (LIMESTONE)
GR  .API      00 310 00 00         : GR           - GAMMA RAY                   
NPHI.V/V      00 330 00 00         : PHIN         - NEUTRON POROSITY (LIMESTONE)
ILD .OHMM     00 120 00 00         : RESD         - DEEP RESISTIVITY (DIL)      
~PARAMETER INFORMATION       
#MNEM.UNIT           DATA             DESCRIPTION OF MNEMONIC
#---------         -----------     ------------------------------
GL  .M        652.577              : gl           - GROUND LEVEL ELEVATION      
EREF.M        655.625              : kb           - ELEVATION OF DEPTH REFERENCE
DATM.M        655.625              : datum        - DATUM ELEVATION             
TDD .M        427.025              : tdd          - TOTAL DEPTH DRILLER         
RUN .         ONE                  : Run          - RUN NUMBER                  
ENG .         BILL                 : Engineer     - RECORDING ENGINEER          
WIT .         JIM                  : Witness      - WITNESSED BY                
MUD .         GEL                  : Mud_type     - MUD TYPE                    
MATR.         LIMESTONE            : Logunit      - NEUTRON MATRIX              
TMAX.C        20                   : BHT          - MAXIMUM RECORDED TEMPERATURE
BHTD.M        427.025              : BHTDEP       - MAXIMUM RECORDED TEMPERATURE
MATR.         1                    : LOGUNIT      - NEUTRON MATRIX              
RMT .C        25                   : MDTP         - TEMPERATURE OF MUD          
NEUT.         0                    : NEUTRON      - NEUTRON TYPE                
RESI.         0                    : RESIST       - RESISTIVITY TYPE            
RMC .OHMM     0.25                 : RMC          - RESISTIVITY OF MUD CAKE     
RMF .OHMM     0.25                 : RMF          - RESISTIVITY OF MUD FILTRATE 
SUFT.C        4                    : SUFT         - SURFACE TEMPERATURE         
~A  DEPTH     PHID       GR     PHIN     RESD
# ...
  357.228    0.215   75.544    0.425    2.259
  357.533    0.216   78.639    0.448    2.178
  357.837    0.218   74.375    0.433    2.222
  358.142    0.207   71.950    0.429    2.398
  358.447    0.215   72.589    0.418    2.687
  358.752    0.188   75.071    0.413    3.067
  359.057    0.158   78.782    0.390    3.502
  359.361    0.156   82.494    0.342    3.999
  359.666    0.162   83.134    0.363    4.831
  359.971    0.132   78.257    0.339    6.174
  360.276    0.139   69.690    0.291    7.319
  360.581    0.127   64.196    0.307    7.190
  360.885    0.120   76.500    0.281    6.078
  361.190    0.114   85.117    0.296    5.139
  361.495    0.145   88.212    0.331    4.595
  361.800    0.156   79.650    0.362    4.188
  362.105    0.153   77.227    0.373    3.963
  362.409    0.172   78.479    0.366    3.821
  362.714    0.166   84.645    0.352    3.754
  363.019    0.155   87.130    0.359    3.757
  363.324    0.161   86.546    0.381    3.691
  363.629    0.157   83.505    0.387    3.766
  363.934    0.177   82.918    0.395    3.770
  364.238    0.174   83.560    0.388    3.918
  364.543    0.156   80.524    0.383    3.995
  364.848    0.172   81.777    0.375    4.232
  365.153    0.154   84.871    0.359    4.568
  365.458    0.131   76.310    0.333    4.837
  365.762    0.099   69.566    0.340    5.523
  366.067    0.084   67.786    0.324    6.547
  366.372    0.065   80.168    0.313    7.337
  366.677    0.044   82.084    0.264    7.345
  366.982    0.139   64.921    0.274    7.635
  367.286    0.147   56.985    0.318    8.085
  367.591    0.167   59.527    0.286    9.233
  367.896    0.216   61.441    0.265   10.345
  368.201    0.202   62.745    0.259   10.751
  368.506    0.158   59.727    0.275    9.615
  368.810    0.148   57.334    0.286    7.829
  369.115    0.200   62.943    0.292    6.494
  369.420    0.214   68.553    0.326    6.030
  369.725    0.236   68.625    0.351    6.150
  370.030    0.251   60.691    0.353    7.157
  370.335    0.276   28.134    0.320    8.326
  370.639    0.325   30.668    0.286   16.392
  370.944    0.325   37.511    0.233   17.691
  371.249    0.328   41.290    0.231   16.127
  371.554    0.305   43.190    0.246   14.694
  371.859    0.285   50.648    0.272   12.894
  372.163    0.276   51.331    0.311   10.698
  372.468    0.276   54.488    0.262    9.567
  372.773    0.265   65.020    0.282    9.759
  373.078    0.252   70.636    0.291   11.143
  373.383    0.242   71.929    0.328   12.721
  373.687    0.241   73.231    0.342   15.659
  373.992    0.219   72.689    0.334   18.563
  374.297    0.215   68.448    0.303   19.660
  374.602    0.253   68.518    0.301   18.261
  374.907    0.260   73.507    0.296   16.636
  375.211    0.249   82.195    0.314   13.293
  375.516    0.197   92.727    0.316   11.667
  375.821    0.184   97.112    0.309   10.433
  376.126    0.185   99.030    0.325    9.872
  376.431    0.194   91.720    0.302    9.698
  376.736    0.213   83.778    0.296    9.709
  377.040    0.254   50.602    0.281   12.408
  377.345    0.258   48.831    0.206   16.465
  377.650    0.237   53.819    0.187   21.851
  377.955    0.201   61.277    0.222   24.031
  378.260    0.190   50.888    0.213   22.738
  378.564    0.196   54.036    0.225   21.110
  378.869    0.305   63.338    0.252   19.238
  379.174    0.216   80.641    0.297   17.864
  379.479    0.173   86.253    0.335   16.588
  379.784    0.108   75.855    0.241   14.558
  380.088    0.110   46.995    0.240   14.040
  380.393    0.142   47.064    0.235   16.029
  380.698    0.261   59.455    0.219   19.360
  381.003    0.243   56.440    0.199   34.059
  381.308    0.230   50.354    0.206   38.164
  381.612    0.251   57.810    0.226   37.491
  381.917    0.221   63.414    0.223   30.522
  382.222    0.184   70.256    0.262   20.593
  382.527    0.176   63.563    0.255   17.085
  382.832    0.182   59.942    0.257   16.469
  383.137    0.219   61.856    0.260   16.180
  383.441    0.248   47.760    0.265   17.461
  383.746    0.299   39.827    0.268   23.613
  384.051    0.341   46.667    0.296   24.084
  384.356    0.333   50.431    0.255   20.358
  384.661    0.290   40.655    0.249   17.538
  384.965    0.271   37.035    0.271   17.228
  385.270    0.268   43.262    0.362   19.303
  385.575    0.296   48.251    0.337   22.884
  385.880    0.287   52.630    0.340   32.737
  386.185    0.276   52.091    0.335   57.590
  386.489    0.260   53.391    0.312   69.565
  386.794    0.257   52.840    0.308   76.509
  387.099    0.291   51.684    0.305   75.162
  387.404    0.279   57.285    0.336   65.966
  387.709    0.270   67.205    0.344   49.817
  388.013    0.264   59.896    0.359   42.107
  388.318    0.248   61.810    0.341   38.370
  388.623    0.224   64.344    0.342   38.418
  388.928    0.244   66.252    0.316   37.036
  389.233    0.279   69.410    0.284   33.121
  389.538    0.253   73.170    0.347   30.182
  389.842    0.232   72.002    0.326   26.491
  390.147    0.220   69.002    0.316   23.250
  390.452    0.210   72.757    0.331   19.654
  390.757    0.202   78.984    0.319   15.704
  391.062    0.192   87.678    0.325   11.421
  391.366    0.181  102.521    0.314    9.299
  391.671    0.166  101.970    0.308    8.473
  391.976    0.150   98.353    0.339    8.324
  392.281    0.139   88.569    0.326    8.817
  392.586    0.140   81.252    0.307    9.879
  392.890    0.151   57.925    0.298   11.072
  393.195    0.229   48.147    0.271   11.507
  393.500    0.233   48.224    0.275   12.187
  393.805    0.238   50.133    0.288   12.430
  394.110    0.224   53.902    0.307   13.672
  394.414    0.196   63.200    0.308   15.320
  394.719    0.186   61.431    0.300   16.843
  395.024    0.197   47.346    0.281   19.232
  395.329    0.185   47.408    0.290   21.957
  395.634    0.160   48.711    0.287   23.700
  395.939    0.148   43.861    0.264   22.009
  396.243    0.162   41.462    0.318   22.594
  396.548    0.186   43.992    0.305   24.767
  396.853    0.212   45.910    0.308   24.273
  397.158    0.234   42.283    0.305   20.066
  397.463    0.258   25.731    0.329   18.940
  397.767    0.303   22.110    0.322   20.764
  398.072    0.287   25.877    0.318   25.969
  398.377    0.271   30.263    0.314   32.467
  398.682    0.259   33.399    0.317   35.596
  398.987    0.255   39.023    0.306   35.514
  399.291    0.292   39.085    0.303   36.815
  399.596    0.299   32.993    0.280   43.512
  399.901    0.306   32.463    0.274   62.061
  400.206    0.318   31.900    0.295  117.308
  400.511    0.323   29.524    0.286  133.552
  400.815    0.306   32.042    0.298  121.312
  401.120    0.296   34.585    0.292  116.647
  401.425    0.303   38.349    0.277  120.875
  401.730    0.318   41.494    0.285  127.642
  402.035    0.335   42.181    0.302  148.006
  402.340    0.321   37.322    0.284  171.716
  402.644    0.307   37.389    0.302  195.485
  402.949    0.326   37.454    0.296  206.461
  403.254    0.313   32.601    0.300  194.696
  403.559    0.306   29.590    0.322  183.697
  403.864    0.302   33.361    0.332  170.012
  404.168    0.314   35.276    0.343  160.458
  404.473    0.321   38.435    0.361  145.735
  404.778    0.328   37.258    0.344  142.840
  405.083    0.328   31.788    0.338  145.275
  405.388    0.320   39.867    0.321  174.922
  405.692    0.305   40.546    0.311  199.119
  405.997    0.301   34.468    0.327  214.253
  406.302    0.306   38.843    0.311  194.695
  406.607    0.310   41.373    0.309  164.091
  406.912    0.326   35.287    0.333  154.796
  407.216    0.321   23.046    0.323  172.971
  407.521    0.321   23.120    0.308  270.960
  407.826    0.329   29.346    0.327  345.225
  408.131    0.335   32.490    0.334  371.447
  408.436    0.330   27.634    0.330  363.893
  408.741    0.328   30.793    0.323  295.325
  409.045    0.328   31.481    0.332  222.427
  409.350    0.320   29.693    0.306  138.818
  409.655    0.311   29.142    0.298  126.131
  409.960    0.315   29.827    0.302  130.708
