~VERSION INFORMATION
 VERS.                 2.0:   CWLS LOG ASCII STANDARD -VERSION 2.0
 WRAP.                  NO:   ONE LINE PER DEPTH STEP
~WELL INFORMATION BLOCK
#MNEM.UNIT           DATA                    DESCRIPTION OF MNEMONIC
#---------    -------------------            -------------------------------
# Generated from Intellog Unique Number	CS_69_70/WELL/903
NULL.         -999.25                        : NULL_VALUE
WELL.         SULPETRO ET AL IPIATIK         : Well_name    - WELL              
LOC .         00/13-33-070-09W4/0            : Location     - LOCATION          
UWI .         00/13-33-070-09W4/0            : Uwi          - UNIQUE WELL ID    
ENTR.         SP                             : Entered      - ENTERED BY        
SRVC.         SCHLUMBERGER                   : Scn          - SERVICE COMPANY   
STRT.M        250                            : top_depth    - START DEPTH       
STOP.M        450                            : bot_depth    - STOP DEPTH        
STEP.M        0.25                           : increment    - STEP LENGTH       
~CURVE INFORMATION BLOCK
#MNEM UNIT       ERCB CURVE CODE    CURVE DESCRIPTION
#-----------   ------------------   ----------------------------------
DEPT.M        00 001 00 00         : DEPTH        - DEPTH                       
ILD .OHMM     00 120 00 00         : RESD         - DEEP RESISTIVITY (DIL)      
DPHI.V/V      00 890 00 00         : PHID         - DENSITY POROSITY (LIMESTONE)
NPHI.V/V      00 330 00 00         : PHIN         - NEUTRON POROSITY (LIMESTONE)
GR  .API      00 310 00 00         : GR           - GAMMA RAY                   
~PARAMETER INFORMATION       
#MNEM.UNIT           DATA             DESCRIPTION OF MNEMONIC
#---------         -----------     ------------------------------
GL  .M        601.29               : gl           - GROUND LEVEL ELEVATION      
EREF.M        604.09               : kb           - ELEVATION OF DEPTH REFERENCE
DATM.M        601.29               : datum        - DATUM ELEVATION             
TDD .M        457.3                : tdd          - TOTAL DEPTH DRILLER         
RUN .         ONE                  : Run          - RUN NUMBER                  
ENG .         BILL                 : Engineer     - RECORDING ENGINEER          
WIT .         JIM                  : Witness      - WITNESSED BY                
MUD .         GEL                  : Mud_type     - MUD TYPE                    
MATR.         LIMESTONE            : Logunit      - NEUTRON MATRIX              
TMAX.C        26.8                 : BHT          - MAXIMUM RECORDED TEMPERATURE
BHTD.M        457.3                : BHTDEP       - MAXIMUM RECORDED TEMPERATURE
MATR.         1                    : LOGUNIT      - NEUTRON MATRIX              
RMT .C        25                   : MDTP         - TEMPERATURE OF MUD          
NEUT.         1                    : NEUTRON      - NEUTRON TYPE                
RESI.         0                    : RESIST       - RESISTIVITY TYPE            
RMC .OHMM     0.25                 : RMC          - RESISTIVITY OF MUD CAKE     
RMF .OHMM     0.25                 : RMF          - RESISTIVITY OF MUD FILTRATE 
SUFT.C        15                   : SUFT         - SURFACE TEMPERATURE         
~A  DEPTH     RESD     PHID     PHIN       GR
# ...
  293.500    7.614    0.264    0.391  114.276
  293.750    7.628    0.263    0.408  115.199
  294.000    7.642    0.262    0.421  116.000
  294.250    7.642    0.262    0.435  116.987
  294.500    7.628    0.262    0.457  117.787
  294.750    7.614    0.264    0.476  118.708
  295.000    7.656    0.265    0.490  119.996
  295.250    7.948    0.264    0.393  120.917
  295.500    8.235    0.265    0.354  119.410
  295.750    8.485    0.267    0.342  114.256
  296.000    8.742    0.264    0.350  110.681
  296.250    8.628    0.258    0.392  111.846
  296.500    8.328    0.254    0.409  115.625
  296.750    7.918    0.248    0.414  118.918
  297.000    7.266    0.246    0.394  120.328
  297.250    6.935    0.256    0.365  118.879
  297.500    7.376    0.264    0.363  110.442
  297.750    7.845    0.272    0.380  101.884
  298.000    8.189    0.280    0.391   98.552
  298.250    8.406    0.272    0.411  100.873
  298.500    8.485    0.255    0.415  105.321
  298.750    8.564    0.248    0.394  108.310
  299.000    8.612    0.249    0.368  109.659
  299.250    8.564    0.254    0.347  109.244
  299.500    8.500    0.252    0.342  106.581
  299.750    7.845    0.241    0.329  107.018
  300.000    7.515    0.228    0.328  114.870
  300.250    7.473    0.220    0.346  126.247
  300.500    7.515    0.222    0.364  126.137
  300.750    7.585    0.228    0.375  124.629
  301.000    7.585    0.234    0.384  121.177
  301.250    7.571    0.238    0.397  119.545
  301.500    7.543    0.238    0.408  118.343
  301.750    7.501    0.231    0.397  118.049
  302.000    7.473    0.224    0.390  117.577
  302.250    7.515    0.221    0.393  116.673
  302.500    7.614    0.230    0.414  112.733
  302.750    7.743    0.242    0.436  108.309
  303.000    7.963    0.255    0.426  100.296
  303.250    8.266    0.270    0.370   91.129
  303.500    8.742    0.288    0.349   83.239
  303.750    9.402    0.311    0.337   77.720
  304.000   10.056    0.302    0.392   78.278
  304.250   10.169    0.298    0.428   84.003
  304.500   10.056    0.299    0.440   84.016
  304.750    9.852    0.293    0.434   83.174
  305.000    9.669    0.279    0.402   89.567
  305.250    9.526    0.262    0.380   95.779
  305.500    9.402    0.251    0.392   99.618
  305.750    9.280    0.248    0.413  100.116
  306.000    9.177    0.247    0.427   99.884
  306.250    9.143    0.254    0.421  101.657
  306.500    9.246    0.259    0.398  102.641
  306.750    9.580    0.261    0.372   99.735
  307.000   10.075    0.262    0.379  103.150
  307.250   10.419    0.264    0.368  104.073
  307.500   10.715    0.269    0.362  101.714
  307.750   10.979    0.273    0.371   98.929
  308.000   11.123    0.273    0.387   98.272
  308.250   11.207    0.267    0.404  103.573
  308.500   11.123    0.259    0.385  107.777
  308.750   10.856    0.253    0.357  109.125
  309.000   10.537    0.247    0.339  110.229
  309.250   10.284    0.244    0.330  110.363
  309.500    9.944    0.245    0.328  106.058
  309.750    9.580    0.244    0.336  103.091
  310.000    9.211    0.239    0.350  102.677
  310.250    8.807    0.225    0.387  110.104
  310.500    8.564    0.207    0.411  124.216
  310.750    8.128    0.195    0.417  131.824
  311.000    8.052    0.211    0.427  120.044
  311.250    7.859    0.243    0.416  105.408
  311.500    7.685    0.264    0.394   93.931
  311.750    7.656    0.255    0.398   94.489
  312.000    7.699    0.253    0.424   99.606
  312.250    7.918    0.261    0.414   89.528
  312.500    8.564    0.264    0.359   79.511
  312.750    9.633    0.266    0.345   76.179
  313.000   10.381    0.269    0.350   73.820
  313.250   10.979    0.274    0.367   70.732
  313.500   11.698    0.279    0.357   68.493
  313.750   11.963    0.287    0.345   70.875
  314.000   12.373    0.294    0.359   78.242
  314.250   12.582    0.302    0.369   83.541
  314.500   12.442    0.309    0.373   84.888
  314.750   12.280    0.310    0.357   85.207
  315.000   12.076    0.307    0.347   85.702
  315.250   11.418    0.295    0.358   80.546
  315.500   10.675    0.279    0.365   85.419
  315.750    9.797    0.262    0.346   93.818
  316.000    8.990    0.252    0.345  115.527
  316.250    8.266    0.240    0.373  123.683
  316.500    7.830    0.228    0.397  127.950
  316.750    7.543    0.220    0.399  130.756
  317.000    7.253    0.215    0.377  130.708
  317.250    7.105    0.210    0.360  127.922
  317.500    7.079    0.210    0.381  124.165
  317.750    7.039    0.212    0.404  120.227
  318.000    7.119    0.214    0.430  117.198
  318.250    7.348    0.219    0.447  115.750
  318.500    7.642    0.222    0.397  115.336
  318.750    8.007    0.225    0.365  117.657
  319.000    8.516    0.235    0.370  119.552
  319.250    8.807    0.262    0.411  102.606
  319.500    9.688    0.289    0.435   90.584
  319.750   10.478    0.298    0.435   84.457
  320.000   11.698    0.301    0.419   83.616
  320.250   12.796    0.301    0.417   78.339
  320.500   13.995    0.306    0.402   71.665
  320.750   14.719    0.312    0.375   63.472
  321.000   15.251    0.318    0.358   58.194
  321.250   15.509    0.323    0.349   59.179
  321.500   15.451    0.325    0.338   64.780
  321.750   15.394    0.326    0.353   66.373
  322.000   15.222    0.328    0.368   65.594
  322.250   15.025    0.331    0.386   65.301
  322.500   14.941    0.333    0.407   66.466
  322.750   14.941    0.336    0.431   67.572
  323.000   14.997    0.336    0.454   68.801
  323.250   15.081    0.334    0.428   69.479
  323.500   15.025    0.331    0.408   69.918
  323.750   14.153    0.329    0.439   69.865
  324.000   14.206    0.327    0.466   68.296
  324.250   14.180    0.327    0.459   68.369
  324.500   14.233    0.327    0.424   71.175
  324.750   14.339    0.327    0.409   71.551
  325.000   14.420    0.328    0.430   70.165
  325.250   14.393    0.330    0.436   69.264
  325.500   14.393    0.332    0.387   68.607
  325.750   14.885    0.334    0.365   66.309
  326.000   14.913    0.335    0.389   66.381
  326.250   14.969    0.333    0.409   66.939
  326.500   14.997    0.330    0.424   67.922
  326.750   14.829    0.328    0.429   68.724
  327.000   14.802    0.330    0.404   69.587
  327.250   14.555    0.334    0.386   70.266
  327.500   14.339    0.335    0.396   70.461
  327.750   14.022    0.334    0.419   69.803
  328.000   13.609    0.335    0.442   67.687
  328.250   13.307    0.341    0.409   66.968
  328.500   13.061    0.348    0.386   67.041
  328.750   12.867    0.354    0.391   67.476
  329.000   12.724    0.347    0.413   63.842
  329.250   12.442    0.345    0.427   59.476
  329.500   12.258    0.342    0.411   61.433
  329.750   12.098    0.343    0.397   64.605
  330.000   11.986    0.347    0.405   66.564
  330.250   11.963    0.352    0.424   67.666
  330.500   11.963    0.355    0.437   69.869
  330.750   11.963    0.357    0.445   71.339
  331.000   12.031    0.358    0.445   71.651
  331.250   12.098    0.358    0.436   71.479
  331.500   12.121    0.357    0.428   69.363
  331.750   12.212    0.353    0.424   67.612
  332.000   12.280    0.348    0.419   67.379
  332.250   12.326    0.342    0.424   70.308
  332.500   12.373    0.336    0.436   72.935
  332.750   12.373    0.332    0.452   74.404
  333.000   12.326    0.331    0.460   70.707
  333.250   12.373    0.332    0.463   69.624
  333.500   12.843    0.336    0.430   71.519
  333.750   11.941    0.342    0.407   72.990
  334.000   12.098    0.346    0.387   72.758
  334.250   12.212    0.345    0.383   72.222
  334.500   12.258    0.343    0.367   72.294
  334.750   12.326    0.343    0.370   72.609
  335.000   12.442    0.345    0.381   72.987
  335.250   12.559    0.347    0.388   72.998
  335.500   12.653    0.348    0.395   72.827
  335.750   12.700    0.350    0.404   72.167
  336.000   12.772    0.350    0.406   65.492
  336.250   12.796    0.350    0.406   64.591
  336.500   12.748    0.350    0.396   67.705
  336.750   12.489    0.354    0.384   69.416
