~VERSION INFORMATION
 VERS.                 2.0:   CWLS LOG ASCII STANDARD -VERSION 2.0
 WRAP.                  NO:   ONE LINE PER DEPTH STEP
~WELL INFORMATION BLOCK
#MNEM.UNIT           DATA                    DESCRIPTION OF MNEMONIC
#---------    -------------------            -------------------------------
# Generated from Intellog Unique Number	CS_67_68/WELL/2208
WELL.         MANNVILLE ET AL ATMORE         : Well_name    - WELL
LOC .         00/11-22-067-15W4/0            : Location     - LOCATION
UWI .         00/11-22-067-15W4/0            : Uwi          - UNIQUE WELL ID
ENTR.         SP                             : Entered      - ENTERED BY
SRVC.         SCHLUMBERGER                   : Scn          - SERVICE COMPANY
STRT.M        330                            : top_depth    - START DEPTH
STOP.M        540                            : bot_depth    - STOP DEPTH
STEP.M        0.25                           : increment    - STEP LENGTH
 NULL. -999.2500:NULL Value
~CURVE INFORMATION BLOCK
#MNEM UNIT       ERCB CURVE CODE    CURVE DESCRIPTION
#-----------   ------------------   ----------------------------------
DEPT.M        00 001 00 00         : DEPTH        - DEPTH
ILD .OHMM     00 120 00 00         : RESD         - DEEP RESISTIVITY (DIL)
DPHI.V/V      00 890 00 00         : PHID         - DENSITY POROSITY (LIMESTONE)
NPHI.V/V      00 330 00 00         : PHIN         - NEUTRON POROSITY (LIMESTONE)
GR  .API      00 310 00 00         : GR           - GAMMA RAY
CALI.MM       00 280 01 00         : CAL          - CALIPER
~PARAMETER INFORMATION
#MNEM.UNIT           DATA             DESCRIPTION OF MNEMONIC
#---------         -----------     ------------------------------
GL  .M        580.3                : gl           - GROUND LEVEL ELEVATION
EREF.M        583.5                : kb           - ELEVATION OF DEPTH REFERENCE
DATM.M        583.5                : datum        - DATUM ELEVATION
TDD .M        542.5                : tdd          - TOTAL DEPTH DRILLER
RUN .         ONE                  : Run          - RUN NUMBER
ENG .         BILL                 : Engineer     - RECORDING ENGINEER
WIT .         JIM                  : Witness      - WITNESSED BY
MUD .         GEL                  : Mud_type     - MUD TYPE
MATR.         LIMESTONE            : Logunit      - NEUTRON MATRIX
TMAX.C        16.6                 : BHT          - MAXIMUM RECORDED TEMPERATURE
BHTD.M        540                  : BHTDEP       - MAXIMUM RECORDED TEMPERATURE
MATR.         1                    : LOGUNIT      - NEUTRON MATRIX
RMT .C        25                   : MDTP         - TEMPERATURE OF MUD
NEUT.         1                    : NEUTRON      - NEUTRON TYPE
RESI.         0                    : RESIST       - RESISTIVITY TYPE
RMC .OHMM     0.25                 : RMC          - RESISTIVITY OF MUD CAKE
RMF .OHMM     0.25                 : RMF          - RESISTIVITY OF MUD FILTRATE
SUFT.C        15                   : SUFT         - SURFACE TEMPERATURE
~A  DEPTH     RESD     PHID     PHIN       GR      CAL
# ...
  439.500    1.963    0.277    0.411   64.145  143.995
  439.750    1.934    0.283    0.423   62.379  147.463
  440.000    1.910    0.295    0.441   61.772  150.624
  440.250    1.886    0.301    0.440   63.059  153.887
  440.500    1.876    0.304    0.428   63.917  156.844
  440.750    1.887    0.302    0.422   63.127  157.258
  441.000    1.895    0.308    0.417   61.361  153.296
  441.250    1.943    0.316    0.419   62.525  149.539
  441.500    1.958    0.302    0.427   63.567  147.511
  441.750    1.981    0.295    0.432   64.853  146.906
  442.000    1.982    0.296    0.433   66.262  147.015
  442.250    2.001    0.277    0.439   66.938  147.328
  442.500    1.961    0.266    0.436   63.218  147.131
  442.750    1.937    0.273    0.432   60.474  147.036
  443.000    1.993    0.266    0.430   59.502  146.840
  443.250    2.169    0.260    0.430   60.177  148.577
  443.500    2.370    0.303    0.426   60.548  150.619
  443.750    2.644    0.324    0.420   61.223  152.253
  444.000    3.022    0.328    0.416   63.792  153.582
  444.250    3.283    0.281    0.427   69.779  154.302
  444.500    3.676    0.204    0.438   70.760  155.021
  444.750    4.031    0.125    0.263   66.124  155.842
  445.000    3.504    0.094    0.209   61.672  156.561
  445.250    2.868    0.078    0.211   56.608  157.280
  445.500    2.391    0.122    0.375   63.023  157.999
  445.750    2.150    0.201    0.423   69.010  157.700
  446.000    2.068    0.267    0.445   69.319  156.895
  446.250    2.065    0.288    0.441   66.027  155.477
  446.500    2.085    0.298    0.427   61.696  154.058
  446.750    2.117    0.301    0.417   66.463  151.217
  447.000    2.142    0.303    0.409   70.313  149.800
  447.250    2.159    0.284    0.426   69.279  148.992
  447.500    2.100    0.269    0.451   66.719  148.388
  447.750    2.070    0.276    0.430   63.121  148.293
  448.000    2.040    0.270    0.420   60.622  148.198
  448.250    2.022    0.259    0.405   61.970  148.103
  448.500    2.026    0.265    0.395   60.508  147.805
  448.750    2.046    0.265    0.401   62.406  149.135
  449.000    2.090    0.256    0.418   64.790  151.991
  449.250    2.138    0.257    0.414   64.978  151.592
  449.500    2.246    0.269    0.403   64.555  150.478
  449.750    2.337    0.277    0.402   68.222  147.229
  450.000    2.478    0.280    0.415   73.537  146.931
  450.250    2.598    0.262    0.416   79.402  148.566
  450.500    2.674    0.251    0.410   84.534  151.931
  450.750    2.808    0.230    0.407   87.958  155.396
  451.000    2.928    0.203    0.404   90.648  158.558
  451.250    3.013    0.166    0.404   94.864  160.499
  451.500    3.153    0.167    0.403   97.921  161.930
  451.750    3.299    0.191    0.400  100.367  163.259
  452.000    3.572    0.200    0.398  102.325  164.589
  452.250    3.730    0.202    0.398  102.512  165.817
  452.500    3.860    0.200    0.401  102.455  165.824
  452.750    3.869    0.195    0.414  102.459  165.628
  453.000    3.856    0.184    0.428  101.060  165.125
  453.250    3.822    0.183    0.442   99.171  164.420
  453.500    3.752    0.194    0.449  101.556  164.426
  453.750    3.698    0.204    0.451  103.209  164.128
  454.000    3.510    0.193    0.445  103.762  164.339
  454.250    3.283    0.193    0.439  103.888  165.566
  454.500    3.157    0.167    0.428  103.404  169.236
  454.750    3.036    0.139    0.447  100.844  176.874
  455.000    2.786    0.097    0.485  101.703  186.649
  455.250    2.543    0.185    0.507  106.957  195.712
  455.500    2.432    0.194    0.516  110.197  199.687
  455.750    2.339    0.231    0.526  108.431  192.266
  456.000    2.245    0.257    0.529  107.214  195.122
  456.250    2.168    0.228    0.517  108.256  195.638
  456.500    2.116    0.196    0.505  107.650  195.339
  456.750    2.078    0.203    0.502  107.226  198.094
  457.000    2.051    0.170    0.509  109.184  200.441
  457.250    2.048    0.167    0.516  111.386  202.686
  457.500    2.160    0.211    0.523  111.574  204.830
  457.750    2.277    0.247    0.519  107.548  206.363
  458.000    2.410    0.203    0.517  106.881  197.517
  458.250    2.565    0.172    0.470  110.243  179.820
  458.500    2.725    0.157    0.437  110.308  170.364
  458.750    2.911    0.144    0.427  107.016  175.459
  459.000    3.069    0.155    0.445  104.150  185.234
  459.250    3.082    0.187    0.460  100.003  192.871
  459.500    3.037    0.206    0.452  103.365  190.436
  459.750    3.079    0.220    0.424  105.505  175.486
  460.000    3.660    0.230    0.407  100.077  164.606
  460.250    4.335    0.190    0.400   99.836  155.964
  460.500    5.068    0.141    0.397   96.727  150.578
  460.750    5.980    0.132    0.405   87.451  151.603
  461.000    7.578    0.098    0.414   80.190  153.542
  461.250    9.567    0.011    0.369   73.052  155.788
  461.500   13.315    0.000    0.297   67.317  156.812
  461.750   14.825    0.055    0.266   70.679  154.479
  462.000    9.436    0.102    0.277   76.971  152.858
  462.250    7.537    0.133    0.312   83.813  152.356
  462.500    6.700    0.149    0.338   88.091  154.806
  462.750    6.230    0.162    0.360   90.476  158.273
  463.000    6.059    0.168    0.380   91.762  160.109
  463.250    6.005    0.144    0.356   86.882  160.930
  463.500    5.885    0.118    0.314   79.804  160.938
  463.750    5.767    0.114    0.325   77.916  161.046
  464.000    5.194    0.137    0.345   82.010  160.953
  464.250    4.740    0.158    0.354   86.899  161.060
  464.500    4.326    0.170    0.360   90.200  161.576
  464.750    4.145    0.169    0.375   92.158  162.092
  465.000    4.085    0.168    0.394   94.237  162.200
  465.250    4.117    0.170    0.403   97.111  162.105
  465.500    4.213    0.177    0.406   98.580  161.400
  465.750    4.343    0.185    0.412   94.493  161.102
  466.000    4.511    0.188    0.406   88.393  161.313
  466.250    4.581    0.179    0.396   88.214  161.828
  466.500    4.531    0.176    0.387   92.125  161.936
  466.750    4.391    0.176    0.389   95.365  162.350
  467.000    4.271    0.173    0.400   97.628  162.357
  467.250    4.185    0.167    0.407   99.525  161.142
  467.500    4.242    0.156    0.413  100.689  155.961
  467.750    4.316    0.157    0.420  100.387  152.813
  468.000    4.425    0.148    0.421   98.499  153.227
  468.250    4.486    0.141    0.409   99.541  156.592
  468.500    4.487    0.164    0.420  101.560  159.143
  468.750    4.489    0.125    0.397   96.619  159.760
  469.000    4.441    0.112    0.367   92.411  159.767
  469.250    4.393    0.149    0.362   99.435  159.978
  469.500    4.337    0.171    0.353  108.719  161.002
  469.750    4.291    0.163    0.341  107.563  161.620
  470.000    4.205    0.159    0.342  110.498  161.829
  470.250    4.074    0.176    0.364  110.563  161.836
  470.500    3.993    0.181    0.386  107.576  162.048
  470.750    3.913    0.187    0.394  108.252  163.376
  471.000    3.885    0.193    0.398  110.454  165.724
  471.250    3.851    0.198    0.396  111.312  166.747
  471.500    3.867    0.198    0.395  109.607  166.144
  471.750    3.883    0.189    0.397  106.925  166.049
  472.000    3.914    0.178    0.397  104.426  165.751
  472.250    4.019    0.172    0.394  102.233  164.740
  472.500    4.152    0.187    0.390  102.053  164.238
  472.750    4.208    0.196    0.385  102.546  163.838
  473.000    4.258    0.171    0.383   97.667  163.540
  473.250    4.356    0.145    0.393   97.548  163.344
  473.500    4.449    0.124    0.401  102.192  163.452
  473.750    4.544    0.149    0.403  106.287  163.764
  474.000    4.684    0.163    0.396  107.817  164.178
  474.250    4.811    0.179    0.400  107.882  164.592
  474.500    4.932    0.175    0.411  107.581  164.700
  474.750    4.952    0.189    0.382  105.632  165.013
  475.000    4.982    0.196    0.360  103.926  165.732
  475.250    4.892    0.185    0.354  103.442  166.451
  475.500    4.758    0.176    0.354  105.706  166.661
  475.750    4.559    0.178    0.354  108.701  166.974
