~VERSION INFORMATION
 VERS.                 2.0:   CWLS LOG ASCII STANDARD -VERSION 2.0
 WRAP.                  NO:   ONE LINE PER DEPTH STEP
~WELL INFORMATION BLOCK
#MNEM.UNIT           DATA                    DESCRIPTION OF MNEMONIC
#---------    -------------------            -------------------------------
# Generated from Intellog Unique Number	CS_73_76/WELL/3236
WELL.         PACIFIC KIRBY                  : Well_name    - WELL
LOC .         00/10-16-075-06W4/0            : Location     - LOCATION
UWI .         00/10-16-075-06W4/0            : Uwi          - UNIQUE WELL ID
ENTR.         SP                             : Entered      - ENTERED BY
SRVC.         SCHLUMBERGER                   : Scn          - SERVICE COMPANY
STRT.M        230                            : top_depth    - START DEPTH
STOP.M        493                            : bot_depth    - STOP DEPTH
STEP.M        0.25                           : increment    - STEP LENGTH
 NULL. -999.2500:NULL Value
~CURVE INFORMATION BLOCK
#MNEM UNIT       ERCB CURVE CODE    CURVE DESCRIPTION
#-----------   ------------------   ----------------------------------
DEPT.M        00 001 00 00         : DEPTH        - DEPTH
GR  .API      00 310 00 00         : GR           - GAMMA RAY
NPHI.V/V      00 330 00 00         : PHIN         - NEUTRON POROSITY (LIMESTONE)
DPHI.V/V      00 890 00 00         : PHID         - DENSITY POROSITY (LIMESTONE)
ILD .OHMM     00 120 00 00         : RESD         - DEEP RESISTIVITY (DIL)
~PARAMETER INFORMATION
#MNEM.UNIT           DATA             DESCRIPTION OF MNEMONIC
#---------         -----------     ------------------------------
GL  .M        621.4                : gl           - GROUND LEVEL ELEVATION
EREF.M        625.6                : kb           - ELEVATION OF DEPTH REFERENCE
DATM.M        621.4                : datum        - DATUM ELEVATION
TDD .M        490                  : tdd          - TOTAL DEPTH DRILLER
RUN .         ONE                  : Run          - RUN NUMBER
ENG .         BILL                 : Engineer     - RECORDING ENGINEER
WIT .         JIM                  : Witness      - WITNESSED BY
MUD .         GEL                  : Mud_type     - MUD TYPE
MATR.         LIMESTONE            : Logunit      - NEUTRON MATRIX
TMAX.C        22                   : BHT          - MAXIMUM RECORDED TEMPERATURE
BHTD.M        490                  : BHTDEP       - MAXIMUM RECORDED TEMPERATURE
MATR.         1                    : LOGUNIT      - NEUTRON MATRIX
RMT .C        25                   : MDTP         - TEMPERATURE OF MUD
NEUT.         1                    : NEUTRON      - NEUTRON TYPE
RESI.         0                    : RESIST       - RESISTIVITY TYPE
RMC .OHMM     0.25                 : RMC          - RESISTIVITY OF MUD CAKE
RMF .OHMM     0.25                 : RMF          - RESISTIVITY OF MUD FILTRATE
SUFT.C        15                   : SUFT         - SURFACE TEMPERATURE
~A  DEPTH       GR     PHIN     PHID     RESD
# ...
  447.500   32.728    0.393    0.326    3.158
  447.750   32.751    0.393    0.319    3.156
  448.000   32.163    0.398    0.317    3.154
  448.250   32.191    0.407    0.319    3.153
  448.500   32.814    0.413    0.329    3.151
  448.750   32.828    0.422    0.332    3.150
  449.000   32.852    0.422    0.325    3.149
  449.250   32.868    0.414    0.329    3.146
  449.500   32.890    0.400    0.321    3.087
  449.750   33.511    0.394    0.316    3.086
  450.000   32.927    0.389    0.319    3.084
  450.250   32.947    0.386    0.315    3.083
  450.500   32.973    0.382    0.314    3.080
  450.750   33.588    0.380    0.318    3.079
  451.000   34.213    0.383    0.324    3.136
  451.250   37.260    0.377    0.326    3.134
  451.500   40.909    0.377    0.321    3.132
  451.750   45.158    0.381    0.313    3.131
  452.000   59.094    0.379    0.323    3.188
  452.250   88.142    0.376    0.283    3.246
  452.500  111.751    0.391    0.245    3.368
  452.750  122.053    0.431    0.193    3.626
  453.000  126.910    0.443    0.140    4.051
  453.250  123.302    0.432    0.126    4.966
  453.500  109.410    0.434    0.132    5.758
  453.750   93.099    0.441    0.163    6.085
  454.000   79.204    0.449    0.189    5.970
  454.250   61.080    0.429    0.220    5.338
  454.500   45.373    0.409    0.247    4.773
  454.750   35.712    0.397    0.284    4.268
  455.000   40.574    0.405    0.300    3.745
  455.250   44.224    0.417    0.287    3.675
  455.500   43.635    0.423    0.289    3.606
  455.750   40.630    0.393    0.300    3.671
  456.000   37.026    0.378    0.299    3.670
  456.250   35.828    0.376    0.312    3.667
  456.500   34.039    0.370    0.315    3.734
  456.750   32.849    0.360    0.308    3.732
  457.000   31.654    0.354    0.299    3.800
  457.250   31.077    0.344    0.298    3.799
  457.500   31.698    0.339    0.298    3.796
  457.750   32.324    0.349    0.297    3.795
  458.000   32.947    0.359    0.303    3.794
  458.250   33.572    0.348    0.294    3.790
  458.500   34.197    0.341    0.279    3.789
  458.750   34.816    0.350    0.269    3.787
  459.000   34.832    0.355    0.290    3.785
  459.250   39.093    0.356    0.296    3.784
  459.500   43.947    0.350    0.295    3.925
  459.750   55.461    0.339    0.280    4.071
  460.000   70.599    0.325    0.274    4.383
  460.250   91.786    0.328    0.251    4.632
  460.500  103.300    0.340    0.198    5.272
  460.750  109.366    0.356    0.152    5.676
  461.000  103.338    0.385    0.165    6.226
  461.250   88.841    0.399    0.195    6.221
  461.500   85.231    0.385    0.224    6.217
  461.750   90.095    0.392    0.233    6.101
  462.000   88.898    0.397    0.190    6.099
  462.250   75.009    0.394    0.194    5.984
  462.500   63.535    0.377    0.210    5.870
  462.750   61.134    0.362    0.228    5.760
  463.000   64.178    0.356    0.243    5.445
  463.250   60.570    0.358    0.243    5.341
  463.500   57.563    0.352    0.244    5.339
  463.750   69.076    0.337    0.230    5.436
  464.000   87.847    0.335    0.173    5.640
  464.250  101.176    0.337    0.141    6.184
  464.500  107.239    0.345    0.124    6.415
  464.750  112.702    0.358    0.125    6.781
  465.000  113.328    0.381    0.125    7.298
  465.250  109.722    0.401    0.132    7.433
  465.500  104.295    0.411    0.149    7.710
  465.750  100.078    0.413    0.171    7.564
  466.000   95.262    0.395    0.177    7.422
  466.250  105.563    0.382    0.162    7.417
  466.500  104.369    0.372    0.138    7.553
  466.750  103.793    0.359    0.132    7.834
  467.000  105.015    0.355    0.144    7.978
  467.250  107.465    0.369    0.149    8.430
  467.500  107.472    0.373    0.129    8.584
  467.750  106.283    0.371    0.150    8.741
  468.000  105.095    0.367    0.141    8.734
  468.250  105.112    0.358    0.130    8.730
  468.500  111.180    0.368    0.124    8.727
  468.750  112.409    0.379    0.142    8.724
  469.000  106.989    0.372    0.147    8.558
  469.250  101.566    0.366    0.149    8.397
  469.500   99.160    0.361    0.146    8.394
  469.750  101.602    0.361    0.123    8.233
  470.000  104.040    0.376    0.111    8.230
  470.250  100.437    0.371    0.118    8.073
  470.500   98.636    0.368    0.124    7.922
  470.750   98.653    0.362    0.131    7.919
  471.000  105.939    0.359    0.144    7.768
  471.250  105.348    0.380    0.135    7.623
  471.500  102.347    0.389    0.144    7.477
  471.750  101.755    0.376    0.170    7.474
  472.000  107.218    0.368    0.154    7.334
  472.250  113.287    0.374    0.154    7.195
  472.500  119.962    0.389    0.174    7.060
  472.750  126.032    0.380    0.177    6.673
  473.000  115.163    0.367    0.194    6.308
  473.250  103.081    0.357    0.204    6.190
  473.500   89.793    0.355    0.198    6.302
  473.750  103.726    0.364    0.174    6.537
  474.000  112.212    0.355    0.157    6.657
  474.250  114.046    0.355    0.187    6.779
  474.500  112.258    0.362    0.178    6.901
  474.750  114.692    0.367    0.164    6.899
  475.000  120.156    0.366    0.189    6.768
  475.250  126.827    0.359    0.179    6.640
  475.500  135.315    0.359    0.191    6.762
  475.750  130.496    0.356    0.184    6.885
  476.000  119.022    0.351    0.167    7.141
  476.250  116.626    0.351    0.161    7.139
  476.500  114.829    0.355    0.167    7.269
  476.750  112.429    0.357    0.156    7.401
  477.000  113.663    0.361    0.152    7.398
  477.250  114.883    0.364    0.169    7.394
  477.500  116.721    0.361    0.187    7.389
  477.750  116.741    0.355    0.174    7.386
  478.000  114.348    0.347    0.164    7.383
  478.250  113.150    0.352    0.143    7.379
  478.500  110.754    0.359    0.140    7.376
  478.750  107.146    0.369    0.129    7.373
  479.000  102.930    0.367    0.135    7.367
  479.250   99.316    0.361    0.142    7.503
  479.500   91.480    0.353    0.172    7.639
  479.750   88.467    0.339    0.170    7.923
  480.000   81.228    0.330    0.147    7.921
  480.250   75.198    0.292    0.127    7.917
  480.500   73.401    0.331    0.214    6.695
  480.750   75.840    0.368    0.236    6.329
  481.000   87.359    0.387    0.215    6.210
  481.250   95.844    0.377    0.196    6.207
  481.500  104.935    0.365    0.159    6.439
  481.750  109.186    0.369    0.130    6.803
  482.000  111.019    0.373    0.146    7.058
  482.250  110.442    0.377    0.151    7.457
  482.500  109.849    0.373    0.148    7.595
  482.750  107.449    0.370    0.129    7.878
  483.000  105.657    0.371    0.139    8.021
  483.250  105.691    0.372    0.128    8.018
  483.500  106.305    0.377    0.123    7.865
  483.750  108.737    0.388    0.127    7.862
  484.000  108.152    0.384    0.133    7.572
  484.250  108.777    0.378    0.136    7.567
  484.500  110.612    0.367    0.156    7.424
  484.750  111.239    0.366    0.168    7.285
  485.000  110.649    0.369    0.179    7.146
  485.250  105.231    0.379    0.167    7.012
  485.500   97.986    0.393    0.154    6.881
  485.750   85.915    0.380    0.157    6.627
  486.000   81.091    0.367    0.182    6.381
  486.250   84.135    0.369    0.192    6.260
  486.500   90.201    0.355    0.201    6.258
  486.750   97.483    0.351    0.183    6.255
  487.000   99.312    0.358    0.169    6.251
  487.250   98.730    0.362    0.166    6.366
  487.500   98.747    0.374    0.165    6.481
  487.750   99.370    0.385    0.182    6.477
  488.000   93.946    0.368    0.190    6.597
  488.250   97.596    0.348    0.195    6.716
  488.500  100.637    0.358    0.179    6.714
  488.750  101.262    0.365    0.149    6.836
  489.000   95.240    0.354    0.176    6.833
  489.250   93.437    0.343    0.177    6.956
  489.500   98.901    0.348    0.166    6.954
  489.750  105.577    0.359    0.151    6.950
  490.000  105.594    0.371    0.139    6.947
  490.250   97.752    0.375    0.168    6.943
  490.500   92.328    0.367    0.185    6.940
  490.750   86.900    0.371    0.197    6.937
