~VERSION INFORMATION
 VERS.                 2.0:   CWLS LOG ASCII STANDARD -VERSION 2.0
 WRAP.                  NO:   ONE LINE PER DEPTH STEP
~WELL INFORMATION BLOCK
#MNEM.UNIT           DATA                    DESCRIPTION OF MNEMONIC
#---------    -------------------            -------------------------------
# Generated from Intellog Unique Number	CC_80_83/WELL/2400
NULL.         -999.25                        : NULL_VALUE
WELL.         AMOCO HANGINGSTONE             : Well_name    - WELL
LOC .         11-17-083-09W4                 : Location     - LOCATION          
UWI .         00/11-17-083-09W400            : Uwi          - UNIQUE WELL ID    
ENTR.         DW                             : Entered      - ENTERED BY        
SRVC.         WELEX                          : Scn          - SERVICE COMPANY   
DATE.         28 FEB 74                      : Date         - LOG DATE
STRT.M        259.08                         : top_depth    - START DEPTH       
STOP.M        493.783                        : bot_depth    - STOP DEPTH        
STEP.M        0.305                          : increment    - STEP LENGTH       
~CURVE INFORMATION BLOCK
#MNEM UNIT       ERCB CURVE CODE    CURVE DESCRIPTION
#-----------   ------------------   ----------------------------------
DEPT.M        00 001 00 00         : DEPTH        - DEPTH                       
ILD .OHMM     00 120 00 00         : RESD         - DEEP RESISTIVITY (DIL)      
GR  .API      00 310 00 00         : GR           - GAMMA RAY                   
NPHI.V/V      00 330 00 00         : PHIN         - NEUTRON POROSITY (LIMESTONE)
DPHI.V/V      00 890 00 00         : PHID         - DENSITY POROSITY (LIMESTONE)
~PARAMETER INFORMATION       
#MNEM.UNIT           DATA             DESCRIPTION OF MNEMONIC
#---------         -----------     ------------------------------
GL  .M        730.27               : gl           - GROUND LEVEL ELEVATION      
EREF.M        733.471              : kb           - ELEVATION OF DEPTH REFERENCE
DATM.M        733.471              : datum        - DATUM ELEVATION             
TDD .M        502.615              : tdd          - TOTAL DEPTH DRILLER         
RUN .         ONE                  : Run          - RUN NUMBER                  
ENG .         BILL                 : Engineer     - RECORDING ENGINEER          
WIT .         JIM                  : Witness      - WITNESSED BY                
MUD .         GEL                  : Mud_type     - MUD TYPE                    
MATR.         LIMESTONE            : Logunit      - NEUTRON MATRIX              
TMAX.C        21.6667              : BHT          - MAXIMUM RECORDED TEMPERATURE
BHTD.M        502.006              : BHTDEP       - MAXIMUM RECORDED TEMPERATURE
MATR.         1                    : LOGUNIT      - NEUTRON MATRIX              
RMT .C        25                   : MDTP         - TEMPERATURE OF MUD          
NEUT.         1                    : NEUTRON      - NEUTRON TYPE                
RESI.         0                    : RESIST       - RESISTIVITY TYPE            
RMC .OHMM     0.25                 : RMC          - RESISTIVITY OF MUD CAKE     
RMF .OHMM     0.25                 : RMF          - RESISTIVITY OF MUD FILTRATE 
SUFT.C        15                   : SUFT         - SURFACE TEMPERATURE         
~A  DEPTH     RESD       GR     PHIN     PHID
  259.080    3.871  114.269    0.519    0.235
  259.385    3.872  114.281    0.519    0.236
  259.690    3.874  113.058    0.528    0.236
  259.994    3.876  110.605    0.533    0.234
  260.299    3.878  111.235    0.526    0.229
  260.604    3.808  115.559    0.517    0.229
  260.909    3.810  117.421    0.512    0.230
  261.214    3.812  114.965    0.507    0.234
  261.518    3.886  113.748    0.507    0.236
  261.823    3.888  115.608    0.527    0.235
  262.128    3.890  115.616    0.532    0.234
  262.433    3.892  113.779    0.541    0.232
  262.738    3.893  118.720    0.544    0.236
  263.043    3.896  119.350    0.547    0.241
  263.347    3.897  117.515    0.539    0.241
  263.652    3.900  116.906    0.535    0.237
  263.957    3.830  115.069    0.529    0.233
  264.262    3.831  111.378    0.522    0.232
  264.567    3.762  106.461    0.513    0.228
  264.871    3.694  106.471    0.514    0.225
  265.176    3.695  109.566    0.522    0.223
  265.481    3.561  113.273    0.532    0.226
  265.786    3.496  111.435    0.516    0.236
  266.091    3.433  104.664    0.500    0.237
  266.395    3.435   96.043    0.506    0.221
  266.700    3.372   93.588    0.535    0.222
  267.005    3.250  100.382    0.550    0.247
  267.310    3.131  109.645    0.523    0.262
  267.615    3.017  112.738    0.518    0.252
  267.919    3.076  110.283    0.522    0.242
  268.224    3.381  107.211    0.531    0.222
  268.529    3.578  105.373    0.519    0.206
  268.834    3.788  102.917    0.513    0.196
  269.139    3.862   98.612    0.502    0.186
  269.444    4.012  102.325    0.497    0.186
  269.748    4.247  107.266    0.507    0.207
  270.053    4.411  112.212    0.505    0.217
  270.358    4.498  113.455    0.499    0.218
  270.663    4.500  115.317    0.508    0.211
  270.968    4.418  114.096    0.507    0.196
  271.272    4.339  109.174    0.508    0.195
  271.577    4.341  110.422    0.509    0.201
  271.882    4.342  110.428    0.504    0.201
  272.187    4.428  104.891    0.500    0.201
  272.492    4.429  107.988    0.503    0.203
  272.796    4.516  110.463    0.505    0.214
  273.101    4.434  111.093    0.504    0.215
  273.406    4.354  110.488    0.505    0.213
  273.711    4.356  109.884    0.504    0.208
  274.016    4.359  109.278    0.501    0.202
  274.320    4.443  109.904    0.517    0.209
  274.625    4.615  111.766    0.526    0.215
  274.930    4.886  113.626    0.525    0.216
  275.235    5.076  115.489    0.509    0.214
  275.540    5.175  116.114    0.494    0.205
  275.845    5.275  106.259    0.484    0.197
  276.149    6.020  101.338    0.474    0.189
  276.454    7.000   96.418    0.459    0.186
  276.759    8.451   91.495    0.446    0.189
  277.064   10.594   95.823    0.453    0.231
  277.369   14.590  108.782    0.455    0.257
  277.673   15.736  110.027    0.453    0.261
  277.978   15.167   90.926    0.455    0.252
  278.283   14.341   91.553    0.458    0.235
  278.588   12.116   94.033    0.461    0.229
  278.893   10.236   96.510    0.463    0.230
  279.197    8.812   97.753    0.466    0.237
  279.502    8.178   95.296    0.461    0.253
  279.807    8.028   93.460    0.453    0.276
  280.112    9.337   91.004    0.456    0.318
  280.417   11.062   75.601    0.471    0.363
  280.721   13.868   74.998    0.571    0.427
  281.026   16.126   84.256    0.556    0.487
  281.331   18.401   99.681    0.477    0.433
  281.636   20.999  109.557    0.470    0.299
  281.941   19.127  119.435    0.477    0.301
  282.246   16.160  128.694    0.483    0.310
  282.550   13.651  137.339    0.501    0.334
  282.855   11.751  138.584    0.507    0.356
  283.160   10.704   97.899    0.485    0.356
  283.465   11.119   85.580    0.444    0.276
  283.770   12.932   82.510    0.434    0.237
  284.074   13.686   84.370    0.449    0.239
  284.379   14.488   88.695    0.455    0.234
  284.684   14.494   93.642    0.451    0.223
  284.989   13.709   94.271    0.451    0.213
  285.294   13.713   94.281    0.456    0.213
  285.598   14.248   88.744    0.451    0.207
  285.903   14.800   87.520    0.433    0.206
  286.208   15.664   85.685    0.430    0.193
  286.513   17.880   83.843    0.431    0.185
  286.818   17.885   85.091    0.436    0.198
  287.122   18.581   85.098    0.457    0.245
  287.427   19.302   77.712    0.463    0.280
  287.732   20.057   74.642    0.453    0.276
  288.037   20.447   74.652    0.448    0.259
  288.342   20.844   75.897    0.445    0.249
  288.647   21.248   74.060    0.454    0.256
  288.951   21.256   70.987    0.446    0.261
  289.256   21.672   70.383    0.446    0.257
  289.561   21.279   71.007    0.461    0.255
  289.866   20.893   75.953    0.473    0.252
  290.171   20.519   82.130    0.472    0.253
  290.475   20.526   88.307    0.465    0.250
  290.780   20.535   89.552    0.468    0.245
  291.085   20.552   84.629    0.470    0.250
  291.390   21.347   80.324    0.460    0.262
  291.695   22.171   84.038    0.457    0.271
  291.999   23.470   90.212    0.453    0.271
  292.304   23.930  110.571    0.452    0.270
  292.609   23.945  118.598    0.455    0.273
  292.914   23.509   88.396    0.464    0.275
  293.219   23.519   77.310    0.470    0.275
  293.523   23.531   78.555    0.463    0.281
  293.828   23.541   80.417    0.474    0.283
  294.133   23.558   81.046    0.466    0.280
  294.438   23.564   81.675    0.458    0.275
  294.743   21.869   82.302    0.456    0.273
  295.048   19.548   84.163    0.463    0.268
  295.352   17.475   85.404    0.477    0.258
  295.657   16.217   92.197    0.470    0.234
  295.962   15.050  100.843    0.464    0.216
  296.267   13.708  104.551    0.460    0.211
  296.572   12.960  100.247    0.470    0.228
  296.876   11.806   95.326    0.473    0.238
  297.181   11.590   94.724    0.470    0.223
  297.486   10.557   99.047    0.488    0.207
  297.791    9.088  112.624    0.519    0.192
  298.096    7.677  115.103    0.536    0.174
  298.400    6.609  118.198    0.539    0.169
  298.705    5.798  120.673    0.537    0.182
  299.010    5.281  116.369    0.528    0.177
  299.315    4.901  120.079    0.516    0.171
  299.620    4.722  123.176    0.520    0.175
  299.924    4.550  124.418    0.534    0.225
  300.229    4.552  129.362    0.534    0.239
  300.534    5.003  132.456    0.511    0.243
  300.839    6.272  131.237    0.492    0.248
  301.144    8.968  133.714    0.472    0.260
  301.449   11.455  127.559    0.469    0.271
  301.753   14.911  115.239    0.451    0.272
  302.058   18.002  102.302    0.448    0.262
  302.363   20.165   95.530    0.459    0.261
  302.668   20.558   98.624    0.464    0.272
  302.973   20.565  100.489    0.462    0.278
  303.277   20.578   99.881    0.458    0.278
  303.582   20.203   90.028    0.458    0.274
  303.887   19.467   89.426    0.467    0.267
  304.192   17.731   90.666    0.470    0.258
  304.497   15.848   93.760    0.468    0.247
  304.801   13.901   98.086    0.463    0.211
  305.106   12.661  109.196    0.464    0.188
  305.411   10.498  117.223    0.467    0.179
  305.716   10.115  114.152    0.463    0.182
  306.021   10.708   96.898    0.437    0.245
  306.325   12.219   90.746    0.444    0.257
  306.630   15.321   90.755    0.448    0.253
  306.935   17.482   98.166    0.454    0.250
  307.240   19.212  104.959    0.458    0.263
  307.545   21.927   80.924    0.457    0.282
  307.850   21.938   81.552    0.453    0.281
  308.154   21.537   88.345    0.454    0.272
  308.459   18.541   98.223    0.463    0.263
  308.764   15.962  103.783    0.477    0.248
  309.069   14.266  108.729    0.482    0.231
  309.374   13.240  108.123    0.475    0.227
  309.678   12.291  102.585    0.466    0.231
  309.983   12.296   98.896    0.455    0.232
  310.288   11.847  109.389    0.448    0.227
  310.593   11.855  114.332    0.435    0.213
  310.898   11.860  112.494    0.428    0.208
  311.202   11.864  106.339    0.434    0.211
  311.507   11.871   91.554    0.450    0.212
  311.812   11.877   92.180    0.452    0.211
