~VERSION INFORMATION
 VERS.                 2.0:   CWLS LOG ASCII STANDARD -VERSION 2.0
 WRAP.                  NO:   ONE LINE PER DEPTH STEP
~WELL INFORMATION BLOCK
#MNEM.UNIT           DATA                    DESCRIPTION OF MNEMONIC
#---------    -------------------            -------------------------------
# Generated from Intellog Unique Number	CW_73_75/WELL/1043
WELL.         ENSERCH ET AL MARTEN H 11-20   : Well_name    - WELL
LOC .         00/11-20-074-23W4/0            : Location     - LOCATION
UWI .         00/11-20-074-23W4/0            : Uwi          - UNIQUE WELL ID
ENTR.         JAYE                           : Entered      - ENTERED BY
SRVC.         SCHLUMBERGER                   : Scn          - SERVICE COMPANY
DATE.         3 MAR 76                       : Date         - LOG DATE
STRT.M        411.48                         : top_depth    - START DEPTH
STOP.M        624.73                         : bot_depth    - STOP DEPTH
STEP.M        0.25                           : increment    - STEP LENGTH
 NULL. -999.2500:NULL Value
~CURVE INFORMATION BLOCK
#MNEM UNIT       ERCB CURVE CODE    CURVE DESCRIPTION
#-----------   ------------------   ----------------------------------
DEPT.M        00 001 00 00         : DEPTH        - DEPTH
ILD .OHMM     00 120 00 00         : RESD         - DEEP RESISTIVITY (DIL)
DPHI.V/V      00 890 00 00         : PHID         - DENSITY POROSITY (SANDSTONE)
NPHI.V/V      00 330 00 00         : PHIN         - NEUTRON POROSITY (SANDSTONE)
GR  .API      00 310 00 00         : GR           - GAMMA RAY
CALI.MM       00 280 01 00         : CAL          - CALIPER
~PARAMETER INFORMATION
#MNEM.UNIT           DATA             DESCRIPTION OF MNEMONIC
#---------         -----------     ------------------------------
GL  .M        690.524              : gl           - GROUND LEVEL ELEVATION
EREF.M        694.03               : kb           - ELEVATION OF DEPTH REFERENCE
DATM.M        690.524              : datum        - DATUM ELEVATION
TDD .M        640.08               : tdd          - TOTAL DEPTH DRILLER
RUN .         ONE                  : Run          - RUN NUMBER
BASE.         EDM                  : Branch       - HOME BASE OF LOGGING UNIT
MUD .         GEL CHEM             : Mud_type     - MUD TYPE
MATR.         SANDSTONE            : Logunit      - NEUTRON MATRIX
TMAX.C        28.3333              : BHT          - MAXIMUM RECORDED TEMPERATURE
BHTD.M        640.69               : BHTDEP       - MAXIMUM RECORDED TEMPERATURE
RMT .C        13.8889              : MDTP         - TEMPERATURE OF MUD
MUDD.KG/M     0                    : MWT          - MUD DENSITY
NEUT.         1                    : NEUTRON      - NEUTRON TYPE
RESI.         0                    : RESIST       - RESISTIVITY TYPE
RM  .OHMM     2.7                  : RM           - RESISTIVITY OF MUD
RMC .OHMM     0                    : RMC          - RESISTIVITY OF MUD CAKE
RMF .OHMM     2.2                  : RMF          - RESISTIVITY OF MUD FILTRATE
SUFT.C        -17.7778             : SUFT         - SURFACE TEMPERATURE
~A  DEPTH     RESD     PHID     PHIN       GR      CAL
  411.480    8.622    0.176    0.520  100.176  175.750
  411.730    8.395    0.186    0.512   93.278  171.900
  411.980    8.090    0.193    0.509   85.793  168.822
  412.230    7.749    0.176    0.505   81.305  175.779
  412.480    7.380    0.186    0.496   74.797  171.929
  412.730    7.217    0.209    0.480   74.608  161.351
  412.980    7.750    0.207    0.503   80.736  161.140
  413.230    8.909    0.272    0.564   79.309  175.267
  413.480   10.723    0.281    0.576   69.740  169.873
  413.730   13.158    0.318    0.535   61.799  157.200
  413.980   16.314    0.311    0.384   56.073  145.408
  414.230   17.780    0.318    0.384   57.186  138.359
  414.480   18.019    0.300    0.406   58.625  140.905
  414.730   17.545    0.279    0.422   59.283  142.460
  414.980   16.807    0.297    0.436   56.487  138.167
  415.230   16.052    0.309    0.426   53.367  135.199
  415.480   15.309    0.303    0.409   55.587  135.651
  415.730   14.708    0.254    0.398   62.171  137.866
  415.980   14.385    0.218    0.407   63.480  144.934
  416.230   14.111    0.201    0.435   60.229  153.437
  416.480   14.027    0.190    0.428   62.059  150.138
  416.730   14.028    0.233    0.404   69.229  144.413
  416.980   14.028    0.251    0.427   75.813  142.879
  417.230   13.987    0.267    0.428   77.253  143.440
  417.480   13.700    0.272    0.432   77.519  144.994
  417.730   13.123    0.268    0.447   74.463  147.320
  417.980   12.277    0.284    0.456   75.446  149.645
  418.230   11.198    0.255    0.412   89.390  151.530
  418.480   10.322    0.233    0.406  100.143  152.533
  418.730    9.991    0.241    0.425  106.858  155.190
  418.980   10.414    0.195    0.457  110.837  166.559
  419.230   11.067    0.195    0.493  107.586  174.400
  419.480   12.779    0.212    0.479  101.925  164.594
  419.730   14.156    0.247    0.451   89.816  155.560
  419.980   16.010    0.267    0.399   76.469  152.482
  420.230   17.243    0.283    0.391   68.789  150.726
  420.480   18.001    0.283    0.393   63.259  146.876
  420.730   17.842    0.266    0.406   60.984  144.130
  420.980   17.015    0.247    0.424   65.941  143.256
  421.230   16.372    0.223    0.413   70.571  142.273
  421.480   15.660    0.218    0.399   72.791  141.291
  421.730   14.913    0.220    0.398   75.533  141.190
  421.980   14.370    0.232    0.392   84.462  141.200
  422.230   13.725    0.251    0.382   90.395  140.878
  422.480   13.226    0.256    0.393   91.899  140.336
  422.730   12.897    0.252    0.412   94.836  139.796
  422.980   12.576    0.245    0.414   99.531  140.247
  423.230   12.318    0.221    0.397  102.728  141.911
  423.480   12.614    0.209    0.401  107.815  150.302
  423.730   13.385    0.210    0.422  109.058  154.504
  423.980   15.093    0.220    0.429  102.746  158.484
  424.230   16.869    0.220    0.445   82.820  163.567
  424.480   17.351    0.227    0.448   64.915  161.481
  424.730   17.096    0.275    0.410   58.277  149.690
  424.980   16.450    0.272    0.394   59.976  140.435
  425.230   15.343    0.232    0.392   67.928  141.327
  425.480   14.016    0.183    0.367   77.769  145.198
  425.730   12.786    0.148    0.373   85.656  145.869
  425.980   12.121    0.195    0.414   88.203  145.548
  426.230   11.961    0.229    0.420   86.515  145.559
  426.480   12.248    0.231    0.421   84.045  147.442
  426.730   12.636    0.257    0.447   80.729  151.974
  426.980   13.036    0.265    0.462   74.547  155.624
  427.230   13.036    0.273    0.433   67.779  153.428
  427.480   12.959    0.294    0.414   66.222  144.945
  427.730   12.864    0.275    0.400   67.009  139.109
  427.980   12.693    0.260    0.405   64.605  139.451
  428.230   12.675    0.263    0.417   68.193  139.791
  428.480   12.732    0.277    0.426   80.900  137.705
  428.730   12.960    0.289    0.414   88.592  135.398
  428.980   13.390    0.232    0.411   95.567  137.836
  429.230   14.083    0.210    0.410   94.986  142.146
  429.480   14.421    0.194    0.418   85.418  153.185
  429.730   14.594    0.242    0.424   78.715  155.402
  429.980   14.572    0.231    0.412   71.491  151.661
  430.230   14.401    0.227    0.405   66.220  142.185
  430.480   14.273    0.234    0.381   64.077  138.776
  430.730   14.380    0.241    0.362   62.129  137.683
  430.980   14.509    0.241    0.346   60.376  139.016
  431.230   14.813    0.238    0.345   58.753  138.034
  431.480   15.953    0.230    0.355   56.610  136.059
  431.730   17.542    0.241    0.364   54.922  137.832
  431.980   19.693    0.246    0.376   48.610  141.482
  432.230   22.672    0.269    0.395   42.753  142.154
  432.480   28.403    0.302    0.376   33.054  139.958
  432.730   33.734    0.290    0.365   23.746  137.211
  432.980   38.040    0.268    0.368   19.714  134.905
  433.230   41.518    0.281    0.371   19.198  136.348
  433.480   43.151    0.295    0.372   19.139  139.997
  433.730   43.666    0.272    0.373   17.842  139.235
  433.980   44.188    0.302    0.370   18.760  137.921
  434.230   44.650    0.308    0.355   18.179  137.600
  434.480   44.717    0.300    0.358   14.668  141.360
  434.730   44.453    0.309    0.364   14.674  145.451
  434.980   45.521    0.318    0.369   17.285  143.476
  435.230   44.127    0.303    0.378   17.486  138.632
  435.480   39.134    0.316    0.384   16.971  136.988
  435.730   33.147    0.310    0.372   22.904  141.409
  435.980   26.108    0.294    0.355   36.783  148.699
  436.230   20.413    0.286    0.348   50.532  146.943
  436.480   16.270    0.297    0.345   85.384  143.204
  436.730   14.344    0.246    0.363   96.463  144.316
  436.980   13.578    0.234    0.384   98.683  148.737
  437.230   13.339    0.256    0.411  101.294  148.857
  437.480   12.778    0.223    0.398  107.227  155.484
  437.730   11.743    0.220    0.399  108.536  155.826
  437.980   10.791    0.224    0.407  107.109  157.159
  438.230    9.888    0.207    0.403  114.670  166.874
  438.480    8.913    0.182    0.426  117.607  169.311
  438.730    8.412    0.159    0.461  116.636  166.896
  438.980    8.228    0.142    0.497  119.052  165.911
  439.230    8.314    0.183    0.502  123.812  168.679
  439.480    8.425    0.202    0.502  122.581  170.896
  439.730    8.539    0.221    0.529  119.460  172.118
  439.980    8.463    0.202    0.560  116.274  174.112
  440.230    8.180    0.214    0.572  112.893  184.600
  440.480    8.216    0.220    0.551  117.719  177.221
  440.730    8.552    0.195    0.507  126.127  164.215
  440.980    9.183    0.114    0.499  128.998  158.711
  441.230   10.263    0.158    0.529  127.376  162.691
  441.480   11.335    0.223    0.528  130.182  165.679
  441.730   12.354    0.227    0.468  122.633  164.144
  441.980   12.745    0.227    0.444  115.539  163.162
  442.230   12.840    0.232    0.442  111.637  163.502
  442.480   12.101    0.217    0.433  110.470  171.012
  442.730   11.940    0.207    0.433  112.365  171.022
  442.980   12.191    0.240    0.447  114.195  164.193
  443.230   12.708    0.216    0.445  113.549  164.756
  443.480   13.326    0.210    0.467  110.233  169.177
  443.730   13.626    0.219    0.492   94.411  171.723
  443.980   13.606    0.257    0.499   83.800  166.770
  444.230   13.406    0.263    0.417   79.833  152.220
  444.480   13.268    0.219    0.406   87.850  148.701
  444.730   13.268    0.152    0.412   90.982  147.387
  444.980   13.387    0.242    0.443   86.819  145.302
  445.230   13.487    0.255    0.437   80.181  144.099
  445.480   13.527    0.277    0.446   79.080  142.785
  445.730   13.507    0.239    0.451   78.630  142.353
  445.980   13.368    0.240    0.456   78.636  142.805
  446.230   13.133    0.259    0.463   79.097  144.578
  446.480   12.939    0.241    0.474   77.279  152.750
  446.730   12.304    0.268    0.493   71.879  150.995
  446.980   11.821    0.305    0.473   64.264  146.924
  447.230   11.207    0.321    0.474   59.580  141.310
  447.480   10.656    0.315    0.481   53.463  140.547
  447.730   10.345    0.325    0.444   51.906  140.667
