~VERSION INFORMATION
 VERS.                 2.0:   CWLS LOG ASCII STANDARD -VERSION 2.0
 WRAP.                  NO:   ONE LINE PER DEPTH STEP
~WELL INFORMATION BLOCK
#MNEM.UNIT           DATA                    DESCRIPTION OF MNEMONIC
#---------    -------------------            -------------------------------
# Generated from Intellog Unique Number	CW_79_81/WELL/927
WELL.         14-14-079-22W4                 : Well_name    - WELL
LOC .         00/14-14-079-22W4/0            : Location     - LOCATION
UWI .         00/14-14-079-22W4/0            : Uwi          - UNIQUE WELL ID
ENTR.         MAX                            : Entered      - ENTERED BY
SRVC.         SCHLUMBERGER                   : Scn          - SERVICE COMPANY
STRT.M        220                            : top_depth    - START DEPTH
STOP.M        432                            : bot_depth    - STOP DEPTH
STEP.M        0.25                           : increment    - STEP LENGTH
 NULL. -999.2500:NULL Value
~CURVE INFORMATION BLOCK
#MNEM UNIT       ERCB CURVE CODE    CURVE DESCRIPTION
#-----------   ------------------   ----------------------------------
DEPT.M        00 001 00 00         : DEPTH        - DEPTH
ILD .OHMM     00 120 00 00         : RESD         - DEEP RESISTIVITY (DIL)
NPHI.V/V      00 330 00 00         : PHIN         - NEUTRON POROSITY (SANDSTONE)
DPHI.V/V      00 890 00 00         : PHID         - DENSITY POROSITY (SANDSTONE)
CALI.MM       00 280 01 00         : CAL          - CALIPER
GR  .API      00 310 00 00         : GR           - GAMMA RAY
~PARAMETER INFORMATION
#MNEM.UNIT           DATA             DESCRIPTION OF MNEMONIC
#---------         -----------     ------------------------------
GL  .M        570.7                : gl           - GROUND LEVEL ELEVATION
EREF.M        574.1                : kb           - ELEVATION OF DEPTH REFERENCE
DATM.M        570.7                : datum        - DATUM ELEVATION
TDD .M        441                  : tdd          - TOTAL DEPTH DRILLER
RUN .         ONE                  : Run          - RUN NUMBER
ENG .         BILL                 : Engineer     - RECORDING ENGINEER
WIT .         JIM                  : Witness      - WITNESSED BY
MUD .         GEL                  : Mud_type     - MUD TYPE
MATR.         SANDSTONE            : Logunit      - NEUTRON MATRIX
TMAX.C        32                   : BHT          - MAXIMUM RECORDED TEMPERATURE
BHTD.M        441                  : BHTDEP       - MAXIMUM RECORDED TEMPERATURE
RMT .C        17                   : MDTP         - TEMPERATURE OF MUD
MUDD.KG/M     1140                 : MWT          - MUD DENSITY
NEUT.         1                    : NEUTRON      - NEUTRON TYPE
RESI.         0                    : RESIST       - RESISTIVITY TYPE
RM  .OHMM     8.8                  : RM           - RESISTIVITY OF MUD
RMC .OHMM     0                    : RMC          - RESISTIVITY OF MUD CAKE
RMF .OHMM     10.7                 : RMF          - RESISTIVITY OF MUD FILTRATE
SUFT.C        -5                   : SUFT         - SURFACE TEMPERATURE
~A  DEPTH     RESD     PHIN     PHID      CAL       GR
# ...
  293.000   24.206    0.420    0.324  225.779   41.461
  293.250   21.285    0.443    0.353  225.285   44.728
  293.500   21.271    0.464    0.342  225.781   47.699
  293.750   22.048    0.476    0.353  227.267   46.808
  294.000   22.855    0.477    0.352  227.268   45.324
  294.250   22.632    0.473    0.328  227.269   44.434
  294.500   22.632    0.454    0.320  226.775   43.840
  294.750   21.991    0.439    0.316  227.271   42.653
  295.000   21.777    0.429    0.328  227.272   40.871
  295.250   22.370    0.462    0.332  226.283   43.842
  295.500   23.185    0.461    0.328  224.800   44.437
  295.750   23.598    0.461    0.331  224.306   45.031
  296.000   24.022    0.470    0.331  224.307   48.596
  296.250   24.672    0.455    0.314  225.298   47.111
  296.500   25.577    0.435    0.311  227.774   43.845
  296.750   26.513    0.434    0.317  229.259   41.767
  297.000   27.731    0.421    0.318  227.776   41.173
  297.250   30.090    0.409    0.295  226.787   39.986
  297.500   31.768    0.388    0.275  226.788   37.908
  297.750   33.230    0.326    0.254  227.779   37.315
  298.000   32.905    0.311    0.240  228.770   38.800
  298.250   31.418    0.337    0.254  228.771   42.661
  298.500   28.921    0.448    0.277  228.771   46.226
  298.750   25.660    0.474    0.305  228.278   48.008
  299.000   21.954    0.447    0.292  226.794   47.712
  299.250   20.769    0.420    0.262  226.795   54.543
  299.500   16.977    0.408    0.235  228.281   60.483
  299.750   13.255    0.484    0.230  229.767   67.315
  300.000   11.237    0.485    0.208  233.728   84.264
  300.250    8.306    0.479    0.199  234.223   86.553
  300.500    8.075    0.480    0.206  234.225   85.262
  300.750    8.604    0.473    0.212  234.226   82.782
  301.000    9.420    0.455    0.204  234.227   80.313
  301.250    9.855    0.449    0.202  234.228   78.439
  301.500    9.494    0.451    0.198  234.229   79.252
  301.750    9.403    0.456    0.192  235.220   81.529
  302.000    9.397    0.471    0.181  235.716   80.547
  302.250    9.564    0.436    0.180  235.717   78.672
  302.500    9.915    0.402    0.129  236.708   76.501
  302.750   10.465    0.363    0.093  237.204   72.522
  303.000   10.653    0.373    0.112  239.185   69.161
  303.250   10.646    0.417    0.162  241.660   77.111
  303.500   10.257    0.440    0.164  245.621   82.671
  303.750   10.153    0.451    0.185  247.603   82.878
  304.000   10.059    0.458    0.186  246.118   82.490
  304.250   10.051    0.465    0.186  243.150   82.389
  304.500    9.954    0.467    0.194  239.191   83.488
  304.750    9.589    0.470    0.210  234.242   85.182
  305.000    9.325    0.474    0.225  232.263   84.806
  305.250    9.066    0.479    0.232  230.284   82.931
  305.500    9.062    0.485    0.236  228.800   79.262
  305.750    9.055    0.503    0.221  228.306   77.376
  306.000    9.301    0.509    0.222  228.802   77.286
  306.250    9.641    0.505    0.227  228.803   76.898
  306.500    9.903    0.499    0.213  228.310   75.916
  306.750   10.079    0.493    0.217  228.311   74.042
  307.000    9.890    0.474    0.230  228.311   73.346
  307.250    9.617    0.462    0.233  228.312   74.731
  307.500    9.266    0.465    0.232  227.819   76.711
  307.750    8.845    0.472    0.233  227.820   77.833
  308.000    8.755    0.480    0.236  228.316   78.029
  308.250    8.834    0.470    0.236  228.317   75.857
  308.500    9.499    0.446    0.234  228.318   72.485
  308.750   10.594    0.418    0.205  227.824   67.351
  309.000   12.711    0.407    0.148  226.835   66.346
  309.250   14.436    0.455    0.227  226.341   68.932
  309.500   14.428    0.493    0.249  226.837   71.827
  309.750   13.775    0.492    0.244  227.828   74.996
  310.000   12.336    0.468    0.229  230.799   76.415
  310.250   10.082    0.468    0.221  235.255   78.395
  310.500    8.785    0.476    0.224  234.266   77.710
  310.750    8.234    0.477    0.225  233.772   78.501
  311.000    8.304    0.477    0.225  234.268   79.898
  311.250    8.453    0.480    0.224  235.754   81.019
  311.500    8.448    0.479    0.221  237.240   83.011
  311.750    8.139    0.481    0.229  237.241   82.315
  312.000    7.842    0.496    0.259  236.747   80.440
  312.250    7.836    0.466    0.260  234.273   77.365
  312.500    8.198    0.477    0.250  233.779   73.707
  312.750    9.059    0.484    0.247  235.760   71.535
  313.000   10.012    0.484    0.255  234.276   69.341
  313.250   10.376    0.468    0.271  231.802   69.559
  313.500    9.818    0.470    0.277  229.328   70.659
  313.750    9.457    0.477    0.278  227.349   71.152
  314.000    9.986    0.479    0.276  225.370   71.668
  314.250   11.136    0.477    0.274  224.876   71.566
  314.500   12.084    0.479    0.276  225.372   71.179
  314.750   13.231    0.467    0.275  225.373   69.304
  315.000   13.716    0.448    0.271  226.365   67.419
  315.250   13.707    0.454    0.268  227.850   67.020
  315.500   13.327    0.470    0.273  229.831   68.417
  315.750   12.724    0.468    0.267  228.842   71.003
  316.000   12.149    0.468    0.250  227.853   73.600
  316.250   10.583    0.468    0.239  226.865   76.781
  316.500    9.923    0.467    0.239  226.371   78.475
  316.750    8.183    0.463    0.242  226.372   79.288
  317.000    7.601    0.471    0.247  226.868   78.305
  317.250    6.157    0.485    0.262  227.364   77.301
  317.500    5.615    0.506    0.268  228.355   77.508
  317.750    5.663    0.510    0.272  228.356   75.931
  318.000    5.924    0.493    0.263  227.862   74.068
  318.250    6.312    0.493    0.238  228.358   72.766
  318.500    6.725    0.493    0.202  230.834   73.568
  318.750    6.420    0.500    0.202  232.320   75.868
  319.000    6.129    0.506    0.231  232.815   78.762
  319.250    5.905    0.490    0.233  231.332   79.553
  319.500    5.848    0.491    0.236  229.848   78.273
  319.750    6.173    0.496    0.246  229.849   76.102
  320.000    6.459    0.494    0.251  232.820   73.907
  320.250    7.007    0.478    0.244  236.285   72.639
  320.500    7.674    0.471    0.228  235.792   71.359
  320.750    8.403    0.453    0.221  234.307   71.853
  321.000    8.952    0.455    0.226  231.339   74.153
  321.250    9.280    0.464    0.247  229.855   77.036
  321.500    9.280    0.470    0.248  228.866   77.232
  321.750    9.349    0.476    0.248  228.372   76.558
  322.000    9.432    0.475    0.249  228.373   76.457
  322.250    9.341    0.481    0.248  229.364   77.534
  322.500    9.335    0.484    0.245  230.850   76.871
  322.750    9.161    0.484    0.240  233.821   77.662
  323.000    8.905    0.490    0.230  234.317   80.248
  323.250    8.905    0.503    0.214  231.843   80.158
  323.500    8.732    0.494    0.217  231.349   79.187
  323.750    8.570    0.489    0.231  231.350   81.178
  324.000    8.487    0.492    0.239  231.351   80.184
  324.250    8.487    0.479    0.223  231.847   78.905
  324.500    8.552    0.483    0.213  234.323   76.127
  324.750    8.867    0.486    0.214  234.819   77.524
  325.000    9.024    0.470    0.218  234.820   80.121
  325.250    9.018    0.467    0.225  234.326   79.722
  325.500    8.931    0.465    0.230  233.832   78.443
  325.750    8.926    0.464    0.233  234.328   77.141
  326.000    8.759    0.465    0.231  235.814   76.444
  326.250    8.672    0.468    0.227  236.310   76.388
  326.500    8.668    0.473    0.214  237.301   77.190
  326.750    8.668    0.483    0.220  239.282   78.289
  327.000    8.578    0.482    0.214  235.323   78.165
  327.250    8.572    0.458    0.213  230.374   76.611
  327.500    8.804    0.447    0.223  227.901   74.142
  327.750    9.210    0.456    0.229  231.862   71.353
  328.000    9.813    0.473    0.232  233.842   70.371
  328.250   10.746    0.472    0.224  234.834   70.578
  328.500   11.875    0.439    0.226  234.834   70.476
  328.750   13.990    0.403    0.216  233.350   69.185
  329.000   19.787    0.375    0.181  231.372   68.226
  329.250   23.309    0.328    0.124  230.383   66.649
