~VERSION INFORMATION
 VERS.                 2.0:   CWLS LOG ASCII STANDARD -VERSION 2.0
 WRAP.                  NO:   ONE LINE PER DEPTH STEP
~WELL INFORMATION BLOCK
#MNEM.UNIT           DATA                    DESCRIPTION OF MNEMONIC
#---------    -------------------            -------------------------------
# Generated from Intellog Unique Number	CC_80_83/WELL/2388
NULL.         -999.25                        : NULL_VALUE
WELL.         CDN SUP ALGAR                  : Well_name    - WELL
LOC .         10-32-083-15W4                 : Location     - LOCATION          
UWI .         00/10-32-083-15W400            : Uwi          - UNIQUE WELL ID    
ENTR.         DW                             : Entered      - ENTERED BY        
SRVC.         SCHLUMBERGER                   : Scn          - SERVICE COMPANY   
DATE.         12 MAR 76                      : Date         - LOG DATE
STRT.M        85.344                         : top_depth    - START DEPTH       
STOP.M        279.195                        : bot_depth    - STOP DEPTH        
STEP.M        0.3048                         : increment    - STEP LENGTH       
~CURVE INFORMATION BLOCK
#MNEM UNIT       ERCB CURVE CODE    CURVE DESCRIPTION
#-----------   ------------------   ----------------------------------
DEPT.M        00 001 00 00         : DEPTH        - DEPTH                       
DPHI.V/V      00 890 00 00         : PHID         - DENSITY POROSITY (LIMESTONE)
NPHI.V/V      00 330 00 00         : PHIN         - NEUTRON POROSITY (LIMESTONE)
GR  .API      00 310 00 00         : GR           - GAMMA RAY                   
ILD .OHMM     00 120 00 00         : RESD         - DEEP RESISTIVITY (DIL)      
~PARAMETER INFORMATION       
#MNEM.UNIT           DATA             DESCRIPTION OF MNEMONIC
#---------         -----------     ------------------------------
GL  .M        544.068              : gl           - GROUND LEVEL ELEVATION      
EREF.M        547.421              : kb           - ELEVATION OF DEPTH REFERENCE
DATM.M        547.421              : datum        - DATUM ELEVATION             
TDD .M        278.282              : tdd          - TOTAL DEPTH DRILLER         
RUN .         ONE                  : Run          - RUN NUMBER                  
ENG .         BILL                 : Engineer     - RECORDING ENGINEER          
WIT .         JIM                  : Witness      - WITNESSED BY                
MUD .         GEL                  : Mud_type     - MUD TYPE                    
MATR.         LIMESTONE            : Logunit      - NEUTRON MATRIX              
TMAX.C        22.2222              : BHT          - MAXIMUM RECORDED TEMPERATURE
BHTD.M        278.282              : BHTDEP       - MAXIMUM RECORDED TEMPERATURE
MATR.         1                    : LOGUNIT      - NEUTRON MATRIX              
RMT .C        25                   : MDTP         - TEMPERATURE OF MUD          
NEUT.         1                    : NEUTRON      - NEUTRON TYPE                
RESI.         0                    : RESIST       - RESISTIVITY TYPE            
RMC .OHMM     0.25                 : RMC          - RESISTIVITY OF MUD CAKE     
RMF .OHMM     0.25                 : RMF          - RESISTIVITY OF MUD FILTRATE 
SUFT.C        15                   : SUFT         - SURFACE TEMPERATURE         
~A  DEPTH     PHID     PHIN       GR     RESD
# ...
  244.448    0.251    0.435  100.177    8.077
  244.752    0.229    0.427   91.799    7.927
  245.057    0.226    0.456   90.615    7.926
  245.362    0.254    0.479   94.832    8.073
  245.667    0.265    0.486   97.846    8.072
  245.972    0.275    0.491  102.059    7.635
  246.276    0.228    0.470  115.266    6.343
  246.581    0.228    0.459  124.279    5.468
  246.886    0.237    0.497  117.699    4.802
  247.191    0.242    0.519  115.916    4.458
  247.496    0.227    0.546  115.930    4.376
  247.800    0.200    0.515  119.549    4.457
  248.105    0.215    0.475  123.761    4.799
  248.410    0.201    0.457  125.575    5.993
  248.715    0.195    0.437  118.993    7.912
  249.020    0.138    0.417  101.619   10.446
  249.324    0.186    0.406   98.037   13.289
  249.629    0.236    0.409  102.851   16.291
  249.934    0.210    0.419  107.663   18.544
  250.239    0.186    0.440  110.680   17.867
  250.544    0.195    0.450  112.498   14.302
  250.848    0.189    0.436  114.311   12.329
  251.153    0.170    0.410  115.524   12.102
  251.458    0.173    0.398  115.544   12.326
  251.763    0.210    0.388  116.156   12.324
  252.068    0.191    0.394  115.572   12.097
  252.372    0.216    0.437   86.203   10.822
  252.677    0.274    0.455   70.029   10.235
  252.982    0.298    0.449   60.449   10.425
  253.287    0.298    0.425   53.270   12.089
  253.592    0.290    0.419   51.486   15.380
  253.896    0.314    0.427   52.103   22.692
  254.201    0.303    0.414   54.516   26.805
  254.506    0.271    0.404   56.931   27.812
  254.811    0.244    0.411   61.145   26.797
  255.115    0.277    0.431   65.958   23.534
  255.420    0.312    0.438   70.172   21.055
  255.725    0.292    0.435   75.586   18.151
  256.030    0.301    0.452   86.997   16.239
  256.335    0.294    0.476   95.408   13.491
  256.639    0.275    0.465   99.621   11.417
  256.944    0.264    0.463  105.037    9.842
  257.249    0.253    0.451  111.048    9.483
  257.554    0.229    0.450  118.260    8.968
  257.859    0.205    0.454  134.467    8.482
  258.164    0.225    0.430  138.683    7.449
  258.468    0.242    0.405  135.103    6.916
  258.773    0.232    0.412  132.117    6.303
  259.078    0.222    0.439  127.939    5.434
  259.383    0.211    0.453  126.156    5.045
  259.688    0.219    0.451  125.578    4.772
  259.992    0.252    0.468  125.587    4.683
  260.297    0.203    0.489  125.002    4.859
  260.602    0.182    0.498  120.820    4.859
  260.907    0.156    0.470  113.639    4.769
  261.212    0.204    0.490  110.057    4.680
  261.516    0.242    0.507  122.667    4.427
  261.821    0.227    0.482  135.277    4.426
  262.126    0.206    0.483  134.696    4.593
  262.431    0.192    0.460  124.515    5.228
  262.736    0.189    0.408  108.340    6.409
  263.040    0.201    0.379   89.763    9.282
  263.345    0.310    0.360   63.395   12.954
  263.650    0.348    0.341   54.416   18.419
  263.955    0.344    0.337   50.835   32.107
  264.260    0.320    0.382   53.251   44.810
  264.565    0.305    0.412   56.865   46.494
  264.869    0.305    0.418   59.276   40.831
  265.174    0.309    0.418   61.094   37.910
  265.479    0.310    0.427   62.309   40.821
  265.784    0.309    0.428   62.924   46.465
  266.089    0.304    0.418   63.540   50.034
  266.393    0.303    0.399   65.954   59.102
  266.698    0.306    0.391   70.766   61.327
  267.003    0.280    0.401   82.778   55.892
  267.308    0.235    0.452   98.985   12.459
  267.613    0.221    0.457  103.201    7.279
  267.917    0.212    0.416  102.019    6.392
  268.222    0.241    0.386   98.434    7.143
  268.527    0.299    0.339   67.266    9.430
  268.832    0.332    0.330   63.086   13.407
  269.137    0.354    0.361   68.498   20.152
  269.441    0.423    0.434   84.704   28.650
  269.746    0.322    0.459  106.309   35.779
  270.051    0.229    0.416  127.315   44.682
  270.356    0.188    0.398   99.744   49.928
  270.661    0.134    0.368   77.572   53.760
  270.966    0.278    0.413   58.399   57.889
  271.270    0.308    0.395   41.623   60.064
  271.575    0.306    0.370   26.048   60.051
  271.880    0.287    0.387   21.267   58.939
  272.185    0.324    0.393   21.282   56.788
  272.490    0.260    0.342   21.900   53.711
  272.794    0.208    0.344   23.713   42.209
  273.099    0.213    0.357  108.285   27.052
  273.404    0.248    0.385  111.304   23.322
  273.709    0.259    0.470  111.918   22.890
  274.014    0.286    0.471  113.133   23.750
  274.318    0.249    0.469  113.148   25.104
  274.623    0.300    0.467  113.167   26.536
  274.928    0.277    0.465  111.979   26.532
  275.233    0.260    0.465   92.805   22.873
  275.538    0.230    0.466   84.427   21.235
  275.842    0.209    0.466   89.243   20.843
  276.147    0.236    0.466   97.052   21.229
  276.452    0.245    0.465  112.062   22.859
  276.757    0.255    0.464  114.475   26.508
  277.062    0.278    0.464  110.901   29.620
  277.367    0.281    0.462  109.112   31.308
  277.671    0.264    0.463  106.733   31.889
  277.976    0.216    0.463  106.743   31.883
  278.281    0.157    0.465  104.962   31.878
  278.586    0.174    0.465   65.999   31.875
  278.891    0.180    0.465   64.816   31.869
  279.195    0.175    0.466   61.833   31.865
