~VERSION INFORMATION
 VERS.                 2.0:   CWLS LOG ASCII STANDARD -VERSION 2.0
 WRAP.                  NO:   ONE LINE PER DEPTH STEP
~WELL INFORMATION BLOCK
#MNEM.UNIT           DATA                    DESCRIPTION OF MNEMONIC
#---------    -------------------            -------------------------------
# Generated from Intellog Unique Number	CS_77_79/WELL/956
WELL.         CWWE SOUTH CHRISTINA           : Well_name    - WELL
LOC .         00/10-16-079-09W4/0            : Location     - LOCATION
UWI .         00/10-16-079-09W4/0            : Uwi          - UNIQUE WELL ID
ENTR.         JHS                            : Entered      - ENTERED BY
SRVC.         SCHLUMBERGER                   : Scn          - SERVICE COMPANY
STRT.M        243.84                         : top_depth    - START DEPTH
STOP.M        475.34                         : bot_depth    - STOP DEPTH
STEP.M        0.25                           : increment    - STEP LENGTH
 NULL. -999.2500:NULL Value
~CURVE INFORMATION BLOCK
#MNEM UNIT       ERCB CURVE CODE    CURVE DESCRIPTION
#-----------   ------------------   ----------------------------------
DEPT.M        00 001 00 00         : DEPTH        - DEPTH
RHOB.KG/M3    00 350 00 00         : DENS         - BULK DENSITY
GR  .API      00 310 00 00         : GR           - GAMMA RAY
DPHI.V/V      00 890 00 00         : PHID         - DENSITY POROSITY (SANDSTONE)
NPHI.V/V      00 330 00 00         : PHIN         - NEUTRON POROSITY (SANDSTONE)
ILD .OHMM     00 120 00 00         : RESD         - DEEP RESISTIVITY (DIL)
~PARAMETER INFORMATION
#MNEM.UNIT           DATA             DESCRIPTION OF MNEMONIC
#---------         -----------     ------------------------------
GL  .M        677.601              : gl           - GROUND LEVEL ELEVATION
EREF.M        680.253              : kb           - ELEVATION OF DEPTH REFERENCE
DATM.M        680.253              : datum        - DATUM ELEVATION
TDD .M        478.536              : tdd          - TOTAL DEPTH DRILLER
RUN .         ONE                  : Run          - RUN NUMBER
ENG .         BILL                 : Engineer     - RECORDING ENGINEER
WIT .         JIM                  : Witness      - WITNESSED BY
MUD .         GEL                  : Mud_type     - MUD TYPE
MATR.         SANDSTONE            : Logunit      - NEUTRON MATRIX
TMAX.C        27.2222              : BHT          - MAXIMUM RECORDED TEMPERATURE
BHTD.M        478.536              : BHTDEP       - MAXIMUM RECORDED TEMPERATURE
MATR.         1                    : LOGUNIT      - NEUTRON MATRIX
RMT .C        25                   : MDTP         - TEMPERATURE OF MUD
NEUT.         1                    : NEUTRON      - NEUTRON TYPE
RESI.         0                    : RESIST       - RESISTIVITY TYPE
RMC .OHMM     0.25                 : RMC          - RESISTIVITY OF MUD CAKE
RMF .OHMM     0.25                 : RMF          - RESISTIVITY OF MUD FILTRATE
SUFT.C        15                   : SUFT         - SURFACE TEMPERATURE
~A  DEPTH     DENS       GR     PHID     PHIN     RESD
# ...
  280.340    0.000   60.107    0.338    0.463   22.751
  280.590    0.000   62.007    0.333    0.474   22.966
  280.840    0.000   66.412    0.322    0.485   22.980
  281.090    0.000   71.756    0.343    0.480   22.985
  281.340    0.000   72.499    0.328    0.477   22.991
  281.590    0.000   69.065    0.339    0.488   22.733
  281.840    0.000   70.604    0.348    0.485   22.176
  282.090    0.000   69.078    0.332    0.474   21.769
  282.340    0.000   67.004    0.335    0.466   21.974
  282.590    0.000   70.696    0.336    0.477   21.887
  282.840    0.000   70.937    0.329    0.486   22.170
  283.090    0.000   68.902    0.335    0.486   22.686
  283.340    0.000   68.543    0.340    0.465   22.161
  283.590    0.000   72.428    0.347    0.459   22.225
  283.840    0.000   79.875    0.340    0.456   21.558
  284.090    0.000   84.162    0.349    0.461   21.352
  284.340    0.000   83.690    0.333    0.495   20.620
  284.590    0.000   80.493    0.349    0.513   20.086
  284.840    0.000   77.470    0.337    0.503   19.902
  285.090    0.000   80.787    0.341    0.497   19.925
  285.340    0.000   86.350    0.357    0.492   19.336
  285.590    0.000   82.996    0.350    0.509   18.519
  285.840    0.000   83.238    0.330    0.489   16.880
  286.090    0.000   87.544    0.321    0.489   15.450
  286.340    0.000   92.920    0.310    0.498   13.422
  286.590    0.000   96.301    0.297    0.487   11.884
  286.840    0.000   98.228    0.278    0.496   10.755
  287.090    0.000  102.957    0.265    0.482   10.065
  287.340    0.000  112.194    0.252    0.481    9.958
  287.590    0.000  114.759    0.237    0.495    9.545
  287.840    0.000  111.325    0.229    0.505    8.601
  288.090    0.000  118.918    0.225    0.507    7.627
  288.340    0.000  129.731    0.245    0.501    6.637
  288.590    0.000  134.964    0.227    0.505    5.963
  288.840    0.000  136.752    0.238    0.565    5.693
  289.090    0.000  133.568    0.224    0.560    5.918
  289.340    0.000  130.192    0.207    0.529    6.343
  289.590    0.000  129.428    0.194    0.533    7.838
  289.840    0.000  130.789    0.219    0.527    8.767
  290.090    0.000  121.869    0.246    0.495   10.484
  290.340    0.000  114.930    0.277    0.477   12.278
  290.590    0.000  117.499    0.279    0.469   13.880
  290.840    0.000  115.259    0.282    0.483   14.756
  291.090    0.000  110.560    0.312    0.471   14.897
  291.340    0.000  104.611    0.330    0.463   14.045
  291.590    0.000  105.862    0.309    0.470   12.476
  291.840    0.000  111.191    0.283    0.485   11.543
  292.090    0.000  111.960    0.242    0.515   10.960
  292.340    0.000  106.518    0.242    0.525   10.922
  292.590    0.000   94.396    0.264    0.488   11.884
  292.840    0.000   82.755    0.259    0.450   12.366
  293.090    0.000   77.564    0.257    0.437   13.440
  293.340    0.000   81.900    0.266    0.436   13.813
  293.590    0.000   90.816    0.235    0.456   14.157
  293.840    0.000   93.365    0.265    0.467   14.139
  294.090    0.000   90.812    0.269    0.460   14.187
  294.340    0.000   91.144    0.258    0.465   13.489
  294.590    0.000   93.992    0.250    0.470   13.390
  294.840    0.000   95.099    0.247    0.470   12.734
  295.090    0.000  101.487    0.286    0.471   12.370
  295.340    0.000  106.983    0.269    0.483   12.217
  295.590    0.000  111.881    0.247    0.500   12.131
  295.840    0.000  110.393    0.241    0.507   11.469
  296.090    0.000  107.291    0.269    0.490   10.158
  296.340    0.000  109.926    0.278    0.476    8.855
  296.590    0.000  116.611    0.256    0.477    8.120
  296.840    0.000  118.566    0.226    0.494    7.180
  297.090    0.000  119.843    0.231    0.507    6.828
  297.340    0.000  123.567    0.231    0.507    6.673
  297.590    0.000  124.003    0.227    0.516    6.706
  297.840    0.000  120.709    0.232    0.511    7.212
  298.090    0.000  114.629    0.235    0.484    8.008
  298.340    0.000  109.181    0.248    0.473    9.022
  298.590    0.000  106.290    0.251    0.468   10.114
  298.840    0.000  102.194    0.246    0.461   10.924
  299.090    0.000   99.782    0.253    0.459   10.778
  299.340    0.000   99.023    0.242    0.475   10.092
  299.590    0.000  104.098    0.247    0.468    9.318
  299.840    0.000  109.885    0.260    0.473    8.983
  300.090    0.000  114.769    0.240    0.487    8.821
  300.340    0.000  117.648    0.236    0.508    9.329
  300.590    0.000  114.653    0.250    0.501   10.213
  300.840    0.000  101.358    0.266    0.498   11.411
  301.090    0.000   95.053    0.292    0.506   12.238
  301.340    0.000   95.486    0.301    0.510   12.271
  301.590    0.000   94.953    0.280    0.527   12.298
  301.840    0.000   91.019    0.271    0.524   11.689
  302.090    0.000   95.173    0.262    0.532   11.333
  302.340    0.000   99.083    0.273    0.556   10.863
  302.590   -0.000   99.209    0.280    0.524   10.205
  302.840    0.000   97.900    0.284    0.524    9.820
  303.090   -0.000  101.599    0.278    0.539    9.690
  303.340   -0.000  103.527    0.271    0.533    9.819
  303.590   -0.000  103.801    0.274    0.502   10.249
  303.840    0.000   99.044    0.265    0.490   10.902
  304.090    0.000   95.430    0.289    0.480   11.585
  304.340   -0.000   90.161    0.311    0.480   12.082
  304.590   -0.000   89.222    0.302    0.493   12.636
  304.840   -0.000   89.524    0.291    0.502   12.901
  305.090    0.000   86.187    0.295    0.492   13.954
  305.340    0.000   81.073    0.323    0.510   15.542
  305.590    0.000   73.755    0.332    0.538   17.714
  305.840   -0.000   68.656    0.355    0.499   19.122
  306.090   -0.000   66.971    0.329    0.479   19.710
  306.340   -0.000   66.776    0.333    0.477   19.876
  306.590    0.000   63.975    0.338    0.482   19.883
  306.840    0.000   62.091    0.309    0.484   19.862
  307.090    0.000   63.191    0.310    0.480   20.265
  307.340   -0.000   61.708    0.310    0.463   19.770
  307.590   -0.000   62.504    0.332    0.449   18.898
  307.840    0.000   65.444    0.327    0.463   17.865
  308.090    0.000   69.271    0.329    0.480   15.812
  308.340    0.000   74.321    0.329    0.484   14.258
  308.590   -0.000   79.046    0.330    0.481   12.473
  308.840   -0.000   86.610    0.317    0.461   10.087
  309.090   -0.000   91.234    0.274    0.435    7.925
  309.340    0.000   95.984    0.236    0.442    6.587
  309.590    0.000   97.733    0.221    0.515    5.884
  309.840    0.000   98.647    0.265    0.540    5.504
  310.090   -0.000   97.176    0.281    0.543    5.565
  310.340   -0.000   93.817    0.279    0.526    5.843
  310.590    0.000   90.916    0.289    0.498    5.928
  310.840    0.000   92.288    0.268    0.484    6.356
  311.090    0.000   93.300    0.274    0.498    6.512
  311.340   -0.000   87.817    0.289    0.541    6.614
  311.590   -0.000   76.974    0.315    0.579    6.795
  311.840   -0.000   67.211    0.404    0.601    7.547
  312.090    0.000   61.093    0.429    0.611    8.902
  312.340    0.000   60.566    0.431    0.609   11.528
  312.590    0.000   61.700    0.401    0.526   15.392
  312.840   -0.000   64.258    0.381    0.492   18.216
  313.090   -0.000   65.560    0.352    0.481   20.898
  313.340   -0.000   62.748    0.353    0.491   21.913
  313.590    0.000   60.908    0.359    0.493   21.555
  313.840    0.000   61.144    0.343    0.501   20.517
  314.090   -0.000   62.146    0.358    0.485   18.995
  314.340   -0.000   65.051    0.362    0.477   17.317
  314.590   -0.000   67.726    0.359    0.484   16.157
  314.840    0.000   68.569    0.371    0.496   15.222
  315.090    0.000   72.501    0.380    0.487   14.896
  315.340    0.000   75.607    0.376    0.474   14.918
  315.590   -0.000   76.105    0.369    0.474   15.115
  315.840   -0.000   75.028    0.368    0.483   16.062
  316.090   -0.000   72.342    0.361    0.474   16.710
  316.340    0.000   70.192    0.365    0.467   17.308
  316.590    0.000   70.591    0.360    0.460   17.689
