~VERSION INFORMATION
 VERS.                 2.0:   CWLS LOG ASCII STANDARD -VERSION 2.0
 WRAP.                  NO:   ONE LINE PER DEPTH STEP
~WELL INFORMATION BLOCK
#MNEM.UNIT           DATA                    DESCRIPTION OF MNEMONIC
#---------    -------------------            -------------------------------
# Generated from Intellog Unique Number	CS_73_76/WELL/820
WELL.         BRASCAN RESOURCES LTD          : Well_name    - WELL
LOC .         00/10-17-073-17W4/0            : Location     - LOCATION
UWI .         00/10-17-073-17W4/0            : Uwi          - UNIQUE WELL ID
ENTR.         SP                             : Entered      - ENTERED BY
SRVC.         SCHLUMBERGER                   : Scn          - SERVICE COMPANY
STRT.M        249.936                        : top_depth    - START DEPTH
STOP.M        419.186                        : bot_depth    - STOP DEPTH
STEP.M        0.25                           : increment    - STEP LENGTH
 NULL. -999.2500:NULL Value
~CURVE INFORMATION BLOCK
#MNEM UNIT       ERCB CURVE CODE    CURVE DESCRIPTION
#-----------   ------------------   ----------------------------------
DEPT.M        00 001 00 00         : DEPTH        - DEPTH
GR  .API      00 310 00 00         : GR           - GAMMA RAY
DPHI.V/V      00 890 00 00         : PHID         - DENSITY POROSITY (SANDSTONE)
NPHI.V/V      00 330 00 00         : PHIN         - NEUTRON POROSITY (SANDSTONE)
ILD .OHMM     00 120 00 00         : RESD         - DEEP RESISTIVITY (DIL)
~PARAMETER INFORMATION
#MNEM.UNIT           DATA             DESCRIPTION OF MNEMONIC
#---------         -----------     ------------------------------
GL  .M        579.272              : gl           - GROUND LEVEL ELEVATION
EREF.M        582.473              : kb           - ELEVATION OF DEPTH REFERENCE
DATM.M        579.272              : datum        - DATUM ELEVATION
TDD .M        499.872              : tdd          - TOTAL DEPTH DRILLER
RUN .         ONE                  : Run          - RUN NUMBER
ENG .         BILL                 : Engineer     - RECORDING ENGINEER
WIT .         JIM                  : Witness      - WITNESSED BY
MUD .         GEL                  : Mud_type     - MUD TYPE
MATR.         SANDSTONE            : Logunit      - NEUTRON MATRIX
TMAX.C        17.7778              : BHT          - MAXIMUM RECORDED TEMPERATURE
BHTD.M        499.872              : BHTDEP       - MAXIMUM RECORDED TEMPERATURE
MATR.         1                    : LOGUNIT      - NEUTRON MATRIX
RMT .C        25                   : MDTP         - TEMPERATURE OF MUD
NEUT.         1                    : NEUTRON      - NEUTRON TYPE
RESI.         0                    : RESIST       - RESISTIVITY TYPE
RMC .OHMM     0.25                 : RMC          - RESISTIVITY OF MUD CAKE
RMF .OHMM     0.25                 : RMF          - RESISTIVITY OF MUD FILTRATE
SUFT.C        15                   : SUFT         - SURFACE TEMPERATURE
~A  DEPTH       GR     PHID     PHIN     RESD
# ...
  293.436   79.389    0.267    0.454    4.320
  293.686   72.341    0.296    0.460    4.605
  293.936   75.418    0.297    0.443    4.980
  294.186   79.222    0.286    0.428    5.252
  294.436   82.566    0.270    0.450    5.517
  294.686   83.948    0.279    0.462    5.364
  294.936   78.257    0.285    0.484    5.099
  295.186   68.350    0.309    0.542    4.958
  295.436   61.005    0.504    0.605    4.997
  295.686   47.378    0.559    0.581    5.150
  295.936   49.629    0.467    0.546    5.488
  296.186   55.648    0.419    0.480    5.952
  296.436   58.318    0.322    0.446    6.315
  296.686   54.657    0.278    0.435    6.962
  296.936   52.495    0.296    0.431    6.991
  297.186   51.862    0.316    0.430    6.650
  297.436   51.854    0.305    0.421    6.257
  297.686   51.800    0.316    0.432    6.043
  297.936   53.658    0.321    0.439    5.978
  298.186   54.690    0.319    0.441    5.871
  298.436   55.784    0.313    0.436    5.760
  298.686   58.406    0.313    0.442    5.675
  298.936   60.482    0.310    0.442    5.670
  299.186   61.730    0.303    0.435    5.669
  299.436   62.794    0.301    0.437    5.671
  299.686   64.402    0.315    0.448    5.674
  299.936   68.508    0.328    0.446    5.678
  300.186   71.290    0.332    0.459    5.668
  300.436   66.932    0.317    0.475    5.798
  300.686   60.631    0.306    0.453    5.789
  300.936   63.357    0.310    0.466    5.792
  301.186   63.447    0.320    0.463    5.794
  301.436   61.399    0.319    0.452    5.798
  301.686   59.733    0.328    0.441    5.811
  301.936   58.122    0.330    0.435    5.689
  302.186   56.105    0.338    0.428    5.702
  302.436   55.141    0.346    0.441    5.713
  302.686   54.916    0.342    0.441    5.596
  302.936   54.987    0.335    0.432    5.607
  303.186   54.104    0.329    0.467    5.616
  303.436   53.831    0.336    0.458    5.506
  303.686   53.409    0.344    0.453    5.514
  303.936   53.136    0.350    0.448    5.521
  304.186   52.154    0.344    0.438    5.418
  304.436   50.809    0.346    0.459    5.421
  304.686   51.770    0.351    0.476    5.421
  304.936   51.715    0.344    0.464    5.423
  305.186   51.329    0.338    0.448    5.426
  305.436   51.720    0.339    0.426    5.428
  305.686   52.731    0.346    0.421    5.431
  305.936   54.465    0.349    0.418    5.433
  306.186   55.422    0.353    0.442    5.436
  306.436   57.535    0.347    0.453    5.435
  306.686   57.635    0.342    0.462    5.408
  306.936   53.642    0.339    0.448    5.345
  307.186   55.620    0.330    0.437    5.348
  307.436   56.308    0.324    0.442    5.368
  307.686   57.259    0.320    0.447    5.547
  307.936   57.067    0.335    0.451    5.552
  308.186   54.812    0.338    0.451    5.556
  308.436   54.899    0.324    0.462    5.558
  308.686   55.583    0.314    0.461    5.562
  308.936   56.993    0.323    0.450    5.564
  309.186   58.390    0.329    0.444    5.566
  309.436   60.300    0.336    0.438    5.569
  309.686   59.926    0.341    0.435    5.572
  309.936   59.334    0.337    0.443    5.564
  310.186   60.416    0.337    0.474    5.693
  310.436   61.827    0.349    0.489    5.680
  310.686   62.403    0.346    0.469    5.798
  310.936   63.945    0.339    0.458    5.794
  311.186   64.837    0.350    0.451    5.788
  311.436   66.861    0.359    0.462    5.903
  311.686   68.121    0.345    0.475    6.022
  311.936   69.938    0.340    0.491    6.103
  312.186   65.293    0.344    0.481    6.285
  312.436   62.598    0.334    0.476    6.617
  312.686   62.942    0.331    0.471    6.897
  312.936   65.239    0.327    0.465    7.300
  313.186   66.974    0.310    0.462    7.514
  313.436   68.729    0.300    0.462    7.566
  313.686   67.964    0.296    0.477    7.496
  313.936   64.824    0.301    0.479    7.256
  314.186   62.110    0.310    0.483    7.181
  314.436   61.872    0.318    0.463    7.132
  314.686   62.380    0.312    0.449    7.123
  314.936   60.199    0.310    0.444    7.739
  315.186   54.858    0.322    0.421    8.848
  315.436   52.934    0.314    0.366   10.409
  315.686   50.144    0.242    0.321   12.937
  315.936   46.261    0.141    0.276   16.089
  316.186   43.782    0.098    0.187   19.787
  316.436   41.981    0.066    0.149   28.836
  316.686   41.703    0.036    0.128   44.263
  316.936   42.020    0.029    0.120   59.055
  317.186   43.935    0.020    0.120   66.039
  317.436   44.762    0.007    0.123   65.638
  317.686   45.207    0.003    0.129   59.909
  317.936   44.207    0.000    0.128   57.361
  318.186   44.708    0.000    0.139   58.227
  318.436   46.398    0.000    0.149   61.999
  318.686   48.064    0.000    0.149   64.437
  318.936   49.558    0.002    0.145   62.264
  319.186   51.238    0.079    0.177   50.630
  319.436   52.825    0.245    0.266   41.470
  319.686   56.363    0.278    0.356   30.802
  319.936   58.066    0.310    0.407   23.113
  320.186   60.610    0.320    0.456   15.455
  320.436   61.246    0.318    0.502   11.412
  320.686   61.883    0.316    0.525    9.028
  320.936   60.810    0.316    0.539    7.456
  321.186   61.085    0.316    0.531    6.266
  321.436   62.233    0.323    0.519    5.675
  321.686   64.278    0.318    0.535    5.349
  321.936   67.174    0.306    0.543    5.117
  322.186   68.760    0.316    0.542    5.009
  322.436   70.980    0.321    0.542    4.828
  322.686   71.744    0.325    0.534    4.862
  322.936   72.354    0.339    0.526    5.022
  323.186   73.118    0.335    0.500    5.217
  323.436   74.481    0.317    0.393    5.858
  323.686   72.706    0.288    0.292    6.689
  323.936   68.627    0.230    0.242    7.773
  324.186   63.238    0.150    0.225    9.909
  324.436   60.414    0.082    0.227   11.294
  324.686   67.283    0.073    0.258   12.241
  324.936   74.385    0.100    0.341   10.943
  325.186   80.348    0.146    0.454    9.205
  325.436   83.330    0.199    0.480    7.229
  325.686   85.291    0.249    0.459    6.043
  325.936   88.197    0.253    0.452    5.325
  326.186   91.817    0.230    0.464    4.922
  326.436   93.055    0.210    0.469    4.707
  326.686   94.518    0.217    0.472    4.619
  326.936   92.863    0.220    0.468    4.509
  327.186   90.968    0.214    0.460    4.457
  327.436   89.564    0.206    0.445    4.333
  327.686   93.537    0.213    0.452    4.209
  327.936   93.880    0.219    0.467    4.079
  328.186   93.979    0.218    0.484    4.041
  328.436   93.336    0.229    0.493    3.997
  328.686   94.877    0.222    0.510    3.933
  328.936   94.662    0.203    0.519    3.859
  329.186   92.250    0.207    0.502    3.793
  329.436   90.859    0.217    0.491    3.748
  329.686   90.581    0.226    0.485    3.712
  329.936   89.989    0.205    0.480    3.663
  330.186   88.475    0.212    0.461    3.554
  330.436   85.506    0.219    0.482    3.538
  330.686   81.679    0.230    0.506    3.473
  330.936   75.178    0.243    0.497    3.533
  331.186   68.688    0.274    0.508    3.684
  331.436   64.220    0.308    0.475    3.790
  331.686   61.528    0.350    0.457    3.909
  331.936   60.335    0.346    0.452    4.029
  332.186   62.167    0.342    0.469    4.152
  332.436   60.703    0.345    0.477    4.264
  332.686   63.311    0.342    0.465    4.260
  332.936   64.407    0.352    0.456    4.261
  333.186   62.607    0.349    0.448    4.263
  333.436   63.245    0.342    0.439    4.265
  333.686   66.574    0.337    0.434    4.267
  333.936   68.209    0.327    0.430    4.270
  334.186   65.523    0.315    0.437    4.271
  334.436   64.645    0.319    0.437    4.276
  334.686   66.079    0.322    0.445    4.280
  334.936   66.500    0.313    0.455    4.361
  335.186   66.694    0.308    0.466    4.358
  335.436   66.121    0.313    0.463    4.360
  335.686   64.544    0.313    0.464    4.361
  335.936   63.630    0.326    0.456    4.358
  336.186   63.154    0.329    0.460    4.444
  336.436   65.483    0.330    0.482    4.526
  336.686   66.253    0.314    0.497    4.809
