~VERSION INFORMATION
 VERS.                 2.0:   CWLS LOG ASCII STANDARD -VERSION 2.0
 WRAP.                  NO:   ONE LINE PER DEPTH STEP
~WELL INFORMATION BLOCK
#MNEM.UNIT           DATA                    DESCRIPTION OF MNEMONIC
#---------    -------------------            -------------------------------
# Generated from Intellog Unique Number	CS_73_76/WELL/2204
WELL.         CANADA CITIES SERVICE LTD      : Well_name    - WELL
LOC .         00/11-29-074-01W4/0            : Location     - LOCATION
UWI .         00/11-29-074-01W4/0            : Uwi          - UNIQUE WELL ID
ENTR.         SP                             : Entered      - ENTERED BY
SRVC.         SCHLUMBERGER                   : Scn          - SERVICE COMPANY
STRT.M        325                            : top_depth    - START DEPTH
STOP.M        575                            : bot_depth    - STOP DEPTH
STEP.M        0.25                           : increment    - STEP LENGTH
 NULL. -999.2500:NULL Value
~CURVE INFORMATION BLOCK
#MNEM UNIT       ERCB CURVE CODE    CURVE DESCRIPTION
#-----------   ------------------   ----------------------------------
DEPT.M        00 001 00 00         : DEPTH        - DEPTH
ILD .OHMM     00 120 00 00         : RESD         - DEEP RESISTIVITY (DIL)
DPHI.V/V      00 890 00 00         : PHID         - DENSITY POROSITY (LIMESTONE)
NPHI.V/V      00 330 00 00         : PHIN         - NEUTRON POROSITY (LIMESTONE)
GR  .API      00 310 00 00         : GR           - GAMMA RAY
~PARAMETER INFORMATION
#MNEM.UNIT           DATA             DESCRIPTION OF MNEMONIC
#---------         -----------     ------------------------------
GL  .M        693.6                : gl           - GROUND LEVEL ELEVATION
EREF.M        597                  : kb           - ELEVATION OF DEPTH REFERENCE
DATM.M        693.6                : datum        - DATUM ELEVATION
TDD .M        582                  : tdd          - TOTAL DEPTH DRILLER
RUN .         ONE                  : Run          - RUN NUMBER
ENG .         BILL                 : Engineer     - RECORDING ENGINEER
WIT .         JIM                  : Witness      - WITNESSED BY
MUD .         GEL                  : Mud_type     - MUD TYPE
MATR.         LIMESTONE            : Logunit      - NEUTRON MATRIX
TMAX.C        18.5                 : BHT          - MAXIMUM RECORDED TEMPERATURE
BHTD.M        582                  : BHTDEP       - MAXIMUM RECORDED TEMPERATURE
MATR.         1                    : LOGUNIT      - NEUTRON MATRIX
RMT .C        25                   : MDTP         - TEMPERATURE OF MUD
NEUT.         1                    : NEUTRON      - NEUTRON TYPE
RESI.         0                    : RESIST       - RESISTIVITY TYPE
RMC .OHMM     0.25                 : RMC          - RESISTIVITY OF MUD CAKE
RMF .OHMM     0.25                 : RMF          - RESISTIVITY OF MUD FILTRATE
SUFT.C        15                   : SUFT         - SURFACE TEMPERATURE
~A  DEPTH     RESD     PHID     PHIN       GR
# ...
  412.000    7.770    0.326    0.463   66.400
  412.250    8.065    0.328    0.463   64.561
  412.500    8.063    0.332    0.468   65.783
  412.750    7.766    0.330    0.471   65.780
  413.000    7.479    0.327    0.464   64.553
  413.250    6.683    0.332    0.458   65.775
  413.500    6.436    0.319    0.456   70.669
  413.750    6.084    0.308    0.474   72.504
  414.000    5.643    0.309    0.480   74.950
  414.250    5.435    0.301    0.483   75.559
  414.500    5.235    0.291    0.469   78.005
  414.750    4.948    0.297    0.481   80.452
  415.000    4.765    0.287    0.468   79.225
  415.250    4.676    0.276    0.452   80.446
  415.500    4.763    0.272    0.463   82.893
  415.750    4.944    0.274    0.480   83.503
  416.000    5.037    0.287    0.497   82.888
  416.250    5.327    0.303    0.497   77.375
  416.500    5.740    0.322    0.484   71.249
  416.750    5.958    0.328    0.471   68.186
  417.000    6.069    0.319    0.458   67.570
  417.250    5.737    0.309    0.451   70.016
  417.500    5.223    0.296    0.461   73.687
  417.750    5.030    0.279    0.468   76.134
  418.000    4.845    0.277    0.476   79.805
  418.250    4.666    0.283    0.477   82.251
  418.500    4.665    0.288    0.487   82.860
  418.750    4.841    0.276    0.471   82.857
  419.000    4.932    0.269    0.456   82.854
  419.250    5.119    0.275    0.471   82.852
  419.500    5.215    0.286    0.466   82.237
  419.750    5.313    0.298    0.451   82.234
  420.000    5.514    0.299    0.465   79.171
  420.250    5.617    0.308    0.453   74.882
  420.500    5.722    0.302    0.474   75.492
  420.750    5.721    0.299    0.483   77.325
  421.000    5.720    0.312    0.497   76.711
  421.250    5.720    0.310    0.489   73.647
  421.500    5.612    0.297    0.478   69.970
  421.750    5.611    0.293    0.475   71.805
  422.000    5.610    0.291    0.475   74.250
  422.250    5.609    0.298    0.474   74.248
  422.500    5.504    0.304    0.461   73.021
  422.750    5.202    0.298    0.438   71.182
  423.000    4.918    0.282    0.426   74.852
  423.250    4.562    0.258    0.438   80.359
  423.500    4.153    0.242    0.464   85.867
  423.750    3.782    0.247    0.503   95.048
  424.000    3.316    0.246    0.518   98.106
  424.250    2.802    0.238    0.527  100.553
  424.500    2.412    0.236    0.500  100.550
  424.750    2.037    0.225    0.506  102.996
  425.000    1.855    0.221    0.518  106.667
  425.250    1.820    0.218    0.510  109.725
  425.500    1.854    0.210    0.506  109.722
  425.750    1.889    0.215    0.512  107.883
  426.000    2.035    0.209    0.507  104.820
  426.250    2.153    0.203    0.512  102.980
  426.500    2.277    0.215    0.508  105.426
  426.750    2.595    0.219    0.511  106.035
  427.000    2.744    0.225    0.528  107.257
  427.250    3.070    0.227    0.535  108.479
  427.500    3.186    0.219    0.541  108.476
  427.750    3.307    0.210    0.530  109.698
  428.000    3.307    0.225    0.529  111.532
  428.250    3.245    0.236    0.542  112.754
  428.500    3.184    0.239    0.552  110.302
  428.750    3.124    0.232    0.536  106.626
  429.000    3.009    0.228    0.541  108.460
  429.250    2.952    0.238    0.552  109.070
  429.500    2.897    0.240    0.562  108.454
  429.750    2.843    0.239    0.552  108.452
  430.000    2.842    0.243    0.541  107.224
  430.250    2.842    0.234    0.537  106.610
  430.500    3.120    0.238    0.544  101.709
  430.750    3.490    0.246    0.565   96.808
  431.000    3.905    0.261    0.524   91.908
  431.250    4.208    0.266    0.501   87.008
  431.500    4.450    0.240    0.494   91.902
  431.750    4.533    0.235    0.508   94.349
  432.000    4.618    0.221    0.495   94.958
  432.250    4.531    0.226    0.493   94.343
  432.500    4.446    0.236    0.504   94.339
  432.750    4.363    0.223    0.510   94.338
  433.000    4.362    0.234    0.520   96.784
  433.250    4.444    0.239    0.529   91.272
  433.500    4.879    0.244    0.513   88.820
  433.750    5.561    0.252    0.493   86.980
  434.000    5.772    0.265    0.456   84.528
  434.250    5.880    0.252    0.464   83.302
  434.500    6.219    0.242    0.473   82.686
  434.750    6.454    0.252    0.487   82.072
  435.000    6.453    0.252    0.503   83.294
  435.250    6.573    0.251    0.488   86.351
  435.500    6.572    0.254    0.492   88.798
  435.750    6.571    0.258    0.470   90.019
  436.000    6.448    0.247    0.464   91.241
  436.250    6.210    0.257    0.464   90.626
  436.500    5.981    0.262    0.465   90.011
  436.750    5.549    0.264    0.473   90.009
  437.000    5.147    0.268    0.482   90.006
  437.250    4.866    0.268    0.499   89.391
  437.500    4.686    0.281    0.508   86.939
  437.750    4.512    0.293    0.477   85.712
  438.000    4.512    0.299    0.462   82.036
  438.250    4.772    0.299    0.453   78.972
  438.500    4.953    0.292    0.472   79.582
  438.750    5.141    0.266    0.491   83.252
  439.000    4.343    0.268    0.499   86.311
  439.250    3.469    0.282    0.491   89.370
  439.500    3.099    0.282    0.515   92.428
  439.750    2.875    0.265    0.551   96.710
  440.000    2.769    0.253    0.546   98.545
  440.250    2.768    0.248    0.529  100.379
  440.500    2.768    0.244    0.539  100.989
  440.750    2.768    0.236    0.545  102.210
  441.000    2.767    0.237    0.551  102.820
  441.250    2.818    0.248    0.556  102.817
  441.500    2.818    0.255    0.560   99.753
  441.750    2.871    0.254    0.555   98.526
  442.000    2.980    0.259    0.546   97.911
  442.250    3.211    0.266    0.552   97.908
  442.500    3.871    0.262    0.555   89.334
  442.750    4.172    0.275    0.545   81.372
  443.000    4.845    0.289    0.524   75.248
  443.250    5.732    0.300    0.488   68.510
  443.500    6.177    0.271    0.421   59.324
  443.750    6.293    0.283    0.443   53.199
  444.000    5.947    0.313    0.456   54.420
  444.250    5.728    0.335    0.462   55.030
  444.500    5.215    0.353    0.467   55.027
  444.750    5.118    0.348    0.457   56.861
  445.000    4.928    0.347    0.448   59.307
  445.250    4.928    0.346    0.440   60.530
  445.500    4.926    0.341    0.437   57.465
  445.750    5.114    0.343    0.442   56.239
  446.000    5.113    0.348    0.445   56.236
  446.250    5.209    0.352    0.446   58.069
  446.500    5.306    0.351    0.443   58.679
  446.750    5.305    0.351    0.442   58.676
  447.000    5.404    0.351    0.444   59.286
  447.250    5.505    0.351    0.446   59.283
  447.500    5.609    0.340    0.442   58.668
  447.750    6.043    0.324    0.442   58.053
  448.000    6.635    0.305    0.446   57.438
  448.250    7.017    0.241    0.382   56.822
  448.500    6.758    0.203    0.326   56.821
  448.750    6.387    0.252    0.394   58.653
  449.000    6.037    0.314    0.426   59.262
  449.250    5.814    0.353    0.458   59.872
  449.500    5.706    0.349    0.450   60.483
  449.750    5.495    0.337    0.440   61.093
  450.000    5.392    0.331    0.441   59.254
  450.250    5.391    0.320    0.441   58.638
  450.500    5.390    0.313    0.441   58.635
  450.750    5.389    0.312    0.445   59.245
  451.000    5.489    0.333    0.447   59.242
  451.250    5.489    0.358    0.449   58.627
  451.500    5.488    0.344    0.447   57.401
  451.750    5.486    0.360    0.450   58.010
  452.000    5.486    0.367    0.451   65.352
  452.250    5.484    0.372    0.458   61.678
  452.500    5.483    0.372    0.462   58.614
  452.750    5.586    0.361    0.453   56.775
  453.000    5.585    0.356    0.451   56.772
  453.250    5.689    0.344    0.435   56.156
  453.500    5.689    0.327    0.422   55.541
  453.750    5.795    0.321    0.416   54.313
  454.000    5.794    0.314    0.413   53.700
  454.250    5.685    0.333    0.428   54.308
  454.500    5.684    0.336    0.435   55.530
  454.750    5.578    0.337    0.440   56.141
  455.000    5.474    0.342    0.447   57.362
  455.250    5.473    0.346    0.440   57.972
