~VERSION INFORMATION
 VERS.                 2.0:   CWLS LOG ASCII STANDARD -VERSION 2.0
 WRAP.                  NO:   ONE LINE PER DEPTH STEP
~WELL INFORMATION BLOCK
#MNEM.UNIT           DATA                    DESCRIPTION OF MNEMONIC
#---------    -------------------            -------------------------------
# Generated from Intellog Unique Number	CS_71_72/WELL/903
WELL.         BVX HOL UNIGAS NIXON           : Well_name    - WELL
LOC .         00/11-24-072-15W4/0            : Location     - LOCATION
UWI .         00/11-24-072-15W4/0            : Uwi          - UNIQUE WELL ID
ENTR.         SP                             : Entered      - ENTERED BY
SRVC.         SCHLUMBERGER                   : Scn          - SERVICE COMPANY
STRT.M        274.32                         : top_depth    - START DEPTH
STOP.M        469.82                         : bot_depth    - STOP DEPTH
STEP.M        0.25                           : increment    - STEP LENGTH
 NULL. -999.2500:NULL Value
~CURVE INFORMATION BLOCK
#MNEM UNIT       ERCB CURVE CODE    CURVE DESCRIPTION
#-----------   ------------------   ----------------------------------
DEPT.M        00 001 00 00         : DEPTH        - DEPTH
GR  .API      00 310 00 00         : GR           - GAMMA RAY
DPHI.V/V      00 890 00 00         : PHID         - DENSITY POROSITY (SANDSTONE)
NPHI.V/V      00 330 00 00         : PHIN         - NEUTRON POROSITY (SANDSTONE)
ILD .OHMM     00 120 00 00         : RESD         - DEEP RESISTIVITY (DIL)
~PARAMETER INFORMATION
#MNEM.UNIT           DATA             DESCRIPTION OF MNEMONIC
#---------         -----------     ------------------------------
GL  .M        601.98               : gl           - GROUND LEVEL ELEVATION
EREF.M        605.028              : kb           - ELEVATION OF DEPTH REFERENCE
DATM.M        601.98               : datum        - DATUM ELEVATION
TDD .M        472.745              : tdd          - TOTAL DEPTH DRILLER
RUN .         ONE                  : Run          - RUN NUMBER
ENG .         BILL                 : Engineer     - RECORDING ENGINEER
WIT .         JIM                  : Witness      - WITNESSED BY
MUD .         GEL                  : Mud_type     - MUD TYPE
MATR.         SANDSTONE            : Logunit      - NEUTRON MATRIX
TMAX.C        20.5556              : BHT          - MAXIMUM RECORDED TEMPERATURE
BHTD.M        472.745              : BHTDEP       - MAXIMUM RECORDED TEMPERATURE
MATR.         1                    : LOGUNIT      - NEUTRON MATRIX
RMT .C        25                   : MDTP         - TEMPERATURE OF MUD
NEUT.         1                    : NEUTRON      - NEUTRON TYPE
RESI.         0                    : RESIST       - RESISTIVITY TYPE
RMC .OHMM     0.25                 : RMC          - RESISTIVITY OF MUD CAKE
RMF .OHMM     0.25                 : RMF          - RESISTIVITY OF MUD FILTRATE
SUFT.C        15                   : SUFT         - SURFACE TEMPERATURE
~A  DEPTH       GR     PHID     PHIN     RESD
# ...
  448.320   99.273    0.236    0.408    9.549
  448.570  103.004    0.243    0.419    8.619
  448.820  106.645    0.251    0.431    7.827
  449.070  111.176    0.245    0.438    7.065
  449.320  115.946    0.237    0.442    6.576
  449.570  121.292    0.233    0.451    6.508
  449.820  126.334    0.232    0.465    7.306
  450.070  128.957    0.236    0.480    8.781
  450.320  126.685    0.241    0.476   10.578
  450.570  118.431    0.252    0.465   11.716
  450.820  113.988    0.261    0.458   13.238
  451.070  104.036    0.280    0.460   14.060
  451.320  102.151    0.301    0.464   14.438
  451.570  106.198    0.305    0.470   13.447
  451.820  108.093    0.290    0.466   12.581
  452.070  110.007    0.274    0.451   10.940
  452.320  109.817    0.266    0.442   10.084
  452.570  106.819    0.263    0.424    9.682
  452.820   99.821    0.251    0.413    9.304
  453.070   92.971    0.243    0.401    9.050
  453.320   92.406    0.237    0.393    8.810
  453.570   96.006    0.231    0.387    8.581
  453.820  100.683    0.226    0.408    8.463
  454.070  101.844    0.226    0.415    8.400
  454.320   99.034    0.226    0.408    8.147
  454.570  100.510    0.219    0.418    8.164
  454.820  102.454    0.215    0.422    8.227
  455.070  104.432    0.210    0.425    8.320
  455.320  105.577    0.208    0.422    9.154
  455.570   97.337    0.204    0.413   10.409
  455.820   88.316    0.207    0.419   12.162
  456.070   77.224    0.224    0.439   13.907
  456.320   68.766    0.248    0.444   15.444
  456.570   68.468    0.277    0.430   16.151
  456.820   69.943    0.277    0.441   16.567
  457.070   71.288    0.269    0.442   16.206
  457.320   73.754    0.279    0.432   15.373
  457.570   75.018    0.279    0.428   13.912
  457.820   78.374    0.278    0.429   13.039
  458.070   82.144    0.276    0.442   11.745
  458.320   85.614    0.263    0.458    9.867
  458.570   88.353    0.244    0.475    8.030
  458.820   94.359    0.228    0.527    6.928
  459.070   98.974    0.217    0.595    5.831
  459.320   96.562    0.213    0.525    5.212
  459.570   74.470    0.232    0.443    5.459
  459.820   59.151    0.298    0.423    7.761
  460.070   54.845    0.314    0.435   11.061
  460.320   55.941    0.321    0.441   15.334
  460.570   57.651    0.328    0.430   19.582
  460.820   60.613    0.320    0.417   25.134
  461.070   64.902    0.299    0.407   25.814
  461.320   70.631    0.290    0.423   21.360
  461.570   72.605    0.288    0.428   19.414
  461.820   71.852    0.293    0.421   17.597
  462.070   75.007    0.295    0.412   16.067
  462.320   85.274    0.276    0.400   14.977
  462.570   91.713    0.255    0.384   13.598
  462.820   97.593    0.245    0.387   11.083
  463.070  101.961    0.232    0.404   10.399
  463.320   99.262    0.232    0.429   10.795
  463.570   90.427    0.254    0.451   11.132
  463.820   88.268    0.290    0.466   11.309
  464.070   87.955    0.293    0.449   10.940
  464.320   87.334    0.244    0.443    9.867
  464.570   87.378    0.224    0.457    8.200
  464.820   87.390    0.218    0.448    7.356
  465.070   87.393    0.219    0.420    7.639
  465.320   87.398    0.219    0.408    8.277
  465.570   87.406    0.214    0.414    8.650
  465.820   87.473    0.211    0.464    9.132
  466.070   86.776    0.213    0.522    9.425
  466.320   86.834    0.228    0.556    9.883
  466.570   86.832    0.240    0.549   10.115
  466.820   86.835    0.257    0.546   10.336
  467.070   86.844    0.257    0.546   10.857
  467.320   86.857    0.252    0.557   11.226
  467.570   86.853    0.264    0.575   12.196
  467.820   87.840    0.267    0.585   12.984
  468.070   88.781    0.260    0.585   13.482
  468.320   90.367    0.271    0.583   14.646
  468.570   91.411    0.302    0.581   15.142
  468.820   91.626    0.327    0.581   15.270
  469.070   91.658    0.339    0.582   15.037
  469.320   91.953    0.350    0.585   14.940
  469.570   92.287    0.352    0.584   14.183
  469.820   93.320    0.283    0.578   13.805
