~VERSION INFORMATION
 VERS.                 2.0:   CWLS LOG ASCII STANDARD -VERSION 2.0
 WRAP.                  NO:   ONE LINE PER DEPTH STEP
~WELL INFORMATION BLOCK
#MNEM.UNIT           DATA                    DESCRIPTION OF MNEMONIC
#---------    -------------------            -------------------------------
# Generated from Intellog Unique Number	CS_73_76/WELL/2190
WELL.         BOW VALLEY EXPLORATION         : Well_name    - WELL
LOC .         00/10-15-074-17W4/0            : Location     - LOCATION
UWI .         00/10-15-074-17W4/0            : Uwi          - UNIQUE WELL ID
ENTR.         SP                             : Entered      - ENTERED BY
SRVC.         SCHLUMBERGER                   : Scn          - SERVICE COMPANY
STRT.M        235                            : top_depth    - START DEPTH
STOP.M        420                            : bot_depth    - STOP DEPTH
STEP.M        0.25                           : increment    - STEP LENGTH
 NULL. -999.2500:NULL Value
~CURVE INFORMATION BLOCK
#MNEM UNIT       ERCB CURVE CODE    CURVE DESCRIPTION
#-----------   ------------------   ----------------------------------
DEPT.M        00 001 00 00         : DEPTH        - DEPTH
ILD .OHMM     00 120 00 00         : RESD         - DEEP RESISTIVITY (DIL)
DPHI.V/V      00 890 00 00         : PHID         - DENSITY POROSITY (LIMESTONE)
NPHI.V/V      00 330 00 00         : PHIN         - NEUTRON POROSITY (LIMESTONE)
GR  .API      00 310 00 00         : GR           - GAMMA RAY
~PARAMETER INFORMATION
#MNEM.UNIT           DATA             DESCRIPTION OF MNEMONIC
#---------         -----------     ------------------------------
GL  .M        580.9                : gl           - GROUND LEVEL ELEVATION
EREF.M        583.2                : kb           - ELEVATION OF DEPTH REFERENCE
DATM.M        580.9                : datum        - DATUM ELEVATION
TDD .M        421                  : tdd          - TOTAL DEPTH DRILLER
RUN .         ONE                  : Run          - RUN NUMBER
ENG .         BILL                 : Engineer     - RECORDING ENGINEER
WIT .         JIM                  : Witness      - WITNESSED BY
MUD .         GEL                  : Mud_type     - MUD TYPE
MATR.         LIMESTONE            : Logunit      - NEUTRON MATRIX
TMAX.C        20                   : BHT          - MAXIMUM RECORDED TEMPERATURE
BHTD.M        421                  : BHTDEP       - MAXIMUM RECORDED TEMPERATURE
MATR.         1                    : LOGUNIT      - NEUTRON MATRIX
RMT .C        25                   : MDTP         - TEMPERATURE OF MUD
NEUT.         1                    : NEUTRON      - NEUTRON TYPE
RESI.         0                    : RESIST       - RESISTIVITY TYPE
RMC .OHMM     0.25                 : RMC          - RESISTIVITY OF MUD CAKE
RMF .OHMM     0.25                 : RMF          - RESISTIVITY OF MUD FILTRATE
SUFT.C        15                   : SUFT         - SURFACE TEMPERATURE
~A  DEPTH     RESD     PHID     PHIN       GR
# ...
  322.000    6.387    0.238    0.456   88.057
  322.250    6.386    0.186    0.439   89.879
  322.500    6.385    0.176    0.439   88.057
  322.750    6.268    0.190    0.446   86.235
  323.000    6.039    0.191    0.440   85.627
  323.250    5.712    0.190    0.434   89.271
  323.500    5.403    0.190    0.446   91.700
  323.750    5.206    0.208    0.452   88.057
  324.000    4.834    0.238    0.464   84.413
  324.250    4.657    0.259    0.434   81.376
  324.500    4.488    0.271    0.397   81.376
  324.750    4.015    0.278    0.410   81.376
  325.000    3.798    0.260    0.455   81.376
  325.250    3.592    0.240    0.483   80.769
  325.500    3.728    0.246    0.497   80.162
  325.750    4.165    0.267    0.487   78.947
  326.000    5.106    0.310    0.458   75.911
  326.250    6.866    0.362    0.366   72.267
  326.500   10.511    0.421    0.230   69.231
  326.750   20.096    0.441    0.202   66.194
  327.000   21.241    0.446    0.219   63.158
  327.250   20.467    0.433    0.230   63.158
  327.500   17.977    0.417    0.247   66.802
  327.750   15.215    0.397    0.261   68.624
  328.000   12.642    0.389    0.279   66.194
  328.250   10.700    0.376    0.300   61.943
  328.500    9.226    0.369    0.329   60.729
  328.750    8.103    0.357    0.352   59.514
  329.000    7.524    0.336    0.376   58.907
  329.250    7.523    0.319    0.404   58.300
  329.500    7.663    0.306    0.427   57.692
  329.750    7.662    0.322    0.439   55.870
  330.000    7.662    0.316    0.444   53.441
  330.250    7.520    0.319    0.434   54.656
  330.500    7.519    0.307    0.417   57.692
  330.750    7.518    0.288    0.412   59.514
  331.000    7.518    0.281    0.414   60.121
  331.250    7.517    0.287    0.417   58.907
  331.500    7.516    0.293    0.427   58.300
  331.750    7.516    0.308    0.430   57.692
  332.000    7.515    0.321    0.417   56.478
  332.250    7.655    0.321    0.411   56.478
  332.500    7.654    0.315    0.409   55.870
  332.750    7.796    0.307    0.416   55.263
  333.000    7.795    0.299    0.418   54.656
  333.250    7.940    0.306    0.418   54.656
  333.500    8.087    0.324    0.423   54.656
  333.750    8.087    0.316    0.421   54.049
  334.000    8.086    0.300    0.415   53.441
  334.250    8.085    0.202    0.386   52.227
  334.500    8.085    0.153    0.281   52.227
  334.750    7.935    0.212    0.328   52.834
  335.000    7.646    0.253    0.352   55.263
  335.250    7.505    0.308    0.417   57.692
  335.500    7.099    0.322    0.436   60.121
  335.750    6.968    0.324    0.432   60.121
  336.000    6.839    0.333    0.433   57.692
  336.250    6.713    0.341    0.438   60.729
  336.500    6.712    0.340    0.441   61.943
  336.750    6.712    0.315    0.432   59.514
  337.000    6.711    0.312    0.430   57.692
  337.250    6.710    0.310    0.430   60.121
  337.500    6.710    0.306    0.439   60.729
  337.750    6.709    0.311    0.455   60.121
  338.000    6.709    0.313    0.464   60.729
  338.250    6.708    0.298    0.464   61.336
  338.500    6.707    0.288    0.471   63.158
  338.750    6.706    0.290    0.462   64.373
  339.000    6.706    0.296    0.451   65.587
  339.250    6.830    0.302    0.450   66.802
  339.500    6.830    0.309    0.453   68.016
  339.750    6.829    0.302    0.441   68.016
  340.000    6.828    0.293    0.430   67.409
  340.250    6.955    0.275    0.429   66.194
  340.500    6.954    0.290    0.422   67.409
  340.750    6.826    0.306    0.424   68.624
  341.000    6.825    0.311    0.415   69.231
  341.250    6.825    0.318    0.430   71.053
  341.500    6.825    0.318    0.441   70.445
  341.750    6.951    0.300    0.449   69.231
  342.000    7.081    0.298    0.435   65.587
  342.250    7.767    0.303    0.427   64.373
  342.500    8.841    0.309    0.426   62.551
  342.750   10.252    0.167    0.418   61.943
  343.000   11.669    0.079    0.383   60.121
  343.250   12.108    0.060    0.237   58.300
  343.500   11.885    0.103    0.251   60.729
  343.750   10.059    0.150    0.294   62.551
  344.000    9.515    0.222    0.341   63.158
  344.250    8.053    0.272    0.374   64.373
  344.500    7.618    0.300    0.397   65.587
  344.750    7.073    0.307    0.405   63.765
  345.000    6.567    0.327    0.411   60.121
  345.250    6.446    0.347    0.424   59.514
  345.500    6.445    0.334    0.429   58.907
  345.750    6.326    0.328    0.439   60.729
  346.000    6.326    0.324    0.444   63.158
  346.250    6.325    0.341    0.424   66.194
  346.500    6.325    0.345    0.414   67.409
  346.750    6.324    0.335    0.424   66.802
  347.000    6.323    0.329    0.409   65.587
  347.250    6.207    0.317    0.429   63.765
  347.500    6.206    0.306    0.434   62.551
  347.750    6.205    0.307    0.435   65.587
  348.000    6.205    0.311    0.449   67.409
  348.250    6.320    0.319    0.455   71.053
  348.500    6.319    0.323    0.443   72.874
  348.750    6.319    0.315    0.443   68.624
  349.000    6.318    0.317    0.450   66.194
  349.250    6.436    0.300    0.455   67.409
  349.500    6.555    0.283    0.438   69.838
  349.750    6.677    0.276    0.433   72.267
  350.000    6.434    0.262    0.432   75.911
  350.250    6.199    0.257    0.435   78.947
  350.500    5.547    0.277    0.440   83.806
  350.750    4.872    0.284    0.445   86.235
  351.000    4.524    0.290    0.456   87.449
  351.250    4.279    0.236    0.469   88.057
  351.500    4.200    0.225    0.480   86.235
  351.750    4.122    0.228    0.476   84.413
  352.000    4.122    0.254    0.461   83.198
  352.250    4.199    0.228    0.457   84.413
  352.500    4.438    0.219    0.470   86.842
  352.750    4.521    0.220    0.463   89.879
  353.000    4.868    0.234    0.467   91.700
  353.250    5.145    0.230    0.461   89.879
  353.500    5.644    0.229    0.453   86.842
  353.750    6.190    0.247    0.453   85.020
  354.000    6.544    0.239    0.437   85.020
  354.250    6.790    0.234    0.421   85.627
  354.500    6.916    0.236    0.412   90.486
  354.750    6.915    0.235    0.406   94.130
  355.000    6.788    0.214    0.423   95.344
  355.250    6.662    0.196    0.432   94.130
  355.500    6.662    0.208    0.440   92.915
  355.750    6.661    0.225    0.450   91.093
  356.000    6.661    0.224    0.445   90.486
  356.250    6.784    0.210    0.439   91.093
  356.500    7.039    0.205    0.437   94.737
  356.750    7.170    0.219    0.431   94.130
  357.000    7.170    0.230    0.423   92.308
  357.250    7.303    0.225    0.422   92.308
  357.500    7.439    0.212    0.406   92.308
  357.750    7.438    0.206    0.402   90.486
  358.000    7.576    0.201    0.398   89.879
  358.250    7.576    0.210    0.408   91.093
  358.500    7.436    0.196    0.414   92.308
  358.750    7.435    0.184    0.409   91.700
  359.000    7.298    0.213    0.420   89.879
  359.250    7.297    0.218    0.428   89.271
  359.500    7.296    0.216    0.429   92.308
  359.750    7.162    0.189    0.417   93.522
  360.000    7.161    0.179    0.419   90.486
  360.250    7.161    0.190    0.432   86.235
  360.500    7.160    0.205    0.438   82.591
  360.750    7.568    0.204    0.423   81.376
  361.000    8.457    0.221    0.404   81.376
  361.250    8.775    0.270    0.375   81.984
  361.500    9.625    0.276    0.347   82.591
  361.750   10.174    0.225    0.340   83.198
  362.000   10.754    0.172    0.361   83.806
  362.250   11.159    0.178    0.369   83.806
  362.500   11.367    0.235    0.380   81.984
  362.750   12.014    0.285    0.351   77.733
  363.000   12.014    0.309    0.336   73.482
  363.250   11.792    0.330    0.329   69.231
  363.500   10.167    0.326    0.323   64.980
  363.750    9.440    0.321    0.323   61.943
  364.000    8.292    0.315    0.346   58.907
  364.250    7.699    0.307    0.382   57.085
  364.500    7.557    0.301    0.413   55.870
  364.750    7.988    0.285    0.416   55.870
  365.000    8.925    0.225    0.419   55.263
  365.250    9.435    0.195    0.400   54.656
