~VERSION INFORMATION
 VERS.                 2.0:   CWLS LOG ASCII STANDARD -VERSION 2.0
 WRAP.                  NO:   ONE LINE PER DEPTH STEP
~WELL INFORMATION BLOCK
#MNEM.UNIT           DATA                    DESCRIPTION OF MNEMONIC
#---------    -------------------            -------------------------------
# Generated from Intellog Unique Number	CW_76_78/WELL/2816
NULL.         -999.25                        : NULL_VALUE
WELL.         WOODS ET AQL MARTEN HILLS 11-1 : Well_name    - WELL              
LOC .         00/11-16-077-02W5/0            : Location     - LOCATION          
UWI .         00/11-16-077-02W5/0            : Uwi          - UNIQUE WELL ID    
ENTR.         JJ                             : Entered      - ENTERED BY        
SRVC.         SCHLUMBERGER                   : Scn          - SERVICE COMPANY   
DATE.         28 JAN 75                      : Date         - LOG DATE          
STRT.M        499.872                        : top_depth    - START DEPTH       
STOP.M        627.872                        : bot_depth    - STOP DEPTH        
STEP.M        0.25                           : increment    - STEP LENGTH       
~CURVE INFORMATION BLOCK
#MNEM UNIT       ERCB CURVE CODE    CURVE DESCRIPTION
#-----------   ------------------   ----------------------------------
DEPT.M        00 001 00 00         : DEPTH        - DEPTH                       
GR  .API      00 310 00 00         : GR           - GAMMA RAY                   
ILD .OHMM     00 120 00 00         : RESD         - DEEP RESISTIVITY (DIL)      
DELT.US/F     00 520 00 00         : DELT         - SONIC TRAVEL TIME           
NPHI.V/V      00 330 00 00         : PHIN         - NEUTRON POROSITY (SANDSTONE)
~PARAMETER INFORMATION       
#MNEM.UNIT           DATA             DESCRIPTION OF MNEMONIC
#---------         -----------     ------------------------------
GL  .M        702.869              : gl           - GROUND LEVEL ELEVATION      
EREF.M        706.222              : kb           - ELEVATION OF DEPTH REFERENCE
DATM.M        706.222              : datum        - DATUM ELEVATION             
TDD .M        624.84               : tdd          - TOTAL DEPTH DRILLER         
RUN .         ONE                  : Run          - RUN NUMBER                  
ENG .         CURRIE               : Engineer     - RECORDING ENGINEER          
WIT .         MATHESON             : Witness      - WITNESSED BY                
BASE.         EDMONTON             : Branch       - HOME BASE OF LOGGING UNIT   
MUD .         GEL                  : Mud_type     - MUD TYPE                    
MATR.         SANDSTONE            : Logunit      - NEUTRON MATRIX              
TMAX.C        26.6667              : BHT          - MAXIMUM RECORDED TEMPERATURE
BHTD.M        626.059              : BHTDEP       - MAXIMUM RECORDED TEMPERATURE
RMT .C        12.7778              : MDTP         - TEMPERATURE OF MUD          
MUDD.KG/M     1140                 : MWT          - MUD DENSITY                 
NEUT.         1                    : NEUTRON      - NEUTRON TYPE                
RESI.         0                    : RESIST       - RESISTIVITY TYPE            
RM  .OHMM     6.3                  : RM           - RESISTIVITY OF MUD          
RMC .OHMM     0                    : RMC          - RESISTIVITY OF MUD CAKE     
RMF .OHMM     0                    : RMF          - RESISTIVITY OF MUD FILTRATE 
SUFT.C        5                    : SUFT         - SURFACE TEMPERATURE         
~A  DEPTH       GR     RESD     DELT     PHIN
# ...
  586.872   76.156    7.310  341.292    0.428
  587.122   74.009    7.074  333.424    0.420
  587.372   75.420    6.942  318.518    0.391
  587.622   78.352    6.862  325.510    0.405
  587.872   82.633    6.858  344.022    0.412
  588.122   86.674    6.867  347.535    0.400
  588.372   90.343    6.915  339.075    0.417
  588.622   92.661    6.949  337.583    0.437
  588.872   89.422    6.960  350.699    0.414
  589.122   85.560    6.995  348.490    0.436
  589.372   84.576    7.058  338.056    0.435
  589.622   86.774    7.103  300.322    0.420
  589.872   92.892    7.180  332.449    0.401
  590.122   96.745    7.285  344.052    0.402
  590.372   92.151    7.539  348.939    0.414
  590.622   93.745    7.888  349.494    0.422
  590.872   97.781    8.423  349.653    0.433
  591.122   98.758    9.230  349.083    0.405
  591.372   96.061   10.185  338.324    0.382
  591.622   92.576   11.448  338.283    0.369
  591.872   89.145   13.039  326.005    0.356
  592.122   85.715   14.900  312.480    0.373
  592.372   81.784   16.962  313.485    0.324
  592.622   77.925   20.147  328.383    0.331
  592.872   74.433   23.668  323.408    0.307
  593.122   72.718   28.798  274.759    0.310
  593.372   72.291   32.303  264.459    0.325
  593.622   66.967   34.875  282.638    0.243
  593.872   64.209   30.997  247.931    0.205
  594.122   70.642   25.091  195.991    0.194
  594.372   76.326   20.306  251.924    0.226
  594.622   81.711   13.707  267.996    0.308
  594.872   86.346   10.812  279.607    0.349
  595.122   89.528    9.182  309.824    0.367
  595.372   89.894    8.235  320.439    0.378
  595.622   89.898    7.594  318.423    0.376
  595.872   90.014    7.452  315.620    0.363
  596.122   90.387    7.435  313.201    0.362
  596.372   90.919    7.555  312.580    0.377
  596.622   91.963    7.806  313.787    0.371
  596.872   93.737    8.108  314.997    0.380
  597.122   95.940    8.440  308.971    0.371
  597.372   99.977    8.559  312.013    0.383
  597.622  104.499    8.570  318.229    0.368
  597.872  107.491    8.289  317.856    0.354
  598.122  101.016    7.927  312.884    0.350
  598.372  100.206    7.541  313.234    0.364
  598.622  103.383    7.147  322.273    0.378
  598.872  106.875    6.801  331.247    0.395
  599.122  101.239    6.506  346.329    0.417
  599.372   88.134    6.429  353.203    0.444
  599.622   79.806    6.359  318.891    0.412
  599.872   83.170    6.400  321.416    0.400
  600.122   86.051    6.552  337.426    0.411
  600.372   88.861    6.947  336.199    0.400
  600.622   94.667    7.514  340.368    0.399
  600.872   92.596    8.095  340.198    0.408
  601.122   87.760    8.582  303.977    0.385
  601.372   83.407    8.832  284.795    0.406
  601.622   76.546    8.683  261.075    0.372
  601.872   72.449    7.979  293.465    0.363
  602.122   79.786    7.452  322.233    0.389
  602.372   86.023    7.154  349.687    0.418
  602.622   88.725    7.780  330.638    0.436
  602.872   89.259    9.087  336.382    0.443
  603.122   88.653   11.136  345.815    0.442
  603.372   83.013   14.795  344.589    0.392
  603.622   63.787   20.763  334.349    0.370
  603.872   51.004   29.141  327.403    0.346
  604.122   44.322   43.375  335.318    0.367
  604.372   34.398   60.770  340.808    0.394
  604.622   30.626   64.775  342.275    0.372
  604.872   30.931   59.292  339.400    0.378
  605.122   30.923   52.120  338.913    0.401
  605.372   30.352   43.286  344.065    0.398
  605.622   28.458   34.972  346.322    0.373
  605.872   26.502   25.776  350.631    0.379
  606.122   26.128   17.530  356.379    0.401
  606.372   27.466   14.185  349.948    0.389
  606.622   31.316   11.295  346.167    0.377
  606.872   32.718    9.311  342.966    0.389
  607.122   32.783    7.069  343.119    0.370
  607.372   31.183    5.484  343.017    0.402
  607.622   30.276    4.672  342.454    0.395
  607.872   30.885    4.092  344.977    0.382
  608.122   31.735    3.645  340.595    0.370
  608.372   31.848    3.551  335.557    0.354
  608.622   31.979    3.548  338.604    0.383
  608.872   32.268    3.567  341.784    0.394
  609.122   32.650    3.632  340.563    0.373
  609.372   32.885    3.677  337.163    0.368
  609.622   32.995    3.681  334.826    0.366
  609.872   33.307    3.679  334.844    0.349
  610.122   33.179    3.638  337.898    0.346
  610.372   33.294    3.597  336.402    0.368
  610.622   32.195    3.543  334.463    0.387
  610.872   31.517    3.502  332.844    0.391
  611.122   31.889    3.475  332.805    0.378
  611.372   33.111    3.455  332.233    0.363
  611.622   33.831    3.459  330.547    0.348
  611.872   34.937    3.483  330.510    0.364
  612.122   35.173    3.494  331.656    0.373
  612.372   34.012    3.514  333.061    0.382
  612.622   33.769    3.517  332.490    0.389
  612.872   34.010    3.549  330.215    0.392
  613.122   34.801    3.559  330.640    0.372
  613.372   35.534    3.564  333.492    0.347
  613.622   37.975    3.563  332.331    0.399
  613.872   38.832    3.549  337.551    0.424
  614.122   38.096    3.541  340.471    0.407
  614.372   37.898    3.527  333.653    0.392
  614.622   37.967    3.492  330.722    0.382
  614.872   38.387    3.465  334.497    0.357
  615.122   39.123    3.437  336.823    0.364
  615.372   40.644    3.411  342.243    0.366
  615.622   42.487    3.417  334.836    0.371
  615.872   42.412    3.459  330.913    0.383
  616.122   40.878    3.547  334.549    0.389
  616.372   41.004    3.618  329.315    0.371
  616.622   41.681    3.717  329.018    0.376
  616.872   42.956    3.883  337.390    0.389
  617.122   45.030    4.117  333.143    0.387
  617.372   50.415    4.236  329.222    0.375
  617.622   52.923    4.458  327.932    0.383
  617.872   50.296    4.649  336.835    0.407
  618.122   50.282    4.722  337.846    0.404
  618.372   52.551    4.809  299.527    0.393
  618.622   55.784    4.728  287.118    0.385
  618.872   59.766    4.597  312.927    0.372
  619.122   63.864    4.317  339.462    0.341
  619.372   67.964    4.032  342.375    0.373
  619.622   70.404    3.964  341.872    0.405
  619.872   73.465    4.126  341.637    0.404
  620.122   75.414    4.655  343.244    0.430
  620.372   78.919    5.252  347.540    0.390
  620.622   80.188    6.284  348.297    0.389
  620.872   76.639    7.589  340.162    0.391
  621.122   71.609    9.436  278.820    0.365
  621.372   70.756    9.945  263.646    0.329
  621.622   75.042    7.979  259.857    0.267
  621.872   78.884    6.760  282.969    0.321
  622.122   86.659    5.835  310.426    0.374
  622.372   93.506    5.055  335.840    0.410
  622.622   55.680    4.444  350.863    0.392
  622.872   51.881    4.227  366.084    0.394
  623.122   74.224    4.095  375.780    0.402
  623.372   81.990    4.012  384.420    0.395
  623.622   82.132    3.951  383.854    0.418
  623.872   81.689    3.978  372.298    0.422
  624.122   80.270    4.014  366.994    0.425
  624.372   78.677    4.155  367.603    0.442
  624.622   78.368    4.236  368.161    0.464
  624.872   77.871    4.165  368.650    0.450
  625.122   78.493    3.898  367.785    0.412
  625.372   79.398    3.701  367.849    0.372
  625.622   82.151    3.559  369.056    0.393
  625.872   86.859    3.436  369.344    0.428
  626.122   75.350    3.359  352.599    0.416
  626.372   54.058    3.291  136.476    0.419
  626.622   56.311    3.241  129.398    0.392
  626.872   60.172    3.216  129.082    0.369
  627.122   61.320    3.180  129.042    0.352
  627.372   61.998    3.201  129.012    0.312
  627.622   61.564    3.253  129.230    0.267
  627.872   61.007    3.331  129.387    0.135
