~VERSION INFORMATION
 VERS.                 2.0:   CWLS LOG ASCII STANDARD -VERSION 2.0
 WRAP.                  NO:   ONE LINE PER DEPTH STEP
~WELL INFORMATION BLOCK
#MNEM.UNIT           DATA                    DESCRIPTION OF MNEMONIC
#---------    -------------------            -------------------------------
# Generated from Intellog Unique Number	CS_73_76/WELL/3253
WELL.         HOME LIESMER                   : Well_name    - WELL
LOC .         00/10-34-075-07W4/0            : Location     - LOCATION
UWI .         00/10-34-075-07W4/0            : Uwi          - UNIQUE WELL ID
ENTR.         SP                             : Entered      - ENTERED BY
SRVC.         SCHLUMBERGER                   : Scn          - SERVICE COMPANY
STRT.M        222.504                        : top_depth    - START DEPTH
STOP.M        438.754                        : bot_depth    - STOP DEPTH
STEP.M        0.25                           : increment    - STEP LENGTH
 NULL. -999.2500:NULL Value
~CURVE INFORMATION BLOCK
#MNEM UNIT       ERCB CURVE CODE    CURVE DESCRIPTION
#-----------   ------------------   ----------------------------------
DEPT.M        00 001 00 00         : DEPTH        - DEPTH
GR  .API      00 310 00 00         : GR           - GAMMA RAY
DPHI.V/V      00 890 00 00         : PHID         - DENSITY POROSITY (SANDSTONE)
NPHI.V/V      00 330 00 00         : PHIN         - NEUTRON POROSITY (SANDSTONE)
ILD .OHMM     00 120 00 00         : RESD         - DEEP RESISTIVITY (DIL)
~PARAMETER INFORMATION
#MNEM.UNIT           DATA             DESCRIPTION OF MNEMONIC
#---------         -----------     ------------------------------
GL  .M        624.764              : gl           - GROUND LEVEL ELEVATION
EREF.M        628.025              : kb           - ELEVATION OF DEPTH REFERENCE
DATM.M        624.764              : datum        - DATUM ELEVATION
TDD .M        518.16               : tdd          - TOTAL DEPTH DRILLER
RUN .         ONE                  : Run          - RUN NUMBER
ENG .         BILL                 : Engineer     - RECORDING ENGINEER
WIT .         JIM                  : Witness      - WITNESSED BY
MUD .         GEL                  : Mud_type     - MUD TYPE
MATR.         SANDSTONE            : Logunit      - NEUTRON MATRIX
TMAX.C        20.5556              : BHT          - MAXIMUM RECORDED TEMPERATURE
BHTD.M        518.16               : BHTDEP       - MAXIMUM RECORDED TEMPERATURE
MATR.         1                    : LOGUNIT      - NEUTRON MATRIX
RMT .C        25                   : MDTP         - TEMPERATURE OF MUD
NEUT.         1                    : NEUTRON      - NEUTRON TYPE
RESI.         0                    : RESIST       - RESISTIVITY TYPE
RMC .OHMM     0.25                 : RMC          - RESISTIVITY OF MUD CAKE
RMF .OHMM     0.25                 : RMF          - RESISTIVITY OF MUD FILTRATE
SUFT.C        15                   : SUFT         - SURFACE TEMPERATURE
~A  DEPTH       GR     PHID     PHIN     RESD
# ...
  266.004  104.048    0.222    0.415   11.049
  266.254  105.031    0.206    0.416   11.041
  266.504  106.823    0.189    0.418   10.550
  266.754  109.347    0.177    0.427   10.180
  267.004  109.787    0.175    0.432    9.875
  267.254  113.631    0.189    0.442    9.209
  267.504  114.211    0.172    0.458    8.728
  267.754  112.218    0.170    0.473    8.219
  268.004  113.910    0.193    0.500    7.854
  268.254  113.987    0.178    0.518    8.074
  268.504  110.807    0.164    0.505    8.723
  268.754  107.754    0.181    0.499   10.072
  269.004   96.784    0.217    0.519   12.268
  269.254   78.952    0.252    0.507   15.961
  269.504   65.677    0.275    0.467   19.468
  269.754   67.793    0.279    0.446   21.458
  270.004   70.964    0.269    0.428   20.769
  270.254   75.175    0.248    0.414   18.101
  270.504   81.491    0.225    0.414   16.006
  270.754   86.696    0.204    0.433   13.747
  271.004   88.806    0.185    0.441   11.993
  271.254   87.240    0.219    0.433   11.186
  271.504   85.853    0.206    0.411   10.943
  271.754   85.279    0.192    0.419   10.976
  272.004   87.284    0.179    0.429   11.165
  272.254   90.187    0.197    0.444   11.185
  272.504   93.950    0.190    0.426   10.717
  272.754   94.415    0.178    0.415   10.251
  273.004   93.040    0.173    0.421    9.794
  273.254   92.027    0.184    0.427    9.077
  273.504   90.447    0.193    0.441    8.629
  273.754   88.678    0.188    0.440    8.399
  274.004   86.738    0.179    0.455    8.558
  274.254   84.963    0.177    0.480    8.809
  274.504   85.612    0.190    0.510    9.313
  274.754   85.337    0.220    0.532   10.391
  275.004   78.097    0.245    0.504   11.543
  275.254   73.025    0.254    0.463   14.129
  275.504   67.485    0.240    0.447   17.216
  275.754   63.684    0.237    0.452   20.842
  276.004   60.776    0.262    0.424   22.933
  276.254   59.311    0.277    0.399   25.307
  276.504   59.913    0.286    0.405   26.864
  276.754   60.243    0.285    0.410   27.994
  277.004   59.475    0.276    0.406   28.509
  277.254   59.899    0.279    0.409   29.108
  277.504   59.800    0.291    0.401   29.035
  277.754   57.973    0.293    0.411   29.027
  278.004   59.329    0.285    0.408   29.015
  278.254   60.906    0.280    0.403   29.055
  278.504   60.268    0.274    0.404   28.456
  278.754   60.370    0.280    0.410   27.907
  279.004   61.006    0.288    0.416   27.580
  279.254   61.184    0.300    0.433   26.723
  279.504   61.579    0.311    0.447   25.898
  279.754   62.237    0.313    0.451   25.617
  280.004   62.209    0.303    0.442   24.780
  280.254   62.214    0.294    0.441   24.484
  280.504   62.222    0.285    0.447   24.014
  280.754   62.235    0.289    0.447   23.518
  281.004   62.244    0.292    0.441   23.546
  281.254   62.217    0.302    0.440   23.331
  281.504   62.982    0.302    0.448   23.106
  281.754   65.219    0.297    0.451   23.089
  282.004   62.409    0.292    0.455   23.079
  282.254   60.525    0.300    0.443   23.073
  282.504   62.087    0.306    0.440   23.051
  282.754   63.501    0.312    0.435   22.926
  283.004   62.348    0.306    0.449   22.617
  283.254   63.047    0.299    0.455   22.614
  283.504   64.213    0.302    0.462   22.627
  283.754   63.656    0.306    0.459   22.213
  284.004   62.999    0.303    0.461   22.224
  284.254   62.343    0.295    0.459   21.717
  284.504   62.405    0.300    0.458   21.785
  284.754   62.355    0.300    0.451   21.287
  285.004   63.060    0.293    0.451   21.302
  285.254   62.964    0.289    0.456   20.895
  285.504   63.682    0.296    0.442   20.783
  285.754   64.276    0.304    0.441   20.529
  286.004   64.783    0.310    0.447   20.523
  286.254   66.261    0.316    0.445   20.537
  286.504   65.525    0.306    0.436   20.143
  286.754   65.535    0.292    0.425   19.954
  287.004   65.581    0.282    0.431   19.384
  287.254   67.204    0.269    0.439   18.773
  287.504   68.539    0.260    0.447   18.334
  287.754   69.844    0.279    0.456   17.949
  288.004   70.850    0.295    0.469   17.968
  288.254   70.127    0.290    0.454   17.960
  288.504   66.669    0.302    0.446   17.955
  288.754   63.377    0.303    0.438   17.696
  289.004   63.169    0.286    0.449   17.529
  289.254   63.816    0.279    0.452   16.967
  289.504   64.948    0.267    0.443   15.932
  289.754   66.595    0.273    0.436   15.367
  290.004   69.214    0.281    0.452   15.133
  290.254   69.033    0.289    0.462   15.431
  290.504   67.268    0.291    0.479   15.772
  290.754   65.267    0.296    0.479   16.248
  291.004   64.246    0.296    0.459   16.774
  291.254   63.280    0.289    0.444   16.924
  291.504   63.331    0.283    0.434   17.226
  291.754   63.500    0.281    0.445   17.113
  292.004   64.549    0.278    0.450   16.568
  292.254   66.334    0.277    0.456   15.595
  292.504   68.484    0.275    0.469   14.298
  292.754   71.105    0.271    0.456   13.043
  293.004   72.782    0.266    0.441   12.286
  293.254   73.648    0.264    0.452   11.300
  293.504   74.196    0.273    0.459   10.634
  293.754   74.716    0.278    0.459   10.238
  294.004   77.573    0.261    0.442    9.408
  294.254   82.478    0.221    0.434    8.753
  294.504   88.154    0.175    0.438    7.812
  294.754   95.126    0.157    0.447    6.996
  295.004  102.507    0.144    0.460    6.381
  295.254  106.842    0.155    0.473    5.980
  295.504  103.264    0.152    0.462    5.618
  295.754  102.250    0.145    0.439    5.618
  296.004  104.170    0.153    0.431    5.612
  296.254  106.287    0.163    0.442    5.611
  296.504  104.728    0.173    0.447    5.619
  296.754  103.052    0.153    0.439    5.494
  297.004  101.542    0.159    0.456    5.500
  297.254  101.019    0.170    0.453    5.451
  297.504   99.672    0.156    0.448    5.396
  297.754   98.693    0.159    0.452    5.390
  298.004   97.889    0.165    0.457    5.354
  298.254   97.950    0.161    0.452    5.289
  298.504   98.262    0.155    0.467    5.290
  298.754   99.940    0.162    0.475    5.314
  299.004   99.198    0.172    0.472    5.383
  299.254  100.523    0.183    0.456    5.369
  299.504  101.565    0.177    0.452    5.484
  299.754  100.472    0.157    0.445    5.569
  300.004  100.476    0.159    0.437    5.578
  300.254  100.570    0.168    0.431    5.588
  300.504  102.648    0.179    0.440    5.682
  300.754  104.719    0.176    0.454    5.674
  301.004  101.555    0.161    0.472    5.669
  301.254   99.399    0.145    0.481    5.491
  301.504   97.061    0.144    0.488    5.318
  301.754   96.908    0.154    0.480    5.261
  302.004  101.386    0.159    0.465    5.155
  302.254  103.651    0.154    0.459    5.161
  302.504  101.811    0.172    0.467    5.154
  302.754  101.518    0.187    0.473    5.261
  303.004  100.587    0.183    0.481    5.246
  303.254   99.552    0.175    0.475    5.343
  303.504   97.939    0.183    0.473    5.250
  303.754   97.157    0.193    0.478    5.033
  304.004   99.803    0.203    0.475    4.965
  304.254   97.656    0.211    0.482    4.844
  304.504   92.136    0.225    0.488    5.057
  304.754   92.133    0.229    0.480    5.290
  305.004   94.439    0.205    0.467    5.726
  305.254   95.286    0.188    0.462    5.955
  305.504   93.648    0.206    0.452    6.134
  305.754   92.749    0.201    0.441    6.303
  306.004   91.177    0.184    0.428    6.298
  306.254   91.626    0.190    0.427    6.110
  306.504   93.609    0.198    0.441    5.918
  306.754   92.507    0.205    0.459    5.564
  307.004   92.678    0.215    0.459    5.041
  307.254   96.121    0.221    0.450    4.652
  307.504   99.547    0.191    0.485    4.163
  307.754  102.941    0.183    0.510    3.971
  308.004   99.543    0.196    0.514    3.800
  308.254   89.936    0.211    0.521    3.902
  308.504   82.863    0.235    0.533    4.345
  308.754   78.699    0.260    0.528    5.073
  309.004   75.967    0.276    0.510    6.133
  309.254   75.800    0.272    0.492    7.569
