~VERSION INFORMATION
 VERS.                 2.0:   CWLS LOG ASCII STANDARD -VERSION 2.0
 WRAP.                  NO:   ONE LINE PER DEPTH STEP
~WELL INFORMATION BLOCK
#MNEM.UNIT           DATA                    DESCRIPTION OF MNEMONIC
#---------    -------------------            -------------------------------
# Generated from Intellog Unique Number	CS_69_70/WELL/872
NULL.         -999.25                        : NULL_VALUE
WELL.         HB PITLOCHRIE                  : Well_name    - WELL              
LOC .         00/10-27-070-12W4/0            : Location     - LOCATION          
UWI .         00/10-27-070-12W4/0            : Uwi          - UNIQUE WELL ID    
ENTR.         SP                             : Entered      - ENTERED BY        
SRVC.         SCHLUMBERGER                   : Scn          - SERVICE COMPANY   
STRT.M        268.224                        : top_depth    - START DEPTH       
STOP.M        472.224                        : bot_depth    - STOP DEPTH        
STEP.M        0.25                           : increment    - STEP LENGTH       
~CURVE INFORMATION BLOCK
#MNEM UNIT       ERCB CURVE CODE    CURVE DESCRIPTION
#-----------   ------------------   ----------------------------------
DEPT.M        00 001 00 00         : DEPTH        - DEPTH                       
GR  .API      00 310 00 00         : GR           - GAMMA RAY                   
DPHI.V/V      00 890 00 00         : PHID         - DENSITY POROSITY (SANDSTONE)
NPHI.V/V      00 330 00 00         : PHIN         - NEUTRON POROSITY (SANDSTONE)
ILD .OHMM     00 120 00 00         : RESD         - DEEP RESISTIVITY (DIL)      
~PARAMETER INFORMATION       
#MNEM.UNIT           DATA             DESCRIPTION OF MNEMONIC
#---------         -----------     ------------------------------
GL  .M        589.818              : gl           - GROUND LEVEL ELEVATION      
EREF.M        592.866              : kb           - ELEVATION OF DEPTH REFERENCE
DATM.M        589.818              : datum        - DATUM ELEVATION             
TDD .M        482.498              : tdd          - TOTAL DEPTH DRILLER         
RUN .         ONE                  : Run          - RUN NUMBER                  
ENG .         BILL                 : Engineer     - RECORDING ENGINEER          
WIT .         JIM                  : Witness      - WITNESSED BY                
MUD .         GEL                  : Mud_type     - MUD TYPE                    
MATR.         SANDSTONE            : Logunit      - NEUTRON MATRIX              
TMAX.C        23.3333              : BHT          - MAXIMUM RECORDED TEMPERATURE
BHTD.M        482.498              : BHTDEP       - MAXIMUM RECORDED TEMPERATURE
MATR.         1                    : LOGUNIT      - NEUTRON MATRIX              
RMT .C        25                   : MDTP         - TEMPERATURE OF MUD          
NEUT.         1                    : NEUTRON      - NEUTRON TYPE                
RESI.         0                    : RESIST       - RESISTIVITY TYPE            
RMC .OHMM     0.25                 : RMC          - RESISTIVITY OF MUD CAKE     
RMF .OHMM     0.25                 : RMF          - RESISTIVITY OF MUD FILTRATE 
SUFT.C        15                   : SUFT         - SURFACE TEMPERATURE         
~A  DEPTH       GR     PHID     PHIN     RESD
  268.224   94.718    0.222    0.548    2.641
  268.474   98.294    0.283    0.582    2.667
  268.724  101.800    0.292    0.600    2.589
  268.974  105.168    0.275    0.586    2.537
  269.224  108.673    0.263    0.579    2.621
  269.474  110.266    0.256    0.583    2.803
  269.724  111.331    0.249    0.573    3.010
  269.974  108.583    0.250    0.564    3.117
  270.224  106.887    0.303    0.554    3.174
  270.474  106.438    0.349    0.554    3.177
  270.724  104.884    0.362    0.564    3.166
  270.974  105.629    0.337    0.573    3.136
  271.224  105.371    0.297    0.567    3.023
  271.474  104.967    0.277    0.557    2.887
  271.724  105.938    0.262    0.549    2.760
  271.974  107.556    0.268    0.541    2.687
  272.224  109.816    0.281    0.540    2.642
  272.474  111.102    0.273    0.533    2.651
  272.724  111.204    0.276    0.535    2.751
  272.974  109.582    0.275    0.545    2.780
  273.224  108.485    0.288    0.535    2.718
  273.474  107.763    0.297    0.546    2.557
  273.724  107.129    0.294    0.552    2.458
  273.974  107.238    0.305    0.551    2.536
  274.224  107.346    0.281    0.553    3.031
  274.474  107.079    0.267    0.527    3.559
  274.724  103.993    0.280    0.526    4.235
  274.974   96.587    0.325    0.552    4.831
  275.224   86.424    0.364    0.586    5.242
  275.474   84.139    0.376    0.631    5.375
  275.724   84.345    0.300    0.676    4.697
  275.974   80.197    0.250    0.676    4.172
  276.224   62.930    0.278    0.661    3.669
  276.474   51.844    0.281    0.409    3.437
  276.724   55.309    0.294    0.420    3.286
  276.974   61.797    0.281    0.423    3.223
  277.224   66.758    0.276    0.420    3.250
  277.474   68.620    0.280    0.406    3.299
  277.724   60.645    0.281    0.397    3.418
  277.974   64.856    0.292    0.407    3.508
  278.224   70.948    0.301    0.417    3.619
  278.474   74.073    0.289    0.435    3.835
  278.724   74.334    0.282    0.440    4.106
  278.974   79.122    0.279    0.421    4.340
  279.224   87.931    0.252    0.420    4.657
  279.474   95.199    0.225    0.435    4.835
  279.724  101.227    0.264    0.440    4.950
  279.974  105.237    0.255    0.442    5.007
  280.224  108.715    0.242    0.446    5.029
  280.474  110.007    0.238    0.461    4.996
  280.724  110.828    0.243    0.474    5.026
  280.974  110.541    0.249    0.484    5.043
  281.224  106.889    0.239    0.463    4.990
  281.474  104.868    0.221    0.451    4.913
  281.724  106.703    0.227    0.450    4.823
  281.974  108.713    0.244    0.454    4.694
  282.224  108.265    0.252    0.457    4.515
  282.474  107.328    0.268    0.474    4.458
  282.724  107.433    0.281    0.488    4.365
  282.974  101.378    0.300    0.492    4.300
  283.224   81.703    0.286    0.460    4.225
  283.474   78.025    0.268    0.444    4.226
  283.724   76.668    0.270    0.430    4.234
  283.974   78.660    0.260    0.423    4.257
  284.224   82.285    0.253    0.414    4.321
  284.474   85.048    0.245    0.418    4.402
  284.724   88.394    0.242    0.438    4.583
  284.974   94.641    0.243    0.445    4.731
  285.224  102.249    0.239    0.447    4.869
  285.474  106.730    0.227    0.452    5.033
  285.724  104.948    0.220    0.439    5.123
  285.974  100.066    0.217    0.432    5.167
  286.224   93.492    0.230    0.429    5.148
  286.474   91.503    0.229    0.428    5.010
  286.724   90.719    0.219    0.446    4.621
  286.974   90.913    0.244    0.454    4.154
  287.224   93.755    0.250    0.468    3.632
  287.474   99.443    0.253    0.506    3.165
  287.724  105.011    0.284    0.555    2.798
  287.974  110.175    0.271    0.610    2.379
  288.224  112.899    0.354    0.647    2.268
  288.474  111.485    0.364    0.633    2.397
  288.724  105.836    0.331    0.582    2.786
  288.974   99.102    0.294    0.532    3.268
  289.224   92.150    0.264    0.482    3.717
  289.474   87.799    0.242    0.477    4.295
  289.724   83.081    0.250    0.475    4.904
  289.974   79.036    0.262    0.466    5.104
  290.224   75.468    0.267    0.457    5.052
  290.474   77.880    0.254    0.453    4.957
  290.724   79.634    0.260    0.461    4.980
  290.974   79.065    0.271    0.463    5.263
  291.224   76.266    0.254    0.456    5.849
  291.474   74.385    0.236    0.402    6.953
  291.724   71.899    0.155    0.347    7.566
  291.974   68.454    0.107    0.298    8.166
  292.224   65.718    0.082    0.287    8.351
  292.474   66.220    0.073    0.294    8.050
  292.724   74.939    0.174    0.351    7.214
  292.974   81.048    0.233    0.391    6.555
  293.224   85.403    0.257    0.420    5.823
  293.474   90.164    0.245    0.443    5.372
  293.724   96.649    0.253    0.455    5.090
  293.974  101.219    0.267    0.475    4.922
  294.224  104.161    0.281    0.483    4.730
  294.474  108.325    0.262    0.474    4.533
  294.724  112.344    0.242    0.492    4.235
  294.974  115.608    0.261    0.517    4.005
  295.224  118.212    0.272    0.498    3.787
  295.474  120.418    0.248    0.515    3.649
  295.724  119.823    0.259    0.527    3.558
  295.974  119.567    0.237    0.535    3.565
  296.224  121.169    0.234    0.548    3.683
  296.474  124.456    0.227    0.561    3.881
  296.724  127.076    0.226    0.578    4.052
  296.974  128.986    0.234    0.529    4.371
  297.224  129.474    0.230    0.498    4.687
  297.474  129.232    0.227    0.482    4.984
  297.724  125.747    0.243    0.476    5.072
  297.974  121.981    0.244    0.468    5.001
  298.224  117.713    0.262    0.462    4.882
  298.474  112.816    0.287    0.457    4.711
  298.724  108.848    0.296    0.452    4.646
  298.974  106.898    0.302    0.445    4.638
  299.224  107.118    0.289    0.444    4.682
  299.474  103.325    0.276    0.455    4.829
  299.724  102.400    0.268    0.459    5.034
  299.974  104.947    0.258    0.466    5.189
  300.224  108.897    0.241    0.466    5.269
  300.474  110.618    0.226    0.470    5.291
  300.724  111.796    0.241    0.474    5.256
  300.974  110.095    0.245    0.474    5.096
  301.224  105.575    0.249    0.461    4.979
  301.474  106.238    0.260    0.441    5.021
  301.724  108.455    0.262    0.440    5.182
  301.974  109.602    0.247    0.429    5.445
  302.224  110.020    0.235    0.423    5.657
  302.474  113.156    0.226    0.425    5.749
  302.724  115.931    0.218    0.438    5.754
  302.974  113.382    0.209    0.447    5.756
  303.224  113.127    0.211    0.440    5.771
  303.474  114.920    0.212    0.439    5.772
  303.724  116.346    0.210    0.446    5.780
  303.974  116.380    0.205    0.453    5.770
  304.224  115.746    0.198    0.468    5.797
  304.474  114.018    0.207    0.485    5.875
  304.724  112.819    0.225    0.489    5.912
  304.974  111.606    0.244    0.479    5.945
  305.224  108.620    0.244    0.474    5.767
  305.474  108.413    0.239    0.480    5.287
  305.724  108.715    0.248    0.487    4.581
  305.974  108.750    0.272    0.495    3.859
  306.224  107.823    0.268    0.518    3.413
  306.474  108.784    0.294    0.541    3.115
  306.724  109.070    0.308    0.542    3.030
  306.974  106.716    0.303    0.544    3.171
  307.224  107.827    0.304    0.532    3.562
  307.474  109.282    0.283    0.521    3.728
  307.724  109.369    0.265    0.511    3.995
  307.974  105.324    0.246    0.513    4.252
  308.224   98.123    0.289    0.517    4.560
  308.474   87.998    0.290    0.514    4.819
  308.724   81.975    0.315    0.500    5.007
  308.974   79.489    0.328    0.487    5.161
  309.224   81.369    0.321    0.480    5.243
  309.474   83.645    0.313    0.491    5.323
  309.724   86.282    0.305    0.511    5.335
  309.974   88.517    0.293    0.521    5.406
  310.224   91.867    0.275    0.497    5.571
  310.474   93.915    0.264    0.441    5.721
  310.724   93.279    0.249    0.426    5.872
  310.974   88.610    0.243    0.438    5.953
  311.224   85.577    0.259    0.441    5.922
  311.474   84.194    0.276    0.460    5.913
