~VERSION INFORMATION
 VERS.                 2.0:   CWLS LOG ASCII STANDARD -VERSION 2.0
 WRAP.                  NO:   ONE LINE PER DEPTH STEP
~WELL INFORMATION BLOCK
#MNEM.UNIT           DATA                    DESCRIPTION OF MNEMONIC
#---------    -------------------            -------------------------------
# Generated from Intellog Unique Number	CS_73_76/WELL/2198
WELL.         BOW VALLEY EXPLORATION         : Well_name    - WELL
LOC .         00/11-07-074-15W4/0            : Location     - LOCATION
UWI .         00/11-07-074-15W4/0            : Uwi          - UNIQUE WELL ID
ENTR.         SP                             : Entered      - ENTERED BY
SRVC.         SCHLUMBERGER                   : Scn          - SERVICE COMPANY
STRT.M        286.512                        : top_depth    - START DEPTH
STOP.M        505.762                        : bot_depth    - STOP DEPTH
STEP.M        0.25                           : increment    - STEP LENGTH
 NULL. -999.2500:NULL Value
~CURVE INFORMATION BLOCK
#MNEM UNIT       ERCB CURVE CODE    CURVE DESCRIPTION
#-----------   ------------------   ----------------------------------
DEPT.M        00 001 00 00         : DEPTH        - DEPTH
GR  .API      00 310 00 00         : GR           - GAMMA RAY
DPHI.V/V      00 890 00 00         : PHID         - DENSITY POROSITY (SANDSTONE)
NPHI.V/V      00 330 00 00         : PHIN         - NEUTRON POROSITY (SANDSTONE)
ILD .OHMM     00 120 00 00         : RESD         - DEEP RESISTIVITY (DIL)
~PARAMETER INFORMATION
#MNEM.UNIT           DATA             DESCRIPTION OF MNEMONIC
#---------         -----------     ------------------------------
GL  .M        639.623              : gl           - GROUND LEVEL ELEVATION
EREF.M        640.69               : kb           - ELEVATION OF DEPTH REFERENCE
DATM.M        639.623              : datum        - DATUM ELEVATION
TDD .M        512.064              : tdd          - TOTAL DEPTH DRILLER
RUN .         ONE                  : Run          - RUN NUMBER
ENG .         BILL                 : Engineer     - RECORDING ENGINEER
WIT .         JIM                  : Witness      - WITNESSED BY
MUD .         GEL                  : Mud_type     - MUD TYPE
MATR.         SANDSTONE            : Logunit      - NEUTRON MATRIX
TMAX.C        16.6667              : BHT          - MAXIMUM RECORDED TEMPERATURE
BHTD.M        512.369              : BHTDEP       - MAXIMUM RECORDED TEMPERATURE
MATR.         1                    : LOGUNIT      - NEUTRON MATRIX
RMT .C        25                   : MDTP         - TEMPERATURE OF MUD
NEUT.         1                    : NEUTRON      - NEUTRON TYPE
RESI.         0                    : RESIST       - RESISTIVITY TYPE
RMC .OHMM     0.25                 : RMC          - RESISTIVITY OF MUD CAKE
RMF .OHMM     0.25                 : RMF          - RESISTIVITY OF MUD FILTRATE
SUFT.C        15                   : SUFT         - SURFACE TEMPERATURE
~A  DEPTH       GR     PHID     PHIN     RESD
  286.512   91.200    0.228    0.559    2.790
  286.762   91.811    0.236    0.575    2.791
  287.012   91.670    0.238    0.561    2.787
  287.262   91.191    0.255    0.585    2.891
  287.512   92.433    0.223    0.595    2.980
  287.762   94.305    0.229    0.564    3.162
  288.012   93.882    0.240    0.544    3.530
  288.262   89.394    0.208    0.524    3.678
  288.512   90.263    0.215    0.517    3.824
  288.762   93.329    0.200    0.535    3.873
  289.012   93.160    0.209    0.551    3.965
  289.262   88.773    0.220    0.541    4.127
  289.512   88.228    0.190    0.529    4.330
  289.762   89.173    0.219    0.542    4.442
  290.012   91.833    0.228    0.541    4.439
  290.262   92.912    0.208    0.538    4.317
  290.512   92.257    0.211    0.560    4.101
  290.762   92.434    0.229    0.593    3.992
  291.012   94.357    0.231    0.609    3.752
  291.262   95.205    0.214    0.586    3.698
  291.512   93.772    0.214    0.567    3.577
  291.762   93.009    0.223    0.562    3.551
  292.012   95.441    0.233    0.546    3.444
  292.262   93.234    0.223    0.559    3.447
  292.512   91.312    0.211    0.545    3.448
  292.762   88.327    0.207    0.536    3.450
  293.012   87.250    0.231    0.528    3.495
  293.262   87.791    0.233    0.529    3.524
  293.512   84.918    0.249    0.530    3.708
  293.762   81.899    0.241    0.539    3.786
  294.012   79.764    0.263    0.555    3.881
  294.262   77.114    0.232    0.502    3.873
  294.512   79.792    0.220    0.509    3.718
  294.762   85.715    0.239    0.552    3.651
  295.012   85.249    0.288    0.563    3.643
  295.262   81.592    0.308    0.552    3.669
  295.512   73.182    0.300    0.523    3.951
  295.762   67.914    0.282    0.493    4.438
  296.012   64.130    0.284    0.474    5.052
  296.262   66.160    0.276    0.461    5.995
  296.512   67.434    0.282    0.468    7.097
  296.762   68.261    0.285    0.473    8.158
  297.012   70.864    0.273    0.444    8.222
  297.262   73.152    0.267    0.446    8.284
  297.512   70.524    0.293    0.450    8.768
  297.762   64.595    0.373    0.446    9.626
  298.012   59.858    0.392    0.436   10.332
  298.262   54.583    0.394    0.371   11.097
  298.512   54.485    0.381    0.348   12.005
  298.762   55.235    0.392    0.339   12.728
  299.012   51.830    0.405    0.319   12.338
  299.262   50.138    0.407    0.329   11.563
  299.512   51.919    0.373    0.377   10.722
  299.762   56.481    0.358    0.411    9.767
  300.012   62.009    0.349    0.444    9.285
  300.262   67.616    0.334    0.467    9.014
  300.512   72.122    0.319    0.475    8.906
  300.762   70.926    0.320    0.484    8.725
  301.012   67.324    0.321    0.466    8.745
  301.262   68.926    0.331    0.442    8.733
  301.512   70.982    0.318    0.437    8.921
  301.762   72.959    0.321    0.446    9.097
  302.012   73.190    0.321    0.457    9.245
  302.262   77.111    0.296    0.460    9.442
  302.512   82.515    0.283    0.463    9.436
  302.762   86.165    0.294    0.465    9.077
  303.012   90.221    0.292    0.462    9.150
  303.262   90.438    0.298    0.470    9.113
  303.512   89.365    0.295    0.466    9.305
  303.762   89.017    0.281    0.470    9.315
  304.012   87.465    0.280    0.473    9.317
  304.262   84.987    0.289    0.467    9.299
  304.512   78.509    0.296    0.460    9.304
  304.762   72.874    0.279    0.448    9.599
  305.012   69.799    0.284    0.430    9.857
  305.262   64.507    0.295    0.391    9.652
  305.512   60.572    0.300    0.399    9.693
  305.762   62.630    0.277    0.427    9.227
  306.012   70.446    0.260    0.444    9.154
  306.262   69.824    0.266    0.428    9.057
  306.512   67.268    0.256    0.416    9.367
  306.762   64.377    0.264    0.412    9.516
  307.012   61.157    0.299    0.376    9.277
  307.262   64.845    0.265    0.377    8.632
  307.512   65.323    0.247    0.405    8.371
  307.762   64.858    0.226    0.422    7.928
  308.012   65.284    0.203    0.418    7.786
  308.262   68.439    0.178    0.415    7.796
  308.512   73.825    0.273    0.436    7.569
  308.762   76.671    0.254    0.445    6.985
  309.012   75.905    0.274    0.487    6.607
  309.262   77.704    0.293    0.560    5.953
  309.512   81.338    0.352    0.562    5.627
  309.762   83.941    0.334    0.549    5.462
  310.012   87.141    0.375    0.556    5.152
  310.262   89.595    0.395    0.558    4.694
  310.512   92.553    0.379    0.569    4.517
  310.762   95.507    0.347    0.598    4.341
  311.012   99.115    0.364    0.606    4.272
  311.262   98.234    0.370    0.598    4.299
  311.512   95.247    0.422    0.597    4.440
  311.762   91.979    0.439    0.587    4.636
  312.012   92.052    0.373    0.558    4.786
  312.262   97.576    0.272    0.541    4.700
  312.512  104.495    0.244    0.567    4.289
  312.762  104.742    0.288    0.585    4.005
  313.012  103.827    0.302    0.568    3.781
  313.262  102.320    0.362    0.577    3.599
  313.512   99.250    0.386    0.587    3.613
  313.762   98.060    0.414    0.583    4.368
  314.012  100.061    0.397    0.557    5.089
  314.262   96.528    0.299    0.476    6.505
  314.512   93.330    0.294    0.470    7.527
  314.762   90.391    0.331    0.474    8.989
  315.012   88.810    0.348    0.501    9.289
  315.262   90.169    0.287    0.488    9.192
  315.512   89.459    0.332    0.494    8.920
  315.762   91.132    0.358    0.523    8.525
  316.012   91.263    0.303    0.539    7.687
  316.262   89.124    0.306    0.550    7.420
  316.512   86.075    0.277    0.548    7.100
  316.762   83.848    0.254    0.573    6.756
  317.012   81.723    0.293    0.584    6.591
  317.262   85.351    0.277    0.550    7.039
  317.512   86.864    0.282    0.515    7.293
  317.762   82.702    0.252    0.480    8.089
  318.012   77.274    0.274    0.456    9.128
  318.262   71.984    0.283    0.446    9.941
  318.512   72.040    0.279    0.457   10.419
  318.762   74.915    0.292    0.464   10.630
  319.012   78.457    0.300    0.482   10.594
  319.262   81.375    0.293    0.468   10.296
  319.512   84.289    0.264    0.478    9.593
  319.762   84.155    0.246    0.483    9.127
  320.012   86.118    0.275    0.481    8.733
  320.262   88.743    0.277    0.496    8.483
  320.512   92.749    0.299    0.516    8.241
  320.762   98.501    0.302    0.509    8.268
  321.012  102.936    0.253    0.494    8.091
  321.262  107.588    0.239    0.495    8.109
  321.512   99.384    0.275    0.499    8.378
  321.762   83.359    0.283    0.500    8.434
  322.012   69.735    0.301    0.561    8.888
  322.262   61.249    0.335    0.514    9.080
  322.512   59.608    0.302    0.450    9.470
  322.762   62.412    0.299    0.439    9.925
  323.012   64.234    0.304    0.436   10.240
  323.262   67.570    0.315    0.432   10.321
  323.512   71.618    0.307    0.432   10.329
  323.762   73.981    0.302    0.441   10.333
  324.012   77.697    0.290    0.448   10.336
  324.262   79.629    0.286    0.456   10.361
  324.512   81.624    0.270    0.447   10.138
  324.762   83.023    0.238    0.434   10.163
  325.012   84.597    0.215    0.421   10.135
  325.262   85.752    0.256    0.452    8.974
  325.512   90.592    0.238    0.501    7.792
  325.762   92.086    0.236    0.536    7.201
  326.012   87.294    0.275    0.535    6.403
  326.262   83.868    0.321    0.518    6.032
  326.512   82.138    0.263    0.516    5.758
  326.762   78.077    0.287    0.524    5.919
  327.012   74.695    0.311    0.511    6.510
  327.262   71.775    0.302    0.503    7.064
  327.512   67.473    0.308    0.493    7.342
  327.762   71.155    0.301    0.495    7.411
  328.012   74.969    0.295    0.508    6.635
  328.262   82.846    0.289    0.521    6.716
  328.512   85.032    0.308    0.486    6.331
  328.762   84.362    0.269    0.466    5.979
  329.012   84.939    0.268    0.477    6.410
  329.262   85.079    0.289    0.474    7.104
  329.512   82.891    0.275    0.468    7.662
  329.762   80.956    0.268    0.469    7.922
