~VERSION INFORMATION
 VERS.                 2.0:   CWLS LOG ASCII STANDARD -VERSION 2.0
 WRAP.                  NO:   ONE LINE PER DEPTH STEP
~WELL INFORMATION BLOCK
#MNEM.UNIT           DATA                    DESCRIPTION OF MNEMONIC
#---------    -------------------            -------------------------------
# Generated from Intellog Unique Number	CS_73_76/WELL/2203
WELL.         W.W. BECKER OIL & GAS LTD      : Well_name    - WELL
LOC .         00/11-26-074-14W4/0            : Location     - LOCATION
UWI .         00/11-26-074-14W4/0            : Uwi          - UNIQUE WELL ID
ENTR.         SP                             : Entered      - ENTERED BY
SRVC.         SCHLUMBERGER                   : Scn          - SERVICE COMPANY
STRT.M        411.48                         : top_depth    - START DEPTH
STOP.M        630.73                         : bot_depth    - STOP DEPTH
STEP.M        0.25                           : increment    - STEP LENGTH
 NULL. -999.2500:NULL Value
~CURVE INFORMATION BLOCK
#MNEM UNIT       ERCB CURVE CODE    CURVE DESCRIPTION
#-----------   ------------------   ----------------------------------
DEPT.M        00 001 00 00         : DEPTH        - DEPTH
GR  .API      00 310 00 00         : GR           - GAMMA RAY
DPHI.V/V      00 890 00 00         : PHID         - DENSITY POROSITY (SANDSTONE)
NPHI.V/V      00 330 00 00         : PHIN         - NEUTRON POROSITY (SANDSTONE)
ILD .OHMM     00 120 00 00         : RESD         - DEEP RESISTIVITY (DIL)
~PARAMETER INFORMATION
#MNEM.UNIT           DATA             DESCRIPTION OF MNEMONIC
#---------         -----------     ------------------------------
GL  .M        771.296              : gl           - GROUND LEVEL ELEVATION
EREF.M        774.527              : kb           - ELEVATION OF DEPTH REFERENCE
DATM.M        771.296              : datum        - DATUM ELEVATION
TDD .M        634.594              : tdd          - TOTAL DEPTH DRILLER
RUN .         ONE                  : Run          - RUN NUMBER
ENG .         BILL                 : Engineer     - RECORDING ENGINEER
WIT .         JIM                  : Witness      - WITNESSED BY
MUD .         GEL                  : Mud_type     - MUD TYPE
MATR.         SANDSTONE            : Logunit      - NEUTRON MATRIX
TMAX.C        16.6667              : BHT          - MAXIMUM RECORDED TEMPERATURE
BHTD.M        634.594              : BHTDEP       - MAXIMUM RECORDED TEMPERATURE
MATR.         1                    : LOGUNIT      - NEUTRON MATRIX
RMT .C        25                   : MDTP         - TEMPERATURE OF MUD
NEUT.         1                    : NEUTRON      - NEUTRON TYPE
RESI.         0                    : RESIST       - RESISTIVITY TYPE
RMC .OHMM     0.25                 : RMC          - RESISTIVITY OF MUD CAKE
RMF .OHMM     0.25                 : RMF          - RESISTIVITY OF MUD FILTRATE
SUFT.C        15                   : SUFT         - SURFACE TEMPERATURE
~A  DEPTH       GR     PHID     PHIN     RESD
# ...
  454.980  103.072    0.232    0.436    6.971
  455.230  103.383    0.243    0.419    6.985
  455.480  104.019    0.236    0.426    7.209
  455.730  103.927    0.229    0.439    7.438
  455.980  101.613    0.223    0.452    7.524
  456.230   99.920    0.215    0.464    7.300
  456.480  100.878    0.216    0.469    7.108
  456.730  102.843    0.213    0.472    6.992
  456.980  104.330    0.201    0.481    6.698
  457.230  102.330    0.187    0.477    6.583
  457.480  100.151    0.181    0.468    6.483
  457.730   97.038    0.165    0.459    6.400
  457.980   99.488    0.155    0.455    6.482
  458.230  101.585    0.166    0.457    6.680
  458.480  100.010    0.215    0.465    7.032
  458.730   92.596    0.242    0.467    7.390
  458.980   88.174    0.266    0.465    7.597
  459.230   84.993    0.285    0.470    8.009
  459.480   83.662    0.294    0.474    8.395
  459.730   81.600    0.286    0.477    8.824
  459.980   80.207    0.276    0.464    9.288
  460.230   76.067    0.266    0.459    9.730
  460.480   71.511    0.273    0.452   10.026
  460.730   67.069    0.293    0.441   10.558
  460.980   65.617    0.303    0.437   10.528
  461.230   64.592    0.318    0.448   10.514
  461.480   64.304    0.328    0.457   10.739
  461.730   63.746    0.337    0.472   10.728
  461.980   62.880    0.330    0.482   10.731
  462.230   62.562    0.326    0.492   10.731
  462.480   62.592    0.326    0.490   10.709
  462.730   62.724    0.328    0.477   10.958
  462.980   63.761    0.329    0.479   10.846
  463.230   65.808    0.334    0.472   10.700
  463.480   67.037    0.332    0.467   10.950
  463.730   67.133    0.331    0.461   10.931
  463.980   64.433    0.327    0.459   10.932
  464.230   63.285    0.321    0.463   10.932
  464.480   63.400    0.311    0.456   10.932
  464.730   62.763    0.306    0.448   10.931
  464.980   62.177    0.311    0.446   10.931
  465.230   65.022    0.319    0.451   10.931
  465.480   71.082    0.315    0.450   10.931
  465.730   74.310    0.317    0.452   10.931
  465.980   71.944    0.316    0.458   10.930
  466.230   69.546    0.316    0.463   10.930
  466.480   71.266    0.319    0.463   10.930
  466.730   70.907    0.323    0.451   10.924
  466.980   67.278    0.323    0.441   10.903
  467.230   62.656    0.323    0.423   10.719
  467.480   61.626    0.323    0.412   10.743
  467.730   63.084    0.320    0.410   10.517
  467.980   64.257    0.315    0.423   10.550
  468.230   62.997    0.318    0.437   10.311
  468.480   61.192    0.322    0.438   10.331
  468.730   64.600    0.323    0.442   10.331
  468.980   66.189    0.320    0.443   10.330
  469.230   63.176    0.325    0.452   10.332
  469.480   59.864    0.330    0.454   10.443
  469.730   58.100    0.349    0.446   10.521
  469.980   56.563    0.347    0.437   10.525
  470.230   56.333    0.338    0.443   10.525
  470.480   58.508    0.330    0.446   10.525
  470.730   60.094    0.327    0.441   10.524
  470.980   59.264    0.320    0.444   10.524
  471.230   58.307    0.321    0.451   10.524
  471.480   58.523    0.322    0.455   10.524
  471.730   60.824    0.314    0.453   10.523
  471.980   62.627    0.307    0.458   10.523
  472.230   64.406    0.312    0.466   10.523
  472.480   63.637    0.322    0.457   10.523
  472.730   61.577    0.329    0.444   10.523
  472.980   61.781    0.335    0.431   10.522
  473.230   63.681    0.335    0.419   10.522
  473.480   65.626    0.334    0.412   10.521
  473.730   68.123    0.328    0.414   10.503
  473.980   67.550    0.323    0.425   10.730
  474.230   66.271    0.327    0.432   10.718
  474.480   67.783    0.341    0.437   10.735
  474.730   68.328    0.353    0.437   10.519
  474.980   69.320    0.334    0.436   10.530
  475.230   70.193    0.325    0.436   10.573
  475.480   70.254    0.321    0.440   10.721
  475.730   67.999    0.321    0.442   10.720
  475.980   66.485    0.316    0.448   10.721
  476.230   66.582    0.324    0.440   10.703
  476.480   67.552    0.320    0.435   10.926
  476.730   68.557    0.321    0.434   11.164
  476.980   69.495    0.320    0.431   11.340
  477.230   71.093    0.322    0.431   11.267
  477.480   70.314    0.313    0.436   10.908
  477.730   71.096    0.307    0.442   10.583
  477.980   74.037    0.307    0.451   10.320
  478.230   77.033    0.316    0.455   10.134
  478.480   79.695    0.320    0.459   10.134
  478.730   81.611    0.323    0.466   10.123
  478.980   84.791    0.333    0.468   10.297
  479.230   87.878    0.328    0.462   10.514
  479.480   90.128    0.323    0.451   10.755
  479.730   91.730    0.314    0.448   11.083
  479.980   90.490    0.305    0.449   11.357
  480.230   86.009    0.299    0.454   11.351
  480.480   81.432    0.298    0.474   11.538
  480.730   78.414    0.289    0.478   11.793
  480.980   75.430    0.279    0.468   11.767
  481.230   73.951    0.277    0.464   11.460
  481.480   74.524    0.272    0.459   11.293
  481.730   75.415    0.280    0.454   10.935
  481.980   79.509    0.285    0.466   10.503
  482.230   81.858    0.288    0.476   10.302
  482.480   83.905    0.296    0.488   10.306
  482.730   84.444    0.295    0.484   10.503
  482.980   83.334    0.299    0.465   10.985
  483.230   78.875    0.286    0.437   11.612
  483.480   72.812    0.265    0.409   13.382
  483.730   67.549    0.225    0.386   16.986
  483.980   62.977    0.104    0.351   25.207
  484.230   58.998    0.032    0.244   38.233
  484.480   55.679    0.004    0.157   54.503
  484.730   53.057   -0.000    0.144   64.251
  484.980   51.191   -0.000    0.138   75.031
  485.230   50.872   -0.000    0.135   80.560
  485.480   50.145   -0.000    0.138   83.114
  485.730   50.971    0.000    0.146   70.106
  485.980   52.987    0.013    0.164   45.750
  486.230   55.990    0.063    0.203   30.946
  486.480   59.759    0.113    0.260   19.792
  486.730   62.332    0.183    0.359   14.029
  486.980   65.151    0.238    0.440   11.541
  487.230   66.779    0.307    0.461   10.304
  487.480   65.803    0.340    0.456   10.005
  487.730   65.078    0.336    0.458    9.732
  487.980   66.227    0.336    0.462    9.757
  488.230   66.266    0.341    0.464    9.664
  488.480   66.390    0.344    0.470    9.745
  488.730   66.916    0.343    0.480    9.750
  488.980   65.353    0.345    0.484    9.745
  489.230   63.804    0.350    0.476    9.727
  489.480   63.288    0.350    0.470    9.562
  489.730   63.519    0.343    0.467    9.583
  489.980   64.572    0.346    0.469    9.382
  490.230   64.544    0.340    0.472    9.411
  490.480   65.747    0.343    0.478    9.198
  490.730   65.215    0.335    0.476    9.216
  490.980   64.224    0.326    0.471    9.211
  491.230   64.201    0.317    0.469    9.174
  491.480   64.663    0.315    0.466    9.042
  491.730   64.403    0.318    0.463    9.044
  491.980   63.452    0.321    0.467    9.051
  492.230   63.476    0.317    0.476    8.898
  492.480   64.495    0.317    0.480    8.882
  492.730   64.787    0.314    0.474    8.880
  492.980   65.844    0.315    0.479    8.746
  493.230   66.851    0.318    0.472    8.726
  493.480   67.864    0.322    0.473    8.542
  493.730   69.294    0.326    0.478    8.285
  493.980   70.320    0.323    0.481    8.033
  494.230   70.351    0.310    0.480    7.790
  494.480   68.692    0.310    0.476    7.554
  494.730   68.848    0.321    0.470    7.321
  494.980   72.012    0.326    0.465    7.218
  495.230   73.646    0.322    0.462    7.155
  495.480   76.000    0.313    0.466    7.110
  495.730   76.389    0.297    0.481    7.219
  495.980   76.490    0.295    0.485    7.433
  496.230   76.505    0.310    0.480    7.494
  496.480   75.904    0.315    0.481    7.605
  496.730   75.758    0.306    0.477    7.636
  496.980   75.388    0.315    0.491    7.639
  497.230   75.296    0.323    0.503    7.472
  497.480   77.013    0.327    0.516    6.994
  497.730   78.979    0.334    0.506    6.248
  497.980   82.466    0.328    0.499    5.698
  498.230   88.125    0.298    0.483    5.204
