~VERSION INFORMATION
 VERS.                 2.0:   CWLS LOG ASCII STANDARD -VERSION 2.0
 WRAP.                  NO:   ONE LINE PER DEPTH STEP
~WELL INFORMATION BLOCK
#MNEM.UNIT           DATA                    DESCRIPTION OF MNEMONIC
#---------    -------------------            -------------------------------
# Generated from Intellog Unique Number	CC_80_83/WELL/2334
NULL.         -999.25                        : NULL_VALUE
WELL.         PEX HOUSE                      : Well_name    - WELL              
LOC .         10-05-080-15W4                 : Location     - LOCATION          
UWI .         00/10-05-080-15W4/0            : Uwi          - UNIQUE WELL ID    
ENTR.         RJA                            : Entered      - ENTERED BY        
SRVC.         SCHLUMBERGER                   : Scn          - SERVICE COMPANY   
DATE.         05 FEB 82                      : Date         - LOG DATE
STRT.M        170                            : top_depth    - START DEPTH       
STOP.M        402.795                        : bot_depth    - STOP DEPTH        
STEP.M        0.3                            : increment    - STEP LENGTH       
~CURVE INFORMATION BLOCK
#MNEM UNIT       ERCB CURVE CODE    CURVE DESCRIPTION
#-----------   ------------------   ----------------------------------
DEPT.M        00 001 00 00         : DEPTH        - DEPTH                       
DPHI.V/V      00 890 00 00         : PHID         - DENSITY POROSITY (LIMESTONE)
NPHI.V/V      00 330 00 00         : PHIN         - NEUTRON POROSITY (LIMESTONE)
GR  .API      00 310 00 00         : GR           - GAMMA RAY                   
DELT.US/F     00 520 00 00         : DELT         - SONIC TRAVEL TIME           
ILD .OHMM     00 120 00 00         : RESD         - DEEP RESISTIVITY (DIL)      
~PARAMETER INFORMATION       
#MNEM.UNIT           DATA             DESCRIPTION OF MNEMONIC
#---------         -----------     ------------------------------
GL  .M        561.82               : gl           - GROUND LEVEL ELEVATION      
EREF.M        565.57               : kb           - ELEVATION OF DEPTH REFERENCE
DATM.M        565.57               : datum        - DATUM ELEVATION             
TDD .M        411                  : tdd          - TOTAL DEPTH DRILLER         
RUN .         ONE                  : Run          - RUN NUMBER                  
ENG .         BILL                 : Engineer     - RECORDING ENGINEER          
WIT .         JIM                  : Witness      - WITNESSED BY                
MUD .         GEL                  : Mud_type     - MUD TYPE                    
MATR.         LIMESTONE            : Logunit      - NEUTRON MATRIX              
TMAX.C        23.8                 : BHT          - MAXIMUM RECORDED TEMPERATURE
BHTD.M        411                  : BHTDEP       - MAXIMUM RECORDED TEMPERATURE
MATR.         1                    : LOGUNIT      - NEUTRON MATRIX              
RMT .C        25                   : MDTP         - TEMPERATURE OF MUD          
NEUT.         1                    : NEUTRON      - NEUTRON TYPE                
RESI.         0                    : RESIST       - RESISTIVITY TYPE            
RMC .OHMM     0.25                 : RMC          - RESISTIVITY OF MUD CAKE     
RMF .OHMM     0.25                 : RMF          - RESISTIVITY OF MUD FILTRATE 
SUFT.C        15                   : SUFT         - SURFACE TEMPERATURE         
~A  DEPTH     PHID     PHIN       GR     DELT     RESD
# ...
  257.601    0.257    0.356   60.392  360.718   18.256
  257.901    0.275    0.413   61.761  381.216   15.678
  258.201    0.282    0.452   61.209  385.721   14.695
  258.501    0.284    0.439   58.864  379.756   14.064
  258.801    0.282    0.428   57.137  377.582   14.170
  259.101    0.279    0.430   59.186  379.190   14.115
  259.401    0.294    0.455   61.606  383.445   13.821
  259.701    0.300    0.463   61.736  384.586   13.637
  260.001    0.295    0.436   59.514  384.881   13.429
  260.301    0.284    0.428   60.449  388.298   12.902
  260.601    0.281    0.435   64.229  396.842   12.139
  260.901    0.273    0.465   64.483  397.051   12.047
  261.201    0.277    0.452   60.901  395.540   12.347
  261.501    0.285    0.440   62.144  397.566   11.817
  261.801    0.289    0.460   69.206  393.818   11.682
  262.101    0.276    0.461   71.194  390.736   11.592
  262.401    0.269    0.443   71.447  395.977   11.416
  262.701    0.284    0.425   69.472  407.743   11.179
  263.001    0.295    0.431   71.336  406.965   11.029
  263.301    0.295    0.442   72.456  403.547   11.028
  263.601    0.290    0.455   71.967  409.378   10.986
  263.901    0.280    0.461   72.840  407.451   10.819
  264.201    0.272    0.457   74.458  402.391   10.796
  264.501    0.278    0.439   74.646  399.466   10.796
  264.801    0.272    0.421   74.096  399.010   10.816
  265.100    0.263    0.429   71.131  397.169   10.611
  265.400    0.270    0.465   57.090  389.877   10.331
  265.700    0.294    0.455   56.663  388.026   10.252
  266.000    0.294    0.433   63.044  401.442   10.408
  266.300    0.277    0.442   62.741  400.914   10.566
  266.600    0.293    0.421   53.095  390.483   10.954
  266.900    0.309    0.418   56.011  394.091   11.530
  267.200    0.304    0.433   56.881  397.760   12.114
  267.500    0.282    0.443   55.587  396.247   12.824
  267.800    0.282    0.423   56.646  390.515   12.945
  268.100    0.293    0.412   57.952  388.436   12.296
  268.400    0.289    0.417   66.003  393.594   10.969
  268.700    0.260    0.455   64.648  404.354    9.766
  269.000    0.258    0.477   55.310  404.649    9.067
  269.300    0.285    0.467   51.418  394.235    9.580
  269.600    0.301    0.455   51.857  389.417   11.196
  269.900    0.305    0.450   58.239  389.955   12.011
  270.200    0.293    0.431   59.915  390.581   12.476
  270.500    0.290    0.413   58.745  390.063   12.333
  270.800    0.291    0.412   62.093  393.909   11.692
  271.100    0.279    0.473   60.430  401.699   11.001
  271.400    0.278    0.466   58.950  410.405   10.793
  271.700    0.282    0.456   63.659  397.513   10.978
  272.000    0.283    0.426   71.896  388.568   10.914
  272.300    0.250    0.407   74.936  392.083   10.466
  272.600    0.232    0.407   77.602  392.141    9.372
  272.900    0.236    0.417   91.037  395.725    7.674
  273.200    0.244    0.428   93.828  423.569    5.769
  273.500    0.252    0.479   91.173  454.292    4.582
  273.800    0.268    0.562   86.662  477.100    2.941
  274.100    0.273    0.555   90.320  489.024    2.731
  274.400    0.271    0.568   90.574  491.219    2.540
  274.700    0.286    0.584   88.723  492.916    2.506
  275.000    0.266    0.546   83.025  477.301    3.343
  275.300    0.249    0.510   84.748  467.368    4.087
  275.600    0.234    0.474   88.951  457.747    5.271
  275.900    0.218    0.483   88.260  442.031    5.872
  276.200    0.204    0.495   81.551  440.606    6.119
  276.500    0.203    0.507   82.844  441.820    5.922
  276.800    0.222    0.514   90.955  444.101    5.372
  277.100    0.211    0.515   86.851  447.618    5.179
  277.400    0.230    0.508   85.663  445.189    5.407
  277.700    0.243    0.492   88.626  428.899    5.788
  278.000    0.248    0.481   84.400  426.226    6.410
  278.300    0.248    0.466   80.730  426.686    7.138
  278.600    0.244    0.467   77.369  419.237    7.260
  278.900    0.234    0.470   76.551  412.676    7.354
  279.200    0.234    0.480   81.934  413.311    7.267
  279.500    0.248    0.468   81.549  422.278    7.098
  279.800    0.248    0.498   80.424  421.919    7.083
  280.100    0.236    0.504   84.134  419.993    7.161
  280.400    0.220    0.463   88.526  423.271    6.967
  280.700    0.254    0.457   82.932  434.050    6.886
  281.000    0.260    0.475   76.659  425.693    6.767
  281.300    0.260    0.472   73.794  423.263    7.298
  281.600    0.269    0.484   73.350  438.924    7.294
  281.900    0.276    0.482   80.407  439.146    5.715
  282.200    0.277    0.464   87.341  464.809    2.981
  282.500    0.276    0.498   89.997  476.074    2.240
  282.800    0.269    0.523   85.644  488.350    2.059
  283.100    0.280    0.540   92.142  505.004    2.020
  283.400    0.280    0.597   96.346  510.999    2.121
  283.700    0.269    0.603   96.087  509.402    2.399
  284.000    0.261    0.578   93.904  496.748    2.652
  284.300    0.262    0.580   93.213  490.606    3.229
  284.600    0.262    0.589   90.538  480.500    3.431
  284.900    0.251    0.602   88.913  466.595    4.155
  285.200    0.233    0.532   89.709  446.499    4.891
  285.500    0.230    0.503   88.023  436.477    5.469
  285.800    0.233    0.466   90.430  431.256    5.508
  286.100    0.231    0.475   88.494  429.979    5.464
  286.400    0.227    0.475   86.810  438.707    5.318
  286.700    0.223    0.466   86.985  448.171    5.195
  287.000    0.233    0.468   85.672  443.438    5.251
  287.300    0.242    0.480   81.629  435.977    5.380
  287.600    0.240    0.475   80.688  435.781    5.491
  287.900    0.235    0.469   82.848  439.389    5.615
  288.200    0.229    0.500   83.086  437.794    5.710
  288.500    0.227    0.496   81.833  433.004    5.741
  288.800    0.229    0.494   86.721  432.546    5.683
  289.100    0.242    0.497   86.524  436.219    5.489
  289.400    0.265    0.495   73.616  447.498    5.602
  289.699    0.295    0.521   62.441  442.600    6.696
  289.999    0.326    0.463   59.083  423.183    7.807
  290.299    0.341    0.439   57.709  418.842    8.679
  290.599    0.340    0.446   57.883  419.062    9.613
  290.899    0.331    0.447   58.677  419.690   10.289
  291.199    0.320    0.425   56.867  416.607   10.402
  291.499    0.318    0.424   52.331  412.045   10.416
  291.799    0.324    0.452   51.387  411.706   10.473
  292.099    0.315    0.473   55.284  411.818   10.566
  292.399    0.309    0.463   59.053  411.127   10.704
  292.699    0.309    0.424   58.734  409.617   10.882
  292.999    0.314    0.417   58.472  409.670   11.041
  293.299    0.312    0.417   59.950  409.308   11.144
  293.599    0.312    0.411   64.774  404.659   11.417
  293.899    0.320    0.403   67.245  399.262   11.521
  294.199    0.311    0.393   67.046  397.658   11.647
  294.499    0.309    0.403   65.176  396.473   11.931
  294.799    0.316    0.411   64.793  393.557   12.060
  295.099    0.308    0.412   55.853  393.113   12.101
  295.399    0.299    0.431   53.609  394.072   11.960
  295.699    0.305    0.437   62.959  395.402   11.685
  295.999    0.320    0.412   67.290  395.923   11.415
  296.299    0.319    0.409   66.783  397.040   11.279
  296.599    0.319    0.418   63.300  399.409   11.082
  296.899    0.320    0.446   58.327  402.025   10.827
  297.199    0.320    0.469   55.588  405.217   10.619
  297.499    0.329    0.466   54.522  408.160   10.412
  297.799    0.325    0.449   55.504  408.714   10.466
  298.099    0.323    0.426   58.406  404.238   10.540
  298.399    0.324    0.413   56.596  401.161   10.555
  298.699    0.323    0.410   53.671  400.367   10.513
  298.999    0.323    0.426   53.782  399.760   10.467
  299.299    0.325    0.436   55.633  401.962   10.362
  299.599    0.317    0.442   55.371  403.662   10.258
  299.899    0.321    0.447   54.060  405.204    9.944
  300.199    0.333    0.454   54.418  405.501    9.867
  300.499    0.341    0.460   54.657  403.660    9.751
  300.799    0.334    0.468   53.962  389.341    9.746
  301.099    0.331    0.445   54.569  370.319    9.929
