~VERSION INFORMATION
 VERS.                 2.0:   CWLS LOG ASCII STANDARD -VERSION 2.0
 WRAP.                  NO:   ONE LINE PER DEPTH STEP
~WELL INFORMATION BLOCK
#MNEM.UNIT           DATA                    DESCRIPTION OF MNEMONIC
#---------    -------------------            -------------------------------
# Generated from Intellog Unique Number	CS_69_70/WELL/856
WELL.         ET AL CHARRON                  : Well_name    - WELL
LOC .         00/10-01-069-16W4/0            : Location     - LOCATION
UWI .         00/10-01-069-16W4/0            : Uwi          - UNIQUE WELL ID
ENTR.         SP                             : Entered      - ENTERED BY
SRVC.         SCHLUMBERGER                   : Scn          - SERVICE COMPANY
STRT.M        274.32                         : top_depth    - START DEPTH
STOP.M        457.07                         : bot_depth    - STOP DEPTH
STEP.M        0.25                           : increment    - STEP LENGTH
 NULL. -999.2500:NULL Value
~CURVE INFORMATION BLOCK
#MNEM UNIT       ERCB CURVE CODE    CURVE DESCRIPTION
#-----------   ------------------   ----------------------------------
DEPT.M        00 001 00 00         : DEPTH        - DEPTH
GR  .API      00 310 00 00         : GR           - GAMMA RAY
DPHI.V/V      00 890 00 00         : PHID         - DENSITY POROSITY (SANDSTONE)
NPHI.V/V      00 330 00 00         : PHIN         - NEUTRON POROSITY (SANDSTONE)
ILD .OHMM     00 120 00 00         : RESD         - DEEP RESISTIVITY (DIL)
~PARAMETER INFORMATION
#MNEM.UNIT           DATA             DESCRIPTION OF MNEMONIC
#---------         -----------     ------------------------------
GL  .M        557.784              : gl           - GROUND LEVEL ELEVATION
EREF.M        560.222              : kb           - ELEVATION OF DEPTH REFERENCE
DATM.M        557.784              : datum        - DATUM ELEVATION
TDD .M        452.323              : tdd          - TOTAL DEPTH DRILLER
RUN .         ONE                  : Run          - RUN NUMBER
ENG .         BILL                 : Engineer     - RECORDING ENGINEER
WIT .         JIM                  : Witness      - WITNESSED BY
MUD .         GEL                  : Mud_type     - MUD TYPE
MATR.         SANDSTONE            : Logunit      - NEUTRON MATRIX
TMAX.C        22.2222              : BHT          - MAXIMUM RECORDED TEMPERATURE
BHTD.M        452.323              : BHTDEP       - MAXIMUM RECORDED TEMPERATURE
MATR.         1                    : LOGUNIT      - NEUTRON MATRIX
RMT .C        25                   : MDTP         - TEMPERATURE OF MUD
NEUT.         1                    : NEUTRON      - NEUTRON TYPE
RESI.         0                    : RESIST       - RESISTIVITY TYPE
RMC .OHMM     0.25                 : RMC          - RESISTIVITY OF MUD CAKE
RMF .OHMM     0.25                 : RMF          - RESISTIVITY OF MUD FILTRATE
SUFT.C        15                   : SUFT         - SURFACE TEMPERATURE
~A  DEPTH       GR     PHID     PHIN     RESD
# ...
  317.820   80.548    0.286    0.445    2.618
  318.070   79.739    0.280    0.454    2.573
  318.320   78.909    0.279    0.423    2.501
  318.570   77.677    0.290    0.423    2.422
  318.820   76.582    0.295    0.439    2.353
  319.070   75.455    0.298    0.457    2.275
  319.320   74.646    0.301    0.453    2.214
  319.570   73.718    0.306    0.446    2.183
  319.820   73.194    0.317    0.447    2.194
  320.070   72.813    0.326    0.454    2.219
  320.320   72.282    0.318    0.461    2.339
  320.570   71.913    0.316    0.473    2.446
  320.820   72.412    0.321    0.475    2.467
  321.070   73.168    0.324    0.475    2.551
  321.320   73.593    0.325    0.487    2.652
  321.570   72.781    0.325    0.491    2.734
  321.820   71.938    0.315    0.484    2.807
  322.070   73.471    0.306    0.474    2.886
  322.320   75.497    0.295    0.464    2.994
  322.570   78.187    0.282    0.460    3.042
  322.820   79.017    0.273    0.462    3.084
  323.070   80.138    0.272    0.477    3.038
  323.320   81.286    0.278    0.488    2.963
  323.570   81.767    0.271    0.498    2.904
  323.820   81.311    0.255    0.485    2.893
  324.070   80.507    0.244    0.475    2.991
  324.320   80.484    0.233    0.465    3.138
  324.570   81.254    0.235    0.456    3.271
  324.820   81.737    0.249    0.458    3.432
  325.070   82.339    0.266    0.465    3.558
  325.320   82.976    0.280    0.467    3.655
  325.570   86.564    0.265    0.469    3.705
  325.820   89.966    0.254    0.483    3.706
  326.070   91.330    0.243    0.505    3.710
  326.320   93.141    0.234    0.503    3.686
  326.570   94.571    0.231    0.489    3.613
  326.820   95.583    0.242    0.474    3.486
  327.070   96.490    0.254    0.482    3.377
  327.320   96.886    0.269    0.472    3.247
  327.570   93.134    0.279    0.458    3.145
  327.820   87.144    0.278    0.451    3.055
  328.070   81.703    0.266    0.455    3.001
  328.320   83.712    0.256    0.461    2.999
  328.570   90.309    0.245    0.469    3.052
  328.820   93.742    0.238    0.482    3.335
  329.070   96.491    0.229    0.492    3.684
  329.320   93.633    0.227    0.490    3.915
  329.570   89.951    0.235    0.496    4.208
  329.820   89.971    0.242    0.522    4.417
  330.070   93.326    0.246    0.553    4.603
  330.320   95.950    0.238    0.504    4.735
  330.570   97.670    0.235    0.483    4.856
  330.820   95.575    0.234    0.482    4.829
  331.070   94.172    0.242    0.471    4.694
  331.320   93.717    0.236    0.461    4.522
  331.570   94.543    0.240    0.453    4.394
  331.820   93.823    0.242    0.440    4.308
  332.070   92.020    0.232    0.423    4.277
  332.320   90.701    0.221    0.412    4.364
  332.570   90.722    0.213    0.402    4.516
  332.820   91.495    0.220    0.409    4.600
  333.070   93.405    0.231    0.423    4.528
  333.320   94.875    0.243    0.430    4.094
  333.570   96.058    0.230    0.437    3.699
  333.820   95.920    0.224    0.414    3.362
  334.070   91.692    0.236    0.401    3.097
  334.320   87.094    0.231    0.404    2.905
  334.570   83.475    0.241    0.373    2.791
  334.820   76.713    0.308    0.343    2.847
  335.070   72.909    0.361    0.328    3.034
  335.320   70.034    0.391    0.319    3.013
  335.570   68.877    0.333    0.341    3.194
  335.820   67.697    0.313    0.376    3.290
  336.070   67.531    0.299    0.400    3.271
  336.320   68.149    0.297    0.427    3.129
  336.570   69.083    0.294    0.435    2.893
  336.820   70.404    0.281    0.436    2.589
  337.070   72.712    0.271    0.437    2.419
  337.320   74.987    0.264    0.425    2.211
  337.570   76.985    0.269    0.419    2.048
  337.820   76.869    0.263    0.415    1.942
  338.070   74.073    0.293    0.416    1.873
  338.320   70.015    0.330    0.428    1.842
  338.570   65.368    0.345    0.442    1.911
  338.820   63.242    0.348    0.439    2.019
  339.070   62.166    0.342    0.427    2.146
  339.320   61.087    0.338    0.421    2.318
  339.570   59.216    0.343    0.430    2.529
  339.820   55.437    0.348    0.443    2.695
  340.070   51.529    0.347    0.442    2.904
  340.320   53.730    0.334    0.431    3.018
  340.570   59.389    0.315    0.422    3.240
  340.820   65.186    0.290    0.418    3.461
  341.070   70.323    0.276    0.424    3.633
  341.320   73.918    0.274    0.430    3.828
  341.570   77.090    0.266    0.433    3.974
  341.820   81.918    0.273    0.421    4.163
  342.070   85.600    0.270    0.411    4.254
  342.320   88.726    0.253    0.417    4.323
  342.570   90.878    0.253    0.431    4.318
  342.820   91.806    0.245    0.417    4.184
  343.070   92.975    0.231    0.411    4.029
  343.320   95.199    0.230    0.420    3.912
  343.570   97.160    0.220    0.423    3.895
  343.820   98.027    0.215    0.428    3.928
  344.070   98.477    0.212    0.438    3.970
  344.320   99.026    0.210    0.445    4.010
  344.570   99.404    0.212    0.453    4.051
  344.820   98.690    0.219    0.460    4.091
  345.070   96.141    0.232    0.469    4.082
  345.320   94.804    0.232    0.470    4.037
  345.570   96.987    0.225    0.452    3.930
  345.820   99.156    0.221    0.438    3.807
  346.070  101.013    0.215    0.430    3.635
  346.320  101.867    0.203    0.424    3.461
  346.570   99.960    0.195    0.417    3.337
  346.820   97.345    0.200    0.415    3.212
  347.070   94.359    0.205    0.424    3.058
  347.320   92.934    0.210    0.440    2.925
  347.570   90.915    0.217    0.465    2.829
  347.820   88.252    0.225    0.480    2.756
  348.070   86.626    0.238    0.463    2.702
  348.320   89.266    0.222    0.452    2.673
  348.570   91.078    0.214    0.457    2.669
  348.820   91.934    0.206    0.474    2.682
  349.070   91.340    0.224    0.467    2.699
  349.320   87.271    0.246    0.463    2.715
  349.570   81.975    0.270    0.469    2.718
  349.820   77.864    0.290    0.479    2.709
  350.070   73.672    0.303    0.468    2.684
  350.320   69.783    0.312    0.458    2.623
  350.570   67.755    0.314    0.453    2.586
  350.820   65.986    0.304    0.446    2.504
  351.070   66.539    0.298    0.446    2.435
  351.320   69.356    0.292    0.436    2.366
  351.570   71.786    0.293    0.431    2.344
  351.820   73.779    0.296    0.435    2.371
  352.070   73.739    0.292    0.458    2.428
  352.320   70.927    0.289    0.460    2.488
  352.570   68.843    0.284    0.449    2.554
  352.820   68.056    0.283    0.456    2.623
  353.070   68.608    0.293    0.465    2.777
  353.320   70.327    0.301    0.470    2.889
  353.570   71.634    0.303    0.459    3.105
  353.820   72.834    0.294    0.464    3.469
  354.070   73.773    0.285    0.456    3.918
  354.320   75.168    0.276    0.437    4.410
  354.570   78.582    0.267    0.421    4.894
  354.820   81.996    0.258    0.429    5.295
  355.070   85.157    0.250    0.440    5.514
  355.320   88.518    0.270    0.449    5.410
  355.570   87.899    0.322    0.423    4.875
  355.820   84.139    0.298    0.365    4.116
  356.070   81.480    0.277    0.310    3.457
  356.320   79.283    0.265    0.271    3.064
  356.570   76.977    0.277    0.280    2.875
  356.820   73.998    0.294    0.293    2.932
  357.070   69.541    0.307    0.304    3.139
  357.320   66.404    0.321    0.319    3.242
  357.570   62.978    0.333    0.347    3.555
  357.820   61.618    0.296    0.399    4.044
  358.070   60.784    0.253    0.425    4.567
  358.320   60.346    0.219    0.434    5.310
  358.570   60.048    0.188    0.418    6.804
  358.820   59.351    0.202    0.385    9.190
  359.070   58.361    0.268    0.360   15.271
  359.320   56.082    0.249    0.413   19.697
  359.570   52.686    0.175    0.342   11.229
  359.820   49.560    0.119    0.297    6.376
  360.070   47.436    0.054    0.260    4.291
  360.320   47.199    0.007    0.133    3.120
  360.570   48.874    0.030    0.135    2.520
  360.820   55.462    0.090    0.136    2.323
  361.070   60.676    0.159    0.397    2.228
