~VERSION INFORMATION
 VERS.                 2.0:   CWLS LOG ASCII STANDARD -VERSION 2.0
 WRAP.                  NO:   ONE LINE PER DEPTH STEP
~WELL INFORMATION BLOCK
#MNEM.UNIT           DATA                    DESCRIPTION OF MNEMONIC
#---------    -------------------            -------------------------------
# Generated from Intellog Unique Number	CC_80_83/WELL/2424
NULL.         -999.25                        : NULL_VALUE
WELL.         NOVALTA INVERNESS              : Well_name    - WELL
LOC .         11-35-081-04W4                 : Location     - LOCATION          
UWI .         00/11-35-081-04W400            : Uwi          - UNIQUE WELL ID    
ENTR.         DW                             : Entered      - ENTERED BY        
SRVC.         SCHLUMBERGER                   : Scn          - SERVICE COMPANY   
DATE.         12 JAN 82                      : Date         - LOG DATE
STRT.M        100                            : top_depth    - START DEPTH       
STOP.M        265.001                        : bot_depth    - STOP DEPTH        
STEP.M        0.3                            : increment    - STEP LENGTH       
~CURVE INFORMATION BLOCK
#MNEM UNIT       ERCB CURVE CODE    CURVE DESCRIPTION
#-----------   ------------------   ----------------------------------
DEPT.M        00 001 00 00         : DEPTH        - DEPTH                       
DPHI.V/V      00 890 00 00         : PHID         - DENSITY POROSITY (LIMESTONE)
NPHI.V/V      00 330 00 00         : PHIN         - NEUTRON POROSITY (LIMESTONE)
GR  .API      00 310 00 00         : GR           - GAMMA RAY                   
ILD .OHMM     00 120 00 00         : RESD         - DEEP RESISTIVITY (DIL)      
~PARAMETER INFORMATION       
#MNEM.UNIT           DATA             DESCRIPTION OF MNEMONIC
#---------         -----------     ------------------------------
GL  .M        456.1                : gl           - GROUND LEVEL ELEVATION      
EREF.M        459.5                : kb           - ELEVATION OF DEPTH REFERENCE
DATM.M        459.5                : datum        - DATUM ELEVATION             
TDD .M        276                  : tdd          - TOTAL DEPTH DRILLER         
RUN .         ONE                  : Run          - RUN NUMBER                  
ENG .         BILL                 : Engineer     - RECORDING ENGINEER          
WIT .         JIM                  : Witness      - WITNESSED BY                
MUD .         GEL                  : Mud_type     - MUD TYPE                    
MATR.         LIMESTONE            : Logunit      - NEUTRON MATRIX              
TMAX.C        12.7                 : BHT          - MAXIMUM RECORDED TEMPERATURE
BHTD.M        277                  : BHTDEP       - MAXIMUM RECORDED TEMPERATURE
MATR.         1                    : LOGUNIT      - NEUTRON MATRIX              
RMT .C        25                   : MDTP         - TEMPERATURE OF MUD          
NEUT.         1                    : NEUTRON      - NEUTRON TYPE                
RESI.         0                    : RESIST       - RESISTIVITY TYPE            
RMC .OHMM     0.25                 : RMC          - RESISTIVITY OF MUD CAKE     
RMF .OHMM     0.25                 : RMF          - RESISTIVITY OF MUD FILTRATE 
SUFT.C        15                   : SUFT         - SURFACE TEMPERATURE         
~A  DEPTH     PHID     PHIN       GR     RESD
# ...
  152.201    0.280    0.459   74.817    4.136
  152.501    0.233    0.462   72.338    4.292
  152.801    0.234    0.475   69.855    4.289
  153.101    0.287    0.466   67.995    4.202
  153.401    0.292    0.454   69.249    3.890
  153.701    0.277    0.461   75.480    3.670
  154.001    0.244    0.450   79.843    3.529
  154.301    0.225    0.450   82.342    3.663
  154.601    0.205    0.470   82.972    3.875
  154.901    0.234    0.492   81.736    4.023
  155.201    0.266    0.496   77.386    4.018
  155.501    0.258    0.479   73.660    4.092
  155.801    0.249    0.464   73.668    4.087
  156.101    0.241    0.458   79.901    4.162
  156.401    0.248    0.448   84.263    4.080
  156.701    0.246    0.435   89.251    4.075
  157.001    0.184    0.438   89.257    4.073
  157.301    0.168    0.438   74.952    3.992
  157.601    0.172    0.413   74.960    3.987
  157.901    0.191    0.424   84.927    3.983
  158.201    0.223    0.461   92.404    3.979
  158.501    0.222    0.468   94.898    3.977
  158.801    0.204    0.465   98.019    4.126
  159.101    0.209    0.432   96.161    4.366
  159.401    0.197    0.425   93.056    4.362
  159.701    0.228    0.476   83.728    4.275
  160.001    0.193    0.479   71.290    4.111
  160.301    0.147    0.427   77.521    3.805
  160.601    0.106    0.453   91.220    3.262
  160.901    0.193    0.551   99.941    3.136
  161.201    0.245    0.536   88.125    3.255
  161.501    0.204    0.514   86.266    3.579
  161.801    0.173    0.493   91.253    3.715
  162.101    0.186    0.471   96.238    3.504
  162.401    0.173    0.474   95.002    3.121
  162.701    0.156    0.562   88.786    2.944
  163.001    0.142    0.570   83.194    2.999
  163.301    0.239    0.542   78.847    3.234
  163.601    0.254    0.445   76.985    3.486
  163.901    0.190    0.430   76.994    3.551
  164.201    0.129    0.496   85.714    3.287
  164.501    0.167    0.547   98.169    2.765
  164.801    0.162    0.572   91.954    2.511
  165.101    0.272    0.570   83.871    2.657
  165.401    0.233    0.481   82.013    3.151
  165.701    0.173    0.485   82.020    3.465
  166.001    0.193    0.480   97.586    4.033
  166.301    0.204    0.468   93.239    4.878
  166.601    0.187    0.441   87.023    5.162
  166.901    0.221    0.370   76.451    5.255
  167.201    0.252    0.383   73.970    5.052
  167.501    0.150    0.414   78.334    4.953
  167.801    0.031    0.423   78.343    4.497
  168.101    0.026    0.436   79.594    4.083
  168.401    0.141    0.495   84.580    3.707
  168.701    0.186    0.541   83.967    3.633
  169.001    0.234    0.501   82.732    3.700
  169.301    0.164    0.474   84.607    3.841
  169.601    0.174    0.467   84.613    4.065
  169.901    0.075    0.442   84.622    4.466
  170.201    0.129    0.432   84.011    4.549
  170.501    0.166    0.433   83.391    4.633
  170.801    0.056    0.474   81.535    4.539
  171.101    0.070    0.494   80.296    4.536
  171.401    0.146    0.465   86.529    4.360
  171.701    0.217    0.444   87.157    4.275
  172.001    0.198    0.425   86.543    4.191
  172.301    0.241    0.447   84.062    4.028
  172.601    0.268    0.472   82.202    3.950
  172.901    0.285    0.458   79.724    3.798
  173.201    0.235    0.432   79.107    3.583
  173.501    0.200    0.438   82.229    3.444
  173.801    0.220    0.468   83.480    3.127
  174.101    0.200    0.521   81.620    2.733
  174.401    0.187    0.560   75.406    2.343
  174.701    0.200    0.569   74.169    2.086
  175.001    0.134    0.584   77.913    2.046
  175.301    0.097    0.571   78.540    2.044
  175.601    0.153    0.554   77.928    2.081
  175.901    0.230    0.579   77.311    2.161
  176.201    0.264    0.605   76.699    2.330
  176.501    0.218    0.590   76.085    2.561
  176.801    0.189    0.493   76.715    2.762
  177.101    0.226    0.503   77.344    3.094
  177.401    0.194    0.503   77.973    3.401
  177.701    0.184    0.494   76.116    3.531
  178.001    0.220    0.482   76.125    3.880
  178.301    0.185    0.467   77.999    4.029
  178.601    0.187    0.463   82.984    4.024
  178.901    0.231    0.491   90.459    3.726
  179.201    0.201    0.537   99.180    3.133
  179.501    0.158    0.545   93.590    2.844
  179.801    0.127    0.533   91.108    2.789
  180.101    0.217    0.507   88.627    2.894
  180.401    0.250    0.484   86.767    3.004
  180.701    0.243    0.488   86.774    3.059
  181.001    0.165    0.544   89.893    3.056
  181.301    0.165    0.534   96.746    3.053
  181.601    0.163    0.501   96.132    3.110
  181.901    0.204    0.506   93.651    3.353
  182.201    0.243    0.529   93.036    3.349
  182.501    0.221    0.499   94.289    3.284
  182.801    0.184    0.497   94.920    3.156
  183.101    0.175    0.520   89.948    3.036
  183.401    0.211    0.538   86.845    3.092
  183.701    0.256    0.533   81.875    3.399
  184.001    0.214    0.513   83.751    4.033
  184.301    0.200    0.425   85.625    4.266
  184.601    0.229    0.426   84.388    4.263
  184.901    0.236    0.463   85.640    4.020
  185.201    0.221    0.486   88.137    4.015
  185.501    0.193    0.503   88.767    4.012
  185.801    0.101    0.506   83.176    4.247
  186.101    0.063    0.493   78.827    4.579
  186.401    0.034    0.404   83.813    4.938
  186.701    0.163    0.445   86.310    5.225
  187.001    0.172    0.439   83.828    5.528
  187.301    0.198    0.344   72.635    5.959
  187.601    0.244    0.327   58.951    6.187
  187.901    0.177    0.319   49.001    6.422
  188.201    0.188    0.347   53.370    6.923
  188.501    0.239    0.337   53.996    7.052
  188.801    0.225    0.318   52.761    7.046
  189.101    0.264    0.301   50.901    7.456
  189.401    0.282    0.300   48.419    7.885
  189.701    0.293    0.297   48.427    8.032
  190.001    0.192    0.303   54.036    8.181
  190.301    0.214    0.365   73.336    8.018
  190.601    0.167    0.442   72.722    4.689
  190.901    0.157    0.415   64.639    4.340
  191.201    0.220    0.395   71.493    4.419
  191.501    0.247    0.425   80.213    4.765
  191.801    0.267    0.430   82.711    5.041
  192.101    0.279    0.395   81.475    5.038
  192.401    0.295    0.400   78.993    5.230
  192.701    0.317    0.382   66.553    7.371
  193.001    0.285    0.117   57.849   10.589
  193.301    0.236    0.110   46.033   25.005
  193.601    0.202    0.111   48.531   32.645
  193.901    0.310    0.127   55.388   32.611
  194.201    0.298    0.154   57.259   25.905
  194.501    0.267    0.188   56.023   16.994
  194.801    0.258    0.221   59.763   14.571
  195.101    0.274    0.188   56.662   13.224
  195.401    0.267    0.187   57.290   12.966
  195.701    0.263    0.213   66.012   11.999
  196.001    0.263    0.246   72.866    8.499
  196.301    0.161    0.297   75.362    5.165
  196.601    0.204    0.400   73.504    4.345
  196.901    0.154    0.394   76.623    3.653
  197.201    0.150    0.417   75.385    3.446
  197.501    0.234    0.390   57.346    3.251
  197.801    0.218    0.367   54.242    2.953
  198.101    0.208    0.353   45.538    2.436
  198.401    0.223    0.336   31.231    2.212
  198.701    0.167    0.348   36.218    2.047
  199.001    0.219    0.346   44.939    1.968
  199.301    0.248    0.356   50.548    1.930
  199.601    0.214    0.366   43.087    1.928
  199.901    0.223    0.360   33.140    2.001
  200.201    0.217    0.328   34.393    2.037
  200.501    0.203    0.336   35.023    1.997
  200.801    0.215    0.347   33.163    1.920
  201.101    0.250    0.357   34.417    1.847
  201.401    0.265    0.346   34.424    1.809
  201.701    0.247    0.341   33.809    1.808
  202.001    0.232    0.338   35.684    1.806
  202.301    0.193    0.338   36.316    1.804
  202.601    0.229    0.341   36.323    1.769
  202.901    0.260    0.346   29.485    1.701
  203.201    0.202    0.355   25.136    1.666
  203.501    0.191    0.361   32.613    1.665
  203.801    0.167    0.389   35.109    1.632
  204.101    0.188    0.358   36.985    1.630
