~VERSION INFORMATION
 VERS.                 2.0:   CWLS LOG ASCII STANDARD -VERSION 2.0
 WRAP.                  NO:   ONE LINE PER DEPTH STEP
~WELL INFORMATION BLOCK
#MNEM.UNIT           DATA                    DESCRIPTION OF MNEMONIC
#---------    -------------------            -------------------------------
# Generated from Intellog Unique Number	CS_77_79/WELL/1013
WELL.         CWWE LEISMER                   : Well_name    - WELL
LOC .         00/12-14-079-08W4/0            : Location     - LOCATION
UWI .         00/12-14-079-08W4/0            : Uwi          - UNIQUE WELL ID
ENTR.         JHS                            : Entered      - ENTERED BY
SRVC.         SCHLUMBERGER                   : Scn          - SERVICE COMPANY
STRT.M        155                            : top_depth    - START DEPTH
STOP.M        380                            : bot_depth    - STOP DEPTH
STEP.M        0.25                           : increment    - STEP LENGTH
 NULL. -999.2500:NULL Value
~CURVE INFORMATION BLOCK
#MNEM UNIT       ERCB CURVE CODE    CURVE DESCRIPTION
#-----------   ------------------   ----------------------------------
DEPT.M        00 001 00 00         : DEPTH        - DEPTH
DPHI.V/V      00 890 00 00         : PHID         - DENSITY POROSITY (LIMESTONE)
NPHI.V/V      00 330 00 00         : PHIN         - NEUTRON POROSITY (LIMESTONE)
GR  .API      00 310 00 00         : GR           - GAMMA RAY
ILD .OHMM     00 120 00 00         : RESD         - DEEP RESISTIVITY (DIL)
RHOB.KG/M3    00 350 00 00         : DENS         - BULK DENSITY
~PARAMETER INFORMATION
#MNEM.UNIT           DATA             DESCRIPTION OF MNEMONIC
#---------         -----------     ------------------------------
GL  .M        591.18               : gl           - GROUND LEVEL ELEVATION
EREF.M        595.43               : kb           - ELEVATION OF DEPTH REFERENCE
DATM.M        595.43               : datum        - DATUM ELEVATION
TDD .M        381.3                : tdd          - TOTAL DEPTH DRILLER
RUN .         ONE                  : Run          - RUN NUMBER
ENG .         BILL                 : Engineer     - RECORDING ENGINEER
WIT .         JIM                  : Witness      - WITNESSED BY
MUD .         GEL                  : Mud_type     - MUD TYPE
MATR.         LIMESTONE            : Logunit      - NEUTRON MATRIX
TMAX.C        20                   : BHT          - MAXIMUM RECORDED TEMPERATURE
BHTD.M        381.3                : BHTDEP       - MAXIMUM RECORDED TEMPERATURE
MATR.         1                    : LOGUNIT      - NEUTRON MATRIX
RMT .C        25                   : MDTP         - TEMPERATURE OF MUD
NEUT.         1                    : NEUTRON      - NEUTRON TYPE
RESI.         0                    : RESIST       - RESISTIVITY TYPE
RMC .OHMM     0.25                 : RMC          - RESISTIVITY OF MUD CAKE
RMF .OHMM     0.25                 : RMF          - RESISTIVITY OF MUD FILTRATE
SUFT.C        15                   : SUFT         - SURFACE TEMPERATURE
~A  DEPTH     PHID     PHIN       GR     RESD     DENS
# ...
  337.500    0.245    0.417  108.160   12.302 2291.720
  337.750    0.259    0.400  120.878   12.546 2266.800
  338.000    0.297    0.383  123.313   13.529 2202.330
  338.250    0.304    0.376  110.020   15.145 2189.900
  338.500    0.302    0.377   82.816   17.276 2194.100
  338.750    0.307    0.372   74.364   18.627 2185.830
  339.000    0.300    0.353   70.748   18.312 2196.280
  339.250    0.274    0.338   73.787   17.332 2242.120
  339.500    0.258    0.351   79.850   16.412 2269.220
  339.750    0.265    0.348   70.190   16.736 2256.780
  340.000    0.300    0.337   49.033   17.720 2196.470
  340.250    0.305    0.311   33.325   19.471 2188.200
  340.500    0.298    0.293   27.895   20.995 2200.740
  340.750    0.299    0.297   24.284   23.500 2198.700
  341.000    0.312    0.315   24.299   27.820 2175.860
  341.250    0.325    0.329   26.728   33.549 2155.090
  341.500    0.329    0.348   34.001   40.457 2146.820
  341.750    0.328    0.359   41.879   50.644 2148.950
  342.000    0.323    0.359   51.570   63.395 2157.320
  342.250    0.321    0.341   57.031   79.354 2161.530
  342.500    0.326    0.333   44.947   87.193 2153.260
  342.750    0.328    0.330   38.914   88.936 2149.140
  343.000    0.326    0.341   49.210   89.043 2153.350
  343.250    0.325    0.363   60.718   85.859 2153.400
  343.500    0.332    0.373   55.893   74.060 2143.050
  343.750    0.339    0.384   50.465   65.111 2130.610
  344.000    0.339    0.364   49.271   63.989 2130.670
  344.250    0.340    0.355   43.236   62.855 2128.620
  344.500    0.345    0.350   44.461   56.272 2120.350
  344.750    0.339    0.380   56.573   47.646 2130.800
  345.000    0.333    0.408   68.079   44.277 2141.260
  345.250    0.337    0.413   74.749   32.901 2132.980
  345.500    0.335    0.421   77.786   26.346 2137.190
  345.750    0.323    0.412   82.039   24.496 2158.050
  346.000    0.306    0.406   85.076   23.612 2187.240
  346.250    0.306    0.402   85.695   21.547 2187.280
  346.500    0.324    0.402   85.104   18.933 2156.120
  346.750    0.280    0.413   89.958   17.596 2231.080
  347.000    0.222    0.392   93.602   17.285 2331.020
  347.250    0.173    0.355   89.990   15.767 2414.320
  347.500    0.157    0.316   89.398   13.102 2441.420
  347.750    0.195    0.348   95.460   10.891 2376.960
  348.000    0.248    0.380  100.919    9.221 2285.440
  348.250    0.247    0.396  103.959    8.411 2287.570
  348.500    0.240    0.404  109.417    7.671 2300.120
  348.750    0.237    0.414  115.480    7.262 2304.320
  349.000    0.245    0.434  122.752    7.412 2291.880
  349.250    0.237    0.433  128.819    7.416 2304.410
  349.500    0.224    0.395  130.644    8.148 2327.350
  349.750    0.214    0.372  128.243    8.952 2344.050
  350.000    0.208    0.361  121.606   10.405 2354.510
  350.250    0.216    0.387  113.753   11.864 2339.990
  350.500    0.249    0.361   97.436   13.037 2283.840
  350.750    0.272    0.337   75.072   13.800 2244.340
  351.000    0.264    0.344   79.927   14.338 2258.960
  351.250    0.260    0.374   84.779   14.092 2265.260
  351.500    0.277    0.368   83.587   14.371 2236.170
  351.750    0.284    0.360   84.809   16.700 2223.730
  352.000    0.271    0.361   87.242   20.517 2246.670
  352.250    0.278    0.390   86.048   24.283 2234.230
  352.500    0.304    0.383   75.175   29.291 2190.570
  352.750    0.318    0.363   55.229   34.025 2165.650
  353.000    0.320    0.351   50.408   44.208 2163.630
  353.250    0.309    0.338   51.630   46.793 2182.410
  353.500    0.305    0.360   58.905   42.688 2188.690
  353.750    0.302    0.384   62.549   35.479 2192.910
  354.000    0.291    0.362   62.563   31.181 2211.690
  354.250    0.283    0.350   66.810   30.081 2226.290
  354.500    0.276    0.346   77.110   30.670 2238.830
  354.750    0.294    0.350   86.197   32.468 2207.660
  355.000    0.283    0.361   88.630   33.111 2226.450
  355.250    0.262    0.342   77.761   33.781 2261.870
  355.500    0.229    0.325   63.860   30.809 2318.100
  355.750    0.200    0.307   56.012   22.473 2368.120
  356.000    0.207    0.298   60.260   15.797 2355.670
  356.250    0.234    0.302   74.791   13.128 2309.930
  356.500    0.229    0.378   91.137   11.115 2318.300
  356.750    0.227    0.375  105.063    9.951 2322.520
  357.000    0.227    0.369  110.523    9.248 2322.560
  357.250    0.236    0.354  107.515    8.919 2305.970
  357.500    0.237    0.347  100.875    8.931 2303.930
  357.750    0.228    0.353  100.287    8.939 2320.630
  358.000    0.218    0.360  105.140    8.786 2337.330
  358.250    0.217    0.370  110.600    8.477 2339.460
  358.500    0.220    0.385  111.222    8.173 2333.250
  358.750    0.209    0.381  113.044    7.738 2352.040
  359.000    0.206    0.374  118.509    7.606 2358.320
  359.250    0.213    0.372  119.125    7.616 2345.890
  359.500    0.208    0.367  117.323    7.621 2354.270
  359.750    0.206    0.364  111.897    7.772 2358.500
  360.000    0.210    0.363  108.281    7.786 2350.200
  360.250    0.214    0.382  107.086    7.940 2344.010
  360.500    0.205    0.400  112.545    7.800 2358.630
  360.750    0.202    0.395  117.398    7.810 2364.920
  361.000    0.207    0.375  121.645    7.673 2356.640
  361.250    0.216    0.366  119.241    7.683 2340.030
  361.500    0.221    0.366  113.818    7.688 2331.760
  361.750    0.215    0.364  111.412    7.843 2342.230
  362.000    0.211    0.360  110.818    8.150 2348.510
  362.250    0.215    0.379  115.067    8.157 2342.320
  362.500    0.219    0.383  119.921    8.479 2336.110
  362.750    0.206    0.385  121.749    8.645 2356.980
  363.000    0.197    0.396  113.901    8.983 2373.670
  363.250    0.178    0.394  107.266    9.162 2404.940
  363.500    0.191    0.389  104.252    9.349 2384.180
  363.750    0.223    0.383  108.507    9.188 2328.030
  364.000    0.226    0.393  111.543    9.195 2323.920
  364.250    0.232    0.395  112.764    9.207 2313.570
  364.500    0.221    0.399  112.177    9.389 2332.340
  364.750    0.207    0.397  114.613    9.396 2355.300
  365.000    0.200    0.389  118.256    9.948 2367.820
  365.250    0.196    0.380  121.293   11.139 2374.130
  365.500    0.196    0.375  125.543   12.702 2374.160
  365.750    0.192    0.409  127.371   16.505 2382.530
  366.000    0.200    0.372  112.263   18.815 2368.010
  366.250    0.247    0.336   87.479   29.446 2286.890
  366.500    0.279    0.329   51.807   44.401 2232.830
  366.750    0.301    0.329   37.913   54.561 2195.420
  367.000    0.306    0.328   34.297   53.614 2187.150
  367.250    0.297    0.322   34.921   46.244 2201.760
  367.500    0.287    0.317   37.958   31.908 2218.470
  367.750    0.286    0.318   45.229   26.027 2220.590
  368.000    0.298    0.356   59.760   22.871 2199.820
  368.250    0.303    0.380   71.266   18.658 2191.570
  368.500    0.313    0.370   76.726   16.093 2174.950
  368.750    0.334    0.362   68.877   13.374 2139.620
  369.000    0.325    0.365   63.447   10.318 2154.230
  369.250    0.319    0.351   71.325    8.418 2164.690
  369.500    0.315    0.333   76.178    7.127 2170.980
  369.750    0.304    0.337   75.590    5.925 2189.760
  370.000    0.296    0.354   66.532    5.404 2204.380
  370.250    0.294    0.353   53.847    5.114 2206.520
  370.500    0.304    0.355   51.440    4.755 2189.910
  370.750    0.309    0.343   48.430    4.759 2181.620
  371.000    0.324    0.336   42.398    4.763 2156.700
  371.250    0.324    0.333   34.548    4.949 2156.770
  371.500    0.315    0.337   35.168    5.239 2171.370
  371.750    0.302    0.372   41.839    5.245 2194.320
  372.000    0.297    0.345   46.084    5.350 2202.690
  372.250    0.297    0.331   44.889    5.355 2202.740
  372.500    0.297    0.325   42.484    5.462 2202.790
  372.750    0.297    0.316   41.291    5.368 2202.850
  373.000    0.311    0.309   36.466    5.578 2177.900
  373.250    0.316    0.327   38.297    6.603    0.000
  373.500    0.269    0.292   44.358    9.415    0.000
  373.750    0.199    0.186   41.349   12.694    0.000
