~VERSION INFORMATION
 VERS.                 2.0:   CWLS LOG ASCII STANDARD -VERSION 2.0
 WRAP.                  NO:   ONE LINE PER DEPTH STEP
~WELL INFORMATION BLOCK
#MNEM.UNIT           DATA                    DESCRIPTION OF MNEMONIC
#---------    -------------------            -------------------------------
# Generated from Intellog Unique Number	CS_77_79/WELL/1004
WELL.         MAYNARD ET AL THORNBURY        : Well_name    - WELL
LOC .         00/11-31-079-11W4/0            : Location     - LOCATION
UWI .         00/11-31-079-11W4/0            : Uwi          - UNIQUE WELL ID
ENTR.         JHS                            : Entered      - ENTERED BY
SRVC.         SCHLUMBERGER                   : Scn          - SERVICE COMPANY
STRT.M        225                            : top_depth    - START DEPTH
STOP.M        495                            : bot_depth    - STOP DEPTH
STEP.M        0.25                           : increment    - STEP LENGTH
 NULL. -999.2500:NULL Value
~CURVE INFORMATION BLOCK
#MNEM UNIT       ERCB CURVE CODE    CURVE DESCRIPTION
#-----------   ------------------   ----------------------------------
DEPT.M        00 001 00 00         : DEPTH        - DEPTH
DPHI.V/V      00 890 00 00         : PHID         - DENSITY POROSITY (LIMESTONE)
NPHI.V/V      00 330 00 00         : PHIN         - NEUTRON POROSITY (LIMESTONE)
GR  .API      00 310 00 00         : GR           - GAMMA RAY
ILD .OHMM     00 120 00 00         : RESD         - DEEP RESISTIVITY (DIL)
~PARAMETER INFORMATION
#MNEM.UNIT           DATA             DESCRIPTION OF MNEMONIC
#---------         -----------     ------------------------------
GL  .M        688.32               : gl           - GROUND LEVEL ELEVATION
EREF.M        691.52               : kb           - ELEVATION OF DEPTH REFERENCE
DATM.M        691.52               : datum        - DATUM ELEVATION
TDD .M        500                  : tdd          - TOTAL DEPTH DRILLER
RUN .         ONE                  : Run          - RUN NUMBER
ENG .         BILL                 : Engineer     - RECORDING ENGINEER
WIT .         JIM                  : Witness      - WITNESSED BY
MUD .         GEL                  : Mud_type     - MUD TYPE
MATR.         LIMESTONE            : Logunit      - NEUTRON MATRIX
TMAX.C        20                   : BHT          - MAXIMUM RECORDED TEMPERATURE
BHTD.M        500                  : BHTDEP       - MAXIMUM RECORDED TEMPERATURE
MATR.         1                    : LOGUNIT      - NEUTRON MATRIX
RMT .C        25                   : MDTP         - TEMPERATURE OF MUD
NEUT.         1                    : NEUTRON      - NEUTRON TYPE
RESI.         0                    : RESIST       - RESISTIVITY TYPE
RMC .OHMM     0.25                 : RMC          - RESISTIVITY OF MUD CAKE
RMF .OHMM     0.25                 : RMF          - RESISTIVITY OF MUD FILTRATE
SUFT.C        15                   : SUFT         - SURFACE TEMPERATURE
~A  DEPTH     PHID     PHIN       GR     RESD
# ...
  268.500    0.353    0.237   56.282   68.591
  268.750    0.365    0.254   58.804   57.198
  269.000    0.382    0.269   60.678   33.514
  269.250    0.381    0.290   69.984   20.727
  269.500    0.356    0.372   82.372   17.601
  269.750    0.312    0.420  102.784   13.323
  270.000    0.276    0.474  116.402   10.033
  270.250    0.237    0.489  124.470    7.647
  270.500    0.209    0.490  126.367    6.168
  270.750    0.185    0.472  122.087    5.511
  271.000    0.187    0.463  115.349    5.184
  271.250    0.182    0.460  114.147    5.186
  271.500    0.189    0.463  116.673    5.187
  271.750    0.200    0.471  117.333    5.354
  272.000    0.202    0.475  115.525    5.521
  272.250    0.196    0.481  116.805    5.604
  272.500    0.190    0.480  118.700    5.606
  272.750    0.184    0.481  119.360    5.608
  273.000    0.174    0.484  118.786    5.610
  273.250    0.167    0.483  118.829    5.694
  273.500    0.165    0.478  118.866    5.860
  273.750    0.175    0.465  117.057    6.027
  274.000    0.201    0.451  113.393    6.193
  274.250    0.212    0.447  114.061    6.442
  274.500    0.204    0.452  111.626    6.526
  274.750    0.188    0.463  106.732    6.610
  275.000    0.166    0.470  110.483    6.529
  275.250    0.167    0.473  114.841    6.449
  275.500    0.176    0.468  119.202    6.533
  275.750    0.199    0.466  121.109    6.617
  276.000    0.195    0.470  117.448    6.619
  276.250    0.201    0.466  113.160    6.703
  276.500    0.196    0.465  111.973    6.623
  276.750    0.196    0.467  112.011    6.624
  277.000    0.197    0.467  116.378    6.708
  277.250    0.192    0.463  117.663    6.792
  277.500    0.195    0.457  116.466    6.959
  277.750    0.191    0.446  114.040    7.042
  278.000    0.192    0.441  111.613    7.291
  278.250    0.176    0.435  109.184    7.458
  278.500    0.168    0.433  109.858    7.624
  278.750    0.173    0.434  111.132    7.708
  279.000    0.182    0.439  112.403    7.628
  279.250    0.192    0.442  113.681    7.547
  279.500    0.188    0.440  114.977    7.466
  279.750    0.183    0.443  114.998    7.633
  280.000    0.195    0.434  113.203    7.717
  280.250    0.196    0.423  112.000    7.966
  280.500    0.196    0.413  108.965    8.132
  280.750    0.202    0.408  104.684    8.299
  281.000    0.202    0.403  104.105    8.630
  281.250    0.197    0.398  104.789    8.796
  281.500    0.185    0.399  104.807    8.880
  281.750    0.178    0.405  107.340    8.635
  282.000    0.184    0.418  107.984    8.390
  282.250    0.181    0.417  108.648    8.227
  282.500    0.169    0.422  106.833    8.147
  282.750    0.160    0.426  108.109    8.149
  283.000    0.152    0.422  108.157    8.150
  283.250    0.163    0.417  105.110    8.399
  283.500    0.179    0.414  100.842    8.729
  283.750    0.179    0.409   99.649    8.896
  284.000    0.170    0.405  100.305    8.980
  284.250    0.164    0.405  100.967    8.900
  284.500    0.161    0.418  101.621    8.819
  284.750    0.175    0.435  100.437    8.574
  285.000    0.186    0.435   98.005    8.411
  285.250    0.189    0.428  103.605    8.248
  285.500    0.183    0.417  111.052    7.839
  285.750    0.172    0.417  116.669    7.676
  286.000    0.176    0.422  117.936    7.431
  286.250    0.184    0.424  117.364    7.433
  286.500    0.178    0.423  113.700    7.516
  286.750    0.174    0.423  110.047    7.601
  287.000    0.169    0.422  107.004    7.603
  287.250    0.183    0.418  105.183    7.522
  287.500    0.186    0.424  103.394    7.442
  287.750    0.192    0.431  104.660    7.361
  288.000    0.197    0.434  107.783    7.281
  288.250    0.193    0.434  110.918    7.282
  288.500    0.185    0.419  113.424    7.367
  288.750    0.177    0.401  107.303    7.450
  289.000    0.162    0.374   95.609    7.781
  289.250    0.082    0.362   81.456    8.277
  289.500    0.057    0.354   80.264    8.690
  289.750    0.052    0.368   95.738    8.445
  290.000    0.118    0.400  114.300    8.035
  290.250    0.172    0.443  125.461    7.626
  290.500    0.165    0.434  127.964    7.133
  290.750    0.174    0.425  129.258    6.641
  291.000    0.191    0.419  128.667    6.478
  291.250    0.219    0.421  124.398    7.303
  291.500    0.239    0.430  117.649    8.457
  291.750    0.241    0.432  113.366    9.941
  292.000    0.246    0.425  108.484   10.930
  292.250    0.260    0.417  105.431   11.508
  292.500    0.263    0.414   98.686   12.086
  292.750    0.259    0.416   91.325   12.417
  293.000    0.251    0.428   89.513   12.748
  293.250    0.249    0.429   88.951   12.997
  293.500    0.259    0.419   84.673   13.328
  293.750    0.297    0.409   83.467   13.576
  294.000    0.301    0.407   76.108   14.072
  294.250    0.297    0.412   75.540   14.485
  294.500    0.302    0.424   78.672   15.063
  294.750    0.311    0.429   82.412   15.394
  295.000    0.304    0.427   88.017   15.561
  295.250    0.299    0.424   92.391   15.233
  295.500    0.275    0.422   94.270   14.577
  295.750    0.250    0.423   94.307   14.496
  296.000    0.244    0.425   91.884   14.498
  296.250    0.235    0.422   88.224   14.582
  296.500    0.226    0.422   83.952   14.995
  296.750    0.230    0.423   84.612   15.244
  297.000    0.241    0.438   87.129   15.246
  297.250    0.267    0.455   89.633   15.083
  297.500    0.275    0.464   91.532   14.756
  297.750    0.272    0.465   91.567   14.346
  298.000    0.270    0.457   89.762   14.595
  298.250    0.271    0.442   86.103   15.090
  298.500    0.262    0.426   81.209   16.162
  298.750    0.251    0.421   83.107   17.151
  299.000    0.244    0.421   88.710   17.647
  299.250    0.247    0.430   93.067   17.649
  299.500    0.260    0.436   96.817   17.404
  299.750    0.278    0.434   99.330   17.241
  300.000    0.288    0.431   96.897   17.160
  300.250    0.309    0.427   90.148   16.915
  300.500    0.321    0.429   90.203   16.506
  300.750    0.313    0.438   88.383   16.096
  301.000    0.279    0.441   89.658   15.027
  301.250    0.258    0.437   93.418   13.712
  301.500    0.267    0.434   93.453   12.479
  301.750    0.271    0.429   94.115   11.576
  302.000    0.267    0.425   97.860   11.084
  302.250    0.249    0.430  100.367   10.674
  302.500    0.246    0.438  103.510   10.182
  302.750    0.257    0.439  103.544    9.854
  303.000    0.257    0.449   97.412    9.363
  303.250    0.251    0.459   95.000    8.870
  303.500    0.251    0.456   96.264    8.296
  303.750    0.275    0.453   99.402    7.804
  304.000    0.264    0.439  100.687    7.641
  304.250    0.247    0.430  100.107    7.396
  304.500    0.242    0.427   98.289    7.480
  304.750    0.239    0.428   94.011    8.387
  305.000    0.259    0.431   92.210    9.706
  305.250    0.274    0.429   93.478   10.366
  305.500    0.271    0.424   93.526   11.356
  305.750    0.266    0.416   89.251   12.016
  306.000    0.261    0.409   80.649   13.087
  306.250    0.261    0.407   73.282   14.982
  306.500    0.277    0.409   65.935   17.947
  306.750    0.321    0.411   65.362   19.595
  307.000    0.343    0.410   66.007   25.516
  307.250    0.343    0.411   67.920   25.528
  307.500    0.338    0.416   69.812   24.717
  307.750    0.340    0.419   70.468   23.903
  308.000    0.330    0.425   69.271   23.092
  308.250    0.325    0.428   67.457   22.280
  308.500    0.322    0.426   65.028   21.468
  308.750    0.325    0.418   62.618   21.480
  309.000    0.341    0.416   62.654   20.670
  309.250    0.355    0.419   61.466   21.502
  309.500    0.361    0.426   62.126   21.515
  309.750    0.359    0.430   64.010   21.524
  310.000    0.363    0.432   65.923   21.536
  310.250    0.353    0.431   65.353   22.372
  310.500    0.354    0.432   64.762   22.381
  310.750    0.352    0.440   65.424   22.394
  311.000    0.350    0.435   66.088   22.405
  311.250    0.347    0.429   66.743   22.416
  311.500    0.355    0.430   66.786   23.252
  311.750    0.350    0.433   65.591   23.265
