~VERSION INFORMATION
 VERS.                 2.0:   CWLS LOG ASCII STANDARD -VERSION 2.0
 WRAP.                  NO:   ONE LINE PER DEPTH STEP
~WELL INFORMATION BLOCK
#MNEM.UNIT           DATA                    DESCRIPTION OF MNEMONIC
#---------    -------------------            -------------------------------
# Generated from Intellog Unique Number	CS_77_79/WELL/960
WELL.         CDN. SUP. THORNBURY            : Well_name    - WELL
LOC .         00/10-22-078-14W4/0            : Location     - LOCATION
UWI .         00/10-22-078-14W4/0            : Uwi          - UNIQUE WELL ID
ENTR.         JHS                            : Entered      - ENTERED BY
SRVC.         SCHLUMBERGER                   : Scn          - SERVICE COMPANY
STRT.M        275                            : top_depth    - START DEPTH
STOP.M        518.25                         : bot_depth    - STOP DEPTH
STEP.M        0.25                           : increment    - STEP LENGTH
 NULL. -999.2500:NULL Value
~CURVE INFORMATION BLOCK
#MNEM UNIT       ERCB CURVE CODE    CURVE DESCRIPTION
#-----------   ------------------   ----------------------------------
DEPT.M        00 001 00 00         : DEPTH        - DEPTH
NPHI.V/V      00 330 00 00         : PHIN         - NEUTRON POROSITY (LIMESTONE)
GR  .API      00 310 00 00         : GR           - GAMMA RAY
ILD .OHMM     00 120 00 00         : RESD         - DEEP RESISTIVITY (DIL)
DPHI.V/V      00 890 00 00         : PHID         - DENSITY POROSITY (LIMESTONE)
~PARAMETER INFORMATION
#MNEM.UNIT           DATA             DESCRIPTION OF MNEMONIC
#---------         -----------     ------------------------------
GL  .M        685.4                : gl           - GROUND LEVEL ELEVATION
EREF.M        689.9                : kb           - ELEVATION OF DEPTH REFERENCE
DATM.M        689.9                : datum        - DATUM ELEVATION
TDD .M        665                  : tdd          - TOTAL DEPTH DRILLER
RUN .         ONE                  : Run          - RUN NUMBER
ENG .         BILL                 : Engineer     - RECORDING ENGINEER
WIT .         JIM                  : Witness      - WITNESSED BY
MUD .         GEL                  : Mud_type     - MUD TYPE
MATR.         LIMESTONE            : Logunit      - NEUTRON MATRIX
TMAX.C        19                   : BHT          - MAXIMUM RECORDED TEMPERATURE
BHTD.M        665                  : BHTDEP       - MAXIMUM RECORDED TEMPERATURE
MATR.         1                    : LOGUNIT      - NEUTRON MATRIX
RMT .C        25                   : MDTP         - TEMPERATURE OF MUD
NEUT.         1                    : NEUTRON      - NEUTRON TYPE
RESI.         0                    : RESIST       - RESISTIVITY TYPE
RMC .OHMM     0.25                 : RMC          - RESISTIVITY OF MUD CAKE
RMF .OHMM     0.25                 : RMF          - RESISTIVITY OF MUD FILTRATE
SUFT.C        15                   : SUFT         - SURFACE TEMPERATURE
~A  DEPTH     PHIN       GR     RESD     PHID
# ...
  362.000    0.416   49.665   12.831    0.347
  362.250    0.435   49.675   12.835    0.348
  362.500    0.427   53.393   12.838    0.343
  362.750    0.443   54.026   12.841    0.340
  363.000    0.438   52.184   13.090    0.348
  363.250    0.458   48.491   13.344    0.349
  363.500    0.446   46.041   13.347    0.343
  363.750    0.427   46.052   13.607    0.338
  364.000    0.416   47.300   13.871    0.337
  364.250    0.402   48.543   13.873    0.329
  364.500    0.407   49.176   13.878    0.334
  364.750    0.443   48.570   13.881    0.329
  365.000    0.440   47.968   13.883    0.324
  365.250    0.449   47.362   13.888    0.320
  365.500    0.459   47.379   13.890    0.323
  365.750    0.469   48.006   13.894    0.319
  366.000    0.465   49.873   14.165    0.321
  366.250    0.452   49.885   14.168    0.329
  366.500    0.438   49.281   14.171    0.321
  366.750    0.426   49.916   14.446    0.319
  367.000    0.418   50.543   14.450    0.319
  367.250    0.417   50.554   14.454    0.316
  367.500    0.428   53.038   14.456    0.316
  367.750    0.455   54.286   14.459    0.324
  368.000    0.462   54.298   14.464    0.322
  368.250    0.470   53.696   14.468    0.315
  368.500    0.458   54.945   14.470    0.307
  368.750    0.463   54.337   14.473    0.309
  369.000    0.473   52.500   14.477    0.306
  369.250    0.490   50.044   14.481    0.302
  369.500    0.474   50.057   14.485    0.302
  369.750    0.444   50.688   14.489    0.307
  370.000    0.430   50.083   14.491    0.297
  370.250    0.429   49.477   14.495    0.289
  370.500    0.445   50.727   14.499    0.290
  370.750    0.439   54.449   14.503    0.300
  371.000    0.443   55.691   14.233    0.301
  371.250    0.445   56.323   14.237    0.306
  371.500    0.472   55.723   14.240    0.315
  371.750    0.443   55.117   14.243    0.325
  372.000    0.425   54.512   14.246    0.317
  372.250    0.423   53.909   14.251    0.310
  372.500    0.451   54.538   14.254    0.305
  372.750    0.470   57.023   14.258    0.311
  373.000    0.461   58.266   14.260    0.314
  373.250    0.437   59.513   14.265    0.314
  373.500    0.421   60.144   14.268    0.313
  373.750    0.422   58.924   14.272    0.307
  374.000    0.432   59.553   14.274    0.296
  374.250    0.390   62.038   14.552    0.297
  374.500    0.332   61.432   15.119    0.268
  374.750    0.314   58.362   15.411    0.194
  375.000    0.278   56.519   15.415    0.083
  375.250    0.420   57.154   15.715    0.160
  375.500    0.441   59.016   15.423    0.283
  375.750    0.452   59.645   14.853    0.302
  376.000    0.447   59.041   14.303    0.304
  376.250    0.453   57.820   13.261    0.308
  376.500    0.471   59.072   13.015    0.317
  376.750    0.462   59.081   12.773    0.308
  377.000    0.457   59.096   12.536    0.298
  377.250    0.461   60.960   12.303    0.292
  377.500    0.452   65.294   11.848    0.302
  377.750    0.448   69.627   11.628    0.308
  378.000    0.406   75.817   11.197    0.302
  378.250    0.390   78.296   10.382    0.293
  378.500    0.376   81.401    9.625    0.267
  378.750    0.412   82.646    8.924    0.241
  379.000    0.410   85.743    8.273    0.233
  379.250    0.416   90.077    6.590    0.251
  379.500    0.407   94.412    5.350    0.254
  379.750    0.408   98.132    4.426    0.241
  380.000    0.452   98.764    3.951    0.236
  380.250    0.508   98.771    3.395    0.253
  380.500    0.504   97.554    3.088    0.249
  380.750    0.495   99.419    2.757    0.249
  381.000    0.481  102.516    2.655    0.255
  381.250    0.469  105.615    2.557    0.264
  381.500    0.483  103.780    2.606    0.276
  381.750    0.479  101.320    2.708    0.258
  382.000    0.480   97.012    3.093    0.238
  382.250    0.465   92.090    3.812    0.224
  382.500    0.458   93.338    5.068    0.222
  382.750    0.474   97.055    6.129    0.220
  383.000    0.460   97.683    6.870    0.225
  383.250    0.450   96.461    7.274    0.217
  383.500    0.433   94.005    7.415    0.214
  383.750    0.407   92.167    7.141    0.207
  384.000    0.384   92.797    6.877    0.213
  384.250    0.369   93.430    6.749    0.204
  384.500    0.367   94.061    6.880    0.193
  384.750    0.369   94.688    6.882    0.183
  385.000    0.362   95.938    6.883    0.202
  385.250    0.397   95.949    6.629    0.193
  385.500    0.424   95.964    6.505    0.184
  385.750    0.482   96.593    6.032    0.180
  386.000    0.468   97.841    5.699    0.189
  386.250    0.463   97.854    5.284    0.206
  386.500    0.449   97.252    5.089    0.220
  386.750    0.420   96.645    5.187    0.222
  387.000    0.416   96.661    5.492    0.221
  387.250    0.462   95.439    6.041    0.220
  387.500    0.460   92.986    6.276    0.224
  387.750    0.511   89.291    6.645    0.232
  388.000    0.482   82.515    7.036    0.238
  388.250    0.437   78.208    7.310    0.255
  388.500    0.412   76.987    7.452    0.265
  388.750    0.370   79.474    7.041    0.263
  389.000    0.353   84.420    5.825    0.250
  389.250    0.338   90.606    4.912    0.241
  389.500    0.374   98.027    4.142    0.241
  389.750    0.396  102.360    3.628    0.254
  390.000    0.423  104.229    3.363    0.246
  390.250    0.431  104.857    3.178    0.238
  390.500    0.418  105.485    3.003    0.243
  390.750    0.426  107.967    2.837    0.252
  391.000    0.421  109.216    2.732    0.261
  391.250    0.410  108.614    2.582    0.263
  391.500    0.442  103.689    2.348    0.267
  391.750    0.468  107.410    2.018    0.255
  392.000    0.500  106.801    1.768    0.244
  392.250    0.521  103.109    1.639    0.239
  392.500    0.534  102.506    1.578    0.252
  392.750    0.525  105.605    1.640    0.269
  393.000    0.516  106.852    1.769    0.280
  393.250    0.509  106.248    2.099    0.268
  393.500    0.534  104.415    2.491    0.259
  393.750    0.543  103.193    2.688    0.258
  394.000    0.568  102.587    2.740    0.263
  394.250    0.519  101.984    2.793    0.255
  394.500    0.479  101.376    2.847    0.253
  394.750    0.455  102.631    3.015    0.246
  395.000    0.445  102.019    3.254    0.235
  395.250    0.432   98.949    3.511    0.227
  395.500    0.479   97.726    4.011    0.220
  395.750    0.486   98.358    4.328    0.212
  396.000    0.489   98.988    4.760    0.210
  396.250    0.467   95.913    5.649    0.236
  396.500    0.449   82.964    5.981    0.280
  396.750    0.438   75.570    6.454    0.282
  397.000    0.426   70.027    6.964    0.274
  397.250    0.429   66.954    7.516    0.272
  397.500    0.409   64.500    7.517    0.277
  397.750    0.418   63.898    7.103    0.281
  398.000    0.424   66.376    7.380    0.275
  398.250    0.369   76.266    8.117    0.215
  398.500    0.244   79.365    8.593    0.112
  398.750    0.214   70.120    9.273    0.078
  399.000    0.193   60.258    9.820    0.057
  399.250    0.215   65.208    9.822    0.044
  399.500    0.406   76.334    9.280    0.073
  399.750    0.430   82.517    8.442    0.219
  400.000    0.441   87.470    7.394    0.241
  400.250    0.431   89.338    7.121    0.226
  400.500    0.399   88.117    7.122    0.216
  400.750    0.392   86.275    7.260    0.219
  401.000    0.385   82.585    7.985    0.242
  401.250    0.409   80.128    8.296    0.266
  401.500    0.418   83.849    8.298    0.251
  401.750    0.428   85.093    8.144    0.243
  402.000    0.432   86.958    7.842    0.241
  402.250    0.440   86.971    7.552    0.252
  402.500    0.488   88.838    7.412    0.246
  402.750    0.498   89.467    7.138    0.242
  403.000    0.510   89.483    7.006    0.241
  403.250    0.500   88.875    6.876    0.247
  403.500    0.482   86.421    6.877    0.256
  403.750    0.482   82.730    6.879    0.264
  404.000    0.462   79.658    6.881    0.267
  404.250    0.434   79.054    6.753    0.273
  404.500    0.436   80.301    6.755    0.260
  404.750    0.422   81.547    6.629    0.253
  405.000    0.414   82.182    6.506    0.248
  405.250    0.448   82.193    6.032    0.244
