~VERSION INFORMATION
 VERS.                 2.0:   CWLS LOG ASCII STANDARD -VERSION 2.0
 WRAP.                  NO:   ONE LINE PER DEPTH STEP
~WELL INFORMATION BLOCK
#MNEM.UNIT           DATA                    DESCRIPTION OF MNEMONIC
#---------    -------------------            -------------------------------
# Generated from Intellog Unique Number	CS_77_79/WELL/994
WELL.         HB DOME LEISMER                : Well_name    - WELL
LOC .         00/11-11-078-11W4/0            : Location     - LOCATION
UWI .         00/11-11-078-11W4/0            : Uwi          - UNIQUE WELL ID
ENTR.         JHS                            : Entered      - ENTERED BY
SRVC.         SCHLUMBERGER                   : Scn          - SERVICE COMPANY
STRT.M        310                            : top_depth    - START DEPTH
STOP.M        495                            : bot_depth    - STOP DEPTH
STEP.M        0.25                           : increment    - STEP LENGTH
 NULL. -999.2500:NULL Value
~CURVE INFORMATION BLOCK
#MNEM UNIT       ERCB CURVE CODE    CURVE DESCRIPTION
#-----------   ------------------   ----------------------------------
DEPT.M        00 001 00 00         : DEPTH        - DEPTH
DPHI.V/V      00 890 00 00         : PHID         - DENSITY POROSITY (LIMESTONE)
NPHI.V/V      00 330 00 00         : PHIN         - NEUTRON POROSITY (LIMESTONE)
GR  .API      00 310 00 00         : GR           - GAMMA RAY
ILD .OHMM     00 120 00 00         : RESD         - DEEP RESISTIVITY (DIL)
~PARAMETER INFORMATION
#MNEM.UNIT           DATA             DESCRIPTION OF MNEMONIC
#---------         -----------     ------------------------------
GL  .M        683.78               : gl           - GROUND LEVEL ELEVATION
EREF.M        687.98               : kb           - ELEVATION OF DEPTH REFERENCE
DATM.M        687.98               : datum        - DATUM ELEVATION
TDD .M        598                  : tdd          - TOTAL DEPTH DRILLER
RUN .         ONE                  : Run          - RUN NUMBER
ENG .         BILL                 : Engineer     - RECORDING ENGINEER
WIT .         JIM                  : Witness      - WITNESSED BY
MUD .         GEL                  : Mud_type     - MUD TYPE
MATR.         LIMESTONE            : Logunit      - NEUTRON MATRIX
TMAX.C        24.4                 : BHT          - MAXIMUM RECORDED TEMPERATURE
BHTD.M        598                  : BHTDEP       - MAXIMUM RECORDED TEMPERATURE
MATR.         1                    : LOGUNIT      - NEUTRON MATRIX
RMT .C        25                   : MDTP         - TEMPERATURE OF MUD
NEUT.         1                    : NEUTRON      - NEUTRON TYPE
RESI.         0                    : RESIST       - RESISTIVITY TYPE
RMC .OHMM     0.25                 : RMC          - RESISTIVITY OF MUD CAKE
RMF .OHMM     0.25                 : RMF          - RESISTIVITY OF MUD FILTRATE
SUFT.C        15                   : SUFT         - SURFACE TEMPERATURE
~A  DEPTH     PHID     PHIN       GR     RESD
  310.000    0.175    0.446   99.583    7.637
  310.250    0.166    0.411   97.115    7.640
  310.500    0.166    0.407   93.415    7.645
  310.750    0.173    0.414   97.093    7.650
  311.000    0.167    0.416   97.083    7.656
  311.250    0.158    0.426   94.000    7.660
  311.500    0.156    0.424   92.762    7.811
  311.750    0.171    0.422   95.209    7.815
  312.000    0.188    0.434   95.814    7.969
  312.250    0.175    0.433   93.960    7.976
  312.500    0.161    0.422   90.878    7.980
  312.750    0.155    0.421   86.564    7.983
  313.000    0.176    0.429   85.326    7.989
  313.250    0.182    0.434   93.921    7.845
  313.500    0.171    0.440   96.984    7.561
  313.750    0.176    0.442   93.285    7.425
  314.000    0.171    0.429   90.204    7.430
  314.250    0.169    0.437   87.734    7.718
  314.500    0.179    0.453   79.119    8.328
  314.750    0.185    0.463   62.511    9.329
  315.000    0.197    0.449   64.959   10.256
  315.250    0.221    0.466   80.318   11.275
  315.500    0.237    0.480   83.382   11.938
  315.750    0.251    0.484   82.143   12.405
  316.000    0.255    0.485   83.977   12.411
  316.250    0.240    0.482   84.582   12.188
  316.500    0.208    0.473   85.186   11.744
  316.750    0.202    0.476   88.864   10.899
  317.000    0.256    0.469   91.927   10.116
  317.250    0.276    0.475   89.459    9.388
  317.500    0.281    0.469   83.302    9.394
  317.750    0.288    0.446   75.915    9.947
  318.000    0.281    0.427   77.749   10.732
  318.250    0.279    0.424   77.740   11.363
  318.500    0.283    0.431   77.730   11.804
  318.750    0.263    0.441   82.636   12.036
  319.000    0.250    0.449   84.470   11.600
  319.250    0.252    0.457   82.618   11.607
  319.500    0.254    0.432   79.533   11.616
  319.750    0.244    0.415   80.754   11.193
  320.000    0.225    0.437   86.889   10.387
  320.250    0.209    0.486   88.724    9.459
  320.500    0.179    0.498   87.486    7.991
  320.750    0.162    0.466   89.320    7.142
  321.000    0.206    0.459   91.152    6.629
  321.250    0.241    0.461   87.454    6.633
  321.500    0.257    0.456   80.683    6.764
  321.750    0.264    0.455   75.755    7.028
  322.000    0.283    0.490   69.599    7.439
  322.250    0.311    0.504   53.607    8.179
  322.500    0.321    0.453   46.836    8.991
  322.750    0.326    0.424   46.211   10.460
  323.000    0.347    0.442   50.504   12.168
  323.250    0.424    0.499   49.262   13.630
  323.500    0.380    0.576   48.639   14.431
  323.750    0.307    0.495   47.399   14.994
  324.000    0.296    0.438   46.160   16.179
  324.250    0.312    0.423   51.068   17.455
  324.500    0.322    0.422   51.059   18.832
  324.750    0.320    0.433   48.590   19.565
  325.000    0.320    0.423   47.964   19.950
  325.250    0.330    0.422   49.184   20.730
  325.500    0.336    0.424   52.862   21.139
  325.750    0.341    0.424   52.852   21.147
  326.000    0.353    0.417   51.614   21.568
  326.250    0.363    0.425   50.374   21.576
  326.500    0.365    0.438   49.749   22.007
  326.750    0.362    0.435   50.353   21.603
  327.000    0.355    0.444   50.343   22.028
  327.250    0.355    0.443   53.406   22.046
  327.500    0.360    0.444   55.241   22.062
  327.750    0.364    0.447   55.847   22.070
  328.000    0.365    0.433   56.452   22.091
  328.250    0.360    0.423   58.286   22.100
  328.500    0.357    0.440   59.505   21.703
  328.750    0.358    0.461   55.808   21.720
  329.000    0.353    0.464   55.182   21.328
  329.250    0.352    0.454   57.017   20.941
  329.500    0.358    0.443   58.237   20.952
  329.750    0.364    0.441   56.381   20.574
  330.000    0.366    0.433   54.528   20.204
  330.250    0.370    0.429   52.058   19.842
  330.500    0.366    0.445   55.737   19.854
  330.750    0.367    0.425   55.727   19.497
  331.000    0.372    0.411   56.331   19.142
  331.250    0.375    0.420   57.550   18.798
  331.500    0.367    0.450   56.926   18.461
  331.750    0.356    0.475   54.457   18.130
  332.000    0.351    0.470   53.834   18.140
  332.250    0.352    0.454   55.053   17.815
  332.500    0.352    0.442   55.041   17.494
  332.750    0.352    0.428   56.264   17.504
  333.000    0.347    0.416   59.941   17.189
  333.250    0.355    0.420   59.932   17.200
  333.500    0.360    0.436   56.848   17.207
  333.750    0.367    0.442   59.297   16.898
  334.000    0.373    0.440   62.360   17.233
  334.250    0.367    0.440   59.277   17.245
  334.500    0.357    0.447   58.652   17.255
  334.750    0.368    0.453   59.255   17.592
  335.000    0.372    0.452   59.247   17.601
  335.250    0.366    0.443   57.393   17.947
  335.500    0.361    0.446   56.154   17.963
  335.750    0.359    0.461   56.144   17.640
  336.000    0.357    0.461   55.519   17.645
  336.250    0.359    0.462   53.665   17.329
  336.500    0.365    0.471   51.196   17.340
  336.750    0.369    0.469   50.572   17.352
  337.000    0.366    0.452   51.177   17.363
  337.250    0.367    0.457   53.008   17.376
  337.500    0.364    0.487   52.999   17.390
  337.750    0.358    0.477   52.375   17.395
  338.000    0.359    0.461   51.751   17.083
  338.250    0.358    0.458   51.741   17.093
  338.500    0.361    0.472   50.501   17.105
  338.750    0.370    0.474   50.490   17.115
  339.000    0.366    0.471   51.097   17.128
  339.250    0.371    0.472   49.857   16.816
  339.500    0.372    0.468   45.544   16.513
  339.750    0.364    0.420   46.763   15.914
  340.000    0.347    0.371   50.442   15.626
  340.250    0.328    0.326   51.045   15.347
  340.500    0.353    0.379   50.423   15.356
  340.750    0.368    0.436   49.796   15.365
  341.000    0.371    0.455   51.015   15.665
  341.250    0.364    0.465   51.620   15.975
  341.500    0.354    0.459   50.998   15.685
  341.750    0.352    0.456   53.446   14.836
  342.000    0.360    0.477   57.125   14.295
  342.250    0.365    0.498   57.115   14.305
  342.500    0.358    0.503   50.956   14.315
  342.750    0.346    0.494   50.948   14.323
  343.000    0.356    0.453   53.395   14.605
  343.250    0.364    0.434   53.384   14.613
  343.500    0.357    0.445   55.221   14.625
  343.750    0.354    0.458   57.666   14.911
  344.000    0.359    0.436   57.660   14.920
  344.250    0.369    0.443   55.191   15.214
  344.500    0.367    0.452   51.492   15.225
  344.750    0.368    0.455   50.868   15.232
  345.000    0.374    0.470   52.701   15.244
  345.250    0.378    0.491   55.151   14.968
  345.500    0.377    0.480   56.983   14.700
  345.750    0.375    0.457   56.972   14.434
  346.000    0.377    0.463   54.507   14.172
  346.250    0.371    0.465   50.808   13.918
  346.500    0.362    0.458   53.257   13.411
  346.750    0.352    0.464   55.707   12.447
  347.000    0.346    0.475   55.695   11.772
  347.250    0.339    0.487   53.842   11.131
  347.500    0.344    0.503   53.831   10.331
  347.750    0.373    0.505   54.437   10.146
  348.000    0.376    0.478   56.271   10.344
  348.250    0.369    0.465   58.106   10.547
  348.500    0.368    0.459   55.021   11.168
  348.750    0.366    0.486   55.012   11.174
  349.000    0.361    0.501   58.688   10.769
  349.250    0.350    0.461   58.680   10.377
  349.500    0.345    0.463   56.212    9.999
  349.750    0.346    0.477   55.584    9.636
  350.000    0.346    0.486   53.733    9.114
  350.250    0.347    0.491   50.034    8.783
  350.500    0.355    0.473   51.869    8.625
  350.750    0.351    0.505   54.315    8.469
  351.000    0.346    0.531   53.690    8.636
  351.250    0.346    0.528   54.298    8.804
  351.500    0.360    0.491   54.902    9.323
  351.750    0.373    0.469   54.278    9.686
  352.000    0.375    0.466   55.496    9.876
  352.250    0.370    0.478   58.562    9.883
  352.500    0.356    0.458   64.698    9.524
  352.750    0.310    0.458   70.220    8.839
  353.000    0.287    0.483   73.285    8.203
  353.250    0.283    0.496   78.191    7.194
