~VERSION INFORMATION
 VERS.                 2.0:   CWLS LOG ASCII STANDARD -VERSION 2.0
 WRAP.                  NO:   ONE LINE PER DEPTH STEP
~WELL INFORMATION BLOCK
#MNEM.UNIT           DATA                    DESCRIPTION OF MNEMONIC
#---------    -------------------            -------------------------------
# Generated from Intellog Unique Number	CS_67_68/WELL/855
WELL.         FISHER CREEK                   : Well_name    - WELL
LOC .         00/14-05-068-07W4/0            : Location     - LOCATION
UWI .         00/14-05-068-07W4/0            : Uwi          - UNIQUE WELL ID
ENTR.         S608.1                         : Entered      - ENTERED BY
SRVC.         SCHLUMBERGER                   : Scn          - SERVICE COMPANY
STRT.M        280                            : top_depth    - START DEPTH
STOP.M        510                            : bot_depth    - STOP DEPTH
STEP.M        0.25                           : increment    - STEP LENGTH
 NULL. -999.2500:NULL Value
~CURVE INFORMATION BLOCK
#MNEM UNIT       ERCB CURVE CODE    CURVE DESCRIPTION
#-----------   ------------------   ----------------------------------
DEPT.M        00 001 00 00         : DEPTH        - DEPTH
ILD .OHMM     00 120 00 00         : RESD         - DEEP RESISTIVITY (DIL)
DPHI.V/V      00 890 00 00         : PHID         - DENSITY POROSITY (LIMESTONE)
NPHI.V/V      00 330 00 00         : PHIN         - NEUTRON POROSITY (LIMESTONE)
GR  .API      00 310 00 00         : GR           - GAMMA RAY
~PARAMETER INFORMATION
#MNEM.UNIT           DATA             DESCRIPTION OF MNEMONIC
#---------         -----------     ------------------------------
GL  .M        608.1                : gl           - GROUND LEVEL ELEVATION
EREF.M        611.71               : kb           - ELEVATION OF DEPTH REFERENCE
DATM.M        608.1                : datum        - DATUM ELEVATION
TDD .M        519.5                : tdd          - TOTAL DEPTH DRILLER
RUN .         ONE                  : Run          - RUN NUMBER
ENG .         BILL                 : Engineer     - RECORDING ENGINEER
WIT .         JIM                  : Witness      - WITNESSED BY
MUD .         GEL                  : Mud_type     - MUD TYPE
MATR.         LIMESTONE            : Logunit      - NEUTRON MATRIX
TMAX.C        25                   : BHT          - MAXIMUM RECORDED TEMPERATURE
BHTD.M        519.5                : BHTDEP       - MAXIMUM RECORDED TEMPERATURE
MATR.         1                    : LOGUNIT      - NEUTRON MATRIX
RMT .C        25                   : MDTP         - TEMPERATURE OF MUD
NEUT.         1                    : NEUTRON      - NEUTRON TYPE
RESI.         0                    : RESIST       - RESISTIVITY TYPE
RMC .OHMM     0.25                 : RMC          - RESISTIVITY OF MUD CAKE
RMF .OHMM     0.25                 : RMF          - RESISTIVITY OF MUD FILTRATE
SUFT.C        15                   : SUFT         - SURFACE TEMPERATURE
~A  DEPTH     RESD     PHID     PHIN       GR
  280.000    3.080    0.287    0.439   99.758
  280.250    3.014    0.301    0.436   94.993
  280.500    2.965    0.317    0.442   95.186
  280.750    2.950    0.334    0.455  102.540
  281.000    2.946    0.359    0.441  103.713
  281.250    2.965    0.346    0.438  105.497
  281.500    2.989    0.321    0.443  110.831
  281.750    3.025    0.300    0.443  109.433
  282.000    3.044    0.283    0.421  107.545
  282.250    3.063    0.286    0.412  112.022
  282.500    3.100    0.293    0.413  105.117
  282.750    3.202    0.298    0.419  106.656
  283.000    3.334    0.270    0.417  108.624
  283.250    3.530    0.221    0.414   99.516
  283.500    3.654    0.200    0.397   93.526
  283.750    3.608    0.210    0.406   93.597
  284.000    3.457    0.241    0.417  100.339
  284.250    3.313    0.258    0.423   95.086
  284.500    3.204    0.269    0.421   91.117
  284.750    3.117    0.274    0.419   98.225
  285.000    3.136    0.272    0.420  102.152
  285.250    3.210    0.256    0.419   99.285
  285.500    3.477    0.252    0.417   96.480
  285.750    4.403    0.234    0.390   89.696
  286.000    5.472    0.326    0.370   78.629
  286.250    6.761    0.363    0.218   61.441
  286.500    8.709    0.382    0.188   49.026
  286.750   10.803    0.396    0.182   55.646
  287.000   12.783    0.408    0.187   61.103
  287.250   11.190    0.411    0.234   64.232
  287.500    8.965    0.387    0.264   57.450
  287.750    7.542    0.364    0.292   53.236
  288.000    6.442    0.336    0.328   49.574
  288.250    5.639    0.322    0.358   55.886
  288.500    5.039    0.323    0.374   66.973
  288.750    4.801    0.327    0.381   74.511
  289.000    4.759    0.327    0.373   79.784
  289.250    4.834    0.326    0.372   82.853
  289.500    5.014    0.315    0.386   82.986
  289.750    5.229    0.297    0.375   83.300
  290.000    5.443    0.279    0.364   90.594
  290.250    5.603    0.265    0.376   97.151
  290.500    5.745    0.245    0.384  102.118
  290.750    5.869    0.232    0.384  103.474
  291.000    5.918    0.219    0.382  106.176
  291.250    5.921    0.219    0.384  112.429
  291.500    5.903    0.263    0.391  115.131
  291.750    5.928    0.282    0.397  105.043
  292.000    5.977    0.292    0.401   98.503
  292.250    6.105    0.287    0.404   94.351
  292.500    6.261    0.268    0.404  100.543
  292.750    6.265    0.252    0.377  105.325
  293.000    6.198    0.237    0.358  100.930
  293.250    6.053    0.227    0.367   95.919
  293.500    5.988    0.219    0.389  102.722
  293.750    5.935    0.215    0.389  106.404
  294.000    5.917    0.239    0.393  103.354
  294.250    5.954    0.265    0.402   97.428
  294.500    6.014    0.280    0.385   94.070
  294.750    6.109    0.273    0.377   90.715
  295.000    6.241    0.268    0.388   93.172
  295.250    6.365    0.277    0.422   97.712
  295.500    6.393    0.287    0.452  100.168
  295.750    6.396    0.342    0.463  100.239
  296.000    6.411    0.457    0.475   93.089
  296.250    6.488    0.500    0.488   86.794
  296.500    6.554    0.364    0.508   80.928
  296.750    6.559    0.329    0.369   93.606
  297.000    6.464    0.309    0.384   99.613
  297.250    6.335    0.295    0.400  101.765
  297.500    6.139    0.282    0.414  103.488
  297.750    5.894    0.277    0.416   94.930
  298.000    5.658    0.276    0.397   88.207
  298.250    5.524    0.281    0.402   83.504
  298.500    5.445    0.295    0.418   85.167
  298.750    5.438    0.312    0.404   75.689
  299.000    5.462    0.328    0.390   61.378
  299.250    5.497    0.336    0.382   53.309
  299.500    5.407    0.338    0.387   48.484
  299.750    5.279    0.336    0.376   49.718
  300.000    5.145    0.327    0.364   55.970
  300.250    5.034    0.322    0.380   66.445
  300.500    4.943    0.317    0.387   73.921
  300.750    4.827    0.318    0.378   79.438
  301.000    4.793    0.322    0.375   73.144
  301.250    4.760    0.329    0.377   69.849
  301.500    4.755    0.338    0.378   69.797
  301.750    4.765    0.343    0.386   60.076
  302.000    4.769    0.349    0.381   52.864
  302.250    4.771    0.352    0.369   46.570
  302.500    4.747    0.355    0.368   45.235
  302.750    4.697    0.356    0.381   45.245
  303.000    4.664    0.356    0.389   46.294
  303.250    4.624    0.352    0.391   48.263
  303.500    4.574    0.347    0.391   50.413
  303.750    4.551    0.344    0.378   51.586
  304.000    4.554    0.342    0.372   51.717
  304.250    4.592    0.341    0.373   49.706
  304.500    4.620    0.339    0.380   46.473
  304.750    4.650    0.339    0.383   44.525
  305.000    4.670    0.340    0.385   45.207
  305.250    4.708    0.342    0.381   48.276
  305.500    4.729    0.345    0.375   48.959
  305.750    4.741    0.348    0.368   52.396
  306.000    4.725    0.352    0.362   57.303
  306.250    4.711    0.355    0.361   60.801
  306.500    4.688    0.359    0.378   64.481
  306.750    4.672    0.361    0.384   63.389
  307.000    4.641    0.364    0.382   52.935
  307.250    4.573    0.364    0.387   47.068
  307.500    4.508    0.362    0.395   52.587
  307.750    4.485    0.358    0.422   54.493
  308.000    4.505    0.355    0.421   56.276
  308.250    4.585    0.341    0.396   70.179
  308.500    4.657    0.324    0.394   78.328
  308.750    4.803    0.311    0.402   85.254
  309.000    4.925    0.311    0.404   91.934
  309.250    5.050    0.319    0.393   95.004
  309.500    5.149    0.310    0.378   90.606
  309.750    5.211    0.293    0.359   87.189
  310.000    5.205    0.287    0.380   87.382
  310.250    5.218    0.296    0.393   83.415
  310.500    5.271    0.305    0.391   80.732
  310.750    5.284    0.308    0.385   80.250
  311.000    5.268    0.311    0.386   87.543
  311.250    5.260    0.318    0.395   84.616
  311.500    5.264    0.319    0.401   88.052
  311.750    5.277    0.313    0.407   93.937
  312.000    5.341    0.306    0.411   97.067
  312.250    5.425    0.301    0.404   94.995
  312.500    5.562    0.298    0.390   87.478
  312.750    5.725    0.308    0.390   82.775
  313.000    5.916    0.311    0.400   86.457
  313.250    6.090    0.300    0.402   82.366
  313.500    6.174    0.289    0.399   77.663
  313.750    6.212    0.280    0.414   75.775
  314.000    6.310    0.288    0.425   78.293
  314.250    6.410    0.303    0.408   75.549
  314.500    6.575    0.307    0.403   71.336
  314.750    6.627    0.297    0.404   69.510
  315.000    6.682    0.293    0.396   70.254
  315.250    6.762    0.301    0.393   69.223
  315.500    6.882    0.307    0.395   70.153
  315.750    6.991    0.311    0.399   72.303
  316.000    7.196    0.316    0.383   74.638
  316.250    7.420    0.295    0.386   76.912
  316.500    7.916    0.172    0.307   77.349
  316.750    8.654    0.142    0.267   76.808
  317.000   10.032    0.121    0.241   75.411
  317.250   11.302    0.105    0.226   71.932
  317.500   12.711    0.093    0.214   70.043
  317.750   13.740    0.078    0.203   73.725
  318.000   14.853    0.080    0.215   74.775
  318.250   14.286    0.146    0.240   69.888
  318.500   11.929    0.203    0.288   64.758
  318.750   10.228    0.270    0.322   65.195
  319.000    9.054    0.305    0.361   71.325
  319.250    7.866    0.309    0.410   72.375
  319.500    7.217    0.303    0.394   76.792
  319.750    6.438    0.300    0.412   85.124
  320.000    5.951    0.297    0.424   92.662
  320.250    5.606    0.296    0.431   97.995
  320.500    5.484    0.300    0.434  101.432
  320.750    5.456    0.304    0.432   97.096
  321.000    5.419    0.298    0.425   81.499
  321.250    5.361    0.287    0.423   77.042
  321.500    5.235    0.278    0.432   84.091
  321.750    5.045    0.278    0.445   88.935
  322.000    4.944    0.310    0.450   92.372
  322.250    4.846    0.322    0.429   93.237
  322.500    4.740    0.327    0.425   95.205
  322.750    4.699    0.333    0.434   99.500
  323.000    4.702    0.341    0.440  102.140
  323.250    4.705    0.331    0.419  104.292
